     2.11           OBSERVATION DATA    G (GPS)             RINEX VERSION / TYPE
teqc  2008Oct2      gpsops              20090102 00:09:56UTCPGM / RUN BY / DATE
    30.0000                                                 INTERVAL
     1     1                                                WAVELENGTH FACT L1/2
     7    L1    L2    P1    P2    C1    S1    S2            # / TYPES OF OBSERV
Linux 2.4.20-8|Pentium IV|gcc -static|Linux|486/DX+         COMMENT
     2.10           OBSERVATION DATA    GPS                 COMMENT
soc2rnx ver 1.20    gpsops               2-Jan-2009 00:09:43COMMENT
S1, if present, is the SNR for the C/A data stream on L1.   COMMENT
 SNR is mapped to RINEX snr flag value [1,4-9]              COMMENT
    SNR:   >316  >100  >31.6  >10  >3.2    >0 bad=0         COMMENT
L1 & L2:      9     8     7     6     5     4     1         COMMENT
                                                            COMMENT
This data is provided as a public service by NASA/JPL.      COMMENT
No warranty is expressed or implied regarding suitability   COMMENT
for use.  For further information, contact:                 COMMENT
Dave Stowers, NASA/JPL m/s 238-600                          COMMENT
4800 Oak Grove Drive, Pasadena CA 91109 USA                 COMMENT
                                                            COMMENT
Forced Modulo Decimation to 30 seconds                      COMMENT
  2009     1     1     0     0    0.0000000     GPS         TIME OF FIRST OBS
GGN                 JPL                                     OBSERVER / AGENCY
CR519992104         ASH701945B_M    SCIT                    ANT # / TYPE
   -33801.4662 -6377516.5323   -82154.3508                  APPROX POSITION XYZ
        0.0083        0.0000        0.0000                  ANTENNA: DELTA H/E/N
ZR220013847         ASHTECH UZ-12       CQ00                REC # / TYPE / VERS
GLPS                                                        MARKER NAME
42005M002                                                   MARKER NUMBER
                                                            END OF HEADER
 09  1  1  0  0  0.0000000  0 11G12G15G18G 9G22G14G 5G30G21G24G29
 127580679.37747  99413499.53947  24277808.9834   24277811.9304   24277808.1494
        43.000          38.000
 130289342.73147 101524161.59447  24793237.5694   24793244.5374   24793238.8184
        38.000          34.000
 124837682.07147  97276108.76747  23755827.1654   23755828.3284   23755825.9214
        45.000          38.000
 112620933.66747  87756554.59547  21431062.4244   21431065.5514   21431062.4414
        53.000          47.000
 128253585.96847  99937834.64147  24405865.9684   24405865.6514   24405865.9944
        43.000          37.000
 118103192.41647  92028447.59947  22474299.9064   22474301.8594   22474299.9354
        48.000          42.000
 125596071.04847  97867050.43447  23900151.6034   23900154.6634   23900152.8254
        45.000          39.000
 124069718.91647  96677693.42647  23609689.0094   23609693.2634   23609689.1114
        46.000          40.000
 115929440.21047  90334624.95947  22060642.6674   22060643.5804   22060642.8534
        51.000          44.000
 112851364.75847  87936104.45947  21474918.8584   21474922.7844   21474918.8494
        53.000          47.000
 109376000.33947  85228047.25647  20813563.4854   20813565.8684   20813563.1534
        53.000          49.000
 09  1  1  0  0 30.0000000  0 11G12G15G18G 9G22G14G 5G30G21G24G29
 127594802.68447  99424504.73547  24280496.2844   24280499.8974   24280496.1404
        44.000          38.000
 140387985.87957  91601016.24957  24812017.5755   24812020.3395   24812017.0435
        37.000          33.000
 124842470.29347  97279839.90047  23756736.2844   23756738.7844   23756736.8894
        45.000          38.000
 112620744.95047  87756407.56547  21431026.3214   21431029.6244   21431026.5044
        52.000          47.000
 128254434.72547  99938496.10447  24406027.8494   24406029.2344   24406027.1864
        44.000          37.000
 118051931.41547  91988504.00247  22464545.6724   22464548.7434   22464545.9144
        48.000          42.000
 125595956.07447  97866960.85747  23900129.7874   23900134.1004   23900130.4724
        45.000          39.000
 124072407.28047  96679788.31447  23610201.3744   23610204.7544   23610200.8524
        46.000          40.000
 115844719.30547  90268608.68847  22044520.4594   22044521.9544   22044520.9584
        51.000          44.000
 112829230.11547  87918856.68547  21470706.9434   21470711.0124   21470707.0494
        53.000          47.000
 109424002.60547  85265451.61747  20822697.5994   20822700.5204   20822697.2964
        53.000          49.000
 09  1  1  0  1  0.0000000  0 11G12G15G18G 9G22G14G 5G30G21G24G29
 127608741.95447  99435366.52347  24283149.3084   24283152.4664   24283149.0684
        44.000          38.000
 120486581.23257 111677842.89757  24830779.7995   24830782.1645   24830778.5845
        38.000          34.000
 124847062.61547  97283418.36247  23757610.9464   23757613.2644   23757611.4874
        46.000          38.000
 112621042.83447  87756639.70747  21431082.6474   21431086.3504   21431082.6994
        53.000          47.000
 128255190.98047  99939085.48547  24406170.9794   24406173.2164   24406171.1664
        43.000          38.000
 118001128.61147  91948917.43647  22454877.7784   22454881.3844   22454878.0464
        47.000          42.000
 125595649.23947  97866721.77547  23900070.8414   23900075.9654   23900070.8314
        44.000          39.000
 124074871.27047  96681708.34147  23610670.0084   23610673.5784   23610669.1454
        46.000          40.000
 115760093.55647  90202666.56847  22028416.3544   22028418.2874   22028416.9104
        51.000          45.000
 112807435.30847  87901873.72847  21466559.5604   21466563.4004   21466559.8604
        54.000          47.000
 109472389.75347  85303155.88447  20831905.4634   20831908.2604   20831905.1914
        53.000          49.000
 09  1  1  0  1 30.0000000  0 11G12G15G18G 9G22G14G 5G30G21G24G29
 127622500.34447  99446087.32647  24285767.4034   24285771.0224   24285767.3184
        44.000          39.000
 140585021.74457  91754539.57957  24849520.3895   24849525.8955   24849521.7955
        37.000          33.000
 124851460.14547  97286845.03247  23758447.9594   23758449.9494   23758447.9104
        45.000          38.000
 112621831.22947  87757254.06547  21431232.5934   21431236.2584   21431232.6384
        53.000          47.000
 128255855.25847  99939603.22047  24406297.5674   24406299.5314   24406297.8354
        43.000          38.000
 117950787.35847  91909690.51847  22445298.4164   22445301.5944   22445298.3624
        48.000          42.000
 125595153.45247  97866335.44647  23899976.8084   23899981.3164   23899976.8474
        44.000          39.000
 124077113.34747  96683455.38847  23611096.4504   23611100.2604   23611095.9294
        46.000          40.000
 115675567.84047  90136802.38047  22012331.7264   22012333.6784   22012331.9874
        51.000          44.000
 112785984.63847  87885158.93347  21462477.6204   21462481.5994   21462477.7144
        53.000          47.000
 109521161.42547  85341159.78047  20841186.3844   20841188.9214   20841186.1464
        53.000          49.000
 09  1  1  0  2  0.0000000  0 10G12G18G 9G22G14G 5G30G21G24G29
 127636078.28747  99456667.56347  24288350.7074   24288354.6884   24288350.4874
        43.000          38.000
 124855661.89347  97290119.16447  23759247.3634   23759249.3974   23759247.7314
        46.000          39.000
 112623111.14747  87758251.42347  21431476.3584   21431479.8804   21431476.4844
        53.000          47.000
 128256425.82047  99940047.89947  24406406.5004   24406407.5044   24406406.2034
        44.000          38.000
 117900908.05747  91870823.57247  22435806.4824   22435809.7734   22435807.0404
        47.000          42.000
 125594469.34047  97865802.37347  23899846.6964   23899850.9724   23899847.0744
        44.000          39.000
 124079133.21447  96685029.31047  23611480.9954   23611484.7174   23611480.8244
        46.000          40.000
 115591145.25447  90071018.55347  21996266.6624   21996268.5304   21996266.7984
        51.000          44.000
 112764879.72547  87868713.55247  21458461.2674   21458465.3844   21458461.4144
        53.000          47.000
 109570314.74447  85379461.05847  20850539.7994   20850542.4394   20850539.4714
        53.000          49.000
 09  1  1  0  2 30.0000000  0 11G12G15G18G 9G22G14G 5G30G21G24G29
 127649475.89147  99467107.27447  24290900.0554   24290904.0214   24290900.2034
        43.000          38.000
 120781793.34757 111907888.06057  24886949.4255   24886950.0035   24886949.0135
        37.000          33.000
 124859666.56847  97293239.72547  23760009.5324   23760011.0864   23760009.7254
        46.000          39.000
 112624882.62747  87759631.81747  21431813.2614   21431816.7514   21431813.4574
        53.000          47.000
 128256899.77547  99940417.32147  24406496.5624   24406497.9484   24406496.9674
        43.000          37.000
 117851490.77347  91832316.62647  22426402.6234   22426405.7904   22426402.8374
        48.000          42.000
 125593596.65647  97865122.36647  23899680.9384   23899684.6334   23899681.2404
        45.000          39.000
 124080929.47847  96686429.02147  23611822.7814   23611826.5434   23611822.5634
        46.000          40.000
 115506827.75847  90005316.62247  21980221.6774   21980223.4944   21980222.1384
        51.000          44.000
 112744121.65747  87852538.44747  21454511.1314   21454515.2364   21454511.1284
        53.000          47.000
 109619846.25147  85418057.03847  20859965.4654   20859968.1874   20859965.1794
        53.000          49.000
 09  1  1  0  3  0.0000000  0 10G12G18G 9G22G14G 5G30G21G24G29
 127662697.02647  99477409.47047  24293416.4824   24293420.3244   24293416.0984
        43.000          38.000
 124863475.95847  97296208.11447  23760734.5674   23760736.3384   23760734.8544
        46.000          39.000
 112627150.67447  87761399.14447  21432244.9544   21432248.3394   21432245.0814
        52.000          47.000
 128257278.76047  99940712.73947  24406567.4514   24406569.5594   24406567.6134
        42.000          37.000
 117802539.43147  91794172.77047  22417087.9594   22417090.8164   22417088.1614
        48.000          42.000
 125592539.47847  97864298.61447  23899479.8454   23899483.5464   23899480.5584
        45.000          39.000
 124082505.07747  96687656.75547  23612122.6304   23612126.6764   23612122.6924
        46.000          40.000
 115422621.36847  89939701.27247  21964197.5864   21964199.4114   21964197.9484
        51.000          44.000
 112723715.45747  87836637.52647  21450627.8544   21450632.1334   21450628.0624
        53.000          47.000
 109669756.91347  85456948.45747  20869463.2184   20869465.9424   20869463.0064
        54.000          49.000
 09  1  1  0  3 30.0000000  0 10G12G18G 9G22G14G 5G30G21G24G29
 127675738.15847  99487571.41847  24295897.8224   24295901.4014   24295897.9974
        42.000          38.000
 124867085.34847  97299020.64947  23761421.1594   23761423.5534   23761422.0074
        46.000          39.000
 112629912.39747  87763551.14847  21432770.5734   21432773.7694   21432770.5994
        53.000          47.000
 128257557.22647  99940929.83147  24406621.4104   24406622.4824   24406621.2464
        44.000          37.000
 117754050.71847  91756389.38947  22407860.4544   22407863.6324   22407860.5614
        48.000          42.000
 125591294.49847  97863328.52447  23899242.5874   23899246.8764   23899243.1454
        44.000          39.000
 124083855.82347  96688709.27547  23612379.8604   23612383.4774   23612379.6474
        46.000          40.000
 115338525.03447  89874171.67347  21948194.5864   21948196.2464   21948194.8454
        51.000          45.000
 112703659.19547  87821009.27447  21446811.4464   21446815.3714   21446811.5074
        53.000          47.000
 109720039.73447  85496129.87747  20879031.7164   20879034.4084   20879031.4224
        53.000          49.000
 09  1  1  0  4  0.0000000  0 10G12G18G 9G22G14G 5G30G21G24G29
 127688604.89747  99497597.46447  24298345.9564   24298350.5184   24298345.8714
        42.000          38.000
 124870498.66347  97301680.40047  23762070.8364   23762072.9794   23762071.6224
        46.000          39.000
 112633173.50847  87766092.29747  21433390.9084   21433394.3114   21433391.0424
        53.000          47.000
 128257737.96447  99941070.76847  24406655.2634   24406657.3294   24406655.8564
        43.000          37.000
 117706029.79447  91718970.51947  22398722.2934   22398725.7164   22398722.5784
        48.000          42.000
 125589866.90147  97862216.12847  23898971.2934   23898975.1644   23898970.8324
        44.000          39.000
 124084986.01347  96689589.93847  23612594.8134   23612598.2384   23612594.6634
        46.000          40.000
 115254546.00347  89808733.48647  21932213.7484   21932215.5924   21932214.2784
        51.000          45.000
 112683959.26147  87805658.67747  21443062.5754   21443066.9054   21443062.9194
        53.000          47.000
 109770696.70047  85535602.84547  20888671.2974   20888674.1914   20888670.8844
        53.000          49.000
 09  1  1  0  4 30.0000000  0 10G12G18G 9G22G14G 5G30G21G24G29
 127701294.16747  99507485.20847  24300760.7714   24300764.9584   24300760.2164
        43.000          38.000
 124873710.68347  97304183.32147  23762682.0164   23762684.2414   23762682.3384
        46.000          39.000
 112636931.25047  87769020.42447  21434106.0124   21434109.5674   21434106.0384
        52.000          46.000
 128257815.39447  99941131.19047  24406670.0464   24406671.4944   24406670.0164
        43.000          37.000
 117658473.13247  91681913.41047  22389672.4104   22389675.6774   22389672.5254
        48.000          42.000
 125588253.78147  97860959.15747  23898664.1924   23898668.6554   23898664.4864
        45.000          39.000
 124085892.38147  96690296.20947  23612766.7574   23612770.7834   23612767.1224
        45.000          40.000
 115170683.06847  89743385.74747  21916255.3324   21916256.9944   21916255.7434
        51.000          44.000
 112664613.75447  87790584.26047  21439381.4304   21439385.4284   21439381.4604
        53.000          47.000
 109821721.20247  85575362.20047  20898380.9714   20898383.8654   20898380.7604
        53.000          49.000
 09  1  1  0  5  0.0000000  0 10G12G18G 9G22G14G 5G30G21G24G29
 127713810.05347  99517237.87447  24303142.7004   24303146.3424   24303142.1944
        43.000          38.000
 124876724.05747  97306531.41947  23763255.4274   23763257.2884   23763255.9874
        46.000          39.000
 112641190.15947  87772339.07047  21434916.3774   21434920.0124   21434916.3664
        53.000          47.000
 128257790.81547  99941112.14547  24406665.1674   24406666.9254   24406665.5214
        42.000          37.000
 117611384.67047  91645221.13747  22380711.6624   22380715.0844   22380711.9404
        48.000          42.000
 125586458.90647  97859560.56747  23898322.2754   23898326.8384   23898323.0514
        45.000          39.000
 124086577.49747  96690830.09347  23612897.1724   23612901.5384   23612897.2274
        46.000          40.000
 115086942.65247  89678133.48147  21900319.9654   21900321.9224   21900320.4234
        51.000          45.000
 112645627.79447  87775790.00847  21435768.4094   21435772.6554   21435768.7064
        53.000          47.000
 109873113.70147  85615408.31447  20908160.7734   20908163.4474   20908160.5644
        53.000          49.000
 09  1  1  0  5 30.0000000  0 10G12G18G 9G22G14G 5G30G21G24G29
 127726150.59347  99526853.90547  24305491.4204   24305494.8044   24305491.7024
        43.000          38.000
 124879535.29647  97308722.03347  23763790.4354   23763792.5544   23763790.8294
        46.000          39.000
 112645948.52247  87776046.90247  21435821.9874   21435825.2614   21435821.9444
        53.000          47.000
 128257660.18747  99941010.42347  24406640.4604   24406642.1614   24406640.3064
        43.000          37.000
 117564762.85147  91608892.47947  22371840.1564   22371843.1744   22371840.2824
        48.000          42.000
 125584480.47047  97858018.95847  23897945.8494   23897950.2084   23897946.1364
        44.000          39.000
 124087038.56247  96691189.36147  23612985.0554   23612988.8704   23612984.6944
        46.000          40.000
 115003324.81747  89612976.74447  21884408.1314   21884410.0214   21884408.6214
        52.000          45.000
 112627000.57447  87761275.30447  21432223.5154   21432227.9864   21432223.6854
        53.000          47.000
 109924869.10747  85655737.20747  20918009.4424   20918012.2104   20918009.1004
        53.000          49.000
 09  1  1  0  6  0.0000000  0 10G12G18G 9G22G14G 5G30G21G24G29
 127738318.28147  99536335.25547  24307806.9364   24307810.0504   24307806.6694
        43.000          38.000
 124882145.27447  97310755.82247  23764286.8514   23764289.0354   23764287.1914
        45.000          39.000
 112651209.33747  87780146.24547  21436823.0614   21436826.5854   21436823.1734
        53.000          47.000
 128257423.40347  99940826.02047  24406595.0834   24406596.7054   24406595.2764
        41.000          37.000
 117518609.74347  91572929.05147  22363057.0074   22363060.4534   22363056.9874
        48.000          42.000
 125582321.08547  97856336.31647  23897534.9244   23897539.5114   23897535.1374
        45.000          39.000
 124087277.22947  96691375.33247  23613030.4164   23613034.2834   23613030.2984
        46.000          40.000
 114919834.32947  89547919.24347  21868520.3484   21868522.3454   21868520.7624
        51.000          45.000
 112608736.05947  87747043.21447  21428748.0584   21428752.2674   21428748.2364
        53.000          47.000
 109976986.55347  85696348.20247  20927927.0604   20927929.7594   20927926.9134
        53.000          49.000
 09  1  1  0  6 30.0000000  0 10G12G18G 9G22G14G 5G30G21G24G29
 127750314.07547  99545682.65147  24310089.5034   24310092.5834   24310089.2984
        43.000          38.000
 124884553.11447  97312632.09747  23764744.8194   23764747.3984   23764745.3244
        46.000          39.000
 112656973.60747  87784637.90747  21437920.0714   21437923.5664   21437920.2084
        53.000          47.000
 128257078.85647  99940557.62547  24406529.2174   24406531.2694   24406528.8214
        43.000          37.000
 117472925.50947  91537330.98147  22354364.1974   22354367.2564   22354364.1384
        48.000          42.000
 125579981.44847  97854513.23347  23897089.5824   23897094.2244   23897090.1024
        45.000          39.000
 124087293.46347  96691387.98747  23613033.6524   23613037.7604   23613033.3424
        46.000          40.000
 114836473.65647  89482962.88747  21852657.0404   21852659.1324   21852657.5274
        51.000          45.000
 112590835.34647  87733094.61447  21425341.6424   21425345.9004   21425341.7374
        53.000          47.000
 110029462.88247  85737238.84947  20937912.9174   20937915.6744   20937912.6124
        53.000          49.000
 09  1  1  0  7  0.0000000  0 10G12G18G 9G22G14G 5G30G21G24G29
 127762138.74547  99554896.73147  24312339.8804   24312342.8484   24312339.4574
        43.000          38.000
 124886757.77047  97314350.05147  23765164.5204   23765166.5814   23765164.7734
        45.000          39.000
 112663242.46447  87789522.75747  21439112.7094   21439116.4534   21439112.6504
        52.000          47.000
 128256624.80247  99940203.92747  24406442.9624   24406444.5794   24406443.2394
        41.000          37.000
 117427711.01247  91502098.93647  22345759.6774   22345763.2724   22345760.1364
        48.000          42.000
 125577462.60647  97852550.51947  23896610.3804   23896614.5014   23896610.1934
        45.000          39.000
 124087087.21047  96691227.30047  23612994.6604   23612998.2734   23612994.1994
        46.000          40.000
 114753246.15547  89418110.31247  21836819.4774   21836821.3984   21836819.7664
        51.000          45.000
 112573300.66347  87719431.23147  21422004.9694   21422009.0974   21422005.0694
        53.000          47.000
 110082295.70847  85778407.28747  20947966.5404   20947969.4234   20947966.2324
        53.000          49.000
 09  1  1  0  7 30.0000000  0 10G12G18G 9G22G14G 5G30G21G24G29
 127773792.71347  99563977.77547  24314557.0354   24314560.0354   24314557.1324
        44.000          38.000
 124888758.60347  97315909.15447  23765545.1734   23765547.2414   23765545.6954
        45.000          39.000
 112670016.65847  87794801.37547  21440401.9744   21440405.5124   21440402.1584
        52.000          47.000
 128256059.44047  99939763.47047  24406335.0074   24406337.3864   24406334.4824
        43.000          37.000
 117382966.48147  91467233.11147  22337245.0334   22337248.5354   22337245.1384
        48.000          42.000
 125574764.85647  97850448.38947  23896096.8684   23896101.2224   23896097.6654
        45.000          39.000
 124086658.27247  96690893.07247  23612912.8234   23612916.6834   23612912.9324
        46.000          40.000
 114670154.05547  89353363.23947  21821007.4614   21821009.5154   21821007.9334
        51.000          45.000
 112556133.45347  87706054.19047  21418738.2494   21418742.2284   21418738.3404
        54.000          47.000
 110135482.07447  85819851.20847  20958087.6964   20958090.5024   20958087.5364
        53.000          48.000
 09  1  1  0  8  0.0000000  0 10G12G18G 9G22G14G 5G30G21G24G29
 127785277.88247  99572927.27347  24316742.9054   24316745.6454   24316742.8744
        44.000          38.000
 124890555.53347  97317309.37947  23765887.2254   23765889.4214   23765887.5414
        45.000          39.000
 112677297.89447  87800475.08947  21441787.5004   21441790.8454   21441787.5024
        53.000          47.000
 128255381.81647  99939235.56447  24406206.6334   24406207.5624   24406206.7314
        44.000          38.000
 117338693.18847  91432734.47547  22328819.9764   22328823.9014   22328820.2544
        49.000          43.000
 125571889.97547  97848208.24147  23895549.4974   23895553.9524   23895550.2924
        46.000          39.000
 124086007.15947  96690385.73947  23612788.8294   23612792.6594   23612788.6994
        46.000          40.000
 114587201.22747  89288724.67347  21805222.0954   21805224.2014   21805222.4314
        51.000          45.000
 112539336.26547  87692965.48247  21415541.7024   21415545.8594   21415541.9294
        53.000          47.000
 110189020.06647  85861569.11847  20968275.8764   20968278.3714   20968275.7054
        53.000          48.000
 09  1  1  0  8 30.0000000  0 10G12G18G 9G22G14G 5G30G21G24G29
 127796594.22247  99581745.22147  24318895.8664   24318899.0964   24318896.3254
        42.000          38.000
 124892146.67147  97318549.26747  23766189.8164   23766192.0184   23766190.0004
        45.000          39.000
 112685086.15147  87806543.88947  21443269.4084   21443272.9144   21443269.6574
        53.000          47.000
 128254588.92647  99938617.82147  24406054.2374   24406056.7534   24406054.5634
        43.000          37.000
 117294890.30847  91398602.39747  22320484.8244   22320488.1494   22320485.2454
        48.000          43.000
 125568837.60347  97845829.78047  23894969.1684   23894973.6434   23894969.3064
        45.000          39.000
 124085132.82347  96689704.45747  23612622.3204   23612626.1744   23612622.3524
        46.000          40.000
 114504389.55447  89224196.09847  21789463.5154   21789465.5134   21789464.0234
        52.000          45.000
 112522909.90547  87680165.72847  21412415.9324   21412420.0464   21412416.0174
        53.000          47.000
 110242905.73447  85903557.96147  20978529.8354   20978532.4694   20978529.3554
        53.000          48.000
 09  1  1  0  9  0.0000000  0 10G12G18G 9G22G14G 5G30G21G24G29
 127807744.81347  99590434.01647  24321017.1594   24321020.7344   24321016.8674
        42.000          38.000
 124893533.53347  97319629.96147  23766453.7854   23766455.7184   23766454.4794
        46.000          39.000
 112693385.14047  87813010.66747  21444848.7664   21444852.2044   21444848.8514
        52.000          47.000
 128253682.32247  99937911.48347  24405882.2264   24405884.7254   24405882.5104
        43.000          37.000
 117251561.02747  91364839.35947  22312239.3604   22312242.7934   22312239.4864
        48.000          43.000
 125565611.34647  97843315.83747  23894355.4774   23894359.4694   23894355.7154
        45.000          39.000
 124084037.64747  96688851.10447  23612414.2934   23612417.4154   23612413.8854
        45.000          39.000
 114421724.65947  89159781.90547  21773733.1094   21773734.9004   21773733.4664
        51.000          45.000
 112506858.99647  87667658.53247  21409361.5004   21409365.6514   21409361.6124
        53.000          47.000
 110297139.33847  85945817.92747  20988850.0534   20988852.5054   20988849.8324
        53.000          48.000
 09  1  1  0  9 30.0000000  0 10G12G18G 9G22G14G 5G30G21G24G29
 127818727.98847  99598992.33847  24323108.0574   24323111.3054   24323107.3634
        43.000          38.000
 124894712.96047  97320549.03247  23766678.1734   23766680.2264   23766678.5094
        46.000          39.000
 112702193.12347  87819874.06447  21446524.6834   21446528.3404   21446524.7934
        52.000          47.000
 128252657.30447  99937112.85347  24405687.3844   24405689.2834   24405687.7674
        43.000          37.000
 117208703.15247  91331443.65347  22304083.8604   22304087.2904   22304084.2774
        49.000          43.000
 125562209.43647  97840665.01147  23893708.1614   23893712.1794   23893708.5244
        46.000          39.000
 124082718.87647  96687823.51647  23612163.1284   23612166.2994   23612163.1004
        46.000          39.000
 114339206.38447  89095481.97147  21758030.4624   21758032.0544   21758030.8544
        52.000          45.000
 112491182.56947  87655443.14247  21406378.3314   21406382.6214   21406378.4614
        53.000          47.000
 110351714.83947  85988344.30247  20999235.3714   20999237.9614   20999235.0944
        53.000          48.000
 09  1  1  0 10  0.0000000  0 10G12G18G 9G22G14G 5G30G21G24G29
 127829546.51447  99607422.39847  24325166.5684   24325170.1914   24325166.4464
        44.000          38.000
 124895686.07447  97321307.34747  23766863.1374   23766865.4744   23766863.4094
        45.000          39.000
 112711512.81847  87827136.19647  21448298.2974   21448301.7254   21448298.2534
        53.000          47.000
 128251514.64247  99936222.53047  24405470.4794   24405472.2264   24405470.6984
        43.000          37.000
 117166319.12347  91298417.17647  22296018.2944   22296021.5654   22296018.6584
        48.000          43.000
 125558634.48647  97837879.34947  23893027.5584   23893031.5514   23893028.3704
        45.000          39.000
 124081178.98547  96686623.62147  23611869.8214   23611873.5724   23611870.1774
        45.000          39.000
 114256839.94047  89031300.33847  21742356.6624   21742358.3474   21742357.0934
        52.000          45.000
 112475884.08347  87643522.25247  21403467.0974   21403471.3344   21403467.1694
        53.000          47.000
 110406631.64047  86031136.60447  21009685.5594   21009688.4644   21009685.3274
        53.000          48.000
 09  1  1  0 10 30.0000000  0 10G12G18G 9G22G14G 5G30G21G24G29
 127840200.44447  99615724.19047  24327193.6054   24327197.3264   24327193.3894
        44.000          39.000
 124896451.13947  97321903.52747  23767009.0004   23767010.7954   23767009.1374
        46.000          39.000
 112721344.07647  87834796.94547  21450168.8904   21450172.4584   21450169.0444
        53.000          46.000
 128250251.38047  99935238.25647  24405229.6394   24405231.4994   24405229.9764
        43.000          37.000
 117124407.99847  91265759.19047  22288043.0034   22288046.0754   22288043.1814
        48.000          43.000
 125554886.37647  97834958.73947  23892314.4024   23892318.8114   23892314.6864
        46.000          39.000
 124079416.69547  96685250.42947  23611534.6204   23611537.8064   23611534.6194
        46.000          39.000
 114174627.08747  88967238.38847  21726712.0514   21726713.7304   21726712.6214
        52.000          45.000
 112460964.19747  87631896.36647  21400628.0544   21400632.3234   21400628.1974
        54.000          47.000
 110461885.91147  86074191.86047  21020200.2594   21020202.9714   21020199.8914
        53.000          48.000
 09  1  1  0 11  0.0000000  0 10G12G18G 9G22G14G 5G30G21G24G29
 127850690.25947  99623898.12047  24329190.4014   24329193.2434   24329190.1974
        44.000          38.000
 124897006.60947  97322336.40047  23767114.2014   23767116.4364   23767114.5824
        45.000          39.000
 112731686.87647  87842856.29047  21452137.2244   21452140.7404   21452137.3564
        53.000          47.000
 128248865.40647  99934158.34247  24404966.0254   24404967.3034   24404965.5584
        43.000          37.000
 117082969.42747  91233469.42647  22280157.5344   22280160.9384   22280157.6494
        49.000          43.000
 125550965.45947  97831903.48747  23891568.3544   23891572.2184   23891568.9314
        45.000          39.000
 124077430.98747  96683703.14347  23611157.0724   23611160.3324   23611156.9174
        47.000          39.000
 114092569.98847  88903297.81947  21711096.9284   21711098.8804   21711097.3424
        52.000          45.000
 112446423.88147  87620566.25747  21397861.1534   21397865.2834   21397861.1734
        53.000          47.000
 110517474.16847  86117507.38347  21030778.4274   21030780.9834   21030778.3794
        53.000          48.000
 09  1  1  0 11 30.0000000  0 10G12G18G 9G22G14G 5G30G21G24G29
 127861019.28047  99631946.71547  24331155.5604   24331158.7244   24331155.0104
        43.000          38.000
 124897354.86847  97322607.80047  23767180.5424   23767183.0054   23767181.0734
        45.000          39.000
 112742545.21847  87851317.35947  21454203.6134   21454207.0564   21454203.8144
        53.000          47.000
 128247357.81347  99932983.67247  24404678.8034   24404680.1354   24404679.5934
        42.000          37.000
 117042006.63947  91201550.41047  22272362.5494   22272365.8014   22272362.8894
        49.000          43.000
 125546875.47247  97828716.50447  23890789.8874   23890794.1824   23890790.5944
        45.000          39.000
 124075225.14347  96681984.30547  23610737.1774   23610740.6674   23610736.7534
        46.000          39.000
 114010674.54547  88839483.21347  21695512.7054   21695514.5744   21695513.1324
        52.000          45.000
 112432267.83747  87609535.57847  21395167.3824   21395171.2464   21395167.4484
        54.000          47.000
 110573396.73247  86161083.42747  21041419.9804   21041422.8384   21041419.6254
        53.000          48.000
 09  1  1  0 12  0.0000000  0 10G12G18G 9G22G14G 5G30G21G24G29
 127871186.18547  99639868.98047  24333090.2604   24333093.6784   24333090.0694
        44.000          38.000
 124897493.01847  97322715.46747  23767207.3174   23767209.3394   23767207.9864
        46.000          39.000
 112753917.42747  87860178.84747  21456367.6194   21456371.1274   21456367.8814
        53.000          46.000
 128245724.76847  99931711.22447  24404367.9234   24404369.8094   24404368.1054
        43.000          37.000
 117001517.50847  91170000.46847  22264657.8154   22264660.8964   22264657.9154
        48.000          43.000
 125542615.00547  97825396.66847  23889979.5754   23889983.2784   23889979.8154
        45.000          39.000
 124072796.93647  96680092.22747  23610274.8034   23610278.3224   23610274.4994
        45.000          39.000
 113928941.37947  88775795.05247  21679959.4244   21679961.4824   21679959.7094
        52.000          45.000
 112418495.38047  87598803.78647  21392546.5634   21392550.4214   21392546.6794
        53.000          47.000
 110629648.29147  86204915.81047  21052124.1554   21052127.1154   21052123.9184
        53.000          48.000
 09  1  1  0 12 30.0000000  0 10G12G18G 9G22G14G 5G30G21G24G29
 127881193.85647  99647667.17447  24334994.1594   24334997.7724   24334994.1004
        42.000          38.000
 124897421.86347  97322660.05447  23767193.6374   23767195.4214   23767194.1284
        46.000          39.000
 112765806.30947  87869442.92247  21458629.9954   21458633.2564   21458629.9994
        53.000          46.000
 128243966.32747  99930341.09847  24404033.7104   24404035.2524   24404033.8454
        43.000          37.000
 116961504.32747  91138821.41147  22257043.3494   22257046.7784   22257043.6554
        48.000          43.000
 125538186.93547  97821946.25447  23889136.8054   23889140.7074   23889137.1134
        46.000          39.000
 124070147.97347  96678028.12847  23609770.8684   23609773.6494   23609771.0514
        47.000          40.000
 113847374.96647  88712236.80747  21664437.7544   21664439.7454   21664438.1264
        52.000          45.000
 112405110.01747  87588373.63647  21389999.2134   21390003.3544   21389999.3754
        53.000          47.000
 110686227.81247  86249003.76047  21062891.1074   21062893.7504   21062890.8674
        53.000          48.000
 09  1  1  0 13  0.0000000  0 10G12G18G 9G22G14G 5G30G21G24G29
 127891041.50747  99655340.70447  24336868.0354   24336871.1694   24336867.6124
        42.000          37.000
 124897138.81247  97322439.52847  23767139.4854   23767141.8794   23767140.1654
        45.000          39.000
 112778210.53747  87879108.58247  21460990.3264   21460993.5964   21460990.3324
        53.000          46.000
 128242079.03047  99928870.54247  24403674.2744   24403676.1144   24403674.6144
        44.000          38.000
 116921965.63447  91108012.07147  22249519.3614   22249522.5854   22249519.4844
        49.000          43.000
 125533590.11747  97818364.33847  23888261.7834   23888265.8864   23888261.8954
        45.000          39.000
 124067276.56547  96675790.69347  23609224.6304   23609227.5104   23609224.6574
        47.000          40.000
 113765976.81347  88648809.67447  21648948.2754   21648950.1664   21648948.7794
        52.000          45.000
 112392111.51547  87578244.93047  21387525.7764   21387529.8334   21387525.8414
        53.000          47.000
 110743130.69147  86293343.68447  21073719.2394   21073722.0784   21073718.9094
        53.000          48.000
 09  1  1  0 13 30.0000000  0 10G12G18G 9G22G14G 5G30G21G24G29
 127900732.33347  99662892.06247  24338711.6764   24338715.5174   24338711.4964
        42.000          38.000
 124896646.07047  97322055.59447  23767045.8954   23767047.8264   23767046.0324
        45.000          39.000
 112791133.23647  87889178.24047  21463449.3114   21463452.6914   21463449.4034
        53.000          46.000
 128240064.15147  99927300.56747  24403291.2184   24403292.5784   24403290.9914
        43.000          38.000
 116882903.66347  91077574.21247  22242086.0634   22242089.3874   22242086.5184
        49.000          43.000
 125528828.11047  97814653.67147  23887355.8644   23887359.6724   23887356.1364
        45.000          39.000
 124064185.15047  96673381.81947  23608635.8494   23608639.4904   23608636.0464
        47.000          40.000
 113684752.04447  88585517.65047  21633491.7314   21633493.5784   21633492.1334
        52.000          45.000
 112379504.11647  87568420.98847  21385126.6294   21385130.7514   21385126.7134
        53.000          47.000
 110800356.68147  86337935.37847  21084609.2244   21084611.8494   21084609.0034
        53.000          48.000
 09  1  1  0 14  0.0000000  0 10G12G18G 9G22G14G 5G30G21G24G29
 127910265.76747  99670320.77547  24340525.9564   24340530.2544   24340524.9734
        43.000          38.000
 124895941.12847  97321506.33047  23766911.4924   23766913.2594   23766912.2274
        46.000          39.000
 112804573.78047  87899651.41747  21466006.8754   21466010.3534   21466006.9794
        53.000          46.000
 128237917.98147  99925628.29647  24402882.5084   24402883.8854   24402881.8964
        44.000          37.000
 116844317.38147  91047507.02047  22234743.3854   22234746.6434   22234743.4414
        49.000          43.000
 125523900.22947  97810813.77247  23886417.8934   23886421.9784   23886418.3324
        45.000          39.000
 124060872.34747  96670800.43747  23608005.8984   23608009.0644   23608005.8514
        47.000          40.000
 113603702.12247  88522361.88647  21618068.4354   21618070.2544   21618068.8954
        52.000          46.000
 112367287.47447  87558901.53047  21382801.8394   21382806.1514   21382801.9724
        53.000          47.000
 110857901.10247  86382775.18247  21095559.3464   21095562.0744   21095558.9954
        53.000          48.000
 09  1  1  0 14 30.0000000  0 10G12G18G 9G22G14G 5G30G21G24G29
 127919644.43047  99677628.85547  24342310.4824   24342314.1854   24342310.7774
        42.000          38.000
 124895024.67347  97320792.25047  23766737.2344   23766739.2214   23766737.7214
        45.000          39.000
 112818534.31347  87910529.78647  21468663.7514   21468667.0804   21468663.9854
        53.000          47.000
 128235640.79947  99923853.93747  24402448.9944   24402451.0404   24402448.6634
        44.000          37.000
 116806208.09347  91017811.51347  22227491.3094   22227494.6234   22227491.6274
        49.000          43.000
 125518808.76347  97806846.41047  23885448.7264   23885453.1294   23885449.1914
        45.000          39.000
 124057339.38947  96668047.51347  23607333.8824   23607337.0014   23607333.4744
        47.000          40.000
 113522831.45647  88459345.80047  21602679.3304   21602681.0814   21602679.7294
        52.000          45.000
 112355464.70147  87549688.98047  21380551.8654   21380556.2644   21380552.0004
        53.000          47.000
 110915762.66947  86427862.10147  21106570.0134   21106572.7374   21106569.8154
        53.000          48.000
 09  1  1  0 15  0.0000000  0 10G12G18G 9G22G14G 5G30G21G24G29
 127928868.63747  99684816.58447  24344066.2354   24344069.8364   24344066.0634
        42.000          38.000
 124893895.88347  97319912.68847  23766522.1244   23766524.2064   23766522.1854
        46.000          39.000
 112833014.80447  87921813.32047  21471419.1584   21471422.4954   21471419.2644
        53.000          47.000
 128233230.77647  99921976.06547  24401990.2084   24401992.2104   24401990.4014
        44.000          37.000
 116768575.62447  90988487.53747  22220329.9344   22220333.2624   22220330.0404
        49.000          43.000
 125513554.52147  97802752.21747  23884449.2654   23884453.2304   23884449.6774
        45.000          39.000
 124053586.28647  96665123.05547  23606619.8394   23606622.4174   23606619.1614
        47.000          40.000
 113442142.47447  88396471.27047  21587324.7074   21587326.5194   21587325.0334
        52.000          45.000
 112344037.46147  87540784.63847  21378377.6084   21378381.5804   21378377.7094
        53.000          47.000
 110973938.19747  86473193.67147  21117640.4894   21117643.1364   21117640.1704
        53.000          48.000
 09  1  1  0 15 30.0000000  0 10G12G18G 9G22G14G 5G30G21G24G29
 127937939.02347  99691884.43947  24345791.9394   24345795.6314   24345791.3824
        43.000          38.000
 124892553.23647  97318866.49647  23766266.9924   23766268.5654   23766267.2374
        46.000          39.000
 112848015.48247  87933502.19347  21474273.6974   21474276.9354   21474273.8274
        53.000          46.000
 128230685.40647  99919992.70347  24401506.4424   24401507.6814   24401506.4794
        44.000          38.000
 116731419.64347  90959534.86747  22213259.7314   22213262.7894   22213259.8854
        49.000          43.000
 125508137.53047  97798531.20547  23883418.2874   23883422.6574   23883418.7684
        46.000          39.000
 124049612.34647  96662026.51447  23605863.7374   23605866.2364   23605863.2264
        47.000          40.000
 113361637.45047  88333740.08247  21572004.8684   21572006.9164   21572005.2244
        52.000          46.000
 112333006.18047  87532188.83447  21376278.5964   21376282.4174   21376278.7364
        53.000          47.000
 111032424.15347  86518767.14547  21128769.9424   21128772.6624   21128769.7084
        53.000          48.000
 09  1  1  0 16  0.0000000  0 10G12G18G 9G22G14G 5G30G21G24G29
 127946858.28947  99698834.52147  24347489.1354   24347493.6574   24347489.2924
        43.000          38.000
 124890998.48147  97317655.01847  23765971.3084   23765972.8114   23765971.8334
        46.000          39.000
 112863539.17847  87945598.59547  21477227.8174   21477231.0324   21477227.8204
        53.000          46.000
 128228005.34747  99917904.41147  24400995.5944   24400997.3694   24400995.7804
        43.000          37.000
 116694742.46547  90930955.27747  22206280.3414   22206283.1904   22206280.6864
        49.000          43.000
 125502561.39647  97794186.17447  23882357.1074   23882361.6884   23882357.4094
        44.000          39.000
 124045419.88847  96658759.68347  23605065.9234   23605068.5444   23605065.5224
        47.000          40.000
 113281321.55247  88271156.27547  21556721.4754   21556723.4434   21556721.9514
        52.000          46.000
 112322374.80847  87523904.64447  21374255.6064   21374259.5984   21374255.8144
        54.000          47.000
 111091219.86447  86564581.98647  21139958.4344   21139961.1694   21139958.1424
        53.000          48.000
 09  1  1  0 16 30.0000000  0 10G12G18G 9G22G14G 5G30G21G24G29
 127955624.53947  99705665.37347  24349158.1724   24349161.9074   24349157.9044
        43.000          38.000
 124889227.64247  97316275.17147  23765633.5674   23765635.9854   23765634.2254
        45.000          39.000
 112879583.14547  87958100.40847  21480280.8964   21480284.1644   21480280.9564
        53.000          46.000
 128225185.99147  99915707.57647  24400459.2384   24400460.5394   24400458.8514
        42.000          37.000
 116658540.38847  90902745.90147  22199391.3384   22199394.0584   22199391.5674
        50.000          43.000
 125496823.52147  97789715.11447  23881265.1184   23881269.7724   23881265.6674
        45.000          39.000
 124041005.89347  96655320.23747  23604225.2634   23604229.1274   23604224.9654
        46.000          40.000
 113201194.51747  88208719.64647  21541473.7994   21541475.5384   21541474.2124
        52.000          46.000
 112312141.37847  87515930.53747  21372307.9554   21372311.9734   21372308.1264
        53.000          47.000
 111150319.02247  86610633.28847  21151204.7634   21151207.1414   21151204.4284
        53.000          48.000
 09  1  1  0 17  0.0000000  0 10G12G18G 9G22G14G 5G30G21G24G29
 127964243.25047  99712381.27747  24350797.6084   24350801.5924   24350797.7264
        43.000          38.000
 124887244.36047  97314729.77347  23765256.4084   23765258.8664   23765256.6364
        46.000          39.000
 112896151.99947  87971011.22147  21483433.7374   21483437.0904   21483433.7234
        53.000          47.000
 128222230.30947  99913404.48147  24399896.3194   24399898.4704   24399896.4604
        43.000          37.000
 116622818.22147  90874910.49147  22192593.5854   22192596.3984   22192593.6644
        49.000          43.000
 125490929.41147  97785122.30847  23880143.9434   23880148.0634   23880144.6294
        45.000          39.000
 124036374.72647  96651711.55447  23603344.4254   23603347.4954   23603343.8414
        47.000          40.000
 113121263.45747  88146435.73047  21526263.4864   21526265.3394   21526263.9394
        52.000          46.000
 112302311.95947  87508271.25047  21370437.3974   21370441.6904   21370437.5344
        53.000          47.000
 111209723.25547  86656922.30447  21162508.9804   21162511.4204   21162508.7934
        53.000          48.000
 09  1  1  0 17 30.0000000  0 10G12G18G 9G22G14G 5G30G21G24G29
 127972711.46847  99718979.94347  24352409.3724   24352412.7384   24352408.9454
        44.000          38.000
 124885044.10247  97313015.30347  23764837.6444   23764840.0064   23764838.2554
        46.000          40.000
 112913242.41347  87984328.44047  21486685.7904   21486689.3504   21486685.9004
        53.000          47.000
 128219132.48647  99910990.65247  24399307.8034   24399308.8884   24399308.0934
        44.000          38.000
 116587572.31947  90847446.18447  22185886.2154   22185889.4574   22185886.3494
        49.000          43.000
 125484876.09647  97780405.44847  23878991.9064   23878996.5274   23878992.2294
        45.000          39.000
 124031522.87447  96647930.92247  23602421.1704   23602424.0084   23602420.7664
        46.000          40.000
 113041527.54647  88084303.86947  21511090.1574   21511092.1824   21511090.6584
        52.000          46.000
 112292883.81447  87500924.63947  21368643.2704   21368647.4204   21368643.3504
        53.000          47.000
 111269425.88547  86703443.84647  21173870.0544   21173872.5574   21173869.7304
        53.000          48.000
 09  1  1  0 18  0.0000000  0 10G12G18G 9G22G14G 5G30G21G24G29
 127981033.20047  99725464.45947  24353993.1634   24353995.8874   24353992.5954
        44.000          38.000
 124882629.81547  97311134.04047  23764378.2364   23764380.6534   23764378.7124
        46.000          40.000
 112930858.01947  87998054.91247  21490038.3354   21490041.4754   21490038.6694
        53.000          46.000
 128215894.27447  99908467.44447  24398690.8404   24398691.9684   24398691.0354
        43.000          37.000
 116552805.14847  90820354.92547  22179270.3984   22179273.5604   22179270.5064
        49.000          43.000
 125478667.76547  97775567.79647  23877809.8084   23877814.1754   23877810.2654
        45.000          39.000
 124026453.41047  96643980.71847  23601455.8164   23601459.4164   23601455.7294
        46.000          40.000
 112961992.89847  88022328.82547  21495955.2224   21495957.0284   21495955.6574
        52.000          46.000
 112283861.89947  87493894.56747  21366926.4614   21366930.5924   21366926.6764
        53.000          47.000
 111329427.06747  86750198.02547  21185287.8734   21185290.3594   21185287.6424
        53.000          48.000
 09  1  1  0 18 30.0000000  0 10G12G18G 9G22G14G 5G30G21G24G29
 127989206.76447  99731833.50947  24355548.4774   24355551.3334   24355547.9804
        43.000          38.000
 124879997.83147  97309083.15747  23763877.4364   23763879.6724   23763877.8804
        46.000          40.000
 112948996.91347  88012189.13547  21493489.8004   21493492.9314   21493489.7954
        53.000          46.000
 128212511.57847  99905831.61747  24398047.1774   24398048.4164   24398047.3784
        42.000          37.000
 116518514.40547  90793634.90147  22172744.6214   22172747.8164   22172744.7304
        49.000          43.000
 125472302.79947  97770608.10047  23876598.9054   23876603.2864   23876599.3844
        46.000          39.000
 124021164.13847  96639859.22547  23600449.4414   23600453.4134   23600449.1854
        46.000          40.000
 112882659.89547  87960510.91647  21480858.4424   21480860.4844   21480858.8984
        52.000          46.000
 112275244.67947  87487179.85547  21365286.7334   21365291.0594   21365286.8534
        53.000          47.000
 111389721.08147  86797180.37747  21196761.3914   21196763.9974   21196761.1804
        53.000          48.000
 09  1  1  0 19  0.0000000  0 10G12G18G 9G22G14G 5G30G21G24G29
 127997235.44847  99738089.64447  24357076.2984   24357079.0984   24357076.1854
        44.000          38.000
 124877150.10247  97306864.16447  23763335.5914   23763337.7814   23763336.0814
        46.000          39.000
 112967661.47047  88026732.96647  21497041.5484   21497044.5424   21497041.6174
        53.000          46.000
 128208984.75047  99903083.50647  24397375.8484   24397377.3924   24397375.5434
        43.000          37.000
 116484701.88347  90767287.51847  22166310.4894   22166313.6994   22166310.5874
        49.000          43.000
 125465784.30547  97765528.77847  23875358.1824   23875362.4614   23875358.8524
        45.000          39.000
 124015656.99447  96635567.98147  23599401.4774   23599404.9684   23599401.5124
        46.000          40.000
 112803533.45847  87898853.97547  21465801.4154   21465803.1684   21465801.6444
        52.000          46.000
 112267035.84947  87480783.37047  21363724.5504   21363728.8094   21363724.4554
        53.000          47.000
 111450307.32947  86844390.42347  21208290.6474   21208293.3074   21208290.3344
        53.000          48.000
 09  1  1  0 19 30.0000000  0 10G12G18G 9G22G14G 5G30G21G24G29
 128005122.28347  99744235.27047  24358577.4274   24358580.1244   24358576.7304
        43.000          38.000
 124874087.85347  97304478.01247  23762753.0034   23762754.8784   23762753.2044
        46.000          39.000
 112986853.82547  88041688.07047  21500693.4264   21500696.7834   21500693.5934
        52.000          46.000
 128205314.35747  99900223.50747  24396677.4634   24396678.9364   24396677.6924
        44.000          37.000
 116451369.52547  90741314.29047  22159967.4184   22159970.5974   22159967.8764
        49.000          43.000
 125459115.20747  97760332.07247  23874088.3544   23874094.1284   23874088.8924
        44.000          39.000
 124009933.97547  96631108.51547  23598312.4214   23598315.8614   23598312.6434
        46.000          40.000
 112724618.54247  87837361.84947  21450784.4404   21450786.2664   21450784.7984
        53.000          46.000
 112259238.78847  87474707.74247  21362240.8754   21362245.0834   21362240.9934
        53.000          47.000
 111511184.53447  86891827.18547  21219875.2164   21219877.8084   21219874.9524
        53.000          48.000
 09  1  1  0 20  0.0000000  0 10G12G18G 9G22G14G 5G30G21G24G29
 128012864.20347  99750267.91947  24360050.4144   24360053.0744   24360050.0664
        42.000          38.000
 124870805.86747  97301920.63647  23762128.5344   23762130.2584   23762128.6344
        45.000          39.000
 113006570.02247  88057051.35847  21504445.4594   21504448.6694   21504445.7134
        52.000          46.000
 128201494.90547  99897247.36047  24395950.8834   24395952.4074   24395950.9634
        43.000          37.000
 116418513.06347  90715711.88647  22153715.1664   22153718.3454   22153715.4424
        49.000          44.000
 125452292.33947  97755015.55147  23872790.5904   23872795.4144   23872790.7014
        45.000          39.000
 124003991.11147  96626477.74147  23597181.1974   23597184.8194   23597181.4084
        46.000          40.000
 112645913.74347  87776033.44447  21435807.1994   21435809.1674   21435807.7514
        53.000          46.000
 112251850.38247  87468950.54747  21360834.8934   21360838.9684   21360834.9564
        53.000          47.000
 111572345.73347  86939485.25047  21231513.9144   21231516.4004   21231513.6804
        53.000          48.000
 09  1  1  0 20 30.0000000  0 10G12G18G 9G22G14G 5G30G21G24G29
 128020467.81547  99756192.82247  24361496.7724   24361500.0834   24361496.2034
        43.000          38.000
 124867309.99247  97299196.59047  23761463.0864   23761464.7184   23761463.3184
        46.000          39.000
 113026816.77647  88072828.06847  21508298.2664   21508301.6804   21508298.3644
        52.000          46.000
 128197530.65947  99894158.39047  24395196.1614   24395197.3884   24395196.2514
        44.000          37.000
 116386138.48547  90690484.99447  22147554.6714   22147557.6024   22147554.7454
        49.000          44.000
 125445322.79447  97749584.76647  23871464.1524   23871469.2654   23871465.0794
        45.000          39.000
 123997834.40347  96621680.31847  23596009.5274   23596013.4564   23596009.2274
        46.000          40.000
 112567427.97347  87714875.71147  21420872.0904   21420873.8164   21420872.5254
        53.000          46.000
 112244878.34947  87463517.79547  21359508.1584   21359512.1354   21359508.3094
        53.000          47.000
 111633793.69847  86987366.76647  21243207.0114   21243209.6944   21243206.7734
        53.000          48.000
 09  1  1  0 21  0.0000000  0 10G12G18G 9G22G14G 5G30G21G24G29
 128027928.05947  99762006.00947  24362917.0054   24362919.8214   24362916.7204
        42.000          37.000
 124863593.14547  97296300.35847  23760756.1674   23760757.5854   23760756.5524
        46.000          39.000
 113047587.54947  88089013.10647  21512250.6424   21512254.1484   21512250.6514
        52.000          46.000
 128193413.39947  99890950.19647  24394413.2364   24394413.8464   24394413.3144
        44.000          37.000
 116354238.54947  90665627.92947  22141484.2594   22141486.9674   22141484.1794
        50.000          44.000
 125438200.92947  97744035.26147  23870109.4124   23870113.7464   23870109.7324
        45.000          39.000
 123991457.78147  96616711.57047  23594796.2524   23594800.2844   23594795.9304
        46.000          40.000
 112489157.54247  87653885.76447  21405977.7034   21405979.1424   21405978.1264
        53.000          46.000
 112238317.41847  87458405.38947  21358259.6284   21358263.7414   21358259.7444
        53.000          47.000
 111695518.86547  87035464.29847  21254953.0004   21254955.7404   21254952.8014
        53.000          48.000
 09  1  1  0 21 30.0000000  0 10G12G18G 9G22G14G 5G30G21G24G29
 128035250.28947  99767711.65247  24364310.7034   24364313.1864   24364310.6874
        43.000          38.000
 124859659.14347  97293234.90547  23760007.0464   23760009.1444   23760007.4614
        45.000          39.000
 113068887.21947  88105610.28047  21516303.9164   21516307.3584   21516303.9954
        52.000          46.000
 128189146.62647  99887625.46947  24393600.5054   24393602.5554   24393600.6184
        43.000          37.000
 116322818.22447  90641144.60547  22135505.1904   22135507.9484   22135505.5724
        50.000          44.000
 125430932.65347  97738371.69547  23868726.7164   23868730.6114   23868726.8634
        45.000          39.000
 123984866.14347  96611575.26247  23593541.6664   23593545.7384   23593541.3524
        46.000          40.000
 112411110.19847  87593069.64747  21391125.7044   21391127.1684   21391126.0574
        53.000          46.000
 112232173.60547  87453618.00847  21357090.6374   21357094.6904   21357090.7824
        53.000          47.000
 111757523.49347  87083779.59847  21266751.8914   21266754.7464   21266751.4934
        53.000          48.000
 09  1  1  0 22  0.0000000  0 10G12G18G 9G22G14G 5G30G21G24G29
 128042436.20547  99773311.08447  24365678.0584   24365680.7234   24365677.7544
        43.000          38.000
 124855508.30147  97290000.50147  23759217.1054   23759219.3754   23759217.4174
        45.000          39.000
 113090716.53247  88122620.15347  21520457.8504   21520461.2164   21520458.0434
        52.000          46.000
 128184729.24647  99884183.41847  24392760.5054   24392761.2834   24392760.6454
        45.000          38.000
 116291877.44047  90617034.93447  22129617.1454   22129620.2564   22129617.4264
        50.000          44.000
 125423519.51847  97732595.21547  23867315.8504   23867320.1534   23867316.3914
        46.000          39.000
 123978060.14947  96606271.93747  23592246.3634   23592250.6564   23592245.9704
        46.000          40.000
 112333289.60147  87532430.21147  21376316.9514   21376318.4014   21376317.3214
        53.000          46.000
 112226448.54447  87449156.92147  21356001.1974   21356005.0724   21356001.2764
        53.000          47.000
 111819804.90047  87132310.58147  21278603.4994   21278606.4214   21278603.2654
        53.000          48.000
 09  1  1  0 22 30.0000000  0 10G12G18G 9G22G14G 5G30G21G24G29
 128049485.01847  99778803.70047  24367018.7484   24367022.1964   24367018.2914
        43.000          38.000
 124851137.94147  97286595.06247  23758385.1934   23758387.7814   23758385.4644
        45.000          39.000
 113113074.01947  88140041.58747  21524712.1974   21524715.6744   21524712.2504
        52.000          46.000
 128180157.81047  99880621.29647  24391890.2764   24391890.8894   24391890.8084
        45.000          38.000
 116261414.29147  90593297.44447  22123820.4184   22123822.9704   22123820.5604
        50.000          44.000
 125415960.65447  97726705.20647  23865877.1254   23865880.8604   23865878.0034
        45.000          39.000
 123971038.32847  96600800.40547  23590910.1454   23590914.1574   23590910.0894
        46.000          40.000
 112255696.61247  87471968.16047  21361551.4144   21361553.2544   21361551.7114
        53.000          46.000
 112221141.80847  87445021.80247  21354991.5194   21354995.6134   21354991.6154
        54.000          47.000
 111882358.17047  87181053.39947  21290507.1764   21290509.8054   21290507.0274
        53.000          48.000
 09  1  1  0 23  0.0000000  0 10G12G18G 9G22G14G 5G30G21G24G29
 128056397.96047  99784190.44547  24368334.3294   24368337.4414   24368334.2644
        42.000          38.000
 124846547.60147  97283018.18547  23757512.6594   23757514.3504   23757513.1944
        45.000          39.000
 113135960.02447  88157874.85947  21529067.3504   21529070.7854   21529067.5404
        52.000          46.000
 128175430.91747  99876938.05047  24390990.3584   24390991.1804   24390991.1744
        44.000          37.000
 116231428.40247  90569931.85447  22118114.1234   22118117.0134   22118114.3074
        50.000          44.000
 125408257.17347  97720702.51747  23864411.0904   23864416.0644   23864411.5574
        45.000          39.000
 123963800.93647  96595160.91247  23589532.9684   23589537.0674   23589532.8814
        46.000          40.000
 112178334.15747  87411685.74047  21346829.8244   21346831.5804   21346830.2484
        53.000          46.000
 112216254.58447  87441213.58447  21354061.3884   21354065.4164   21354061.5144
        53.000          47.000
 111945180.30847  87230005.71647  21302461.7644   21302464.4274   21302461.3894
        53.000          48.000
 09  1  1  0 23 30.0000000  0 10G12G18G 9G22G14G 5G30G21G24G29
 128063176.77447  99789472.62147  24369624.6204   24369627.6044   24369624.7034
        43.000          38.000
 124841737.26347  97279269.88347  23756596.5764   23756598.8924   23756596.7334
        45.000          39.000
 113159374.80547  88176120.15547  21533523.0964   21533526.5694   21533523.1444
        52.000          46.000
 128170547.75847  99873133.03347  24390061.8194   24390062.8914   24390062.0274
        44.000          37.000
 116201919.74847  90546938.13147  22112498.9534   22112501.6444   22112499.1604
        50.000          44.000
 125400410.62947  97714588.35247  23862918.5104   23862922.6734   23862918.7434
        45.000          39.000
 123956348.51347  96589353.83447  23588115.1674   23588118.7214   23588114.9834
        46.000          40.000
 112101205.50347  87351585.50847  21332152.6174   21332154.4084   21332153.1524
        53.000          46.000
 112211788.37647  87437733.43147  21353211.4064   21353215.4134   21353211.4884
        53.000          47.000
 112008268.84247  87279165.61047  21314467.1654   21314469.8284   21314466.8334
        53.000          48.000
 09  1  1  0 24  0.0000000  0 10G12G18G 9G22G14G 5G30G21G24G29
 128069823.69547  99794652.06847  24370888.7574   24370892.3674   24370889.0434
        42.000          38.000
 124836708.49347  97275351.37147  23755639.4254   23755641.8644   23755640.0274
        45.000          39.000
 113183320.39047  88194779.06547  21538079.7294   21538083.4134   21538079.8424
        53.000          46.000
 128165508.10647  99869206.06947  24389102.3994   24389104.1314   24389102.7214
        43.000          37.000
 116172889.85047  90524317.46647  22106974.4044   22106977.6484   22106974.6894
        49.000          44.000
 125392423.71047  97708364.80247  23861398.3294   23861402.4354   23861399.0904
        45.000          39.000
 123948682.86847  96583380.62347  23586656.3364   23586659.5584   23586656.0094
        46.000          40.000
 112024315.15547  87291670.95747  21317520.9294   21317522.4874   21317521.2634
        53.000          46.000
 112207745.82047  87434583.40147  21352441.8514   21352446.1174   21352442.1024
        53.000          47.000
 112071622.20847  87328531.85347  21326522.9084   21326525.5354   21326522.7734
        53.000          47.000
 09  1  1  0 24 30.0000000  0 10G12G18G 9G22G14G 5G30G21G24G29
 128076340.05447  99799729.76847  24372128.9754   24372132.1844   24372128.5134
        43.000          38.000
 124831461.17447  97271262.56947  23754641.2404   23754643.2864   23754641.8564
        46.000          39.000
 113207796.97647  88213851.74547  21542737.6734   21542741.0844   21542737.7654
        52.000          46.000
 128160311.02447  99865156.43147  24388113.2714   24388114.1084   24388113.5434
        44.000          37.000
 116144338.42547  90502069.64347  22101541.2954   22101544.3194   22101541.6204
        50.000          44.000
 125384297.80447  97702032.94847  23859851.9704   23859856.3434   23859852.1994
        45.000          39.000
 123940804.69347  96577241.82647  23585157.0104   23585160.4564   23585155.9564
        46.000          40.000
 111947666.53947  87231944.77647  21302935.0224   21302936.8814   21302935.4774
        53.000          46.000
 112204128.71947  87431764.87947  21351753.7344   21351757.9484   21351753.8024
        53.000          47.000
 112135237.67647  87378102.33847  21338628.6974   21338631.0224   21338628.3644
        53.000          48.000
 09  1  1  0 25  0.0000000  0 10G12G18G 9G22G14G 5G30G21G24G29
 128082726.75647  99804706.47147  24373344.5414   24373347.7144   24373344.0884
        43.000          38.000
 124825993.78047  97267002.27347  23753600.9254   23753602.7104   23753601.2544
        46.000          39.000
 113232804.15747  88233337.87347  21547496.1954   21547499.6394   21547496.2944
        52.000          46.000
 128154954.68047  99860982.71747  24387094.1484   24387094.7654   24387094.4964
        44.000          37.000
 116116264.96847  90480194.25147  22096198.9914   22096202.0304   22096199.1804
        50.000          44.000
 125376033.78947  97695593.48747  23858279.3134   23858284.2404   23858279.5924
        46.000          39.000
 123932713.90047  96570937.34447  23583617.6114   23583620.8434   23583616.6684
        47.000          40.000
 111871261.97247  87172408.74947  21288395.7254   21288397.8024   21288395.9314
        53.000          46.000
 112200937.85347  87429278.49247  21351146.6024   21351150.8444   21351146.7484
        53.000          47.000
 112199112.07447  87427874.58147  21350783.5334   21350785.8644   21350783.2954
        53.000          47.000
 09  1  1  0 25 30.0000000  0 10G12G18G 9G22G14G 5G30G21G24G29
 128088982.19047  99809580.85547  24374535.1594   24374537.8494   24374534.6304
        44.000          38.000
 124820302.85647  97262567.80547  23752518.1454   23752519.6274   23752518.4164
        46.000          39.000
 113258338.88547  88253235.08047  21552355.0844   21552358.8194   21552354.9644
        52.000          46.000
 128149434.58647  99856681.38547  24386043.7704   24386044.4884   24386043.9084
        43.000          37.000
 116088665.87647  90458688.50547  22090946.9134   22090949.9084   22090947.2164
        49.000          44.000
 125367629.59947  97689044.78847  23856680.1694   23856684.8824   23856680.4454
        45.000          39.000
 123924407.66447  96564464.97047  23582036.9374   23582040.4704   23582036.7934
        47.000          40.000
 111795101.39647  87113062.83347  21273903.1234   21273904.8614   21273903.4214
        53.000          47.000
 112198171.21847  87427122.67347  21350619.9774   21350624.2374   21350620.1284
        53.000          47.000
 112263239.26247  87477843.79847  21362986.5754   21362988.9584   21362986.2474
        53.000          47.000
 09  1  1  0 26  0.0000000  0 10G12G18G 9G22G14G 5G30G21G24G29
 128095114.26447  99814359.13847  24375702.3004   24375704.6504   24375702.1334
        43.000          38.000
 124814394.90747  97257964.20647  23751393.2904   23751395.3504   23751394.0744
        46.000          39.000
 113284408.17347  88273548.83147  21557315.9914   21557319.6474   21557316.0024
        52.000          46.000
 128143756.41347  99852256.86947  24384962.4494   24384964.2314   24384962.7444
        42.000          37.000
 116061547.67947  90437557.47847  22085786.5334   22085789.5204   22085786.7174
        50.000          44.000
 125359093.38147  97682393.21447  23855055.5544   23855060.1594   23855056.0454
        45.000          39.000
 123915893.03947  96557830.22347  23580416.9144   23580419.9564   23580417.0054
        47.000          40.000
 111719194.91747  87053914.92247  21259458.5224   21259460.2174   21259458.8734
        53.000          46.000
 112195837.21947  87425303.97747  21350175.9274   21350180.2824   21350176.0514
        53.000          47.000
 112327623.26447  87528013.15247  21375238.4124   21375240.9444   21375237.9954
        53.000          47.000
 09  1  1  0 26 30.0000000  0 10G12G18G 9G22G14G 5G30G21G24G29
 128101117.10347  99819036.72047  24376843.6454   24376846.8704   24376843.2114
        43.000          38.000
 124808263.10147  97253186.20447  23750226.8874   23750228.0384   23750227.4154
        46.000          39.000
 113311005.41747  88294273.96447  21562377.6394   21562380.3354   21562377.7074
        52.000          46.000
 128137911.86347  99847702.70647  24383850.8884   24383852.4344   24383850.7874
        42.000          37.000
 116034903.14547  90416795.53747  22080716.6014   22080719.3824   22080717.0594
        50.000          44.000
 125350419.68647  97675634.51547  23853405.0874   23853409.4664   23853405.5784
        45.000          39.000
 123907164.08147  96551028.45647  23578756.0224   23578758.3544   23578756.0704
        47.000          40.000
 111643538.64447  86994961.98747  21245061.3864   21245063.1954   21245061.7054
        53.000          46.000
 112193929.83447  87423817.71547  21349812.7774   21349817.1874   21349813.0234
        53.000          47.000
 112392254.18947  87578374.90547  21387537.3054   21387539.8114   21387537.1424
        53.000          47.000
 09  1  1  0 27  0.0000000  0 10G12G18G 9G22G14G 5G30G21G24G29
 128106997.58447  99823618.93947  24377962.5234   24377966.0154   24377962.1414
        43.000          38.000
 124801912.27947  97248237.54447  23749017.8744   23749020.1064   23749018.7324
        45.000          39.000
 113338136.25947  88315414.89247  21567540.1884   21567543.4864   21567540.3344
        52.000          46.000
 128131904.95147  99843022.04847  24382707.6744   24382709.4344   24382707.6564
        43.000          38.000
 116008737.31247  90396406.61147  22075737.1484   22075740.0244   22075737.5134
        50.000          44.000
 125341614.92947  97668773.69747  23851729.4094   23851733.9244   23851730.0984
        45.000          39.000
 123898226.41847  96544064.07347  23577055.1974   23577057.8514   23577055.3154
        47.000          40.000
 111568140.60347  86936210.27247  21230713.6624   21230715.4944   21230714.0214
        53.000          47.000
 112192455.79347  87422669.11747  21349532.3454   21349536.6814   21349532.5784
        53.000          47.000
 112457134.45747  87628930.94647  21399883.5684   21399886.1654   21399883.4564
        53.000          47.000
 09  1  1  0 27 30.0000000  0 10G12G18G 9G22G14G 5G30G21G24G29
 128112754.32047  99828104.73547  24379057.8474   24379061.4134   24379057.4774
        43.000          38.000
 124795339.85947  97243116.19047  23747767.1934   23747769.5754   23747767.6304
        45.000          39.000
 113365797.91747  88336969.45247  21572804.2314   21572807.2074   21572804.3234
        52.000          46.000
 128125731.93647  99838211.95247  24381532.7914   24381534.4584   24381533.5644
        43.000          37.000
 115983047.28247  90376388.44147  22070848.4074   22070851.1064   22070848.5344
        50.000          44.000
 125332677.77247  97661809.69847  23850028.7024   23850033.2434   23850029.1104
        45.000          39.000
 123889077.84447  96536935.33847  23575313.7954   23575316.7414   23575314.0184
        47.000          40.000
 111493001.48947  86877660.31747  21216415.2164   21216417.0134   21216415.7684
        53.000          47.000
 112191413.84447  87421857.21447  21349334.1154   21349338.3664   21349334.2154
        53.000          47.000
 112522258.94347  87679677.28547  21412276.3474   21412278.8634   21412276.1254
        52.000          47.000
 09  1  1  0 28  0.0000000  0 10G12G18G 9G22G14G 5G30G21G24G29
 128118388.52947  99832495.06647  24380130.7404   24380133.8914   24380130.2724
        42.000          38.000
 124788544.95047  97237821.46947  23746474.2364   23746476.2084   23746474.5064
        46.000          39.000
 113393990.18547  88358937.47047  21578168.8584   21578171.8904   21578168.9814
        52.000          46.000
 128119391.30447  99833271.24847  24380326.6404   24380326.8514   24380326.4834
        43.000          37.000
 115957832.29947  90356740.42847  22066050.3124   22066053.0044   22066050.4434
        50.000          44.000
 125323609.31447  97654743.35547  23848303.3834   23848308.0244   23848303.5204
        45.000          39.000
 123879718.74847  96529642.55947  23573532.6344   23573536.0024   23573532.4104
        46.000          40.000
 111418124.14847  86819314.35047  21202166.6264   21202168.2884   21202167.1384
        53.000          47.000
 112190804.87947  87421382.68947  21349218.4594   21349222.4704   21349218.7624
        53.000          47.000
 112587624.10247  87730611.17547  21424714.7534   21424717.4824   21424714.4934
        52.000          47.000
 09  1  1  0 28 30.0000000  0 10G12G18G 9G22G14G 5G30G21G24G29
 128123903.70647  99836792.65347  24381179.8964   24381183.3414   24381179.9494
        43.000          38.000
 124781529.59647  97232354.98547  23745139.5794   23745141.3274   23745140.0134
        46.000          39.000
 113422715.11947  88381320.55047  21583635.3284   21583638.6524   21583635.3604
        52.000          46.000
 128112883.95347  99828200.61747  24379088.6524   24379089.4144   24379088.6444
        43.000          38.000
 115933094.08447  90337463.93647  22061342.8004   22061345.3034   22061343.1204
        50.000          44.000
 125314413.18447  97647577.55447  23846552.9644   23846557.8824   23846553.6914
        45.000          39.000
 123870151.75547  96522187.76347  23571712.1484   23571715.4884   23571711.2344
        46.000          40.000
 111343513.96147  86761176.55847  21187968.7444   21187970.4414   21187969.2114
        53.000          47.000
 112190632.14547  87421248.08547  21349185.5244   21349189.6864   21349185.6414
        53.000          47.000
 112653229.50247  87781732.26247  21437199.1124   21437201.5314   21437198.9924
        52.000          47.000
 09  1  1  0 29  0.0000000  0 10G12G18G 9G22G14G 5G30G21G24G29
 128129299.73547  99840997.36747  24382206.7244   24382210.0754   24382206.5334
        42.000          38.000
 124774292.69747  97226715.86747  23743762.4304   23743764.4874   23743762.9514
        47.000          40.000
 113451971.65247  88404117.86847  21589202.2744   21589205.4524   21589202.3704
        52.000          46.000
 128106207.64947  99822998.36847  24377817.5254   24377818.2984   24377818.2324
        43.000          37.000
 115908831.41947  90318557.98847  22056725.6974   22056728.4114   22056725.5294
        50.000          44.000
 125305089.75047  97640312.56747  23844778.9234   23844783.3774   23844778.9744
        45.000          39.000
 123860376.30747  96514570.55647  23569852.4714   23569855.5324   23569851.6694
        47.000          41.000
 111269172.94247  86703248.52647  21173822.1964   21173823.8734   21173822.4834
        53.000          47.000
 112190895.79047  87421453.52047  21349235.7374   21349239.8224   21349235.7074
        53.000          47.000
 112719071.45147  87833037.67847  21449728.4044   21449730.9204   21449728.0604
        52.000          47.000
 09  1  1  0 29 30.0000000  0 10G12G18G 9G22G14G 5G30G21G24G29
 128134576.86947  99845109.43947  24383210.3194   24383214.2004   24383210.5894
        43.000          38.000
 124766832.57247  97220902.79647  23742342.7034   23742344.5554   23742343.1404
        46.000          39.000
 113481758.58247  88427328.47847  21594870.4224   21594873.7814   21594870.4814
        52.000          46.000
 128099359.81047  99817662.43347  24376514.2384   24376515.7614   24376514.2304
        42.000          37.000
 115885042.26947  90300021.02047  22052198.5374   22052201.5094   22052198.8144
        50.000          44.000
 125295638.86547  97632948.27247  23842980.6784   23842984.9084   23842980.8984
        46.000          39.000
 123850391.40447  96506790.13047  23567952.2074   23567955.6784   23567951.8704
        47.000          41.000
 111195102.69247  86645531.49147  21159726.9584   21159728.7344   21159727.3914
        53.000          47.000
 112191595.63047  87421998.85147  21349368.9794   21349372.9304   21349369.2154
        53.000          47.000
 112785145.28347  87884523.78647  21462301.9024   21462304.3854   21462301.6084
        52.000          47.000
 09  1  1  0 30  0.0000000  0 10G12G18G 9G22G14G 5G30G21G24G29
 128139739.70247  99849132.47647  24384193.8084   24384196.6304   24384193.9744
        43.000          38.000
 124759152.22247  97214918.09947  23740881.1974   23740883.1844   23740881.3104
        46.000          39.000
 113512079.19247  88450954.95047  21600640.1954   21600643.4534   21600640.1904
        52.000          46.000
 128092342.35447  99812194.31447  24375179.2944   24375180.5714   24375179.1634
        43.000          37.000
 115861729.36347  90281855.15047  22047762.3604   22047765.1154   22047762.7024
        50.000          44.000
 125286065.26747  97625488.35047  23841158.7564   23841163.3524   23841159.7394
        45.000          39.000
 123840201.12847  96498849.66947  23566012.6774   23566016.6284   23566012.4844
        47.000          41.000
 111121309.49747  86588030.32447  21145684.5294   21145686.4454   21145684.8924
        53.000          47.000
 112192736.18147  87422887.59947  21349585.8254   21349589.8564   21349586.0274
        53.000          47.000
 112851451.41447  87936190.89347  21474919.8094   21474922.1754   21474919.7424
        53.000          47.000
 09  1  1  0 30 30.0000000  0 10G12G18G 9G22G14G 5G30G21G24G29
 128144785.52147  99853064.29147  24385153.5854   24385156.3364   24385153.1714
        43.000          38.000
 124751247.63447  97208758.70147  23739377.0804   23739378.8904   23739377.3124
        46.000          40.000
 113542929.19647  88474993.92647  21606510.7664   21606513.9764   21606510.8854
        52.000          46.000
 128085149.88147  99806589.83947  24373810.0874   24373811.4564   24373810.2824
        44.000          38.000
 115838888.33047  90264056.96747  22043415.7994   22043418.6354   22043415.8384
        50.000          44.000
 125276366.03847  97617930.52147  23839313.4074   23839317.8254   23839313.9864
        45.000          39.000
 123829801.81347  96490746.34747  23564033.8664   23564037.8924   23564033.9134
        47.000          41.000
 111047792.13447  86530744.06047  21131694.4904   21131696.5654   21131694.8504
        53.000          47.000
 112194314.10147  87424117.13947  21349886.1374   21349890.2104   21349886.2604
        53.000          47.000
 112917982.98347  87988033.65647  21487580.3394   21487582.8924   21487580.1664
        52.000          47.000
 09  1  1  0 31  0.0000000  0 10G12G18G 9G22G14G 5G30G21G24G29
 128149720.11647  99856909.44547  24386092.9744   24386096.0244   24386092.4594
        44.000          38.000
 124743122.85947  97202427.73647  23737830.7824   23737832.5804   23737831.2834
        47.000          40.000
 113574312.79947  88499448.70247  21612482.9254   21612486.1824   21612483.2324
        52.000          46.000
 128077785.57447  99800851.45047  24372409.4934   24372409.8014   24372409.6054
        44.000          38.000
 115816522.87547  90246629.36847  22039159.9004   22039162.6254   22039160.2344
        50.000          44.000
 125266546.97847  97610279.31647  23837444.1984   23837449.1394   23837444.5594
        45.000          39.000
 123819198.46747  96482484.02247  23562016.2684   23562019.7414   23562016.5184
        47.000          41.000
 110974558.26447  86473678.67947  21117758.6894   21117760.5914   21117758.9664
        54.000          47.000
 112196335.09247  87425691.93847  21350270.5054   21350275.0204   21350270.4194
        53.000          47.000
 112984741.50647  88040053.28047  21500283.8344   21500286.6334   21500283.2834
        52.000          47.000
 09  1  1  0 31 30.0000000  0 10G12G18G 9G22G14G 5G30G21G24G29
 128154543.24047  99860667.78847  24387010.5444   24387013.6614   24387010.3904
        43.000          38.000
 124734776.47047  97195924.07647  23736242.1774   23736244.5724   23736242.9584
        46.000          39.000
 113606228.49047  88524318.08747  21618556.2784   21618559.4394   21618556.3824
        52.000          46.000
 128070247.35547  99794977.55147  24370974.8364   24370975.3944   24370974.6574
        43.000          38.000
 115794631.20447  90229570.95547  22034993.7844   22034996.5464   22034994.0704
        50.000          44.000
 125256608.12047  97602534.77747  23835553.1784   23835557.4844   23835553.2914
        45.000          39.000
 123808390.05147  96474061.90047  23559959.6894   23559962.9314   23559959.5544
        47.000          41.000
 110901609.35547  86416835.35247  21103877.2174   21103878.7594   21103877.6124
        54.000          47.000
 112198799.02147  87427611.88047  21350739.4474   21350743.6964   21350739.5374
        53.000          47.000
 113051722.40047  88092246.20047  21513029.9364   21513032.5374   21513029.6814
        52.000          47.000
 09  1  1  0 32  0.0000000  0 10G12G18G 9G22G14G 5G30G21G24G29
 128159252.66947  99864337.51147  24387906.3934   24387909.7834   24387906.4254
        42.000          38.000
 124726204.36247  97189244.54747  23734611.1334   23734613.1524   23734611.3574
        46.000          39.000
 113638672.63147  88549599.25247  21624730.3184   21624733.7524   21624730.4334
        52.000          46.000
 128062530.15147  99788964.16947  24369505.4114   24369507.3734   24369505.7044
        43.000          38.000
 115773208.86147  90212878.24447  22030917.2684   22030920.3894   22030917.4914
        50.000          44.000
 125246547.21047  97594695.14347  23833638.2084   23833643.1884   23833639.4594
        45.000          39.000
 123797373.81447  96465477.86747  23557863.1084   23557866.6514   23557862.8424
        47.000          40.000
 110828945.16047  86360213.90047  21090049.5334   21090051.0664   21090050.0314
        54.000          47.000
 112201702.94647  87429874.69347  21351292.1754   21351296.1834   21351292.2814
        53.000          47.000
 113118919.52947  88144607.58347  21525817.0734   21525819.6894   21525816.9844
        52.000          47.000
 09  1  1  0 32 30.0000000  0 11G12G31G18G 9G22G14G 5G30G21G24G29
 128163856.93947  99867925.29347  24388783.0804   24388785.8474   24388782.6194
        43.000          38.000
 140449603.51057  91649019.81057  24823750.8285   24823755.6665   24823750.1735
        41.000          36.000
 124717413.18147  97182394.27847  23732938.1154   23732940.0754   23732938.8814
        45.000          39.000
 113671651.60647  88575297.17347  21631005.9944   21631009.1744   21631006.0084
        52.000          46.000
 128054639.77447  99782815.88047  24368004.5744   24368005.8914   24368003.9354
        43.000          38.000
 115752262.31547  90196556.28847  22026931.3304   22026933.9624   22026931.4614
        50.000          44.000
 125236372.58547  97586766.87647  23831702.2944   23831706.9234   23831702.3304
        45.000          39.000
 123786156.93247  96456737.43147  23555728.7754   23555731.9574   23555728.5644
        47.000          41.000
 110756575.58147  86303822.03347  21076278.0794   21076279.6614   21076278.4384
        54.000          47.000
 112205054.87547  87432486.58447  21351929.8944   21351934.0174   21351930.0064
        53.000          47.000
 113186336.59247  88197140.33247  21538646.1444   21538648.9324   21538645.8244
        51.000          47.000
 09  1  1  0 33  0.0000000  0 11G12G31G18G 9G22G14G 5G30G21G24G29
 128168352.11447  99871428.06447  24389638.1934   24389641.6884   24389638.2764
        43.000          38.000
 140347568.78047  91569512.35147  24804334.7874   24804338.9574   24804333.9134
        41.000          36.000
 124708397.93947  97175369.41747  23731222.8814   23731225.1694   23731223.3994
        46.000          39.000
 113705160.52147  88601408.03147  21637382.4184   21637385.4964   21637382.4974
        52.000          46.000
 128046569.89247  99776527.69247  24366469.0384   24366469.6304   24366469.1934
        45.000          38.000
 115731785.70147  90180600.51447  22023034.5274   22023037.5634   22023034.8004
        50.000          44.000
 125226080.54847  97578747.09347  23829743.8194   23829748.6094   23829743.6254
        45.000          39.000
 123774735.06047  96447837.29247  23553555.2904   23553558.3974   23553555.0774
        47.000          41.000
 110684498.45747  86247658.04647  21062562.2714   21062563.9034   21062562.6474
        54.000          47.000
 112208850.78747  87435444.44147  21352652.2174   21352656.2184   21352652.4504
        53.000          47.000
 113253966.05447  88249838.61447  21551515.4444   21551518.4884   21551515.1224
        52.000          47.000
 09  1  1  0 33 30.0000000  0 11G12G31G18G 9G22G14G 5G30G21G24G29
 128172741.06247  99874848.03947  24390472.9694   24390476.6534   24390472.4454
        42.000          38.000
 140245442.92247  91489933.87447  24784899.9874   24784904.8184   24784899.8564
        42.000          37.000
 124699159.97247  97168171.02847  23729464.8654   23729467.3094   23729465.3584
        46.000          39.000
 113739200.32847  88627932.57047  21643860.0704   21643863.3444   21643860.0204
        52.000          46.000
 128038320.92347  99770099.95747  24364899.1704   24364899.9224   24364899.4564
        45.000          38.000
 115711779.90147  90165011.60847  22019227.6694   22019230.3604   22019227.8964
        50.000          44.000
 125215673.92847  97570638.05647  23827763.1514   23827768.2494   23827763.7914
        45.000          39.000
 123763110.35847  96438779.10447  23551343.0724   23551346.4064   23551342.5994
        47.000          41.000
 110612718.06647  86191725.28447  21048902.7424   21048904.6694   21048903.1934
        54.000          47.000
 112213092.91147  87438749.99347  21353459.7194   21353463.5714   21353459.8314
        53.000          47.000
 113321806.29447  88302701.14547  21564424.9114   21564428.0284   21564424.7894
        52.000          47.000
 09  1  1  0 34  0.0000000  0 11G12G31G18G 9G22G14G 5G30G21G24G29
 128177026.89647  99878187.69847  24391288.3624   24391292.2114   24391288.4024
        42.000          38.000
 140143229.69347  91410287.30947  24765449.7134   24765454.5624   24765449.4034
        41.000          37.000
 124689700.72047  97160800.18947  23727664.8914   23727667.2954   23727664.8194
        46.000          39.000
 113773772.32547  88654871.81247  21650439.1044   21650441.8644   21650439.1014
        52.000          46.000
 128029893.14647  99763532.90547  24363295.4274   24363296.2604   24363295.2294
        44.000          38.000
 115692245.75647  90149790.22347  22015510.3834   22015513.2484   22015510.6074
        50.000          44.000
 125205155.59947  97562441.97147  23825761.5434   23825766.4594   23825762.2884
        45.000          39.000
 123751285.14347  96429564.67547  23549092.6834   23549096.5484   23549092.2604
        47.000          41.000
 110541239.56947  86136027.75747  21035300.8934   21035302.9374   21035301.3934
        54.000          47.000
 112217783.76947  87442405.20647  21354352.2834   21354356.2714   21354352.2674
        53.000          47.000
 113389855.74547  88355726.68647  21577374.2414   21577377.3924   21577373.9884
        52.000          47.000
 09  1  1  0 34 30.0000000  0 11G12G31G18G 9G22G14G 5G30G21G24G29
 128181207.09647  99881445.02847  24392084.6354   24392087.8204   24392084.2814
        42.000          38.000
 140040928.06347  91330571.85647  24745982.1354   24745987.2224   24745982.1924
        41.000          36.000
 124680016.56147  97153254.12247  23725821.5124   23725823.8184   23725822.1544
        46.000          39.000
 113808872.52347  88682222.63247  21657118.3824   21657121.3904   21657118.4294
        52.000          46.000
 128021282.12647  99756823.07747  24361656.9054   24361657.9324   24361656.8514
        44.000          38.000
 115673179.24647  90134933.22947  22011882.1754   22011884.9774   22011882.4974
        50.000          44.000
 125194523.64147  97554157.33747  23823738.9254   23823742.9254   23823739.4054
        44.000          39.000
 123739256.40647  96420191.67047  23546803.4454   23546807.2254   23546803.4204
        47.000          40.000
 110470062.09647  86080564.78047  21021756.2814   21021758.0854   21021756.6634
        53.000          47.000
 112222921.04747  87446408.28047  21355329.8764   21355333.9874   21355329.8484
        53.000          47.000
 113458108.10847  88408910.34747  21590362.3514   21590365.5134   21590361.9084
        52.000          47.000
 09  1  1  0 35  0.0000000  0 11G12G31G18G 9G22G14G 5G30G21G24G29
 128185288.10147  99884625.04347  24392860.7034   24392863.6914   24392860.5364
        43.000          38.000
 139938544.45947  91250792.53447  24726499.3474   24726504.3354   24726498.5874
        41.000          36.000
 124670112.00347  97145536.29147  23723937.2974   23723938.7204   23723937.6704
        46.000          39.000
 113844505.42547  88709988.55247  21663899.1454   21663902.0804   21663899.2274
        52.000          46.000
 128012491.23947  99749973.07147  24359983.0704   24359984.5884   24359983.4494
        44.000          38.000
 115654584.10947  90120443.54647  22008343.6144   22008346.3564   22008344.0574
        50.000          44.000
 125183784.17547  97545788.96447  23821695.0504   23821699.4934   23821695.3824
        45.000          39.000
 123727029.31447  96410664.08247  23544476.7744   23544480.4654   23544476.7414
        46.000          40.000
 110399193.02547  86025342.12347  21008270.2044   21008272.0954   21008270.5334
        53.000          47.000
 112228510.27047  87450763.52247  21356393.2074   21356397.6014   21356393.3194
        53.000          47.000
 113526565.20047  88462253.53347  21603389.3234   21603392.2604   21603389.3094
        51.000          47.000
 09  1  1  0 35 30.0000000  0 11G12G31G18G 9G22G14G 5G30G21G24G29
 128189267.70947  99887726.06647  24393617.6004   24393621.3794   24393617.5494
        42.000          38.000
 139836077.87047  91170948.57047  24707000.7514   24707005.1994   24706999.3854
        41.000          36.000
 124659984.12947  97137644.45147  23722010.0714   23722011.7534   23722010.2884
        46.000          39.000
 113880667.53547  88738166.83047  21670780.4984   21670783.5064   21670780.3634
        52.000          46.000
 128003515.85947  99742979.30747  24358276.0744   24358276.3854   24358275.8834
        45.000          38.000
 115636456.55147  90106318.19847  22004893.8994   22004896.8974   22004893.9154
        50.000          44.000
 125172935.36247  97537335.36347  23819630.8464   23819634.6674   23819631.0124
        45.000          39.000
 123714601.17547  96400979.82347  23542111.3194   23542115.4664   23542110.9004
        46.000          40.000
 110328632.56247  85970359.93447  20994843.1884   20994844.8264   20994843.6084
        54.000          47.000
 112234549.15847  87455469.14647  21357542.3354   21357546.7824   21357542.4134
        53.000          47.000
 113595220.79347  88515751.38547  21616453.9754   21616456.8744   21616453.6834
        52.000          47.000
 09  1  1  0 36  0.0000000  0 11G12G31G18G 9G22G14G 5G30G21G24G29
 128193149.44547  99890750.82747  24394356.5264   24394359.5224   24394356.1604
        42.000          38.000
 139733532.36147  91091043.09247  24687486.1194   24687491.0114   24687485.6984
        41.000          37.000
 124649634.27747  97129579.64347  23720040.4884   23720042.5794   23720040.9064
        46.000          39.000
 113917360.28047  88766758.59647  21677762.8084   21677765.9434   21677762.7614
        52.000          46.000
 127994357.16647  99735842.71047  24356533.0074   24356533.9164   24356532.9104
        44.000          38.000
 115618797.54347  90092557.96647  22001533.7114   22001536.2324   22001534.0564
        50.000          44.000
 125161980.44047  97528799.07047  23817546.0514   23817550.2794   23817546.6544
        45.000          39.000
 123701974.80947  96391141.13047  23539708.5334   23539712.1824   23539708.0284
        46.000          40.000
 110258385.45447  85915621.92547  20981475.8474   20981477.2734   20981476.3324
        54.000          47.000
 112241040.33847  87460527.20747  21358777.5574   21358782.1704   21358777.7194
        53.000          47.000
 113664073.92647  88569403.15947  21629556.4724   21629559.4444   21629556.1994
        52.000          47.000
 09  1  1  0 36 30.0000000  0 11G12G31G18G 9G22G14G 5G30G21G24G29
 128196933.84447  99893699.74547  24395077.1654   24395079.6794   24395076.3964
        43.000          38.000
 139630908.99847  91011076.92947  24667957.5994   24667961.8364   24667956.8104
        40.000          36.000
 124639061.40347  97121341.05947  23718028.5464   23718030.3904   23718028.9784
        47.000          39.000
 113954582.18447  88795762.68647  21684845.7464   21684848.8154   21684845.7734
        52.000          46.000
 127985012.94947  99728561.52347  24354754.6574   24354755.7134   24354754.6394
        45.000          38.000
 115601605.50347  90079161.59547  21998262.1824   21998264.9574   21998262.4444
        50.000          44.000
 125150919.98347  97520180.56247  23815441.2134   23815445.3974   23815441.6424
        45.000          39.000
 123689149.90647  96381147.70247  23537268.4754   23537271.9054   23537268.0204
        46.000          40.000
 110188453.94147  85861129.84447  20968168.0514   20968169.6994   20968168.4344
        54.000          47.000
 112247983.57547  87465937.52547  21360098.8474   21360103.3924   21360098.9434
        53.000          47.000
 113733120.74247  88623205.86447  21642695.3474   21642698.3744   21642695.1674
        52.000          47.000
 09  1  1  0 37  0.0000000  0 11G12G31G18G 9G22G14G 5G30G21G24G29
 128200622.53747  99896574.08547  24395778.4324   24395781.9614   24395778.0904
        42.000          38.000
 139528210.46147  90931052.23047  24648414.4004   24648419.4104   24648413.7724
        41.000          36.000
 124628265.80347  97112928.90047  23715974.1514   23715976.0884   23715974.6834
        47.000          39.000
 113992333.14747  88825179.02547  21692029.3824   21692032.7294   21692029.4174
        52.000          45.000
 127975482.40247  99721135.17447  24352941.0224   24352941.7034   24352941.4574
        45.000          38.000
 115584879.48947  90066128.37447  21995078.9814   21995081.8734   21995079.3224
        49.000          44.000
 125139755.70347  97511481.15147  23813316.2854   23813321.0324   23813316.6734
        44.000          39.000
 123676127.39747  96371000.31047  23534790.0384   23534794.1284   23534790.2204
        46.000          40.000
 110118841.00847  85806886.01047  20954920.9004   20954922.8474   20954921.2694
        53.000          47.000
 112255380.16847  87471701.10347  21361506.6814   21361510.7914   21361506.8694
        53.000          47.000
 113802358.69247  88677157.50447  21655871.0584   21655873.8924   21655870.7034
        52.000          46.000
 09  1  1  0 37 30.0000000  0 11G12G31G18G 9G22G14G 5G30G21G24G29
 128204218.30147  99899376.05447  24396462.9184   24396466.0834   24396462.1894
        43.000          38.000
 139425440.06347  90850971.54247  24628858.3114   24628862.3994   24628857.6624
        41.000          36.000
 124617248.74447  97104344.19447  23713877.4964   23713879.7784   23713877.9404
        46.000          39.000
 114030613.98847  88855008.26547  21699313.9914   21699317.2824   21699313.7254
        51.000          45.000
 127965765.91347  99713563.92147  24351091.8064   24351093.0194   24351092.0004
        44.000          38.000
 115568620.18947  90053458.81347  21991984.9634   21991987.9804   21991985.1904
        50.000          44.000
 125128490.32147  97502702.89947  23811172.6164   23811177.3044   23811173.3144
        45.000          39.000
 123662909.60147  96360700.75747  23532275.0114   23532279.1224   23532274.9364
        47.000          41.000
 110049551.38647  85752894.09947  20941735.5984   20941737.5284   20941735.9574
        54.000          47.000
 112263232.13847  87477819.52347  21363000.8464   21363005.0954   21363001.0354
        53.000          47.000
 113871786.24047  88731256.87947  21669082.6554   21669085.5234   21669082.3494
        52.000          46.000
 09  1  1  0 38  0.0000000  0 11G12G31G18G 9G22G14G 5G30G21G24G29
 128207720.48747  99902105.03347  24397128.9624   24397132.4254   24397128.5644
        42.000          38.000
 139322597.75047  90770834.79347  24609287.9644   24609291.6784   24609287.5704
        41.000          37.000
 124606007.87147  97095585.09847  23711738.7164   23711740.1614   23711738.9344
        46.000          39.000
 114069421.63047  88885247.99547  21706698.7744   21706701.9134   21706698.8644
        51.000          45.000
 127955860.05847  99705845.09847  24349206.9784   24349207.9144   24349207.1604
        44.000          38.000
 115552824.52247  90041150.53647  21988979.0734   21988982.3114   21988979.2634
        50.000          44.000
 125117123.24247  97493845.44747  23809010.0074   23809014.2954   23809010.5434
        45.000          39.000
 123649494.70547  96350247.59947  23529722.1324   23529725.9474   23529721.2944
        46.000          40.000
 109980585.28147  85699154.27847  20928611.8894   20928613.6294   20928612.2754
        54.000          47.000
 112271538.01947  87484291.63847  21364581.3724   21364585.5624   21364581.5354
        53.000          47.000
 113941398.29547  88785500.03147  21682329.5224   21682332.3324   21682329.4104
        52.000          46.000
 09  1  1  0 38 30.0000000  0 11G12G31G18G 9G22G14G 5G30G21G24G29
 128211133.33847  99904764.39847  24397778.5334   24397782.1604   24397778.4974
        43.000          38.000
 139219688.56047  90690645.93647  24589705.2054   24589708.4784   24589704.7004
        42.000          36.000
 124594546.48747  97086654.13847  23709557.7344   23709559.3324   23709558.2834
        46.000          39.000
 114108759.07847  88915900.56247  21714184.4134   21714187.7064   21714184.5394
        52.000          45.000
 127945766.59947  99697980.12247  24347286.1804   24347287.1534   24347286.4964
        45.000          38.000
 115537494.58947  90029205.16647  21986061.8864   21986064.6924   21986062.0964
        50.000          44.000
 125105658.85347  97484912.16847  23806828.3564   23806832.4434   23806828.8294
        45.000          39.000
 123635886.24647  96339643.62547  23527132.6404   23527136.2354   23527132.1934
        47.000          40.000
 109911949.09847  85645671.53547  20915550.8134   20915552.6814   20915551.2184
        54.000          48.000
 112280301.37547  87491120.22447  21366248.9314   21366253.2544   21366249.0604
        52.000          47.000
 114011194.56847  88839886.73347  21695611.3884   21695614.1104   21695611.1604
        51.000          46.000
 09  1  1  0 39  0.0000000  0 11G12G31G18G 9G22G14G 5G30G21G24G29
 128214455.88547  99907353.42847  24398410.3284   24398414.4604   24398410.3604
        43.000          38.000
 139116712.34547  90610404.86747  24570109.4494   24570112.9714   24570109.1764
        43.000          37.000
 124582861.77647  97077549.17547  23707334.3084   23707335.6374   23707334.5684
        46.000          39.000
 114148623.15647  88946963.48947  21721770.4734   21721773.5864   21721770.4414
        52.000          45.000
 127935482.12147  99689966.28447  24345329.3054   24345330.1504   24345329.2924
        45.000          38.000
 115522626.87547  90017619.95847  21983232.7364   21983235.5894   21983232.9074
        50.000          44.000
 125094096.05647  97475902.20047  23804627.6254   23804632.3124   23804627.9404
        45.000          39.000
 123622082.49547  96328887.46947  23524506.1034   23524509.2624   23524505.5754
        47.000          40.000
 109843643.15647  85592446.12447  20902552.7254   20902554.4874   20902553.1064
        54.000          48.000
 112289520.50847  87498303.96047  21368003.2954   21368007.5304   21368003.4034
        53.000          47.000
 114081169.77047  88894412.88047  21708927.2554   21708929.7184   21708927.0694
        52.000          46.000
 09  1  1  0 39 30.0000000  0 11G12G31G18G 9G22G14G 5G30G21G24G29
 128217690.53447  99909873.95347  24399026.3924   24399030.0514   24399026.4444
        43.000          38.000
 139013672.62147  90530114.30047  24550502.0574   24550505.2384   24550501.7004
        43.000          37.000
 124570955.03447  97068271.21047  23705068.5414   23705069.9474   23705068.6614
        47.000          39.000
 114189014.21347  88978437.05647  21729456.6054   21729459.8554   21729456.6914
        51.000          45.000
 127925006.59147  99681803.56047  24343335.4784   24343336.6744   24343335.8674
        44.000          38.000
 115508221.89947  90006395.33347  21980491.7454   21980494.3314   21980491.9234
        51.000          44.000
 125082437.62947  97466817.71747  23802409.7454   23802413.3734   23802409.8964
        45.000          39.000
 123608085.55047  96317980.77047  23521842.7204   23521845.8594   23521842.4624
        47.000          41.000
 109775671.38447  85539481.10647  20889618.1524   20889619.9694   20889618.4614
        54.000          48.000
 112299197.41047  87505844.39947  21369844.4644   21369848.8934   21369844.7034
        53.000          47.000
 114151322.22147  88949077.14847  21722276.8044   21722279.2804   21722276.6234
        52.000          46.000
 09  1  1  0 40  0.0000000  0 11G12G31G18G 9G22G14G 5G30G21G24G29
 128220840.89147  99912328.84647  24399625.7874   24399629.0304   24399625.5734
        43.000          38.000
 138910573.53347  90449777.49347  24530882.1824   24530886.2704   24530882.6684
        43.000          37.000
 124558828.26047  97058821.79147  23702760.7404   23702762.3734   23702761.2094
        46.000          39.000
 114229933.73947  89010322.41847  21737243.1044   21737246.7174   21737243.3364
        51.000          45.000
 127914340.78347  99673492.56147  24341306.0684   24341306.9614   24341306.0854
        44.000          38.000
 115494280.26147  89995531.74847  21977838.5224   21977841.3244   21977838.7454
        50.000          44.000
 125070687.00447  97457661.41747  23800173.2594   23800177.6284   23800173.5944
        45.000          39.000
 123593898.14547  96306925.69047  23519142.6274   23519145.9224   23519142.3674
        47.000          41.000
 109708038.99247  85486780.54547  20876748.0144   20876749.9114   20876748.3594
        54.000          48.000
 112309334.57147  87513743.48747  21371773.7494   21371777.9744   21371773.8764
        52.000          47.000
 114221651.31947  89003879.08547  21735659.7924   21735662.6354   21735659.2994
        51.000          46.000
 09  1  1  0 40 30.0000000  0 11G12G31G18G 9G22G14G 5G30G21G24G29
 128223895.35147  99914709.00347  24400207.3074   24400210.0724   24400207.1384
        44.000          38.000
 138807404.05847  90369385.84347  24511249.2724   24511253.6324   24511249.6934
        43.000          37.000
 124546468.66147  97049190.95847  23700408.7234   23700410.1904   23700409.0784
        47.000          39.000
 114271368.58747  89042609.32947  21745128.1934   21745131.3114   21745128.4084
        52.000          45.000
 127903471.20247  99665022.79147  24339237.5454   24339238.5994   24339237.6804
        44.000          38.000
 115480788.28447  89985018.55047  21975271.4404   21975273.9934   21975271.6134
        51.000          44.000
 125058832.75247  97448424.34847  23797917.9734   23797921.6364   23797918.5234
        45.000          39.000
 123579508.19247  96295712.75547  23516404.3654   23516407.6464   23516403.7584
        47.000          41.000
 109640735.86147  85434336.54547  20863940.6864   20863942.5654   20863941.0384
        54.000          48.000
 112319919.87847  87521991.78247  21373788.1094   21373792.1424   21373788.2144
        53.000          47.000
 114292140.78147  89058805.95347  21749073.7174   21749076.4784   21749073.3654
        52.000          46.000
 09  1  1  0 41  0.0000000  0 11G12G31G18G 9G22G14G 5G30G21G24G29
 128226877.07847  99917032.49547  24400774.7594   24400777.5484   24400774.6344
        43.000          38.000
 138704188.36547  90288958.18247  24491607.4534   24491612.2654   24491608.0984
        42.000          37.000
 124533897.58447  97039395.32147  23698016.6484   23698017.8814   23698017.1864
        47.000          39.000
 114313338.96547  89075313.53247  21753114.7464   21753118.1374   21753114.8204
        51.000          45.000
 127892418.29347  99656410.17447  24337134.1314   24337134.9114   24337134.1174
        45.000          38.000
 115467766.46347  89974871.70847  21972793.0494   21972795.6204   21972793.4924
        50.000          44.000
 125046898.09747  97439124.61147  23795646.3794   23795650.6534   23795646.6464
        45.000          39.000
 123564937.84647  96284359.27047  23513631.7024   23513634.9274   23513631.3294
        47.000          40.000
 109573786.70947  85382168.37847  20851200.7134   20851202.4654   20851201.1194
        54.000          48.000
 112330975.53447  87530606.58447  21375891.8984   21375895.9734   21375892.0154
        53.000          47.000
 114362809.36447  89113872.36047  21762521.4364   21762524.2444   21762521.2194
        51.000          46.000
 09  1  1  0 41 30.0000000  0 11G12G31G18G 9G22G14G 5G30G21G24G29
 128229778.32147  99919293.23847  24401326.4204   24401329.4174   24401326.6214
        43.000          38.000
 138600918.99447  90208488.69047  24471955.9474   24471960.4164   24471955.8754
        42.000          37.000
 124521105.81047  97029427.71047  23695582.5234   23695584.1294   23695583.0544
        47.000          39.000
 114355835.03247  89108427.36047  21761201.4294   21761204.7174   21761201.5984
        51.000          45.000
 127881171.63247  99647646.59247  24334994.0124   24334994.5114   24334994.0854
        44.000          38.000
 115455204.43747  89965083.15047  21970402.6584   21970405.1814   21970402.8434
        50.000          44.000
 125034875.19647  97429756.13447  23793358.6244   23793362.6994   23793358.7554
        46.000          39.000
 123550178.74147  96272858.69547  23510823.2794   23510826.0114   23510822.9074
        47.000          40.000
 109507184.99047  85330270.94447  20838526.9114   20838528.6774   20838527.2734
        54.000          48.000
 112342492.73747  87539581.02547  21378083.5244   21378087.7724   21378083.6214
        53.000          47.000
 114433644.72347  89169068.70247  21776000.7024   21776003.8414   21776000.2224
        51.000          46.000
 09  1  1  0 42  0.0000000  0 11G12G31G18G 9G22G14G 5G30G21G24G29
 128232599.50347  99921491.59847  24401863.2334   24401866.5224   24401863.0944
        43.000          38.000
 138497597.31647  90127978.43347  24452294.6144   24452298.9284   24452293.6244
        42.000          38.000
 124508092.39847  97019287.39947  23693106.3894   23693107.4874   23693106.7184
        47.000          39.000
 114398854.93947  89141949.37847  21769388.0244   21769391.1804   21769388.3434
        51.000          45.000
 127869729.29247  99638730.52747  24332816.2334   24332817.7644   24332816.7994
        43.000          38.000
 115443100.22847  89955651.31947  21968099.3964   21968102.1094   21968099.4544
        50.000          44.000
 125022764.49847  97420319.25247  23791054.2504   23791057.7874   23791054.8304
        45.000          39.000
 123535230.34947  96261210.63347  23507978.5424   23507981.7064   23507978.4764
        47.000          40.000
 109440932.61347  85278645.71747  20825919.5194   20825921.0674   20825919.7944
        54.000          48.000
 112354471.31947  87548914.98347  21380362.9374   21380367.1064   21380363.1834
        53.000          46.000
 114504643.22647  89224392.19147  21789511.4124   21789514.4174   21789511.1084
        51.000          46.000
 09  1  1  0 42 30.0000000  0 11G12G31G18G 9G22G14G 5G30G21G24G29
 128235341.73947  99923628.44347  24402385.7214   24402388.4464   24402384.7584
        43.000          38.000
 138394225.45747  90047429.07847  24432623.3484   24432628.3664   24432622.3094
        43.000          38.000
 124494857.12347  97008974.22047  23690587.5654   23690589.1814   23690587.7914
        47.000          39.000
 114442397.70847  89175878.81047  21777673.8494   21777677.1684   21777674.0644
        51.000          45.000
 127858089.96447  99629660.92047  24330601.1604   24330602.6064   24330601.6154
        44.000          38.000
 115431452.27247  89946575.01647  21965883.0744   21965885.2984   21965883.4744
        51.000          45.000
 125010567.10247  97410814.78047  23788733.1754   23788736.7644   23788733.5234
        46.000          39.000
 123520093.31347  96249415.58047  23505097.9254   23505101.1484   23505097.6114
        47.000          40.000
 109375032.13447  85227294.69447  20813379.1204   20813380.7444   20813379.5464
        54.000          48.000
 112366911.39947  87558608.56047  21382730.1744   21382734.3604   21382730.3464
        52.000          46.000
 114575801.76747  89279840.40847  21803052.4154   21803055.6594   21803052.3564
        51.000          46.000
 09  1  1  0 43  0.0000000  0 11G12G31G18G 9G22G14G 5G30G21G24G29
 128238007.86147  99925705.99347  24402892.5314   24402895.0334   24402892.2144
        44.000          38.000
 138290806.83447  89966843.27547  24412943.8174   24412948.1844   24412942.5674
        42.000          38.000
 124481401.46847  96998489.29847  23688026.9634   23688028.1104   23688027.0754
        46.000          39.000
 114486463.88747  89210216.10247  21786059.5664   21786062.4704   21786059.8114
        52.000          45.000
 127846253.94147  99620438.09747  24328349.5734   24328349.6804   24328349.9254
        44.000          38.000
 115420260.88747  89937854.48447  21963753.1814   21963755.9504   21963753.4664
        50.000          45.000
 124998286.04847  97401245.13847  23786395.9574   23786400.0404   23786396.7564
        45.000          39.000
 123504769.72247  96237475.15647  23502182.0774   23502185.3884   23502181.8594
        47.000          41.000
 109309487.99347  85176221.33147  20800906.5244   20800908.1474   20800907.0084
        54.000          48.000
 112379814.88847  87568663.23147  21385185.6264   21385189.8464   21385185.7334
        52.000          47.000
 114647118.51247  89335411.90247  21816623.7914   21816626.4804   21816623.4114
        51.000          46.000
 09  1  1  0 43 30.0000000  0 11G12G31G18G 9G22G14G 5G30G21G24G29
 128240599.52347  99927725.49547  24403386.1694   24403388.9554   24403385.8104
        43.000          38.000
 138187343.78647  89886222.84247  24393254.8604   24393259.4314   24393254.1394
        43.000          38.000
 124467725.56647  96987832.75947  23685424.2504   23685425.3254   23685424.6944
        46.000          39.000
 114531052.84447  89244960.76247  21794544.7874   21794547.3334   21794544.9724
        51.000          45.000
 127834220.19047  99611061.18447  24326059.6464   24326060.1944   24326059.5954
        44.000          38.000
 115409525.06247  89929488.93547  21961710.2684   21961712.9674   21961710.5954
        50.000          44.000
 124985923.07047  97391611.65147  23784043.6774   23784047.4524   23784043.9984
        45.000          39.000
 123489260.63247  96225390.17247  23499230.8234   23499234.0234   23499230.4144
        47.000          40.000
 109244303.10247  85125427.91547  20788502.3314   20788503.9514   20788502.7444
        54.000          48.000
 112393182.24347  87579079.36547  21387729.4304   21387733.6344   21387729.7484
        53.000          46.000
 114718590.80847  89391104.59447  21830224.4954   21830227.0994   21830224.2594
        51.000          46.000
 09  1  1  0 44  0.0000000  0 11G12G31G18G 9G22G14G 5G30G21G24G29
 128243116.90247  99929687.15547  24403864.5064   24403867.3034   24403864.5534
        44.000          38.000
 138083837.30247  89805568.56547  24373558.3714   24373562.6294   24373557.7444
        43.000          38.000
 124453828.26247  96977003.70547  23682779.5454   23682781.2804   23682779.7604
        46.000          39.000
 114576162.66647  89280111.28347  21803128.6464   21803131.5994   21803128.7204
        52.000          45.000
 127821986.73747  99601528.64147  24323731.5944   24323732.2214   24323731.8564
        44.000          38.000
 115399242.68647  89921476.71947  21959753.2214   21959756.3874   21959753.3864
        50.000          45.000
 124973478.35447  97381914.49347  23781675.4204   23781679.2984   23781675.7504
        45.000          39.000
 123473565.60247  96213160.29747  23496243.7824   23496247.1564   23496243.2204
        47.000          40.000
 109179479.00447  85074915.65147  20776166.5274   20776168.2404   20776166.9564
        54.000          48.000
 112407012.84547  87589856.46747  21390361.3474   21390365.2934   21390361.5444
        53.000          46.000
 114790214.36147  89446915.13647  21843853.7324   21843856.6094   21843853.1134
        51.000          46.000
 09  1  1  0 44 30.0000000  0 11G12G31G18G 9G22G14G 5G30G21G24G29
 128245564.34147  99931594.29947  24404330.2914   24404332.8884   24404329.8614
        43.000          38.000
 137980292.21647  89724884.18847  24353854.1194   24353858.3864   24353853.4614
        42.000          38.000
 124439712.66547  96966004.54747  23680093.3004   23680095.3664   23680093.6944
        46.000          39.000
 114621795.07047  89315669.01047  21811812.2294   21811815.2364   21811812.3704
        52.000          45.000
 127809555.20347  99591841.76347  24321365.5564   24321365.8574   24321365.4924
        44.000          38.000
 115389414.72447  89913818.59147  21957883.4494   21957886.0044   21957883.7384
        51.000          44.000
 124960956.26947  97372157.06347  23779292.1484   23779296.3144   23779293.1384
        46.000          39.000
 123457688.12847  96200788.28547  23493222.3454   23493225.5604   23493222.1534
        46.000          40.000
 109115021.56447  85024689.07547  20763900.7174   20763902.2374   20763901.0244
        54.000          48.000
 112421309.95247  87600997.07647  21393081.7674   21393086.1034   21393081.9644
        53.000          46.000
 114861989.14347  89502843.51647  21857512.2424   21857514.9314   21857512.1754
        51.000          46.000
 09  1  1  0 45  0.0000000  0 11G12G31G18G 9G22G14G 5G30G21G24G29
 128247941.27247  99933446.47547  24404782.2984   24404785.7194   24404781.9694
        44.000          38.000
 137876709.21647  89644170.27547  24334142.8534   24334147.6684   24334141.8694
        42.000          37.000
 124425376.21247  96954833.30547  23677365.5274   23677367.4544   23677365.9704
        46.000          39.000
 114667946.89547  89351631.48347  21820594.4654   21820597.5534   21820594.5984
        51.000          45.000
 127796922.39447  99581998.05247  24318961.1254   24318962.8264   24318961.0714
        43.000          37.000
 115380037.91547  89906512.01047  21956098.7804   21956101.4514   21956099.0334
        51.000          44.000
 124948356.05247  97362338.72747  23776895.0394   23776898.7884   23776895.3304
        45.000          39.000
 123441626.98447  96188273.14447  23490165.7794   23490169.0264   23490165.6784
        46.000          40.000
 109050931.37347  84974748.66647  20751704.6784   20751706.4404   20751705.0524
        54.000          48.000
 112436071.69547  87612499.73447  21395891.0214   21395895.1544   21395891.1954
        53.000          47.000
 114933909.95047  89558885.69447  21871198.3844   21871201.0914   21871198.4934
        51.000          46.000
 09  1  1  0 45 30.0000000  0 11G12G31G18G 9G22G14G 5G30G21G24G29
 128250248.56347  99935244.42247  24405221.3854   24405225.2974   24405221.0644
        43.000          38.000
 137773090.15047  89563428.24447  24314424.6464   24314429.3944   24314424.0454
        42.000          38.000
 124410818.96747  96943489.99447  23674595.4894   23674596.9534   23674596.2514
        47.000          39.000
 114714617.04047  89387997.83447  21829475.3534   21829478.4054   21829475.4334
        51.000          45.000
 127784087.44647  99571996.83047  24316519.1054   24316520.1864   24316519.1094
        43.000          38.000
 115371111.10147  89899556.07447  21954400.2164   21954402.6444   21954400.5234
        51.000          44.000
 124935679.36347  97352460.80247  23774482.4424   23774486.4284   23774482.6234
        45.000          39.000
 123425382.93047  96175615.46047  23487074.7984   23487078.3854   23487074.5804
        46.000          40.000
 108987211.20047  84925096.58847  20739579.1274   20739580.9654   20739579.4154
        54.000          48.000
 112451298.31847  87624364.63347  21398788.4304   21398792.5774   21398788.5824
        53.000          46.000
 115005974.00247  89615039.50147  21884911.4454   21884914.4294   21884910.9054
        51.000          46.000
 09  1  1  0 46  0.0000000  0 11G12G31G18G 9G22G14G 5G30G21G24G29
 128252490.88447  99936991.69147  24405648.4744   24405651.9234   24405647.8374
        43.000          38.000
 137669440.22547  89482662.16047  24294700.8224   24294705.1704   24294700.8874
        43.000          37.000
 124396043.82347  96931976.88547  23671783.6204   23671785.7134   23671784.2684
        47.000          40.000
 114761807.44247  89424769.59047  21838455.4364   21838458.4094   21838455.4374
        51.000          45.000
 127771052.21247  99561839.52447  24314038.5884   24314039.5974   24314039.0024
        44.000          38.000
 115362636.15347  89892952.24247  21952787.1414   21952789.7584   21952787.3934
        50.000          44.000
 124922930.50147  97342526.65447  23772055.8114   23772060.3914   23772056.7024
        46.000          39.000
 123408959.54947  96162818.04847  23483949.9574   23483953.1814   23483949.6314
        47.000          40.000
 108923866.80347  84875737.32147  20727525.1714   20727526.7624   20727525.5234
        54.000          48.000
 112466993.13847  87636594.36147  21401774.8754   21401779.2724   21401775.1564
        52.000          46.000
 115078181.13347  89671304.80047  21898651.9104   21898654.9824   21898651.6414
        51.000          46.000
 09  1  1  0 46 30.0000000  0 11G12G31G18G 9G22G14G 5G30G21G24G29
 128254667.89847  99938688.08147  24406062.5494   24406065.3344   24406061.8254
        43.000          38.000
 137565759.59347  89401872.17147  24274970.9944   24274975.4644   24274971.1764
        43.000          37.000
 124381049.22147  96920292.79047  23668930.2224   23668932.1334   23668930.7054
        47.000          39.000
 114809515.29847  89461944.55547  21847533.5104   21847537.1374   21847533.6684
        51.000          45.000
 127757813.49047  99551523.66847  24311519.8514   24311520.0984   24311520.5154
        45.000          38.000
 115354609.29747  89886697.57947  21951260.0624   21951262.1334   21951260.3914
        51.000          44.000
 124910108.95247  97332535.83547  23769616.1704   23769620.0934   23769616.5434
        46.000          39.000
 123392355.78147  96149880.07947  23480790.2004   23480793.5224   23480789.7394
        46.000          40.000
 108860898.54347  84826671.14347  20715542.6504   20715544.3474   20715543.1344
        54.000          48.000
 112483154.49947  87649187.63147  21404850.2674   21404854.5774   21404850.4614
        53.000          46.000
 115150526.14847  89727677.53247  21912418.8284   21912421.7254   21912418.8464
        51.000          46.000
 09  1  1  0 47  0.0000000  0 11G12G31G18G 9G22G14G 5G30G21G24G29
 128256781.82647  99940335.32847  24406464.6394   24406467.6534   24406464.5294
        43.000          37.000
 137462051.05047  89321060.41547  24255235.4454   24255240.6514   24255235.3224
        42.000          38.000
 124365836.04247  96908438.37747  23666035.2794   23666036.8904   23666035.8464
        47.000          39.000
 114857740.21647  89499522.42347  21856710.7234   21856713.9634   21856710.6924
        51.000          45.000
 127744371.16347  99541049.15947  24308961.8004   24308962.2744   24308962.2394
        44.000          39.000
 115347029.97047  89880791.63747  21949817.6774   21949819.8374   21949817.8124
        51.000          44.000
 124897216.99547  97322490.15447  23767163.1094   23767167.4434   23767163.7334
        46.000          39.000
 123375573.22547  96136802.77547  23477596.4394   23477599.9004   23477595.7404
        46.000          40.000
 108798310.23447  84777901.02547  20703632.4984   20703634.4104   20703632.8194
        54.000          48.000
 112499783.46447  87662145.26847  21408014.7934   21408019.0004   21408015.0214
        53.000          46.000
 115223006.93347  89784156.06347  21926211.3754   21926214.4664   21926210.9974
        50.000          46.000
 09  1  1  0 47 30.0000000  0 11G12G31G18G 9G22G14G 5G30G21G24G29
 128258834.11947  99941934.54547  24406854.9144   24406858.9454   24406854.6324
        42.000          37.000
 137358317.44347  89240229.13347  24235495.7834   24235500.9874   24235494.7404
        43.000          38.000
 124350404.93447  96896414.14947  23663098.6124   23663100.9374   23663098.6714
        46.000          39.000
 114906481.37147  89537502.56147  21865986.0824   21865989.1684   21865986.2124
        51.000          45.000
 127730724.66647  99530415.52847  24306364.5464   24306365.8104   24306364.9104
        45.000          39.000
 115339897.21847  89875233.67347  21948460.0404   21948462.6424   21948460.4064
        50.000          44.000
 124884256.59247  97312391.17647  23764696.4224   23764700.9324   23764697.1644
        45.000          39.000
 123358613.02447  96123587.04347  23474369.0984   23474372.4634   23474368.8134
        47.000          40.000
 108736105.04747  84729429.43847  20691795.3714   20691796.9604   20691795.7604
        54.000          48.000
 112516880.94647  87675467.98247  21411268.4324   21411272.7224   21411268.5454
        53.000          47.000
 115295621.31147  89840738.68247  21940029.4554   21940032.6014   21940029.0574
        51.000          46.000
 09  1  1  0 48  0.0000000  0 11G12G31G18G 9G22G14G 5G30G21G24G29
 128260825.42147  99943486.23247  24407233.8264   24407237.4014   24407233.0404
        43.000          38.000
 137254560.38047  89159379.58047  24215751.2734   24215756.2114   24215750.2544
        42.000          38.000
 124334754.79547  96884219.22147  23660120.9334   23660122.2794   23660121.0534
        45.000          39.000
 114955736.86847  89575883.47847  21875359.0084   21875362.3904   21875359.0114
        51.000          45.000
 127716872.09047  99519621.35747  24303728.9754   24303729.6944   24303729.0964
        44.000          39.000
 115333208.88147  89870022.00847  21947187.3654   21947189.8544   21947187.5304
        51.000          44.000
 124871228.54847  97302239.46747  23762217.5994   23762221.7274   23762218.0564
        44.000          39.000
 123341475.38947  96110233.07047  23471107.9234   23471111.2994   23471107.6984
        46.000          40.000
 108674284.94347  84681257.94047  20680031.2424   20680032.9214   20680031.6934
        54.000          48.000
 112534446.24147  87689155.22947  21414611.1884   21414615.1204   21414611.2684
        53.000          47.000
 115368365.11647  89897422.15547  21953872.3784   21953875.2064   21953872.2654
        51.000          46.000
 09  1  1  0 48 30.0000000  0 11G12G31G18G 9G22G14G 5G30G21G24G29
 128262760.44147  99944994.12247  24407601.7304   24407605.2144   24407601.2464
        42.000          38.000
 137150784.76247  89078515.56847  24196003.4824   24196008.3204   24196002.6574
        43.000          38.000
 124318888.50147  96871855.85747  23657101.4014   23657103.3974   23657102.0234
        46.000          39.000
 115005508.52947  89614666.60447  21884830.3084   21884833.5224   21884830.2944
        51.000          45.000
 127702815.57847  99508668.24247  24301053.5064   24301054.3664   24301053.4204
        45.000          38.000
 115326966.27247  89865157.66047  21945999.3084   21946002.0734   21945999.6434
        50.000          44.000
 124858137.19447  97292038.44747  23759726.3044   23759730.7414   23759726.5144
        45.000          40.000
 123324163.50447  96096743.30047  23467813.4934   23467816.5714   23467813.2244
        47.000          41.000
 108612855.70147  84633391.00347  20668341.7134   20668343.3964   20668342.1134
        54.000          48.000
 112552482.14347  87703209.18047  21418043.1004   21418047.2474   21418043.2794
        53.000          46.000
 115441238.35947  89954206.48947  21967739.7194   21967742.5114   21967739.2064
        51.000          46.000
 09  1  1  0 49  0.0000000  0 11G12G31G18G 9G22G14G 5G30G21G24G29
 128264637.41147  99946456.72447  24407959.0324   24407962.5364   24407958.5914
        43.000          38.000
 137046990.03047  88997636.67647  24176251.9254   24176256.5134   24176252.0394
        43.000          39.000
 124302803.24447  96859321.91047  23654040.2434   23654042.2324   23654040.8834
        46.000          39.000
 115055792.21247  89653848.70047  21894399.0464   21894402.1044   21894399.1394
        51.000          45.000
 127688551.10247  99497553.09447  24298339.5384   24298339.7834   24298339.5614
        46.000          39.000
 115321165.13347  89860637.31647  21944895.5174   21944898.0824   21944895.8134
        50.000          44.000
 124844981.07047  97281786.94047  23757222.9294   23757226.9594   23757223.3424
        45.000          39.000
 123306675.49547  96083116.30347  23464485.7134   23464489.0674   23464485.5984
        47.000          41.000
 108551816.80247  84585828.22147  20656726.1484   20656727.8414   20656726.5794
        54.000          48.000
 112570986.04047  87717627.80247  21421564.3964   21421568.4044   21421564.4474
        53.000          47.000
 115514235.06347  90011087.03647  21981630.6074   21981633.3404   21981630.1204
        51.000          46.000
 09  1  1  0 49 30.0000000  0 11G12G31G18G 9G22G14G 5G30G21G24G29
 128266459.75447  99947876.75247  24408306.4124   24408308.6514   24408306.3824
        43.000          38.000
 136943180.13347  88916745.96947  24156497.0844   24156501.9584   24156497.9174
        43.000          39.000
 124286501.30247  96846619.08847  23650938.5074   23650939.8174   23650938.5064
        46.000          39.000
 115106588.05547  89693429.90147  21904065.0054   21904068.0614   21904065.2224
        51.000          45.000
 127674079.51947  99486276.57447  24295585.1344   24295586.1914   24295585.6794
        44.000          38.000
 115315805.62247  89856461.09347  21943875.7064   21943878.1844   21943876.2714
        51.000          44.000
 124831763.51347  97271487.56347  23754707.6414   23754712.2724   23754707.5764
        45.000          39.000
 123289014.10047  96069354.19947  23461124.8044   23461128.0644   23461124.4834
        47.000          41.000
 108491172.53647  84538572.94447  20645186.0184   20645187.6434   20645186.3294
        54.000          48.000
 112589959.89647  87732412.62447  21425174.9814   21425179.0864   21425175.0354
        53.000          47.000
 115587354.02347  90068062.86547  21995544.5484   21995547.4754   21995544.3034
        51.000          46.000
 09  1  1  0 50  0.0000000  0 11G12G31G18G 9G22G14G 5G30G21G24G29
 128268231.01747  99949256.99247  24408643.2124   24408645.7104   24408643.0584
        43.000          38.000
 136839359.35647  88835846.80547  24136740.7614   24136745.4074   24136740.4814
        42.000          38.000
 124269984.41247  96833748.79047  23647795.4504   23647797.0534   23647796.2004
        46.000          39.000
 115157897.21147  89733411.07147  21913828.8064   21913831.8234   21913828.9814
        51.000          44.000
 127659401.84847  99474839.41847  24292792.0344   24292793.2864   24292792.0844
        44.000          38.000
 115310888.37147  89852629.49347  21942939.9474   21942942.4394   21942939.9994
        50.000          44.000
 124818488.06247  97261143.09547  23752181.1814   23752185.3764   23752181.3284
        45.000          39.000
 123271182.23347  96055459.25147  23457731.4634   23457734.7994   23457731.0124
        47.000          41.000
 108430927.90347  84491629.07147  20633722.1694   20633723.6274   20633722.5854
        55.000          48.000
 112609405.76147  87747565.24547  21428875.3534   21428879.4634   21428875.4704
        53.000          46.000
 115660594.44747  90125133.34247  22009481.7614   22009484.8124   22009481.3244
        51.000          46.000
 09  1  1  0 50 30.0000000  0 11G12G31G18G 9G22G14G 5G30G21G24G29
 128269948.69447  99950595.47247  24408969.8624   24408973.1844   24408969.6034
        43.000          38.000
 136735526.42047  88754938.13447  24116981.8824   24116986.7354   24116980.3854
        42.000          38.000
 124253249.58047  96820708.68447  23644610.8214   23644612.4964   23644611.4424
        46.000          39.000
 115209714.85747  89773788.47247  21923689.3934   21923692.1934   21923689.5004
        51.000          44.000
 127644513.63047  99463238.22547  24289959.5154   24289959.6944   24289959.3744
        45.000          38.000
 115306408.33347  89849138.58247  21942087.2774   21942090.0864   21942087.7374
        50.000          44.000
 124805152.77047  97250751.95247  23749643.5194   23749647.7894   23749643.8694
        45.000          40.000
 123253177.19247  96041429.36847  23454305.5064   23454308.7194   23454305.1884
        47.000          41.000
 108371082.01247  84444995.90647  20622333.6894   20622335.4104   20622334.0884
        54.000          48.000
 112629320.16247  87763082.96247  21432664.9784   21432669.0404   21432664.9864
        53.000          46.000
 115733949.73547  90182293.30847  22023440.8034   22023443.7774   22023440.5504
        51.000          46.000
 09  1  1  0 51  0.0000000  0 11G12G31G18G 9G22G14G 5G30G21G24G29
 128271616.84747  99951895.35247  24409287.1554   24409290.7244   24409287.1074
        43.000          38.000
 136631685.44047  88674023.19747  24097221.9594   24097225.8854   24097220.5774
        43.000          38.000
 124236298.76647  96807500.27547  23641385.2614   23641387.1484   23641385.5294
        46.000          39.000
 115262041.61347  89814562.58247  21933646.8204   21933649.5574   21933647.0474
        51.000          44.000
 127629415.86247  99451473.75147  24287086.0844   24287086.5804   24287085.8754
        44.000          38.000
 115302365.78647  89845988.56647  21941317.9804   21941320.4814   21941318.1914
        50.000          44.000
 124791761.14647  97240316.90547  23747095.5504   23747099.9084   23747095.7684
        46.000          40.000
 123235001.98047  96027266.86947  23450846.8284   23450850.2084   23450846.8744
        47.000          41.000
 108311639.51847  84398677.06747  20611022.3194   20611023.8244   20611022.7674
        54.000          48.000
 112649705.25947  87778967.45247  21436544.1954   21436548.3234   21436544.3104
        53.000          46.000
 115807419.17447  90239542.21747  22037421.4784   22037424.5474   22037421.5024
        51.000          46.000
 09  1  1  0 51 30.0000000  0 11G12G31G18G 9G22G14G 5G30G21G24G29
 128273239.12047  99953159.48947  24409596.0674   24409598.8014   24409595.9054
        44.000          38.000
 136527841.88947  88593106.29547  24077461.2014   24077465.3784   24077460.8354
        44.000          38.000
 124219134.94847  96794125.87047  23638119.4274   23638121.0374   23638119.7074
        46.000          39.000
 115314878.65547  89855734.31647  21943701.3964   21943704.3814   21943701.5444
        50.000          44.000
 127614110.50647  99439547.54647  24284174.1324   24284174.3104   24284173.8564
        45.000          38.000
 115298761.79647  89843180.27847  21940632.2714   21940634.8064   21940632.5404
        50.000          44.000
 124778317.39347  97229841.27247  23744537.0874   23744541.3874   23744537.6964
        46.000          40.000
 123216660.24447  96012974.63547  23447355.9264   23447359.4064   23447355.3434
        46.000          40.000
 108252605.84947  84352676.80547  20599788.3464   20599790.1174   20599788.7364
        54.000          48.000
 112670563.89747  87795220.93947  21440513.4754   21440517.4424   21440513.6504
        53.000          46.000
 115881002.36747  90296879.77847  22051423.9224   22051427.0004   22051423.6684
        51.000          46.000
 09  1  1  0 52  0.0000000  0 11G12G31G18G 9G22G14G 5G30G21G24G29
 128274813.05847  99954385.95747  24409895.7144   24409898.2584   24409895.4664
        43.000          38.000
 136423993.77147  88512185.81147  24057699.7144   24057703.0484   24057699.9954
        43.000          38.000
 124201754.00447  96780582.29847  23634811.5264   23634812.9824   23634812.1324
        46.000          39.000
 115368220.54447  89897299.42747  21953851.6924   21953854.8614   21953851.6294
        50.000          44.000
 127598592.36547  99427455.49947  24281220.5684   24281221.4454   24281220.8064
        44.000          38.000
 115295590.69247  89840709.31247  21940028.6124   21940031.2154   21940028.9514
        50.000          44.000
 124764819.13147  97219323.14747  23741968.5214   23741972.9994   23741969.0404
        45.000          39.000
 123198148.72747  95998550.11347  23443833.1924   23443836.7564   23443832.9544
        47.000          40.000
 108193979.46247  84306993.91147  20588632.2524   20588634.1634   20588632.6974
        55.000          49.000
 112691892.14547  87811840.35447  21444572.1854   21444576.0634   21444572.4104
        53.000          46.000
 115954692.15047  90354300.38647  22065446.9004   22065449.6374   22065446.4164
        50.000          46.000
 09  1  1  0 52 30.0000000  0 11G12G31G18G 9G22G14G 5G30G21G24G29
 128276344.48547  99955579.30447  24410187.4434   24410190.1164   24410187.3274
        43.000          38.000
 136320147.36047  88431266.66447  24037938.4934   24037941.5924   24037939.1674
        44.000          38.000
 124184160.10447  96766872.75147  23631463.3364   23631465.1884   23631463.6484
        46.000          39.000
 115422070.24047  89939260.24047  21964099.3034   21964102.2544   21964099.1474
        50.000          44.000
 127582864.72947  99415200.19147  24278228.0364   24278228.0564   24278228.1304
        44.000          38.000
 115292855.18447  89838577.76947  21939508.0384   21939510.6624   21939508.1754
        50.000          44.000
 124751272.03347  97208767.00847  23739390.2384   23739394.7494   23739390.9574
        45.000          39.000
 123179472.09247  95983996.90247  23440279.5784   23440282.5304   23440279.2294
        47.000          40.000
 108135767.29147  84261633.78247  20577554.9284   20577556.7434   20577555.3654
        54.000          49.000
 112713694.02247  87828828.83047  21448720.6834   21448724.7034   21448720.8024
        52.000          46.000
 116028489.61047  90411804.91547  22079490.1034   22079492.7424   22079490.0194
        51.000          45.000
 09  1  1  0 53  0.0000000  0 11G12G31G18G 9G22G14G 5G30G21G24G29
 128277831.41847  99956737.97547  24410470.3994   24410473.1164   24410470.4254
        43.000          38.000
 136216301.70247  88350348.11447  24018176.8844   24018180.2764   24018177.8704
        45.000          39.000
 124166350.63947  96752995.26847  23628074.3874   23628076.4004   23628074.5924
        46.000          39.000
 115476422.94147  89981613.00847  21974442.1664   21974445.6014   21974442.4734
        50.000          44.000
 127566923.13847  99402778.19647  24275194.5044   24275194.7824   24275194.8294
        43.000          38.000
 115290550.31047  89836781.77847  21939069.3284   21939072.0984   21939069.4184
        50.000          44.000
 124737674.27847  97198171.38647  23736802.8314   23736806.8914   23736803.1634
        46.000          39.000
 123160628.04347  95969313.24447  23436693.3264   23436696.8994   23436693.1334
        47.000          40.000
 108077968.35047  84216595.64347  20566556.0314   20566557.8114   20566556.4794
        54.000          49.000
 112735965.92747  87846183.56247  21452958.9854   21452963.0814   21452959.1104
        53.000          46.000
 116102388.54847  90469388.49147  22093552.4014   22093555.2314   22093552.3434
        50.000          45.000
 09  1  1  0 53 30.0000000  0 11G12G31G18G 9G22G14G 5G30G21G24G29
 128279279.22947  99957866.16147  24410745.6054   24410748.1914   24410745.7404
        44.000          38.000
 136112463.11647  88269435.06147  23998417.3564   23998420.3004   23998417.1084
        44.000          39.000
 124148329.88547  96738953.13747  23624645.0204   23624647.0054   23624645.4164
        46.000          39.000
 115531281.37647  90024359.84747  21984881.1884   21984884.6574   21984881.2994
        50.000          44.000
 127550771.05447  99390192.17247  24272120.0794   24272121.7834   24272120.0264
        43.000          38.000
 115288678.16147  89835322.98447  21938713.3804   21938715.4634   21938713.7364
        50.000          44.000
 124724031.49447  97187540.68147  23734207.3074   23734211.1584   23734207.8234
        46.000          40.000
 123141621.82747  95954503.23347  23433076.5704   23433080.1794   23433076.1174
        47.000          41.000
 108020589.19147  84171884.60247  20555637.4744   20555639.0934   20555637.8894
        55.000          49.000
 112758711.83047  87863907.65047  21457287.2184   21457291.5524   21457287.2324
        52.000          46.000
 116176390.33747  90527052.21547  22107634.3664   22107637.3034   22107633.9284
        50.000          45.000
 09  1  1  0 54  0.0000000  0 11G12G31G18G 9G22G14G 5G30G21G24G29
 128280687.44347  99958963.48547  24411014.1004   24411016.1424   24411013.8164
        43.000          38.000
 136008631.53647  88188527.47547  23978658.6574   23978661.7414   23978657.8374
        45.000          39.000
 124130095.26247  96724744.34347  23621175.4764   23621177.2464   23621175.7374
        47.000          40.000
 115586641.48447  90067497.59947  21995415.9864   21995419.0324   21995416.2084
        50.000          44.000
 127534405.17847  99377439.54447  24269006.4984   24269006.7784   24269006.2344
        44.000          38.000
 115287234.69547  89834198.22047  21938438.6944   21938441.1764   21938438.7294
        51.000          44.000
 124710342.84547  97176874.20147  23731602.1514   23731606.3054   23731602.7044
        46.000          39.000
 123122451.84747  95939565.60447  23429428.9814   23429432.2344   23429428.1854
        47.000          41.000
 107963630.35147  84127501.09347  20544798.1564   20544800.0694   20544798.5254
        54.000          49.000
 112781929.46847  87881999.31047  21461705.5074   21461709.5814   21461705.6414
        53.000          46.000
 116250489.55647  90584791.85347  22121735.0684   22121737.9584   22121734.8624
        50.000          45.000
 09  1  1  0 54 30.0000000  0 11G12G31G18G 9G22G14G 5G30G21G24G29
 128282058.56647  99960031.92247  24411274.6884   24411277.2874   24411274.1834
        43.000          38.000
 135904810.49647  88107628.08547  23958901.4604   23958905.1294   23958901.3194
        45.000          39.000
 124111648.16347  96710369.97847  23617664.9854   23617666.5934   23617665.3914
        46.000          40.000
 115642503.09347  90111026.12947  22006046.1134   22006049.0194   22006045.9724
        50.000          44.000
 127517825.64947  99364520.46347  24265851.6534   24265851.8084   24265851.3854
        43.000          38.000
 115286219.54447  89833407.22047  21938245.6414   21938247.7954   21938245.9934
        50.000          44.000
 124696611.24147  97166174.28647  23728988.5474   23728992.9704   23728988.8654
        46.000          40.000
 123103120.35347  95924502.11747  23425750.3414   23425753.5054   23425750.2874
        47.000          41.000
 107907095.56747  84083448.02047  20534039.8144   20534041.7644   20534040.1194
        55.000          49.000
 112805619.91247  87900459.39647  21466213.5904   21466217.8504   21466213.6334
        53.000          46.000
 116324684.66447  90642606.22547  22135854.3164   22135856.6804   22135854.2374
        50.000          45.000
 09  1  1  0 55  0.0000000  0 11G12G31G18G 9G22G14G 5G30G21G24G29
 128283393.25747  99961071.96047  24411528.5634   24411531.3964   24411528.1504
        43.000          38.000
 135801001.67347  88026738.23347  23939146.9934   23939150.9504   23939146.6894
        44.000          39.000
 124092988.05947  96695829.64047  23614113.8254   23614115.8444   23614114.1514
        46.000          40.000
 115698863.75947  90154943.53947  22016771.1024   22016774.4524   22016771.1714
        50.000          44.000
 127501030.95847  99351433.72247  24262654.9974   24262655.8214   24262655.2894
        43.000          38.000
 115285630.28847  89832948.08047  21938133.2314   21938135.6594   21938133.3714
        51.000          44.000
 124682837.23047  97155441.33047  23726367.9684   23726371.6474   23726368.5474
        47.000          40.000
 123083627.16747  95909312.63347  23422040.7574   23422044.2494   23422040.9884
        47.000          41.000
 107850986.29147  84039726.51447  20523362.6114   20523364.5294   20523363.0304
        54.000          49.000
 112829782.14747  87919287.09747  21470811.6134   21470815.7464   21470811.9004
        52.000          46.000
 116398971.29547  90700491.91447  22149990.2684   22149992.8414   22149989.8884
        50.000          45.000
 09  1  1  0 55 30.0000000  0 11G12G31G18G 9G22G14G 5G30G21G24G29
 128284694.49047  99962085.92547  24411776.5874   24411778.9554   24411775.9324
        43.000          38.000
 135697209.13047  87945861.03747  23919395.9214   23919400.0204   23919394.8664
        44.000          39.000
 124074117.00847  96681124.93347  23610522.9014   23610524.4724   23610523.3444
        46.000          40.000
 115755724.16247  90199250.36947  22027591.4484   22027594.7704   22027591.7214
        51.000          44.000
 127484022.10247  99338180.08747  24259418.9164   24259418.7894   24259418.7774
        44.000          38.000
 115285466.62647  89832820.57447  21938102.3684   21938104.5374   21938102.4184
        51.000          45.000
 124669024.38647  97144678.08647  23723739.6654   23723743.2404   23723739.9444
        46.000          40.000
 123063975.24847  95893999.46347  23418301.3734   23418304.6574   23418301.2964
        47.000          41.000
 107795306.89047  83996339.98447  20512766.9654   20512769.0494   20512767.3464
        54.000          49.000
 112854417.90647  87938483.79547  21475499.6634   21475503.9244   21475499.8324
        52.000          46.000
 116473348.71547  90758448.35447  22164143.9064   22164146.6264   22164143.5094
        50.000          45.000
 09  1  1  0 56  0.0000000  0 11G12G31G18G 9G22G14G 5G30G21G24G29
 128285964.48447  99963075.57147  24412017.7054   24412020.9254   24412017.2524
        43.000          38.000
 135593435.59447  87864998.65647  23899648.0214   23899652.3044   23899647.3304
        44.000          39.000
 124055036.13847  96666256.76547  23606891.9244   23606893.8084   23606892.0004
        46.000          39.000
 115813083.07547  90243945.64447  22038506.6924   22038509.7254   22038506.7324
        50.000          44.000
 127466798.53347  99324759.12947  24256141.2674   24256141.5914   24256140.8284
        44.000          38.000
 115285727.61647  89833023.96947  21938151.7144   21938154.0824   21938152.0674
        50.000          45.000
 124655174.69647  97133886.14447  23721103.7284   23721107.5754   23721104.3394
        46.000          39.000
 123044166.10547  95878563.77847  23414531.8324   23414534.7234   23414531.0954
        47.000          41.000
 107740060.69147  83953290.98947  20502254.3764   20502256.0744   20502254.8734
        55.000          49.000
 112879527.47047  87958049.69447  21480277.9834   21480281.9904   21480278.1624
        53.000          46.000
 116547814.41647  90816473.57047  22178314.2764   22178316.7474   22178314.0074
        50.000          45.000
 09  1  1  0 56 30.0000000  0 11G12G31G18G 9G22G14G 5G30G21G24G29
 128287203.38147  99964041.00047  24412253.2204   24412256.3254   24412252.8394
        43.000          38.000
 135489681.86647  87784151.71547  23879904.5214   23879908.4904   23879904.1904
        44.000          39.000
 124035743.89747  96651223.86847  23603219.9874   23603222.4064   23603220.7104
        45.000          39.000
 115870937.50547  90289027.01847  22049515.7874   22049518.9714   22049516.0684
        50.000          44.000
 127449358.07147  99311169.12747  24252822.5774   24252822.5364   24252822.2994
        44.000          38.000
 115286409.92647  89833555.66247  21938281.5644   21938284.1324   21938281.8914
        50.000          45.000
 124641288.43547  97123065.67847  23718461.3374   23718465.4874   23718461.4804
        45.000          39.000
 123024199.23847  95863005.21047  23410732.1234   23410734.6864   23410732.1424
        47.000          41.000
 107685248.53847  83910580.21747  20491823.9604   20491825.6984   20491824.3924
        54.000          49.000
 112905109.45247  87977983.71447  21485145.9494   21485150.1394   21485146.1174
        53.000          46.000
 116622364.10147  90874564.22647  22192500.6564   22192503.1564   22192500.4914
        50.000          45.000
 09  1  1  0 57  0.0000000  0 11G12G31G18G 9G22G14G 5G30G21G24G29
 128288413.76547  99964984.17647  24412483.9994   24412486.4004   24412483.3074
        44.000          38.000
 135385951.69247  87703323.11247  23860165.3424   23860169.2484   23860165.2154
        45.000          39.000
 124016241.82947  96636027.43147  23599509.5834   23599511.3734   23599510.0024
        45.000          39.000
 115929286.70247  90334493.94647  22060619.6054   22060621.9744   22060619.5364
        50.000          44.000
 127431701.04147  99297410.43347  24249462.1334   24249462.1744   24249462.1734
        43.000          37.000
 115287512.72247  89834414.99747  21938491.4024   21938494.0704   21938491.7064
        51.000          45.000
 124627368.22747  97112218.77147  23715812.2484   23715816.4504   23715812.8564
        46.000          39.000
 123004076.72047  95847325.37447  23406903.1144   23406905.6734   23406903.0554
        47.000          41.000
 107630874.10647  83868210.52447  20481476.9294   20481478.6104   20481477.3604
        55.000          49.000
 112931164.36547  87998286.25047  21490103.9464   21490108.2144   21490104.0974
        52.000          46.000
 116696996.12047  90932719.04647  22206702.5774   22206705.0434   22206702.0994
        50.000          45.000
 09  1  1  0 57 30.0000000  0 11G12G31G18G 9G22G14G 5G30G21G24G29
 128289598.98247  99965907.76447  24412709.1164   24412711.6884   24412708.6614
        44.000          38.000
 135282249.13447  87622516.04847  23840431.3944   23840435.2824   23840430.7174
        44.000          40.000
 123996532.06647  96620669.19747  23595758.7654   23595760.9684   23595759.1944
        46.000          39.000
 115988130.87747  90380346.56647  22071816.8154   22071819.7184   22071816.9834
        50.000          44.000
 127413828.53147  99283483.84447  24246060.6894   24246060.9384   24246060.6444
        43.000          37.000
 115289036.07147  89835602.04647  21938781.4514   21938783.9034   21938781.6284
        50.000          45.000
 124613417.55947  97101348.13547  23713157.3884   23713161.3614   23713158.0224
        45.000          39.000
 122983801.54847  95831526.56847  23403044.6324   23403047.5314   23403044.2664
        47.000          41.000
 107576941.67847  83826185.25247  20471213.9854   20471215.5084   20471214.3214
        54.000          49.000
 112957694.09647  88018958.77447  21495152.4234   21495156.3614   21495152.6104
        52.000          46.000
 116771709.29247  90990937.10947  22220919.8754   22220922.3594   22220919.5334
        50.000          45.000
 09  1  1  0 58  0.0000000  0 11G12G31G18G 9G22G14G 5G30G21G24G29
 128290758.77247  99966811.53047  24412929.6324   24412932.7364   24412929.1304
        44.000          38.000
 135178574.84847  87541731.00947  23820702.7064   23820706.5404   23820702.0014
        45.000          40.000
 123976613.66247  96605148.36247  23591968.5444   23591970.2584   23591968.9244
        47.000          39.000
 116047466.97247  90426582.50147  22083108.1854   22083110.9174   22083108.1594
        50.000          43.000
 127395738.00647  99269387.37247  24242618.7484   24242618.7514   24242618.8514
        44.000          38.000
 115290976.60847  89837114.17147  21939150.7234   21939153.2214   21939150.9194
        51.000          45.000
 124599436.46947  97090453.78247  23710497.1814   23710501.1364   23710497.5504
        46.000          39.000
 122963373.05147  95815608.30147  23399157.1624   23399160.2004   23399156.7844
        47.000          41.000
 107523452.21547  83784505.15447  20461034.9924   20461036.7414   20461035.3244
        55.000          49.000
 112984696.82447  88039999.86147  21500290.6724   21500295.0314   21500290.7494
        52.000          46.000
 116846498.74747  91049214.62147  22235151.8044   22235154.3784   22235151.5044
        50.000          45.000
 09  1  1  0 58 30.0000000  0 11G12G31G18G 9G22G14G 5G30G21G24G29
 128291894.10847  99967696.22047  24413145.9774   24413148.8444   24413145.7044
        44.000          38.000
 135074929.94347  87460968.86647  23800979.6494   23800983.6374   23800979.1654
        45.000          40.000
 123956484.93547  96589463.64947  23588138.0544   23588139.8644   23588138.5494
        47.000          40.000
 116107291.75747  90473199.23047  22094492.3634   22094495.3624   22094492.3154
        50.000          43.000
 127377427.14047  99255119.19047  24239134.1904   24239134.7834   24239134.5224
        43.000          37.000
 115293330.91047  89838948.71747  21939598.5464   21939601.0444   21939598.7184
        50.000          45.000
 124585425.22147  97079535.93547  23707830.9234   23707834.8294   23707831.0594
        46.000          39.000
 122942790.72647  95799570.16147  23395240.1144   23395243.6154   23395239.8074
        47.000          41.000
 107470406.79347  83743171.06247  20450940.9904   20450942.5614   20450941.3804
        54.000          49.000
 113012170.68147  88061408.06547  21505518.8674   21505522.9744   21505518.9424
        52.000          46.000
 116921360.64547  91107548.56847  22249397.7894   22249400.2974   22249397.6564
        51.000          45.000
 09  1  1  0 59  0.0000000  0 11G12G31G18G 9G22G14G 5G30G21G24G29
 128293010.29147  99968565.99647  24413358.6534   24413361.2474   24413358.8504
        44.000          38.000
 134971321.56647  87380235.19247  23781263.6614   23781267.3124   23781262.8674
        45.000          40.000
 123936151.07047  96573619.06447  23584268.8874   23584270.6264   23584269.4334
        46.000          40.000
 116167608.39647  90520199.21347  22105970.0504   22105973.6434   22105970.1114
        49.000          43.000
 127358900.41647  99240682.78847  24235607.6034   24235608.8414   24235607.9664
        42.000          37.000
 115296101.97047  89841108.00347  21940125.6804   21940128.4644   21940125.8054
        50.000          44.000
 124571390.32347  97068599.65547  23705160.3324   23705163.8004   23705160.8334
        46.000          39.000
 122922060.73447  95783416.94747  23391295.4414   23391298.6304   23391295.2434
        47.000          41.000
 107417812.54947  83702188.53747  20440932.4824   20440934.2004   20440932.8334
        54.000          49.000
 113040120.24347  88083186.95247  21510837.3424   21510841.4054   21510837.5524
        52.000          46.000
 116996296.91847  91165940.46847  22263657.7744   22263660.1924   22263657.8504
        50.000          45.000
 09  1  1  0 59 30.0000000  0 11G12G31G18G 9G22G14G 5G30G21G24G29
 128294106.49247  99969420.20047  24413567.8154   24413569.5584   24413567.5764
        44.000          38.000
 134867749.84147  87299530.07047  23761554.5484   23761558.5214   23761553.6294
        44.000          40.000
 123915610.07847  96557613.09747  23580359.8754   23580361.8974   23580360.5274
        47.000          40.000
 116228412.75247  90567579.23747  22117540.7374   22117544.0084   22117540.8074
        50.000          43.000
 127340154.22747  99226075.37147  24232041.1814   24232041.8784   24232040.7614
        43.000          38.000
 115299285.27747  89843588.52447  21940731.4824   21940734.0864   21940731.9134
        50.000          44.000
 124557330.64947  97057644.08447  23702484.6244   23702488.4534   23702485.0514
        46.000          40.000
 122901181.28447  95767147.28547  23387322.0864   23387325.1574   23387321.4684
        47.000          41.000
 107365669.34947  83661557.47647  20431010.0284   20431011.7274   20431010.3634
        54.000          49.000
 113068542.64747  88105334.29147  21516245.7734   21516250.2224   21516245.8114
        52.000          46.000
 117071301.95147  91224385.93847  22277930.6194   22277933.1434   22277930.3054
        50.000          45.000
 09  1  1  1  0  0.0000000  0 11G12G31G18G 9G22G14G 5G30G21G24G29
 128295184.41247  99970260.19247  24413772.4784   24413774.8764   24413772.2354
        45.000          39.000
 134764216.81147  87218855.10547  23741852.5284   23741856.7294   23741852.0944
        44.000          40.000
 123894862.37747  96541446.04947  23576411.9704   23576413.7984   23576412.4204
        46.000          40.000
 116289702.97147  90615337.86347  22129204.0154   22129207.0564   22129203.9814
        50.000          43.000
 127321187.53747  99211296.13847  24228431.3614   24228433.0054   24228431.2594
        43.000          38.000
 115302878.86347  89846388.74747  21941415.1904   21941417.7994   21941415.3224
        50.000          44.000
 124543247.83047  97046670.48547  23699805.0524   23699809.0724   23699805.5014
        46.000          40.000
 122880153.39347  95750761.94647  23383320.4274   23383323.6764   23383320.1254
        47.000          41.000
 107313979.49947  83621279.67847  20421173.7144   20421175.5094   20421174.1204
        54.000          49.000
 113097437.38647  88127849.67147  21521744.4844   21521748.6294   21521744.7564
        52.000          46.000
 117146372.88547  91282882.77347  22292216.0544   22292218.6914   22292215.5934
        50.000          45.000
 09  1  1  1  0 30.0000000  0 11G12G31G18G 9G22G14G 5G30G21G24G29
 128296247.04047  99971088.26847  24413975.1544   24413977.2334   24413974.4164
        45.000          39.000
 134660726.51847  87138213.44747  23722159.1734   23722162.6344   23722159.0414
        45.000          40.000
 123873909.84547  96525119.41947  23572424.9044   23572426.2804   23572425.3184
        47.000          40.000
 116351478.57147  90663474.69447  22140959.1874   22140962.6324   22140959.4374
        50.000          44.000
 127302001.40247  99196345.92147  24224780.5854   24224781.4644   24224780.8644
        43.000          38.000
 115306882.64447  89849508.59347  21942177.0464   21942179.8284   21942176.9564
        50.000          45.000
 124529145.19947  97035681.44147  23697121.8244   23697125.3904   23697121.8834
        46.000          40.000
 122858979.52147  95734262.84447  23379291.4374   23379294.1764   23379291.3774
        47.000          41.000
 107262747.22747  83581358.42847  20411424.5034   20411426.2884   20411424.9014
        54.000          49.000
 113126805.78047  88150734.13647  21527333.2434   21527337.2684   21527333.4944
        52.000          46.000
 117221508.24247  91341429.80447  22306513.9644   22306516.4374   22306513.7024
        50.000          45.000
 09  1  1  1  1  0.0000000  0 11G12G31G18G 9G22G14G 5G30G21G24G29
 128297296.63847  99971906.19647  24414174.2834   24414176.5784   24414174.5344
        45.000          39.000
 134557281.85947  87057607.35247  23702474.1134   23702477.9374   23702474.1354
        46.000          40.000
 123852753.77247  96508634.16647  23568398.8924   23568400.5484   23568399.1174
        47.000          40.000
 116413738.63047  90711989.03447  22152807.1334   22152810.1964   22152807.4174
        50.000          44.000
 127282595.83347  99181224.73447  24221088.1184   24221088.7134   24221088.3144
        44.000          38.000
 115311295.03147  89852946.84847  21943016.8304   21943019.2354   21943017.3124
        50.000          45.000
 124515025.00947  97024678.72047  23694434.2614   23694438.0224   23694434.9744
        45.000          40.000
 122837661.87247  95717651.71047  23375234.5434   23375237.9794   23375234.3854
        47.000          41.000
 107211975.42147  83541795.98347  20401763.0904   20401764.7604   20401763.4304
        54.000          49.000
 113156648.08747  88173987.88347  21533012.0444   21533015.9334   21533012.0944
        53.000          46.000
 117296705.95947  91400025.43347  22320823.7004   22320826.1494   22320823.6074
        50.000          45.000
 09  1  1  1  1 30.0000000  0 11G12G31G18G 9G22G14G 5G30G21G24G29
 128298331.81047  99972712.85947  24414371.2844   24414373.8184   24414371.3804
        44.000          39.000
 134453882.25547  86977036.36347  23682797.9644   23682801.2664   23682797.9754
        46.000          40.000
 123831390.89347  96491987.78947  23564333.7524   23564335.4644   23564333.9824
        47.000          40.000
 116476478.49147  90760877.24247  22164746.3184   22164749.3624   22164746.4444
        50.000          44.000
 127262967.03347  99165929.54947  24217353.0224   24217353.7344   24217352.9104
        43.000          37.000
 115316110.97847  89856699.55047  21943933.3624   21943935.7944   21943933.3314
        51.000          45.000
 124500885.87147  97013661.21447  23691743.6964   23691747.4084   23691743.6464
        46.000          40.000
 122816198.15447  95700926.76747  23371150.0834   23371153.2804   23371149.5134
        47.000          41.000
 107161663.26747  83502591.71047  20392188.9314   20392190.5084   20392189.2714
        54.000          49.000
 113186960.86547  88197608.23747  21538780.3064   21538784.4454   21538780.3724
        52.000          46.000
 117371960.21847  91458665.12647  22335143.7894   22335146.4754   22335143.4734
        50.000          44.000
 09  1  1  1  2  0.0000000  0 11G12G31G18G 9G22G14G 5G30G21G24G29
 128299358.84747  99973513.19947  24414567.2144   24414568.8714   24414566.7344
        45.000          39.000
 134350535.35347  86896506.43147  23663131.8514   23663134.8384   23663131.7324
        45.000          40.000
 123809826.78447  96475184.60647  23560230.0974   23560231.9784   23560230.4484
        48.000          40.000
 116539701.08547  90810141.60747  22176777.0444   22176780.3334   22176777.4044
        50.000          44.000
 127243119.03647  99150463.61547  24213575.3364   24213576.3144   24213576.0144
        43.000          37.000
 115321333.31347  89860768.92347  21944927.2024   21944929.6864   21944927.3684
        50.000          45.000
 124486734.31847  97002634.01747  23689050.5704   23689054.4054   23689051.3684
        45.000          39.000
 122794594.49347  95684092.76947  23367039.2054   23367042.1404   23367039.1144
        47.000          41.000
 107111818.09747  83463751.32147  20382703.7004   20382705.3904   20382704.1134
        54.000          49.000
 113217748.63747  88221598.71147  21544638.9934   21544643.3674   21544639.0914
        52.000          46.000
 117447272.85447  91517350.30747  22349475.1844   22349477.9514   22349474.5704
        50.000          45.000
 09  1  1  1  2 30.0000000  0 11G12G31G18G 9G22G14G 5G30G21G24G29
 128300378.22147  99974307.55547  24414760.6904   24414763.1584   24414760.3514
        43.000          39.000
 134247242.21047  86816018.40147  23643475.6384   23643478.7444   23643475.5924
        46.000          40.000
 123788060.73047  96458224.03547  23556088.1914   23556090.1034   23556088.5944
        47.000          40.000
 116603403.31647  90859779.72147  22188899.3274   22188901.8174   22188899.3584
        50.000          43.000
 127223050.13647  99134825.55947  24209756.3634   24209757.1254   24209756.7974
        43.000          37.000
 115326959.04347  89865152.62947  21945997.6014   21946000.0674   21945997.8744
        50.000          44.000
 124472570.96447  96991597.61347  23686355.3674   23686358.9754   23686355.6474
        46.000          40.000
 122772850.87247  95667149.73047  23362901.6454   23362904.1964   23362901.1684
        47.000          40.000
 107062441.23147  83425275.84347  20373307.6044   20373309.2224   20373308.0264
        54.000          49.000
 113249009.71347  88245957.99347  21550587.7474   21550591.9114   21550587.9424
        52.000          46.000
 117522639.93647  91576077.90547  22363817.2264   22363820.0584   22363817.0224
        50.000          45.000
 09  1  1  1  3  0.0000000  0 11G12G31G18G 9G22G14G 5G30G21G24G29
 128301388.92247  99975095.16047  24414952.5364   24414955.3854   24414952.4264
        44.000          38.000
 134144002.31147  86735571.85947  23623829.3604   23623832.9404   23623829.0644
        45.000          40.000
 123766090.21747  96441104.14847  23551907.2734   23551909.0204   23551907.6074
        47.000          40.000
 116667580.23747  90909787.72647  22201111.8064   22201114.6644   22201111.6724
        50.000          44.000
 127202756.83747  99119012.59347  24205895.0414   24205895.9414   24205895.1154
        43.000          37.000
 115332983.35947  89869846.92947  21947143.9384   21947146.5734   21947144.0394
        50.000          45.000
 124458394.66447  96980551.15947  23683657.7994   23683662.0524   23683658.1304
        46.000          40.000
 122750965.60047  95650096.31347  23358736.6244   23358739.8544   23358736.4344
        47.000          41.000
 107013531.83147  83387164.61647  20364000.3154   20364002.0454   20364000.5974
        54.000          49.000
 113280740.73947  88270683.47547  21556626.0364   21556630.2364   21556626.1714
        52.000          46.000
 117598055.77547  91634843.49447  22378168.4624   22378170.9314   22378168.3134
        50.000          44.000
 09  1  1  1  3 30.0000000  0 11G12G31G18G 9G22G14G 5G30G21G24G29
 128302396.96147  99975880.70147  24415144.3594   24415146.9204   24415144.3844
        43.000          38.000
 134040823.34247  86655172.79347  23604194.8024   23604198.3994   23604194.6854
        45.000          40.000
 123743921.08547  96423829.50247  23547688.6194   23547690.6124   23547689.0634
        47.000          40.000
 116732235.40547  90960168.37847  22213415.0624   22213418.0874   22213415.1394
        49.000          43.000
 127182243.68347  99103028.31747  24201992.1274   24201992.1804   24201991.8384
        44.000          38.000
 115339409.37947  89874854.23947  21948366.9534   21948369.4894   21948367.0174
        50.000          45.000
 124444212.16547  96969499.86747  23680958.6134   23680963.4064   23680959.3094
        45.000          40.000
 122728944.72247  95632937.24647  23354546.0604   23354549.6804   23354545.8604
        47.000          41.000
 106965097.72147  83349423.74847  20354783.7034   20354785.3734   20354784.1084
        54.000          49.000
 113312946.48247  88295778.85547  21562754.7594   21562758.7434   21562754.8564
        53.000          46.000
 117673522.91647  91693649.04247  22392529.4004   22392532.1564   22392528.9024
        50.000          44.000
 09  1  1  1  4  0.0000000  0 11G12G31G18G 9G22G14G 5G30G21G24G29
 128303400.79847  99976662.95047  24415334.8754   24415337.4244   24415334.8264
        43.000          38.000
 133937704.37747  86574820.48747  23584571.6094   23584575.2484   23584571.1514
        45.000          40.000
 123721550.01047  96406397.49547  23543431.7154   23543433.4434   23543432.2034
        47.000          40.000
 116797363.52147  91010917.56547  22225808.5544   22225811.3974   22225808.4454
        49.000          43.000
 127161506.37947  99086869.37747  24198045.4904   24198046.4004   24198045.4714
        44.000          38.000
 115346231.40247  89880170.11547  21949664.8514   21949667.6114   21949665.0644
        49.000          44.000
 124430021.78847  96958442.44847  23678258.1694   23678263.0734   23678258.5094
        45.000          40.000
 122706786.25447  95615670.94047  23350329.6794   23350332.9824   23350329.0644
        47.000          41.000
 106917137.67247  83312052.28747  20345657.1244   20345659.0114   20345657.5644
        54.000          49.000
 113345622.77147  88321240.89647  21568972.9034   21568976.9384   21568973.1004
        52.000          46.000
 117749034.98747  91752489.61947  22406898.9964   22406901.7474   22406898.8234
        50.000          44.000
 09  1  1  1  4 30.0000000  0 11G12G31G18G 9G22G14G 5G30G21G24G29
 128304403.58447  99977444.38347  24415526.0764   24415528.3534   24415526.4264
        44.000          38.000
 133834649.88647  86494518.40247  23564960.8894   23564964.6834   23564959.2524
        45.000          40.000
 123698979.63547  96388810.18547  23539136.7674   23539138.0234   23539137.0124
        47.000          40.000
 116862964.12247  91062034.92447  22238291.9554   22238294.8554   22238291.8234
        50.000          43.000
 127140545.95147  99070536.57147  24194057.1094   24194057.0624   24194056.9164
        44.000          38.000
 115353449.26947  89885794.44947  21951038.2374   21951040.9684   21951038.4434
        50.000          44.000
 124415826.89147  96947381.51947  23675557.0984   23675561.4774   23675557.6404
        46.000          40.000
 122684493.00047  95598299.60447  23346087.5804   23346090.6564   23346087.1574
        47.000          41.000
 106869655.63547  83275053.28947  20336621.6374   20336623.4514   20336621.9514
        54.000          49.000
 113378770.85247  88347070.56547  21575280.7514   21575284.8174   21575280.8504
        53.000          46.000
 117824590.91347  91811364.37247  22421276.4554   22421279.1934   22421275.9874
        49.000          44.000
 09  1  1  1  5  0.0000000  0 11G12G31G18G 9G22G14G 5G30G21G24G29
 128305407.58247  99978226.76047  24415717.3794   24415719.3124   24415717.1424
        44.000          38.000
 133731662.22347  86414268.40047  23545362.9514   23545366.6104   23545362.0464
        45.000          40.000
 123676210.59047  96371068.07447  23534803.9164   23534805.1504   23534804.5044
        47.000          40.000
 116929035.69947  91113519.28247  22250865.0304   22250867.8564   22250865.3304
        50.000          43.000
 127119362.09947  99054029.66947  24190026.1684   24190026.3304   24190026.6514
        44.000          38.000
 115361061.07947  89891725.74747  21952486.7714   21952489.5104   21952486.8924
        50.000          45.000
 124401629.51547  96936318.64247  23672855.2824   23672859.6964   23672855.7414
        45.000          40.000
 122662066.49047  95580824.43247  23341819.5984   23341823.0604   23341819.0654
        47.000          41.000
 106822654.28147  83238428.85247  20327677.5844   20327679.3804   20327678.0354
        54.000          49.000
 113412390.51347  88373267.70747  21581678.1884   21581682.3524   21581678.4364
        52.000          46.000
 117900188.16047  91870271.31647  22435661.9794   22435664.8024   22435661.4574
        49.000          44.000
 09  1  1  1  5 30.0000000  0 11G12G31G18G 9G22G14G 5G30G21G24G29
 128306415.26747  99979012.01247  24415909.0674   24415910.8614   24415908.8224
        43.000          38.000
 133628744.91347  86334073.22247  23525778.4624   23525781.7714   23525777.8814
        45.000          41.000
 123653244.18447  96353172.17347  23530433.5114   23530434.8504   23530434.1154
        47.000          39.000
 116995577.39247  91165369.96647  22263527.2764   22263530.1234   22263527.2364
        50.000          43.000
 127097955.35647  99037349.09647  24185952.5224   24185953.4014   24185952.5944
        43.000          38.000
 115369065.57547  89897963.03247  21954010.1004   21954012.6424   21954010.4854
        50.000          44.000
 124387432.39547  96925255.96547  23670154.1784   23670158.2924   23670154.6734
        46.000          40.000
 122639508.58147  95563246.87447  23337527.3114   23337530.1984   23337526.8574
        48.000          41.000
 106776136.66547  83202181.35947  20318825.5604   20318827.3884   20318825.9694
        54.000          49.000
 113446482.21047  88399832.66447  21588165.4964   21588169.6834   21588165.7554
        52.000          46.000
 117975824.84347  91929209.00847  22450055.2864   22450057.8014   22450055.2874
        49.000          44.000
 09  1  1  1  6  0.0000000  0 11G12G31G18G 9G22G14G 5G30G21G24G29
 128307427.41647  99979800.75647  24416101.0784   24416103.5094   24416101.2164
        43.000          38.000
 133525899.72547  86253934.24547  23506207.5344   23506210.9844   23506207.2584
        45.000          41.000
 123630080.40347  96335122.48047  23526025.3614   23526027.1034   23526025.8214
        47.000          39.000
 117062586.26047  91217584.68147  22276278.7854   22276281.7084   22276278.9294
        50.000          43.000
 127076324.17147  99020493.65847  24181835.9484   24181836.4284   24181836.4324
        44.000          38.000
 115377460.21647  89904504.33347  21955607.5254   21955609.9024   21955607.8204
        50.000          45.000
 124373236.59347  96914194.34147  23667452.4014   23667456.7094   23667452.7304
        45.000          39.000
 122616820.08947  95545567.54747  23333209.8794   23333212.7234   23333209.7974
        47.000          41.000
 106730104.54947  83166312.17847  20310065.8694   20310067.7474   20310066.2784
        54.000          49.000
 113481044.89147  88426764.62647  21594742.5794   21594746.9514   21594742.7464
        52.000          46.000
 118051498.06047  91988175.15947  22464455.6994   22464458.1064   22464455.7664
        49.000          44.000
 09  1  1  1  6 30.0000000  0 11G12G31G18G 9G22G14G 5G30G21G24G29
 128308445.41147  99980594.05647  24416295.4744   24416298.2054   24416295.1544
        44.000          38.000
 133423128.66747  86173853.03847  23486651.1944   23486654.1914   23486650.3794
        46.000          41.000
 123606719.43547  96316919.14847  23521580.1744   23521581.8864   23521580.5354
        47.000          39.000
 117130060.24347  91270161.82447  22289119.0164   22289121.8854   22289119.1234
        49.000          43.000
 127054467.78047  99003462.72547  24177676.6804   24177677.4604   24177677.0124
        43.000          38.000
 115386242.24447  89911347.49547  21957278.5454   21957281.1744   21957278.9944
        50.000          45.000
 124359043.34447  96903134.68947  23664751.7714   23664755.7424   23664752.3434
        46.000          39.000
 122594001.67547  95527786.98347  23328867.9464   23328870.3414   23328867.2804
        47.000          41.000
 106684559.50947  83130822.53347  20301399.1124   20301400.8514   20301399.5394
        54.000          49.000
 113516077.09647  88454062.45647  21601409.1444   21601413.3084   21601409.2304
        52.000          46.000
 118127203.96047  92047166.79247  22478861.9984   22478864.6594   22478861.7494
        49.000          44.000
 09  1  1  1  7  0.0000000  0 11G12G31G18G 9G22G14G 5G30G21G24G29
 128309471.73547  99981393.81047  24416490.4004   24416492.8804   24416490.1574
        43.000          38.000
 133320435.55847  86093832.56347  23467109.3264   23467111.8854   23467108.9764
        46.000          41.000
 123583163.01747  96298563.49747  23517097.6934   23517099.2224   23517097.7594
        46.000          40.000
 117197998.33047  91323100.58447  22302046.5584   22302050.4834   22302046.6414
        49.000          43.000
 127032386.81347  98986256.79347  24173474.6544   24173475.4694   24173474.4124
        43.000          38.000
 115395410.72947  89918491.78747  21959023.2304   21959025.7704   21959023.3524
        50.000          45.000
 124344855.31947  96892079.10947  23662051.4544   23662055.6654   23662051.8764
        45.000          39.000
 122571055.49247  95509906.86347  23324501.5044   23324503.7814   23324500.9444
        47.000          41.000
 106639504.76447  83095714.94047  20292825.5004   20292827.1654   20292825.8654
        54.000          49.000
 113551579.25747  88481726.49447  21608165.1544   21608168.9684   21608165.1814
        52.000          46.000
 118202941.02947  92106182.70147  22493274.0374   22493276.9424   22493273.3574
        49.000          44.000
 09  1  1  1  7 30.0000000  0 11G12G31G18G 9G22G14G 5G30G21G24G29
 128310509.24447  99982202.30347  24416687.4324   24416690.3994   24416687.3574
        43.000          38.000
 133217824.05447  86013875.67947  23447582.8654   23447585.5224   23447582.7074
        46.000          41.000
 123559412.40947  96280056.52747  23512577.9884   23512579.7234   23512578.3434
        47.000          40.000
 117266399.48347  91376400.19247  22315063.5564   22315066.5764   22315063.6824
        50.000          43.000
 127010081.48647  98968876.03347  24169230.2444   24169231.1664   24169230.2814
        44.000          38.000
 115404964.70847  89925936.46047  21960841.3584   21960844.1774   21960841.7064
        50.000          45.000
 124330675.69247  96881030.07347  23659353.0954   23659357.0914   23659353.4954
        45.000          39.000
 122547984.31147  95491929.35047  23320111.0094   23320113.8744   23320110.5414
        47.000          41.000
 106594944.05147  83060992.31047  20284345.9384   20284347.5624   20284346.3044
        54.000          49.000
 113587552.07247  88509757.26647  21615010.4234   21615014.6014   21615010.6094
        52.000          46.000
 118278707.82947  92165221.76547  22507692.0184   22507694.5874   22507691.6174
        49.000          44.000
 09  1  1  1  8  0.0000000  0 11G12G31G18G 9G22G14G 5G30G21G24G29
 128311558.74847  99983020.12047  24416887.6984   24416889.6604   24416887.3664
        44.000          38.000
 133115296.14047  85933983.92147  23428072.4864   23428074.6764   23428072.2534
        47.000          41.000
 123535468.12147  96261398.64547  23508021.3694   23508023.3444   23508021.6404
        48.000          40.000
 117335261.09947  91430058.60647  22328167.4984   22328170.3664   22328167.6644
        50.000          43.000
 126987550.77147  98951319.67047  24164942.7004   24164943.1674   24164942.6684
        43.000          37.000
 115414901.55447  89933679.47747  21962732.5014   21962734.8224   21962732.8904
        51.000          45.000
 124316505.67947  96869988.51347  23656656.9434   23656660.7304   23656657.4484
        45.000          39.000
 122524788.71247  95473854.88147  23315696.6154   23315699.9444   23315696.6894
        47.000          41.000
 106550878.82847  83026655.77147  20275960.6034   20275962.1854   20275960.9984
        54.000          49.000
 113623994.55847  88538154.01947  21621945.1794   21621949.6554   21621945.1864
        52.000          46.000
 118354500.98247  92224281.36847  22522115.3034   22522117.6334   22522115.1554
        49.000          44.000
 09  1  1  1  8 30.0000000  0 11G12G31G18G 9G22G14G 5G30G21G24G29
 128312621.80147  99983848.48847  24417089.9984   24417092.1394   24417089.6904
        43.000          38.000
 133012853.95847  85854158.95947  23408578.5244   23408580.5204   23408578.3704
        46.000          41.000
 123511330.36947  96242589.99847  23503428.6254   23503429.7024   23503428.7734
        47.000          40.000
 117404580.81647  91484073.97047  22341358.3484   22341361.4244   22341358.2914
        49.000          43.000
 126964794.06547  98933587.19547  24160612.1234   24160612.6324   24160611.9224
        44.000          38.000
 115425218.51347  89941718.67547  21964695.6344   21964697.9974   21964695.9384
        51.000          45.000
 124302346.69647  96858955.57847  23653962.5644   23653966.6804   23653963.1484
        45.000          39.000
 122501469.60047  95455684.15547  23311259.4414   23311262.2754   23311258.7614
        47.000          41.000
 106507310.86147  82992706.70547  20267669.8084   20267671.6044   20267670.1874
        54.000          49.000
 113660905.39847  88566915.72647  21628968.9554   21628973.2544   21628969.1054
        52.000          46.000
 118430317.38747  92283359.06647  22536542.5864   22536545.0514   22536542.2284
        49.000          44.000
 09  1  1  1  9  0.0000000  0 11G12G31G18G 9G22G14G 5G30G21G24G29
 128313701.10547  99984689.53247  24417295.4604   24417297.9624   24417294.8524
        44.000          38.000
 132910501.27447  85774403.74447  23389100.9624   23389103.4304   23389100.6344
        46.000          41.000
 123487000.56647  96223631.70447  23498798.3424   23498799.3534   23498798.7724
        47.000          40.000
 117474357.98947  91538445.80147  22354636.4414   22354639.6704   22354636.5144
        49.000          43.000
 126941811.96747  98915679.06847  24156239.3294   24156239.1414   24156238.9064
        43.000          38.000
 115435914.63147  89950053.33347  21966731.2404   21966733.2824   21966731.3774
        50.000          44.000
 124288201.69547  96847933.54547  23651270.9134   23651274.7174   23651271.1824
        45.000          39.000
 122478029.23947  95437418.95547  23306798.9384   23306801.3204   23306798.7274
        47.000          41.000
 106464243.63547  82959147.82247  20259474.4824   20259476.1564   20259474.8674
        55.000          49.000
 113698285.22747  88596042.88247  21636081.9824   21636086.2984   21636082.0604
        52.000          46.000
 118506155.85747  92342453.97647  22550974.2114   22550976.9274   22550973.8414
        49.000          44.000
 09  1  1  1  9 30.0000000  0 11G12G31G18G 9G22G14G 5G30G21G24G29
 128314798.35047  99985544.55847  24417503.8724   24417506.5894   24417503.6404
        44.000          38.000
 132808240.79147  85694720.37047  23369641.4124   23369644.0504   23369640.9054
        46.000          41.000
 123462479.77347  96204524.59747  23494132.4314   23494133.8784   23494132.6524
        47.000          39.000
 117544590.18147  91593172.19147  22368000.8174   22368004.1244   22368001.1034
        49.000          43.000
 126918603.87647  98897594.85747  24151822.3944   24151823.2384   24151822.7284
        44.000          38.000
 115446987.97347  89958681.93147  21968838.2094   21968840.3614   21968838.4294
        51.000          45.000
 124274072.30547  96836923.65147  23648582.1724   23648585.7624   23648582.3044
        45.000          39.000
 122454469.28547  95419060.57547  23302315.4514   23302318.2154   23302315.2024
        47.000          41.000
 106421679.12647  82925980.67047  20251374.7064   20251376.2244   20251375.1164
        55.000          49.000
 113736133.13147  88625534.75547  21643284.1734   21643288.6164   21643284.3084
        52.000          46.000
 118582013.53047  92401563.84347  22565409.5834   22565411.9884   22565409.1584
        49.000          44.000
 09  1  1  1 10  0.0000000  0 11G12G31G18G 9G22G14G 5G30G21G24G29
 128315914.89147  99986414.60247  24417716.8284   24417718.6304   24417715.9894
        43.000          38.000
 132706074.81447  85615110.64347  23350199.6674   23350202.3064   23350199.2234
        46.000          41.000
 123437768.34747  96185268.94947  23489429.5034   23489431.4224   23489429.7594
        46.000          39.000
 117615275.24347  91648251.46547  22381451.8054   22381454.9304   22381451.8814
        49.000          43.000
 126895169.36847  98879334.20947  24147363.3784   24147364.1114   24147363.1284
        44.000          38.000
 115458435.91847  89967602.42447  21971016.7504   21971018.8494   21971016.7834
        50.000          45.000
 124259960.27147  96825927.28147  23645896.1934   23645900.2864   23645896.5914
        45.000          39.000
 122430790.54347  95400609.61247  23297809.6304   23297812.3674   23297809.2554
        47.000          41.000
 106379619.35647  82893206.82347  20243371.0814   20243372.7874   20243371.4314
        54.000          49.000
 113774448.22947  88655390.67547  21650575.4494   21650579.7504   21650575.5504
        52.000          46.000
 118657887.42247  92460686.36147  22579847.8504   22579850.3654   22579847.5784
        49.000          44.000
 09  1  1  1 10 30.0000000  0 11G12G31G18G 9G22G14G 5G30G21G24G29
 128317054.02547  99987302.26547  24417933.6954   24417935.0604   24417933.0144
        44.000          39.000
 132604007.11047  85535577.48847  23330776.7624   23330779.3984   23330776.4064
        46.000          41.000
 123412868.46747  96165866.43347  23484691.4454   23484693.0614   23484691.7284
        47.000          39.000
 117686412.54047  91703683.13847  22394989.3294   22394991.9194   22394989.3394
        49.000          43.000
 126871509.28947  98860897.80747  24142861.4094   24142861.8574   24142861.3924
        44.000          38.000
 115470257.77547  89976814.28247  21973266.3004   21973268.4034   21973266.3904
        51.000          44.000
 124245868.84047  96814946.95247  23643215.3144   23643218.4744   23643215.4494
        45.000          39.000
 122406996.10747  95382068.49047  23293281.4854   23293284.2284   23293281.1674
        47.000          41.000
 106338067.82247  82860829.00947  20235463.8694   20235465.7894   20235464.3344
        54.000          49.000
 113813231.29347  88685611.23647  21657955.6164   21657959.8414   21657955.6764
        52.000          45.000
 118733776.28747  92519820.53947  22594288.7954   22594291.7954   22594288.6244
        49.000          43.000
 09  1  1  1 11  0.0000000  0 11G12G31G18G 9G22G14G 5G30G21G24G29
 128318214.59647  99988206.62447  24418154.5834   24418156.1184   24418154.3224
        43.000          38.000
 132502037.61447  85456120.86347  23311372.1244   23311375.0614   23311371.9704
        46.000          41.000
 123387777.99547  96146315.42247  23479916.8444   23479918.4254   23479917.5374
        46.000          39.000
 117757997.06947  91759463.30547  22408611.2694   22408613.9164   22408611.3224
        49.000          43.000
 126847620.58247  98842283.23747  24138314.8714   24138315.4094   24138314.4444
        44.000          38.000
 115482448.66647  89986313.70147  21975586.2254   21975588.2324   21975586.5694
        51.000          45.000
 124231797.05347  96803981.92947  23640537.4134   23640540.9554   23640537.5434
        46.000          39.000
 122383084.66247  95363436.20747  23288731.4574   23288734.2704   23288731.2384
        47.000          41.000
 106297023.99847  82828846.81447  20227653.4714   20227655.2034   20227653.7574
        54.000          49.000
 113852478.66247  88716193.59647  21665424.0954   21665428.2564   21665424.2114
        52.000          45.000
 118809674.83847  92578962.26547  22608731.6834   22608734.3574   22608731.8464
        49.000          43.000
 09  1  1  1 11 30.0000000  0 11G12G31G18G 9G22G14G 5G30G21G24G29
 128319402.52047  99989132.29747  24418379.9864   24418382.3054   24418380.0154
        43.000          38.000
 132400173.30147  85376746.19347  23291988.1754   23291990.8074   23291987.8514
        47.000          41.000
 123362501.98847  96126619.83147  23475107.1164   23475108.7844   23475107.1074
        47.000          40.000
 117830030.93947  91815593.59147  22422318.5664   22422321.7484   22422318.4284
        49.000          43.000
 126823506.98847  98823493.43347  24133725.7904   24133726.8874   24133725.5714
        44.000          38.000
 115495010.35747  89996102.04647  21977976.4444   21977978.6974   21977976.6164
        50.000          44.000
 124217751.02747  96793037.00247  23637864.3494   23637867.8424   23637864.6754
        45.000          39.000
 122359061.39147  95344716.77847  23284159.9014   23284163.0884   23284159.5124
        47.000          41.000
 106256494.04247  82797265.03447  20219941.0074   20219942.5574   20219941.4374
        54.000          49.000
 113892193.83447  88747140.48047  21672981.8234   21672985.6784   21672981.9264
        52.000          46.000
 118885584.98047  92638113.02047  22623177.0924   22623179.7184   22623176.7934
        48.000          44.000
 09  1  1  1 12  0.0000000  0 11G12G31G18G 9G22G14G 5G30G21G24G29
 128320617.51647  99990079.08247  24418611.9134   24418613.4834   24418611.6634
        44.000          38.000
 132298415.12347  85297454.22147  23272624.0914   23272626.9704   23272623.3814
        47.000          41.000
 123337039.07847  96106778.59547  23470261.6114   23470263.3194   23470262.0584
        48.000          40.000
 117902510.49247  91872071.16947  22436110.9934   22436113.7544   22436110.9724
        49.000          42.000
 126799165.99847  98804526.45147  24129094.3154   24129094.7954   24129094.0784
        45.000          39.000
 115507938.82447  90006176.19247  21980436.7194   21980438.9444   21980436.9514
        51.000          45.000
 124203730.67647  96782112.08947  23635196.1454   23635199.8164   23635196.6084
        46.000          39.000
 122334925.89647  95325909.92247  23279566.9584   23279569.7554   23279566.7714
        47.000          41.000
 106216478.24747  82766083.89947  20212326.1694   20212327.7264   20212326.6404
        54.000          49.000
 113932374.14847  88778449.80747  21680627.7814   21680632.0134   21680627.9414
        52.000          45.000
 118961501.87247  92697269.04447  22637623.4864   22637626.5994   22637622.8874
        48.000          44.000
 09  1  1  1 12 30.0000000  0 11G12G31G18G 9G22G14G 5G30G21G24G29
 128321860.99947  99991048.06447  24418847.8044   24418850.1734   24418847.6904
        43.000          38.000
 132196765.16847  85218246.57847  23253280.6864   23253283.4624   23253280.2014
        47.000          41.000
 123311389.90947  96086792.21947  23465380.7024   23465382.5724   23465381.1094
        47.000          40.000
 117975432.86447  91928893.80047  22449987.6934   22449990.5394   22449987.6804
        49.000          42.000
 126774596.82747  98785381.66647  24124419.2234   24124419.3294   24124419.7584
        46.000          39.000
 115521231.76847  90016534.34147  21982966.4034   21982968.4444   21982966.7254
        51.000          45.000
 124189737.54047  96771208.37047  23632533.4934   23632537.4904   23632533.9274
        47.000          40.000
 122310679.57647  95307016.69847  23274953.2804   23274955.8344   23274953.0434
        47.000          41.000
 106176978.44547  82735304.82947  20204809.8144   20204811.2364   20204810.1654
        54.000          49.000
 113973018.34947  88810120.61347  21688361.9594   21688366.1874   21688362.1524
        52.000          45.000
 119037422.66747  92756428.13547  22652070.6374   22652073.5884   22652070.4514
        49.000          44.000
 09  1  1  1 13  0.0000000  0 11G12G31G18G 9G22G14G 5G30G21G24G29
 128323136.13347  99992041.68447  24419090.8444   24419092.4944   24419091.0154
        43.000          38.000
 132095227.20447  85139126.19647  23233958.5824   23233961.1864   23233958.1014
        47.000          41.000
 123285556.50447  96066662.28547  23460464.8094   23460466.4224   23460465.1974
        47.000          40.000
 118048796.99147  91986060.66047  22463948.7004   22463951.2774   22463948.8234
        49.000          42.000
 126749800.59047  98766059.93347  24119700.5484   24119701.2964   24119701.0254
        45.000          39.000
 115534887.95847  90027175.54247  21985565.0854   21985567.1554   21985565.3434
        51.000          45.000
 124175774.75947  96760328.30847  23629876.5854   23629880.3344   23629877.0774
        46.000          40.000
 122286324.76547  95288038.92147  23270318.1484   23270321.3254   23270317.7624
        47.000          41.000
 106137997.85247  82704930.34447  20197391.9364   20197393.6194   20197392.3154
        54.000          49.000
 114014127.05147  88842153.36847  21696184.8944   21696188.7334   21696184.9334
        52.000          45.000
 119113346.20247  92815589.34347  22666518.5074   22666521.2834   22666518.5234
        49.000          43.000
 09  1  1  1 13 30.0000000  0 11G12G31G18G 9G22G14G 5G30G21G24G29
 128324444.89747  99993061.50847  24419339.7414   24419342.1634   24419339.6014
        43.000          38.000
 131993804.60947  85060095.71647  23214658.1894   23214660.9974   23214657.5034
        46.000          42.000
 123259539.95447  96046389.65947  23455514.0064   23455515.5824   23455514.5154
        47.000          40.000
 118122601.34247  92043570.56247  22477993.0404   22477996.0214   22477993.3254
        49.000          42.000
 126724777.49747  98746561.45747  24114938.3634   24114939.2634   24114938.8364
        45.000          39.000
 115548905.87247  90038098.61947  21988232.4174   21988234.8064   21988232.5414
        51.000          45.000
 124161844.57247  96749473.64247  23627225.9024   23627229.3874   23627226.3814
        46.000          40.000
 122261863.53847  95268978.26647  23265663.4044   23265666.6834   23265662.9734
        47.000          41.000
 106099538.92347  82674962.34447  20190073.5634   20190074.9634   20190074.0344
        54.000          49.000
 114055700.06847  88874547.93747  21704095.9404   21704099.8074   21704095.9784
        52.000          45.000
 119189270.11647  92874750.82747  22680966.2734   22680969.3214   22680966.0824
        48.000          43.000
 09  1  1  1 14  0.0000000  0 11G12G31G18G 9G22G14G 5G30G21G24G29
 128325788.12547  99994108.20147  24419595.0974   24419597.6114   24419595.1994
        43.000          38.000
 131892499.21747  84981156.56447  23195380.5124   23195383.3534   23195380.1134
        46.000          41.000
 123233340.43747  96025974.45147  23450528.1014   23450529.9324   23450528.4544
        47.000          40.000
 118196843.18747  92101421.35747  22492120.8014   22492123.8154   22492120.5884
        48.000          42.000
 126699526.58847  98726885.44847  24110133.1084   24110133.7854   24110132.9234
        45.000          39.000
 115563281.86047  90049300.70047  21990967.9814   21990970.1684   21990968.2754
        50.000          44.000
 124147948.30047  96738645.39247  23624581.6124   23624585.0674   23624582.0214
        46.000          40.000
 122237296.51247  95249835.13747  23260988.0634   23260992.0264   23260987.9374
        47.000          41.000
 106061603.03447  82645401.91547  20182854.3494   20182856.0584   20182854.7514
        54.000          49.000
 114097735.53747  88907302.85647  21712094.8214   21712098.9704   21712094.9404
        52.000          45.000
 119265191.05547  92933909.99747  22695413.6334   22695416.3874   22695413.4744
        49.000          43.000
 09  1  1  1 14 30.0000000  0 11G12G31G18G 9G22G14G 5G30G21G24G29
 128327168.37247  99995183.73447  24419858.0634   24419860.1684   24419858.0504
        43.000          38.000
 131791314.44547  84902311.41947  23176125.3034   23176128.2544   23176125.5614
        47.000          42.000
 123206959.67147  96005418.00147  23445508.3144   23445509.7824   23445508.5204
        47.000          40.000
 118271520.93347  92159611.80947  22506331.1404   22506334.1644   22506331.5254
        48.000          42.000
 126674048.26447  98707032.21747  24105285.0074   24105285.8964   24105285.2994
        46.000          39.000
 115578015.12347  90060781.17647  21993771.7954   21993773.8714   21993771.9924
        51.000          44.000
 124134088.61247  96727845.65047  23621943.9164   23621947.5674   23621944.5234
        46.000          40.000
 122212626.22247  95230611.54447  23256293.7944   23256296.8244   23256293.3164
        47.000          41.000
 106024193.03847  82616251.26147  20175735.5094   20175737.1634   20175735.8444
        54.000          49.000
 114140233.31047  88940418.01647  21720181.9674   21720186.2224   21720181.9054
        52.000          45.000
 119341107.41547  92993065.62047  22709860.2384   22709862.7544   22709859.9704
        48.000          43.000
 09  1  1  1 15  0.0000000  0 11G12G31G18G 9G22G14G 5G30G21G24G29
 128328586.88447  99996289.07547  24420127.4634   24420130.5174   24420127.4544
        43.000          38.000
 131690252.39947  84823561.89447  23156893.4634   23156896.4094   23156893.3724
        47.000          42.000
 123180397.67047  95984720.34247  23440453.6564   23440455.1884   23440453.9554
        47.000          39.000
 118346631.90947  92218139.85047  22520624.5694   22520627.5774   22520624.7344
        48.000          42.000
 126648341.46847  98687000.96447  24100393.9084   24100393.9314   24100393.9404
        46.000          39.000
 115593102.65147  90072537.71347  21996642.5914   21996644.9834   21996642.5364
        50.000          44.000
 124120266.83347  96717075.44247  23619313.8364   23619317.8154   23619314.3434
        46.000          40.000
 122187853.55347  95211308.18147  23251580.1144   23251582.6734   23251579.6794
        47.000          41.000
 105987310.17947  82587511.36547  20168717.0814   20168718.6514   20168717.5564
        54.000          49.000
 114183192.16847  88973892.45247  21728356.7244   21728360.8594   21728356.8144
        52.000          45.000
 119417016.44347  93052215.52847  22724304.8554   22724307.9594   22724304.5974
        49.000          43.000
 09  1  1  1 15 30.0000000  0 11G12G31G18G 9G22G14G 5G30G21G24G29
 128330046.42147  99997426.40247  24420405.6214   24420407.5854   24420405.5994
        43.000          38.000
 131589316.68047  84744910.80247  23137686.1394   23137689.0304   23137685.5954
        47.000          42.000
 123153656.57947  95963883.14447  23435364.7534   23435367.0044   23435365.0814
        47.000          39.000
 118422174.41347  92277004.14347  22534999.7934   22535002.9174   22534999.9874
        48.000          42.000
 126622407.00947  98666792.33147  24095458.5414   24095458.7594   24095458.7764
        45.000          39.000
 115608542.92947  90084569.10947  21999580.7844   21999583.0264   21999580.8614
        50.000          44.000
 124106485.72047  96706336.92347  23616690.9244   23616695.0574   23616691.2474
        46.000          40.000
 122162980.72447  95191926.78447  23246846.8474   23246849.9594   23246846.5914
        47.000          41.000
 105950957.30547  82559184.45147  20161799.2184   20161800.8174   20161799.5974
        54.000          49.000
 114226612.08347  89007726.16547  21736619.2444   21736623.5244   21736619.3584
        52.000          45.000
 119492916.30047  93111358.25847  22738748.4814   22738751.3774   22738748.5114
        49.000          43.000
 09  1  1  1 16  0.0000000  0 11G12G31G18G 9G22G14G 5G30G21G24G29
 128331548.91347  99998597.20547  24420691.0424   24420693.6254   24420690.8524
        43.000          38.000
 131488509.89247  84666360.16147  23118503.3334   23118505.8604   23118503.0524
        47.000          42.000
 123126737.12047  95942906.92347  23430242.2964   23430244.7784   23430242.8444
        47.000          40.000
 118498146.40747  92336203.10047  22549456.7954   22549459.8904   22549456.9304
        49.000          42.000
 126596244.67147  98646406.10547  24090479.5414   24090480.2124   24090479.6364
        46.000          39.000
 115624333.77447  90096873.68247  22002585.8934   22002588.1274   22002586.2064
        51.000          45.000
 124092747.11147  96695631.53747  23614076.3854   23614080.8514   23614077.0314
        45.000          40.000
 122138009.43247  95172468.65747  23242094.9024   23242098.0124   23242094.5934
        47.000          41.000
 105915136.40447  82531272.05647  20154982.8644   20154984.3414   20154983.2504
        54.000          49.000
 114270491.94247  89041918.27447  21744969.5144   21744973.6094   21744969.6094
        52.000          45.000
 119568804.48647  93170491.94347  22753189.9094   22753192.0014   22753189.6854
        49.000          43.000
 09  1  1  1 16 30.0000000  0 11G12G31G18G 9G22G14G 5G30G21G24G29
 128333096.13047  99999802.84547  24420985.3904   24420988.4294   24420984.8934
        43.000          38.000
 131387835.23047  84587912.48247  23099345.5864   23099347.9364   23099345.2134
        47.000          42.000
 123099640.69647  95921792.81047  23425086.3354   23425087.8254   23425086.7584
        48.000          40.000
 118574546.06647  92395735.31847  22563995.0384   22563997.8314   22563994.9984
        48.000          42.000
 126569854.51947  98625842.38047  24085457.8464   24085458.4774   24085458.0584
        46.000          39.000
 115640473.26047  90109449.91447  22005657.2294   22005659.2644   22005657.2304
        51.000          45.000
 124079053.55647  96684961.22947  23611470.7144   23611474.4104   23611471.3184
        45.000          39.000
 122112941.56147  95152935.26147  23237324.6854   23237327.8634   23237324.5094
        47.000          41.000
 105879849.90647  82503776.08747  20148267.8554   20148269.6364   20148268.2274
        54.000          49.000
 114314831.55547  89076468.62747  21753406.8914   21753410.9074   21753406.9554
        52.000          45.000
 119644678.83947  93229614.82947  22767628.1804   22767630.5334   22767627.6994
        48.000          43.000
 09  1  1  1 17  0.0000000  0 11G12G31G18G 9G22G14G 5G30G21G24G29
 128334689.13747 100001044.16747  24421289.1224   24421291.0344   24421288.5704
        42.000          38.000
 131287295.01347  84509569.54447  23080213.3254   23080215.7134   23080212.7504
        48.000          42.000
 123072367.38647  95900540.87347  23419896.2464   23419897.7864   23419896.8034
        48.000          40.000
 118651370.27247  92455598.34847  22578613.8124   22578616.7374   22578613.8994
        47.000          42.000
 126543235.88447  98605100.59847  24080392.7584   24080392.9734   24080392.6304
        45.000          40.000
 115656958.23247  90122295.36847  22008794.0544   22008796.2404   22008794.3184
        51.000          45.000
 124065406.09547  96674326.86447  23608873.8184   23608877.5744   23608874.7494
        45.000          39.000
 122087777.56547  95133326.96647  23232535.9514   23232539.0414   23232535.5244
        47.000          41.000
 105845099.10847  82476697.53947  20141655.1344   20141656.7914   20141655.5704
        54.000          49.000
 114359629.15047  89111375.84947  21761931.6294   21761935.6714   21761931.9174
        52.000          45.000
 119720536.33647  93288724.58647  22782062.9764   22782065.5294   22782062.7414
        49.000          43.000
 09  1  1  1 17 30.0000000  0 11G12G31G18G 9G22G14G 5G30G21G24G29
 128336331.02747 100002323.56547  24421600.8974   24421603.8224   24421600.2164
        42.000          38.000
 131186893.13347  84431334.40047  23061107.5564   23061109.6784   23061107.1864
        47.000          42.000
 123044919.55547  95879152.95247  23414673.3684   23414674.8234   23414673.7444
        48.000          40.000
 118728618.20147  92515791.53347  22593313.4874   22593317.0974   22593313.4514
        47.000          42.000
 126516389.53447  98584181.38347  24075283.9114   24075284.1804   24075284.1254
        46.000          40.000
 115673787.96247  90135409.45847  22011996.5284   22011998.8704   22011996.7534
        51.000          45.000
 124051808.12647  96663731.03947  23606286.0404   23606290.1754   23606286.6464
        46.000          39.000
 122062520.33447  95113646.01947  23227729.4814   23227732.4914   23227729.1644
        47.000          41.000
 105810887.22747  82450038.93347  20135144.5424   20135146.5394   20135144.8804
        54.000          49.000
 114404884.78047  89146639.97347  21770543.6654   21770547.6674   21770543.6494
        52.000          45.000
 119796375.87047  93347820.34347  22796494.3214   22796497.3114   22796494.5404
        48.000          43.000
 09  1  1  1 18  0.0000000  0 11G12G31G18G 9G22G14G 5G30G21G24G29
 128338023.24647 100003642.19847  24421923.0024   24421925.5054   24421922.9744
        43.000          38.000
 131086631.70147  84353208.70747  23042028.4794   23042030.7614   23042028.4834
        48.000          42.000
 123017297.51447  95857629.26847  23409417.1724   23409418.6314   23409417.3484
        48.000          40.000
 118806287.16047  92576312.80247  22608093.7694   22608097.1064   22608094.0044
        48.000          42.000
 126489314.52347  98563083.98447  24070131.7944   24070132.2574   24070131.8944
        45.000          40.000
 115690959.49247  90148789.89247  22015264.3064   22015266.3224   22015264.5444
        50.000          44.000
 124038260.91447  96653174.79447  23603708.6604   23603712.1274   23603709.0814
        45.000          40.000
 122037171.21247  95093893.48747  23222906.0224   23222908.7704   23222905.9674
        48.000          41.000
 105777215.27847  82423801.04247  20128737.4284   20128738.8814   20128737.9904
        54.000          49.000
 114450596.92847  89182259.82947  21779242.4404   21779246.3134   21779242.6334
        51.000          45.000
 119872194.28947  93406899.63647  22810922.2894   22810925.0384   22810922.1194
        48.000          43.000
 09  1  1  1 18 30.0000000  0 11G12G31G18G 9G22G14G 5G30G21G24G29
 128339767.56447 100005001.44847  24422255.4314   24422257.0734   24422254.8754
        43.000          37.000
 130986513.73647  84275194.78847  23022976.4414   23022978.6694   23022976.3444
        48.000          42.000
 122989502.37047  95835970.68947  23404127.7624   23404128.9774   23404128.1484
        47.000          40.000
 118884375.28247  92637160.68747  22622953.5814   22622956.8214   22622953.5364
        48.000          42.000
 126462011.43647  98541808.86047  24064935.5444   24064936.8274   24064935.9714
        45.000          39.000
 115708470.64747  90162434.96847  22018596.2944   22018598.8384   22018596.5944
        50.000          44.000
 124024766.77047  96642659.89147  23601140.1104   23601144.3244   23601140.4184
        45.000          39.000
 122011732.15447  95074070.84647  23218064.9954   23218067.8024   23218064.6864
        47.000          41.000
 105744085.78947  82397985.85747  20122432.8584   20122434.6684   20122433.1594
        54.000          49.000
 114496765.25547  89218235.15247  21788027.8404   21788032.0624   21788027.9974
        52.000          45.000
 119947989.39747  93465960.79047  22825345.8474   22825348.3404   22825345.5944
        49.000          43.000
 09  1  1  1 19  0.0000000  0 11G12G31G18G 9G22G14G 5G30G21G24G29
 128341565.70847 100006402.61947  24422597.5514   24422598.8234   24422596.9084
        43.000          38.000
 130886541.87047  84197294.70647  23003952.4934   23003954.6144   23003951.6204
        48.000          42.000
 122961535.31247  95814178.19747  23398805.7784   23398807.2714   23398806.1784
        47.000          40.000
 118962879.58447  92698332.88347  22637892.4624   22637895.4884   22637892.5634
        48.000          42.000
 126434479.97047  98520355.78647  24059696.9954   24059697.4934   24059696.9734
        46.000          40.000
 115726318.94847  90176342.75047  22021992.6044   22021995.1074   22021992.8324
        50.000          44.000
 124011327.65847  96632187.89047  23598583.1494   23598586.7094   23598583.6904
        45.000          39.000
 121986204.28347  95054179.01447  23213207.0694   23213210.0944   23213206.5104
        47.000          41.000
 105711500.59347  82372594.79347  20116232.2484   20116233.9734   20116232.6384
        54.000          49.000
 114543388.59047  89254565.02147  21796899.7404   21796904.2024   21796900.1484
        51.000          45.000
 120023759.11047  93525002.14247  22839764.3724   22839767.3774   22839763.8534
        48.000          43.000
 09  1  1  1 19 30.0000000  0 11G12G31G18G 9G22G14G 5G30G21G24G29
 128343421.83047 100007848.96347  24422950.6714   24422952.4484   24422950.4394
        44.000          38.000
 130786720.91247  84119512.21547  22984957.0404   22984959.2944   22984956.8044
        48.000          42.000
 122933399.00547  95792253.78147  23393451.2554   23393452.9134   23393451.8784
        47.000          40.000
 119041799.87847  92759829.23547  22652910.6874   22652913.1744   22652910.6774
        47.000          41.000
 126406721.80147  98498726.07847  24054414.7574   24054415.0134   24054414.8474
        46.000          39.000
 115744504.14447  90190513.05147  22025453.3104   22025455.8224   22025453.7464
        50.000          44.000
 123997947.31147  96621761.64447  23596036.7574   23596040.9514   23596037.0734
        45.000          39.000
 121960591.42247  95034220.95147  23208332.9194   23208336.1274   23208332.5224
        47.000          41.000
 105679463.21447  82347630.60747  20110135.6354   20110137.4244   20110136.0534
        54.000          49.000
 114590467.74147  89291250.08047  21805858.6114   21805863.0684   21805858.6314
        51.000          45.000
 120099502.82547  93584023.22947  22854177.8644   22854180.7524   22854177.2024
        48.000          43.000
 09  1  1  1 20  0.0000000  0 11G12G31G18G 9G22G14G 5G30G21G24G29
 128345333.41647 100009338.53647  24423314.2564   24423316.3674   24423314.0374
        43.000          38.000
 130687049.49047  84041846.24047  22965990.3004   22965992.6144   22965989.8784
        48.000          43.000
 122905090.62647  95770195.31547  23388064.4574   23388066.1954   23388064.9194
        47.000          40.000
 119121130.16447  92821645.04447  22668006.3434   22668009.3024   22668006.5834
        46.000          41.000
 126378732.93747  98476916.59347  24049088.0744   24049088.5224   24049088.2024
        45.000          39.000
 115763020.19947  90204941.16347  22028976.8024   22028979.2924   22028977.0324
        50.000          45.000
 123984623.99747  96611379.86047  23593501.7674   23593505.3054   23593502.1084
        46.000          39.000
 121934891.72247  95014195.22247  23203442.6304   23203445.8484   23203442.3854
        47.000          41.000
 105647971.46547  82323091.57947  20104142.9954   20104144.6864   20104143.4224
        54.000          49.000
 114637997.78647  89328286.47847  21814903.3164   21814907.6294   21814903.4714
        51.000          45.000
 120175214.04347  93643018.99147  22868585.2884   22868588.1744   22868584.8824
        48.000          43.000
 09  1  1  1 20 30.0000000  0 11G12G31G18G 9G22G14G 5G30G21G24G29
 128347306.72647 100010876.20847  24423690.3414   24423691.6064   24423690.0614
        44.000          38.000
 130587535.20147  83964302.71947  22947053.3234   22947055.5184   22947052.8234
        48.000          43.000
 122876616.17547  95748007.43547  23382645.6614   23382647.2654   23382646.2774
        47.000          40.000
 119200872.28647  92883781.76047  22683180.5824   22683183.5624   22683180.3624
        46.000          41.000
 126350517.73447  98454930.72947  24043719.0114   24043719.5914   24043718.9154
        46.000          40.000
 115781868.91147  90219628.48647  22032563.5284   22032566.0574   22032563.5144
        50.000          45.000
 123971364.11947  96601047.48647  23590978.8474   23590981.9474   23590979.4774
        46.000          39.000
 121909111.02447  94994106.40047  23198536.8434   23198539.4224   23198536.3894
        47.000          41.000
 105617031.79847  82298982.74147  20098255.3374   20098256.8694   20098255.7264
        54.000          49.000
 114685982.03947  89365676.81047  21824034.4884   21824038.6764   21824034.4364
        51.000          45.000
 120250895.15747  93701991.32447  22882986.7964   22882989.7554   22882986.5814
        48.000          43.000
 09  1  1  1 21  0.0000000  0 11G12G31G18G 9G22G14G 5G30G21G24G29
 128349341.56647 100012461.84047  24424077.0584   24424079.2844   24424077.4074
        43.000          38.000
 130488178.78947  83886882.21747  22928146.3704   22928148.6274   22928145.8764
        48.000          43.000
 122847974.17747  95725688.98447  23377195.7074   23377197.3024   23377195.9854
        47.000          40.000
 119281021.99947  92946236.07947  22698432.5094   22698435.9994   22698432.5344
        46.000          41.000
 126322074.12447  98432766.88647  24038306.9314   24038306.7054   24038306.8964
        46.000          39.000
 115801046.04047  90234571.71547  22036212.8164   22036215.0204   22036213.0234
        50.000          45.000
 123958167.56847  96590764.46247  23588467.2144   23588470.7024   23588467.6614
        45.000          39.000
 121883248.76147  94973954.01247  23193615.4774   23193618.2444   23193615.0044
        47.000          41.000
 105586643.99747  82275303.93247  20092472.6424   20092474.3424   20092472.9944
        54.000          49.000
 114734417.51747  89403418.74347  21833251.3454   21833255.6154   21833251.3404
        51.000          45.000
 120326541.68747  93760936.67347  22897381.7254   22897384.7294   22897381.5754
        48.000          43.000
 09  1  1  1 21 30.0000000  0 11G12G31G18G 9G22G14G 5G30G21G24G29
 128351440.62847 100014097.50247  24424476.5004   24424478.3414   24424476.7624
        44.000          38.000
 130388983.56947  83809587.32647  22909269.8964   22909272.1614   22909269.6074
        49.000          43.000
 122819166.53947  95703241.48347  23371713.8694   23371715.5564   23371714.3844
        48.000          40.000
 119361577.51447  93009006.62647  22713761.9154   22713765.1494   22713762.2704
        47.000          41.000
 126293402.78047  98410425.59647  24032850.8804   24032850.6214   24032850.9544
        46.000          39.000
 115820549.63047  90249769.33647  22039924.2434   22039926.6724   22039924.4414
        50.000          45.000
 123945037.28547  96580533.11147  23585968.7064   23585972.2994   23585969.1814
        46.000          40.000
 121857307.30447  94953739.92347  23188678.9554   23188681.7064   23188678.4744
        47.000          41.000
 105556810.65947  82252057.16847  20086795.6124   20086797.3914   20086796.0174
        54.000          49.000
 114783303.98947  89441512.10247  21842554.0364   21842558.4244   21842554.1964
        51.000          45.000
 120402152.12147  93819853.89447  22911769.7934   22911772.7734   22911769.6284
        47.000          43.000
 09  1  1  1 22  0.0000000  0 11G12G31G18G 9G22G14G 5G30G21G24G29
 128353605.13247 100015784.15947  24424887.5744   24424890.2984   24424887.7634
        44.000          38.000
 130289951.97447  83732419.92147  22890424.8834   22890426.8264   22890424.3364
        48.000          42.000
 122790193.92047  95680665.44147  23366200.7124   23366202.6544   23366201.0294
        48.000          41.000
 119442536.12247  93072091.27347  22729168.2114   22729171.1264   22729168.2334
        47.000          41.000
 126264503.16847  98387906.41847  24027351.3104   24027351.8424   24027351.4674
        47.000          40.000
 115840377.37647  90265219.55047  22043697.2334   22043699.8814   22043697.4784
        50.000          44.000
 123931974.63747  96570354.42347  23583482.8054   23583486.4814   23583483.1154
        45.000          39.000
 121831287.87347  94933465.05247  23183727.6354   23183730.5694   23183727.4744
        48.000          41.000
 105527532.91247  82229243.33247  20081224.2374   20081226.0754   20081224.6044
        54.000          49.000
 114832639.83347  89479955.62347  21851942.6144   21851946.5984   21851942.8754
        52.000          45.000
 120477723.72747  93878740.85547  22926150.6904   22926153.4564   22926150.2214
        48.000          43.000
 09  1  1  1 22 30.0000000  0 11G12G31G18G 9G22G14G 5G30G21G24G29
 128355837.45847 100017523.63847  24425313.0224   24425315.1084   24425313.2094
        44.000          38.000
 130191087.38947  83655382.64747  22871611.4864   22871613.3404   22871610.5924
        48.000          42.000
 122761058.06647  95657962.16047  23360656.1204   23360657.8484   23360656.7304
        48.000          40.000
 119523896.23747  93135488.76647  22744650.5244   22744653.3514   22744650.0734
        46.000          41.000
 126235375.88247  98365209.84747  24021808.6504   24021809.0514   24021808.7334
        45.000          40.000
 115860527.18347  90280920.71247  22047531.6234   22047534.1214   22047531.8964
        51.000          45.000
 123918982.19547  96560230.44847  23581009.8204   23581013.9924   23581010.5644
        45.000          39.000
 121805192.69047  94913131.12947  23178761.6254   23178764.8024   23178761.2184
        48.000          41.000
 105498812.99547  82206864.16647  20075759.0814   20075760.7524   20075759.4334
        54.000          49.000
 114882424.48247  89518748.87247  21861416.3414   21861420.4684   21861416.3174
        51.000          45.000
 120553254.45147  93937595.99647  22940523.7684   22940526.4944   22940523.2094
        47.000          43.000
 09  1  1  1 23  0.0000000  0 11G12G31G18G 9G22G14G 5G30G21G24G29
 128358139.39947 100019317.38847  24425750.7484   24425752.5934   24425750.6614
        44.000          38.000
 130092392.45547  83578477.57747  22852830.5284   22852831.9034   22852830.5194
        49.000          43.000
 122731759.71447  95635132.28247  23355081.1754   23355082.2464   23355081.4624
        48.000          40.000
 119605655.00747  93199196.89947  22760208.1994   22760211.8324   22760208.1004
        46.000          41.000
 126206020.80247  98342335.76747  24016222.5174   24016222.7224   24016222.2654
        45.000          39.000
 115880996.45747  90296870.81347  22051426.9134   22051429.1274   22051427.1614
        50.000          45.000
 123906061.89147  96550162.67347  23578551.5624   23578555.4404   23578552.1354
        46.000          39.000
 121779023.65947  94892739.71347  23173782.0854   23173784.7164   23173781.9794
        48.000          41.000
 105470652.34547  82184920.80547  20070400.1454   20070401.9994   20070400.4484
        54.000          49.000
 114932656.22747  89557890.48447  21870974.9994   21870979.3414   21870975.2534
        51.000          45.000
 120628741.77047  93996417.28247  22954888.3084   22954891.2734   22954887.9704
        47.000          42.000
 09  1  1  1 23 30.0000000  0 11G12G31G18G 9G22G14G 5G30G21G24G29
 128360512.93947 100021166.94447  24426202.7944   24426204.5604   24426202.5104
        44.000          38.000
 129993870.62347  83501707.38447  22834082.5974   22834083.6184   22834082.2134
        49.000          43.000
 122702300.66647  95612177.19647  23349475.2134   23349476.7024   23349475.5094
        47.000          40.000
 119687810.64347  93263214.28147  22775842.1854   22775845.3504   22775842.0544
        47.000          41.000
 126176438.48447  98319284.62847  24010592.6254   24010593.2894   24010592.5994
        45.000          39.000
 115901783.54747  90313068.56647  22055382.4404   22055384.9164   22055382.8174
        50.000          44.000
 123893216.31247  96540153.15747  23576107.2234   23576111.0744   23576107.7024
        46.000          40.000
 121752783.15447  94872292.56147  23168788.5274   23168791.4434   23168788.3324
        47.000          41.000
 105443053.40247  82163415.13347  20065148.4404   20065150.1614   20065148.8644
        54.000          49.000
 114983334.83347  89597380.31547  21880618.7994   21880623.1654   21880618.7214
        51.000          45.000
 120704184.47047  94055203.81747  22969244.8654   22969247.5274   22969244.7294
        48.000          42.000
 09  1  1  1 24  0.0000000  0 11G12G31G18G 9G22G14G 5G30G21G24G29
 128362959.78947 100023073.59347  24426668.7564   24426670.5414   24426668.3814
        45.000          38.000
 129895523.98147  83425073.70347  22815367.7304   22815369.0304   22815368.0764
        49.000          43.000
 122672681.63547  95589097.43847  23343839.0834   23343840.0104   23343839.3324
        47.000          40.000
 119770359.93347  93327538.41347  22791550.7514   22791554.0584   22791550.5614
        47.000          41.000
 126146628.22747  98296055.85947  24004920.5744   24004920.8794   24004920.6694
        46.000          40.000
 115922885.17647  90329511.40647  22059398.1014   22059400.6594   22059398.3654
        50.000          45.000
 123880446.78747  96530202.88447  23573677.1574   23573681.0234   23573677.6384
        46.000          40.000
 121726471.99447  94851790.35647  23163781.8704   23163784.4124   23163781.3614
        47.000          41.000
 105416017.04147  82142347.83047  20060003.4704   20060005.1714   20060003.8114
        54.000          49.000
 115034458.55747  89637216.98547  21890347.4344   21890351.4924   21890347.6764
        51.000          45.000
 120779579.56147  94113953.26047  22983592.0774   22983594.6344   22983591.9204
        47.000          42.000
 09  1  1  1 24 30.0000000  0 11G12G31G18G 9G22G14G 5G30G21G24G29
 128365482.63547 100025039.47747  24427148.8584   24427150.3704   24427148.6904
        44.000          38.000
 129797356.91247  83348579.94547  22796686.9754   22796688.1444   22796686.2834
        48.000          43.000
 122642905.09347  95565894.96247  23338172.5094   23338173.5054   23338173.1144
        47.000          40.000
 119853301.80647  93392168.44847  22807333.8904   22807337.6134   22807334.0034
        47.000          41.000
 126116591.39347  98272650.55247  23999204.8544   23999205.1744   23999204.7134
        46.000          40.000
 115944300.30847  90346198.53747  22063473.3914   22063475.4414   22063473.5394
        50.000          44.000
 123867756.76747  96520314.56547  23571262.6334   23571266.0704   23571263.0484
        46.000          40.000
 121700093.21047  94831235.44547  23158762.2224   23158765.0744   23158761.9404
        48.000          42.000
 105389546.44647  82121721.39247  20054966.3204   20054968.1224   20054966.7294
        54.000          49.000
 115086027.52247  89677400.60347  21900160.7494   21900164.5694   21900160.9054
        51.000          44.000
 120854926.07347  94172664.83547  22997930.0734   22997932.6664   22997930.0064
        48.000          42.000
 09  1  1  1 25  0.0000000  0 11G12G31G18G 9G22G14G 5G30G21G24G29
 128368081.43347 100027064.51947  24427643.0464   24427645.3854   24427643.0584
        44.000          38.000
 129699369.91747  83272226.50947  22778040.7254   22778041.8244   22778040.1584
        48.000          43.000
 122612969.88047  95542568.83447  23332475.8244   23332477.1224   23332476.1784
        48.000          40.000
 119936631.67947  93457100.80447  22823191.0874   22823194.5984   22823190.9024
        47.000          41.000
 126086326.02247  98249067.15047  23993445.1504   23993445.4004   23993444.8294
        46.000          39.000
 115966024.66447  90363126.61947  22067607.1704   22067609.5424   22067607.3844
        50.000          44.000
 123855146.16047  96510488.12447  23568862.5184   23568866.5504   23568862.7934
        46.000          40.000
 121673646.57747  94810627.69047  23153729.2884   23153732.2874   23153728.9434
        48.000          42.000
 105363641.12247  82101535.41447  20050036.7004   20050038.3714   20050037.1154
        54.000          49.000
 115138038.44847  89717928.60247  21910058.0704   21910061.7564   21910058.0964
        51.000          45.000
 120930219.62147  94231335.15647  23012257.8304   23012260.6074   23012257.6744
        48.000          43.000
 09  1  1  1 25 30.0000000  0 11G12G31G18G 9G22G14G 5G30G21G24G29
 128370760.76647 100029152.32447  24428152.7254   24428155.0874   24428152.7084
        44.000          38.000
 129601568.78447  83196017.90547  22759429.5744   22759431.1564   22759429.2304
        49.000          43.000
 122582880.11847  95519122.29047  23326750.0594   23326751.5494   23326750.3774
        47.000          40.000
 120020350.33247  93522336.12647  22839122.4634   22839125.5934   22839122.4964
        47.000          41.000
 126055834.97147  98225307.91147  23987642.8124   23987642.6594   23987642.9514
        45.000          39.000
 115988058.45147  90380295.82247  22071800.0864   22071802.3834   22071800.1444
        50.000          44.000
 123842619.91247  96500727.44147  23566478.9054   23566483.1174   23566479.4244
        46.000          40.000
 121647136.78547  94789970.72747  23148684.8614   23148687.8844   23148684.4434
        48.000          42.000
 105338305.17347  82081793.11547  20045215.4154   20045217.2354   20045215.7814
        54.000          49.000
 115190493.17847  89758802.41947  21920039.7884   21920043.7194   21920039.9684
        51.000          45.000
 121005460.83847  94289964.69647  23026575.9934   23026578.5074   23026575.5684
        47.000          42.000
 09  1  1  1 26  0.0000000  0 11G12G31G18G 9G22G14G 5G30G21G24G29
 128373520.73347 100031302.94847  24428677.8314   24428680.3074   24428678.1434
        43.000          38.000
 129503954.71347  83119955.05247  22740854.0244   22740855.8434   22740853.4654
        48.000          43.000
 122552635.28047  95495554.91147  23320994.6394   23320996.3564   23320994.9004
        47.000          40.000
 120104453.50247  93587871.06847  22855126.8694   22855129.7964   22855127.0874
        47.000          41.000
 126025116.50847  98201371.44747  23981797.1454   23981797.6754   23981797.4924
        45.000          39.000
 116010397.48647  90397702.88247  22076051.0594   22076053.2684   22076051.1624
        50.000          44.000
 123830178.28147  96491032.67547  23564111.4474   23564115.2494   23564112.2054
        46.000          40.000
 121620563.76647  94769264.49047  23143628.6004   23143630.9524   23143628.4224
        48.000          42.000
 105313538.63447  82062494.51447  20040502.5714   20040504.3864   20040502.9744
        54.000          49.000
 115243388.28447  89800019.39147  21930105.5554   21930109.2334   21930105.7654
        52.000          45.000
 121080645.79647  94348550.35347  23040883.0094   23040885.7044   23040882.6944
        48.000          42.000
 09  1  1  1 26 30.0000000  0 11G12G31G18G 9G22G14G 5G30G21G24G29
 128376364.12847 100033518.63047  24429218.6804   24429220.9974   24429218.5824
        43.000          38.000
 129406530.92147  83044040.47047  22722314.7544   22722316.6534   22722314.5794
        49.000          43.000
 122522237.38047  95471868.24547  23315209.8614   23315211.7604   23315210.2654
        46.000          40.000
 120188939.11947  93653704.01147  22871203.8994   22871207.1894   22871204.2624
        47.000          41.000
 125994171.49647  98177258.45647  23975908.4914   23975909.0054   23975908.7774
        45.000          39.000
 116033040.03047  90415346.43647  22080359.8264   22080362.0424   22080359.9764
        51.000          44.000
 123817824.00547  96481406.00647  23561760.4484   23561764.1334   23561760.9384
        46.000          39.000
 121593929.98347  94748510.90147  23138560.1704   23138562.7654   23138559.7804
        48.000          42.000
 105289343.72147  82043641.33847  20035898.4164   20035900.0674   20035898.8154
        54.000          49.000
 115296722.97247  89841578.89047  21940254.8124   21940258.5304   21940254.9004
        51.000          45.000
 121155772.88247  94407090.96947  23055179.3244   23055181.8684   23055179.0374
        48.000          42.000
 09  1  1  1 27  0.0000000  0 11G12G31G18G 9G22G14G 5G30G21G24G29
 128379292.71147 100035800.68147  24429776.1554   24429778.5104   24429775.9174
        44.000          38.000
 129309300.28747  82968276.40847  22703812.4734   22703814.4984   22703812.0284
        48.000          43.000
 122491687.78547  95448063.38347  23309396.5674   23309397.9954   23309396.8664
        47.000          40.000
 120273804.87247  93719833.16247  22887353.3694   22887356.1964   22887353.5004
        47.000          41.000
 125963000.03647  98152968.99647  23969976.6984   23969977.7704   23969976.1644
        45.000          39.000
 116055983.87447  90433224.77447  22084725.9064   22084728.0354   22084726.2784
        51.000          45.000
 123805559.16547  96471849.00447  23559426.3904   23559430.4104   23559426.7934
        46.000          40.000
 121567237.24847  94727711.38847  23133480.5894   23133483.3554   23133480.2314
        48.000          42.000
 105265722.09447  82025234.87747  20031403.4084   20031404.9494   20031403.7944
        54.000          49.000
 115350496.43947  89883480.30847  21950487.4724   21950491.7424   21950487.6134
        51.000          45.000
 121230839.98047  94465584.82847  23069464.1914   23069466.6714   23069463.9684
        48.000          42.000
 09  1  1  1 27 30.0000000  0 11G12G31G18G 9G22G14G 5G30G21G24G29
 128382309.10847 100038151.15447  24430349.8794   24430352.9414   24430349.6134
        43.000          38.000
 129212267.16147  82892666.24147  22685347.5164   22685349.8094   22685347.3644
        49.000          43.000
 122460988.41047  95424141.79547  23303554.2074   23303556.1144   23303554.7744
        47.000          40.000
 120359049.30347  93786257.39347  22903574.8554   22903577.1604   22903574.8884
        47.000          40.000
 125931602.94547  98128503.75747  23964002.4934   23964002.0634   23964001.8234
        45.000          39.000
 116079227.15147  90451336.43147  22089148.8854   22089151.2874   22089148.8724
        50.000          45.000
 123793386.68447  96462363.98147  23557110.3324   23557113.8554   23557110.4454
        46.000          40.000
 121540488.35147  94706868.09347  23128390.4394   23128393.1954   23128390.2904
        48.000          42.000
 105242675.83847  82007276.75847  20027017.7914   20027019.3994   20027018.1574
        54.000          49.000
 115404708.45247  89925723.44047  21960803.4714   21960807.9594   21960803.6144
        51.000          45.000
 121305846.02947  94524031.07347  23083737.3374   23083739.9854   23083737.1774
        47.000          42.000
 09  1  1  1 28  0.0000000  0 11G12G31G18G 9G22G14G 5G30G21G24G29
 128385413.13847 100040569.89747  24430940.3674   24430942.8874   24430940.3494
        43.000          38.000
 129115432.01647  82817210.32947  22666920.4214   22666922.6414   22666919.7754
        49.000          43.000
 122430138.69947  95400103.07947  23297684.0564   23297685.3434   23297684.6844
        47.000          40.000
 120444668.01247  93852973.27447  22919867.3534   22919869.9194   22919867.6524
        46.000          40.000
 125899978.59647  98103861.40347  23957984.4454   23957984.4844   23957984.5594
        46.000          39.000
 116102765.87447  90469678.30247  22093628.2264   22093630.5944   22093628.4354
        50.000          45.000
 123781306.78247  96452951.07047  23554811.2064   23554814.9764   23554811.7724
        46.000          40.000
 121513683.49047  94685981.19547  23123289.9634   23123292.1214   23123290.0314
        48.000          42.000
 105220204.77547  81989766.83847  20022741.7254   20022743.2114   20022742.0964
        54.000          49.000
 115459355.58047  89968305.63347  21971202.5834   21971206.7834   21971202.6854
        51.000          44.000
 121380786.85347  94582426.50847  23097998.1494   23098000.5624   23097997.9064
        48.000          42.000
 09  1  1  1 28 30.0000000  0 11G12G31G18G 9G22G14G 5G30G21G24G29
 128388608.18747 100043059.56947  24431547.7864   24431551.0914   24431547.7244
        43.000          37.000
 129018799.24547  82741912.12947  22648531.9074   22648533.9314   22648531.6544
        49.000          44.000
 122399141.68447  95375949.55847  23291785.4594   23291787.5274   23291786.0784
        47.000          40.000
 120530659.81747  93919979.88647  22936231.0124   22936233.7004   22936231.4204
        46.000          40.000
 125868128.86247  98079043.41747  23951923.7274   23951924.0924   23951923.9284
        45.000          39.000
 116126599.06047  90488249.62647  22098163.3934   22098165.7214   22098163.6164
        50.000          44.000
 123769323.12047  96443613.18747  23552531.4454   23552534.5974   23552531.9154
        47.000          40.000
 121486825.94447  94665053.26747  23118178.6414   23118181.1164   23118178.3934
        48.000          41.000
 105198311.92047  81972707.47047  20018575.7304   20018577.3334   20018576.2494
        54.000          49.000
 115514438.12947  90011227.11747  21981684.1794   21981688.4644   21981684.2134
        50.000          44.000
 121455661.75747  94640770.56747  23112246.5964   23112248.5744   23112246.3764
        47.000          42.000
 09  1  1  1 29  0.0000000  0 11G12G31G18G 9G22G14G 5G30G21G24G29
 128391895.77347 100045621.32747  24432174.4894   24432176.6564   24432174.3854
        43.000          38.000
 128922371.30047  82666773.51947  22630182.2944   22630184.2134   22630181.9834
        50.000          44.000
 122367997.84347  95351681.63447  23285859.1414   23285860.9664   23285859.6354
        47.000          40.000
 120617021.48347  93987274.70247  22952664.9334   22952668.1214   22952665.0064
        46.000          40.000
 125836053.21847  98054049.39447  23945819.8024   23945820.4454   23945820.1194
        46.000          39.000
 116150723.54147  90507047.93647  22102754.2014   22102756.4484   22102754.3024
        51.000          45.000
 123757437.06047  96434351.34947  23550269.4484   23550272.7534   23550269.9314
        46.000          40.000
 121459916.59247  94644084.96847  23113057.8084   23113060.5694   23113057.2684
        48.000          41.000
 105176998.07247  81956099.27147  20014519.7074   20014521.3714   20014520.0674
        54.000          49.000
 115569953.98447  90054486.23847  21992248.5674   21992252.7184   21992248.7304
        50.000          44.000
 121530468.35847  94699061.41747  23126481.5084   23126484.0254   23126481.1964
        47.000          42.000
 09  1  1  1 29 30.0000000  0 11G12G31G18G 9G22G14G 5G30G21G24G29
 128395278.82047 100048257.49847  24432817.6824   24432819.7744   24432817.2244
        43.000          38.000
 128826152.27947  82591797.71847  22611872.1624   22611874.4304   22611872.0504
        49.000          44.000
 122336709.53347  95327301.14547  23279905.3054   23279906.6904   23279905.8404
        47.000          41.000
 120703751.79947  94054856.76547  22969169.2804   22969172.3454   22969169.7814
        47.000          40.000
 125803752.89147  98028880.31047  23939672.9784   23939673.1604   23939672.9754
        45.000          39.000
 116175137.76947  90526072.01947  22107399.9844   22107402.3054   22107400.1634
        50.000          44.000
 123745651.84447  96425168.06547  23548026.3964   23548030.1664   23548026.9204
        45.000          40.000
 121432958.58747  94623078.78447  23107927.7364   23107930.5394   23107927.5394
        48.000          41.000
 105156265.71247  81939944.18747  20010574.5164   20010576.1754   20010574.8914
        54.000          50.000
 115625903.03147  90098082.91347  22002895.2774   22002899.6604   22002895.3564
        51.000          44.000
 121605205.52547  94757298.17347  23140703.6674   23140705.6074   23140703.1344
        48.000          42.000
 09  1  1  1 30  0.0000000  0 11G12G31G18G 9G22G14G 5G30G21G24G29
 128398757.93547 100050968.51847  24433479.5434   24433482.5174   24433479.0694
        43.000          38.000
 128730144.08447  82516986.19247  22593602.3224   22593604.5064   22593601.8174
        49.000          44.000
 122305277.24047  95302808.46447  23273923.9874   23273925.7244   23273924.3444
        47.000          41.000
 120790846.99347  94122723.13847  22985743.1804   22985745.9354   22985743.2414
        45.000          40.000
 125771227.17147  98003535.59547  23933483.4984   23933484.0644   23933483.6224
        45.000          39.000
 116199838.54647  90545319.39447  22112100.3134   22112102.8394   22112100.6984
        50.000          44.000
 123733968.54247  96416064.18647  23545803.0204   23545807.1704   23545803.7114
        45.000          39.000
 121405952.73647  94602035.27347  23102788.8604   23102791.7304   23102788.4334
        48.000          42.000
 105136115.24847  81924242.52647  20006740.0564   20006741.7364   20006740.4514
        54.000          50.000
 115682283.27747  90142015.58247  22013624.3274   22013628.3334   22013624.3714
        51.000          44.000
 121679870.00547  94815478.27947  23154911.7984   23154913.7964   23154911.6934
        48.000          42.000
 09  1  1  1 30 30.0000000  0 11G12G31G18G 9G22G14G 5G30G21G24G29
 128402335.50347 100053756.24847  24434161.1314   24434163.4054   24434160.4504
        43.000          38.000
 128634349.84047  82442341.38747  22575373.4184   22575375.3964   22575373.5134
        50.000          44.000
 122273703.02047  95278205.18247  23267915.1854   23267917.0114   23267915.6554
        47.000          41.000
 120878305.46747  94190872.59047  23002385.7884   23002388.6524   23002385.8984
        46.000          40.000
 125738476.82947  97978015.86147  23927251.8124   23927251.9034   23927251.8094
        45.000          39.000
 116224823.94547  90564788.54447  22116854.7034   22116857.3254   22116854.7574
        50.000          44.000
 123722389.82947  96407041.83047  23543599.6244   23543603.9544   23543599.6414
        45.000          40.000
 121378901.44947  94580956.33447  23097640.5564   23097643.7384   23097640.2944
        47.000          41.000
 105116548.53747  81908995.73247  20003016.4524   20003018.2044   20003016.8574
        54.000          50.000
 115739093.33347  90186283.17247  22024434.9784   22024439.0424   22024435.1964
        51.000          44.000
 121754460.38247  94873600.64047  23169105.7434   23169107.7544   23169105.5434
        47.000          42.000
 09  1  1  1 31  0.0000000  0 11G12G31G18G 9G22G14G 5G30G21G24G29
 128406013.51647 100056622.23447  24434861.4844   24434863.3604   24434861.1164
        43.000          38.000
 128538772.31247  82367865.43647  22557185.4634   22557187.3544   22557185.0094
        49.000          44.000
 122241988.01647  95253492.20447  23261880.0954   23261882.1724   23261880.6864
        47.000          41.000
 120966124.28047  94259302.83747  23019097.1814   23019100.3994   23019097.3384
        47.000          40.000
 125705501.91647  97952321.12447  23920976.9954   23920977.4684   23920976.9874
        46.000          39.000
 116250091.20147  90584477.32947  22121663.1394   22121665.4884   22121663.2504
        50.000          44.000
 123710917.66347  96398102.49747  23541416.7214   23541420.6974   23541417.0724
        45.000          40.000
 121351806.75347  94559843.58447  23092484.6674   23092487.8134   23092484.1744
        48.000          42.000
 105097566.58547  81894204.59247  19999404.3804   19999406.1694   19999404.8084
        54.000          50.000
 115796332.16647  90230884.85547  22035326.8424   22035331.2084   22035327.0384
        51.000          44.000
 121828974.63147  94931663.67847  23183285.2814   23183287.7284   23183284.9534
        47.000          42.000
 09  1  1  1 31 30.0000000  0 11G12G31G18G 9G22G14G 5G30G21G24G29
 128409794.30347 100059568.32147  24435580.5754   24435582.4884   24435580.0164
        44.000          38.000
 128443414.99647  82293561.08247  22539039.2904   22539041.3474   22539039.0374
        49.000          44.000
 122210133.85547  95228670.80047  23255818.0284   23255820.4714   23255818.5644
        47.000          41.000
 121054301.41147  94328012.29347  23035876.8164   23035879.7494   23035876.7534
        46.000          40.000
 125672303.18147  97926451.98647  23914659.2704   23914659.4124   23914659.3694
        46.000          39.000
 116275638.32347  90604384.17947  22126524.5364   22126527.0634   22126524.6844
        50.000          44.000
 123699554.71047  96389248.28147  23539254.3264   23539258.1034   23539254.7984
        46.000          39.000
 121324671.05347  94538698.88647  23087321.2624   23087324.0574   23087321.0984
        48.000          42.000
 105079171.67847  81879870.89347  19995904.0924   19995905.7184   19995904.5504
        54.000          50.000
 115853998.76447  90275819.87647  22046300.5384   22046304.7234   22046300.6284
        51.000          44.000
 121903410.93847  94989665.98547  23197450.1394   23197452.7414   23197449.4074
        47.000          42.000
 09  1  1  1 32  0.0000000  0 11G12G31G18G 9G22G14G 5G30G21G24G29
 128413679.93647 100062596.12747  24436319.7604   24436321.5154   24436319.5544
        43.000          39.000
 128348281.19347  82219430.89247  22520935.8364   22520938.0064   22520935.1294
        49.000          44.000
 122178142.50747  95203742.48847  23249730.4674   23249732.6804   23249731.1954
        47.000          40.000
 121142834.20647  94396998.89847  23052723.9984   23052727.0984   23052723.9794
        47.000          40.000
 125638881.30747  97900408.98447  23908299.2684   23908299.3694   23908299.3114
        46.000          39.000
 116301463.08747  90624507.38647  22131438.7894   22131441.1464   22131439.1874
        50.000          44.000
 123688303.20847  96380480.87147  23537113.3324   23537116.4334   23537113.6314
        46.000          39.000
 121297496.61847  94517524.04647  23082150.0534   23082153.0624   23082149.8444
        48.000          42.000
 105061365.13547  81865995.65847  19992515.6694   19992517.2094   19992516.0974
        54.000          50.000
 115912092.03247  90321087.36647  22057355.3044   22057359.1554   22057355.5424
        51.000          44.000
 121977767.84047  95047606.41847  23211599.8384   23211602.4714   23211599.5434
        48.000          42.000
 09  1  1  1 32 30.0000000  0 11G12G31G18G 9G22G14G 5G30G21G24G29
 128417670.99047 100065706.03847  24437078.9124   24437081.3064   24437078.6414
        43.000          39.000
 128253372.76747  82145476.33347  22502875.5604   22502877.4764   22502875.1044
        49.000          44.000
 122146014.04847  95178707.33947  23243616.7964   23243618.5884   23243617.3574
        47.000          40.000
 121231719.37947  94466260.08047  23069638.1344   23069640.9334   23069638.6024
        47.000          40.000
 125605235.17647  97874191.23447  23901897.0304   23901896.9984   23901897.4874
        47.000          40.000
 116327561.96647  90644844.17647  22136405.1914   22136407.4824   22136405.6134
        50.000          44.000
 123677164.24247  96371801.16147  23534993.6344   23534997.2584   23534993.9314
        46.000          40.000
 121270284.04447  94496319.47247  23076971.8994   23076974.7174   23076971.3744
        48.000          42.000
 105044146.99947  81852578.92147  19989239.0894   19989240.7674   19989239.5154
        54.000          49.000
 115970609.14947  90366685.12147  22068490.9594   22068494.6454   22068491.0954
        51.000          44.000
 122052041.80547  95105482.21847  23225734.1884   23225736.2844   23225733.6544
        47.000          42.000
 09  1  1  1 33  0.0000000  0 11G12G31G18G 9G22G14G 5G30G21G24G29
 128421769.74847 100068899.86847  24437859.2024   24437861.1284   24437858.8314
        43.000          39.000
 128158692.65147  82071699.66147  22484858.5954   22484860.4474   22484858.1594
        49.000          44.000
 122113750.26847  95153566.72247  23237477.5284   23237478.9434   23237478.1994
        47.000          41.000
 121320954.84047  94535794.20747  23086619.2284   23086622.0244   23086619.6694
        46.000          40.000
 125571365.79247  97847799.51247  23895451.4174   23895451.9784   23895451.6764
        45.000          40.000
 116353933.06847  90665393.09847  22141423.6204   22141425.7154   22141423.9814
        50.000          44.000
 123666140.27347  96363211.07047  23532895.7754   23532900.0014   23532896.3884
        46.000          40.000
 121243035.81247  94475087.07947  23071786.6844   23071789.6874   23071786.3924
        48.000          42.000
 105027519.18047  81839622.17447  19986074.9674   19986076.5634   19986075.3114
        54.000          49.000
 116029549.20647  90412612.42447  22079706.8814   22079710.6264   22079707.0504
        51.000          44.000
 122126231.46847  95163292.34947  23239851.6814   23239854.2604   23239851.5004
        47.000          42.000
 09  1  1  1 33 30.0000000  0 11G12G31G18G 9G22G14G 5G30G21G24G29
 128425979.90247 100072180.51947  24438660.4284   24438662.4014   24438659.7834
        43.000          39.000
 128064245.73447  81998104.71747  22466885.9064   22466887.6544   22466885.5664
        49.000          44.000
 122081354.68547  95128323.41947  23231312.8064   23231314.2414   23231313.2204
        47.000          40.000
 121410539.45947  94605600.41747  23103666.8474   23103669.5004   23103667.0544
        45.000          40.000
 125537275.03347  97821235.29047  23888963.7254   23888964.3244   23888964.0314
        46.000          39.000
 116380575.38047  90686153.34247  22146493.3174   22146495.7804   22146493.4614
        50.000          44.000
 123655235.08947  96354713.55847  23530820.6794   23530824.6304   23530821.2054
        46.000          40.000
 121215755.46447  94453829.66247  23066595.7284   23066598.4354   23066595.1724
        48.000          42.000
 105011484.44447  81827127.56747  19983023.7274   19983025.1884   19983024.1234
        54.000          49.000
 116088912.47847  90458869.50747  22091003.5684   22091007.1964   22091003.6594
        51.000          44.000
 122200336.61447  95221036.61447  23253953.3264   23253955.9574   23253953.1414
        47.000          42.000
 09  1  1  1 34  0.0000000  0 11G12G31G18G 9G22G14G 5G30G21G24G29
 128430301.20247 100075547.78747  24439482.7644   24439484.9724   24439482.8194
        45.000          39.000
 127970032.65547  81924691.97747  22448957.6994   22448959.3774   22448957.5664
        50.000          44.000
 122048826.38447  95102976.69747  23225122.7374   23225124.1954   23225123.4534
        47.000          40.000
 121500468.47247  94675674.96547  23120779.6924   23120782.9224   23120779.5324
        45.000          40.000
 125502961.09347  97794497.18047  23882434.4784   23882434.6564   23882434.2844
        46.000          40.000
 116407483.99747  90707121.10347  22151613.8464   22151616.1214   22151613.9914
        50.000          44.000
 123644448.72247  96346308.63247  23528767.5224   23528772.0334   23528768.2534
        46.000          39.000
 121188443.04747  94432547.26847  23061398.1364   23061400.9784   23061397.5544
        48.000          42.000
 104996041.75347  81815094.29547  19980084.8814   19980086.6314   19980085.3054
        54.000          49.000
 116148695.47747  90505453.64547  22102379.8344   22102383.4124   22102379.7724
        50.000          44.000
 122274352.95347  95278711.67547  23268038.1684   23268041.1814   23268038.1034
        47.000          42.000
 09  1  1  1 34 30.0000000  0 11G12G31G18G 9G22G14G 5G30G21G24G29
 128434736.10647 100079003.56647  24440326.4414   24440329.1394   24440326.0224
        44.000          39.000
 127876057.01647  81851464.25347  22431074.7894   22431076.4104   22431074.4154
        50.000          44.000
 122016167.82947  95077528.47147  23218908.1084   23218909.7344   23218908.4484
        47.000          40.000
 121590739.90547  94746016.33847  23137957.5564   23137961.0074   23137957.4584
        45.000          40.000
 125468425.09347  97767586.01747  23875862.2644   23875863.0584   23875862.7504
        46.000          40.000
 116434657.38047  90728295.17647  22156784.8354   22156787.0834   22156785.0814
        50.000          44.000
 123633783.82347  96337998.34747  23526738.4004   23526741.9684   23526738.7564
        46.000          40.000
 121161101.00247  94411241.80447  23056195.2324   23056197.7384   23056194.9324
        48.000          42.000
 104981193.02147  81803523.85047  19977259.3344   19977261.0044   19977259.7044
        54.000          50.000
 116208897.15447  90552364.02847  22113835.5374   22113839.5564   22113835.4644
        50.000          44.000
 122348279.22247  95336316.57047  23282105.7814   23282108.6564   23282105.4194
        47.000          42.000
 09  1  1  1 35  0.0000000  0 11G12G31G18G 9G22G14G 5G30G21G24G29
 128439287.19247 100082549.87747  24441192.5594   24441195.3234   24441192.5564
        44.000          39.000
 127782322.50447  81778424.40747  22413238.0704   22413239.5934   22413237.2414
        50.000          44.000
 121983380.56647  95051979.95447  23212668.7494   23212670.6004   23212669.3174
        47.000          40.000
 121681352.14547  94816623.28447  23155200.5994   23155203.7614   23155200.7024
        46.000          40.000
 125433667.90847  97740502.49447  23869248.3864   23869248.7944   23869248.2864
        47.000          40.000
 116462093.61547  90749674.06047  22162005.7454   22162008.2054   22162006.1234
        50.000          44.000
 123623243.32847  96329784.98147  23524732.5354   23524736.5144   23524733.1804
        46.000          40.000
 121133731.99947  94389915.31847  23050987.1214   23050989.9714   23050987.0174
        48.000          42.000
 104966940.14847  81792417.71247  19974547.1804   19974548.7364   19974547.6464
        54.000          49.000
 116269517.04447  90599600.30247  22125370.9514   22125375.0954   22125370.9274
        50.000          44.000
 122422114.24147  95393850.35447  23296155.7864   23296159.0344   23296155.4894
        46.000          42.000
 09  1  1  1 35 30.0000000  0 11G12G31G18G 9G22G14G 5G30G21G24G29
 128443956.13447 100086188.02847  24442081.1524   24442083.4754   24442080.8894
        44.000          39.000
 127688831.66747  81705574.45547  22395447.3624   22395448.9044   22395447.0084
        50.000          45.000
 121950466.14547  95026332.33947  23206405.3034   23206407.1964   23206405.9214
        46.000          40.000
 121772302.14147  94887493.40347  23172507.7634   23172511.0004   23172507.8454
        45.000          40.000
 125398689.99047  97713246.98547  23862592.4844   23862592.6004   23862592.3624
        46.000          40.000
 116489790.18147  90771255.80547  22167276.1644   22167278.5854   22167276.4634
        50.000          44.000
 123612829.09847  96321670.00847  23522750.7894   23522754.4154   23522751.3044
        46.000          39.000
 121106338.14447  94368569.45147  23045774.0074   23045776.5894   23045773.8114
        49.000          42.000
 104953283.93947  81781776.51147  19971948.3174   19971950.0584   19971948.6664
        54.000          49.000
 116330553.09447  90647160.85647  22136985.8444   22136990.0814   22136986.1484
        50.000          44.000
 122495856.37447  95451311.76547  23310188.5254   23310191.3144   23310188.3394
        46.000          41.000
 09  1  1  1 36  0.0000000  0 11G12G31G18G 9G22G14G 5G30G21G24G29
 128448744.51547 100089919.22747  24442992.2764   24442994.6594   24442992.1474
        44.000          39.000
 127595587.51147  81632916.72647  22377703.1554   22377704.9664   22377702.7304
        50.000          44.000
 121917426.27247  95000586.98047  23200117.8414   23200120.0464   23200118.3144
        47.000          40.000
 121863587.18447  94958624.60447  23189878.8474   23189881.8314   23189879.2424
        46.000          40.000
 125363491.24447  97685819.40247  23855894.1654   23855894.4034   23855893.8774
        46.000          39.000
 116517744.26847  90793038.22347  22172595.5524   22172598.1494   22172595.7434
        50.000          44.000
 123602542.99647  96313654.84447  23520793.5284   23520797.4584   23520794.1464
        46.000          40.000
 121078920.80347  94347205.30947  23040556.7704   23040559.6854   23040556.5214
        49.000          42.000
 104940225.29247  81771600.94247  19969463.5074   19969464.9794   19969463.9584
        54.000          49.000
 116392003.63047  90695044.40347  22148679.2904   22148683.4514   22148679.4464
        50.000          44.000
 122569502.89147  95508698.67947  23324203.0394   23324206.1744   23324203.2964
        46.000          41.000
 09  1  1  1 36 30.0000000  0 11G12G31G18G 9G22G14G 5G30G21G24G29
 128453652.93347 100093743.95147  24443926.1544   24443928.6924   24443925.7474
        43.000          38.000
 127502591.51747  81560452.36147  22360006.7664   22360008.2424   22360006.0564
        50.000          45.000
 121884260.98447  94974743.90647  23193806.5624   23193809.0224   23193806.8644
        45.000          40.000
 121955203.15847  95030013.68847  23207312.8334   23207315.1214   23207312.7704
        45.000          40.000
 125328070.84447  97658219.09447  23849153.7214   23849154.3644   23849153.6114
        46.000          39.000
 116545951.89347  90815018.20347  22177963.5034   22177965.6544   22177963.7764
        50.000          44.000
 123592385.96347  96305740.27747  23518860.6024   23518865.0864   23518860.9094
        46.000          40.000
 121051481.20547  94325823.84047  23035335.1274   23035337.9114   23035334.8244
        48.000          42.000
 104927763.70247  81761890.61447  19967092.1004   19967093.6824   19967092.4024
        54.000          50.000
 116453865.89947  90743248.77647  22160451.5314   22160455.7744   22160451.7654
        50.000          44.000
 122643050.61447  95566008.60647  23338198.8394   23338201.3364   23338198.6564
        46.000          41.000
 09  1  1  1 37  0.0000000  0 11G12G31G18G 9G22G14G 5G30G21G24G29
 128458687.43147 100097666.96547  24444884.0164   24444886.7694   24444883.9744
        44.000          38.000
 127409850.60847  81488186.76147  22342358.5124   22342360.1694   22342357.9484
        50.000          45.000
 121850975.50847  94948807.16647  23187472.4194   23187474.5584   23187472.6634
        46.000          40.000
 122047151.72747  95101661.91347  23224810.2604   23224812.8834   23224810.3894
        45.000          40.000
 125292433.66647  97630449.86547  23842372.1034   23842372.7114   23842371.9404
        46.000          39.000
 116574414.79747  90837197.09847  22183379.8484   22183382.1184   22183379.9694
        50.000          44.000
 123582364.16047  96297931.10247  23516953.4784   23516957.5734   23516953.9074
        46.000          40.000
 121024025.26747  94304429.63047  23030110.3364   23030113.5414   23030110.2734
        48.000          42.000
 104915904.77347  81752649.88447  19964835.5064   19964837.1394   19964835.9354
        54.000          50.000
 116516142.38947  90791775.91547  22172302.4974   22172306.3294   22172302.6804
        50.000          44.000
 122716501.65947  95623243.18247  23352176.1834   23352178.6374   23352176.0314
        46.000          41.000
 09  1  1  1 37 30.0000000  0 11G12G31G18G 9G22G14G 5G30G21G24G29
 128463844.25847 100101685.29747  24445865.1954   24445868.1034   24445864.8224
        43.000          38.000
 127317362.34947  81416118.02347  22324758.4994   22324760.2134   22324758.2164
        50.000          45.000
 121817566.36147  94922774.06747  23181115.1564   23181116.8934   23181115.5584
        47.000          40.000
 122139424.48247  95173562.75447  23242368.7524   23242371.8284   23242368.9234
        45.000          39.000
 125256574.05547  97602507.30247  23835548.5744   23835549.0184   23835548.5144
        46.000          40.000
 116603124.89447  90859568.61447  22188842.9534   22188845.4664   22188843.2464
        50.000          44.000
 123572474.29047  96290224.73347  23515071.6434   23515075.6614   23515071.9254
        45.000          40.000
 120996549.42747  94283019.89647  23024881.7644   23024884.7534   23024881.2274
        49.000          42.000
 104904643.61247  81743874.95547  19962692.5004   19962694.2654   19962692.8824
        54.000          49.000
 116578826.01747  90840620.29947  22184230.9444   22184235.0204   22184231.1514
        51.000          44.000
 122789848.97847  95680396.93547  23366133.9064   23366135.9784   23366133.8994
        46.000          41.000
 09  1  1  1 38  0.0000000  0 11G12G31G18G 9G22G14G 5G30G21G24G29
 128469130.24147 100105804.30447  24446870.7024   24446873.6224   24446870.5754
        44.000          38.000
 127225134.49447  81344252.19947  22307207.9864   22307209.7424   22307207.5194
        50.000          44.000
 121784039.81847  94896649.47547  23174735.7804   23174737.1484   23174736.4204
        47.000          40.000
 122232023.85347  95245718.11747  23259989.8324   23259992.4454   23259990.3534
        45.000          39.000
 125220497.53947  97574395.72947  23828683.4254   23828683.5644   23828683.7494
        46.000          39.000
 116632084.60447  90882134.62447  22194353.6834   22194356.3734   22194354.0414
        50.000          44.000
 123562723.34247  96282626.61147  23513216.1214   23513219.9184   23513216.2594
        45.000          39.000
 120969060.87547  94261600.27647  23019650.6384   23019653.3624   23019650.5814
        48.000          42.000
 104893986.35947  81735570.60047  19960664.3844   19960666.1484   19960664.8044
        54.000          49.000
 116641920.16347  90889784.56647  22196237.4124   22196241.4614   22196237.7584
        50.000          44.000
 122863095.64847  95737472.26847  23380072.1064   23380073.8554   23380072.2024
        46.000          41.000
 09  1  1  1 38 30.0000000  0 11G12G31G18G 9G22G14G 5G30G21G24G29
 128474543.67947 100110022.56847  24447901.8114   24447903.4224   24447901.6924
        45.000          38.000
 127133166.40347  81272588.80647  22289706.8724   22289708.8924   22289706.8464
        50.000          44.000
 121750394.03247  94870431.96647  23168333.0604   23168334.4324   23168333.3704
        47.000          40.000
 122324943.67747  95318123.16147  23277671.6054   23277675.0904   23277671.9474
        45.000          39.000
 125184201.23647  97546112.90647  23821776.1224   23821776.4794   23821776.2124
        46.000          39.000
 116661287.80047  90904890.36947  22199911.3034   22199913.4364   22199911.5974
        50.000          44.000
 123553109.90347  96275135.66547  23511386.5504   23511390.2444   23511387.0634
        45.000          39.000
 120941558.10347  94240169.54347  23014417.0664   23014419.8354   23014416.3094
        48.000          42.000
 104883930.49947  81727734.87047  19958750.6974   19958752.5544   19958751.0654
        54.000          49.000
 116705419.60747  90939264.66847  22208320.8484   22208324.7194   22208321.1584
        50.000          44.000
 122936236.22847  95794464.92347  23393990.5584   23393992.1984   23393990.6734
        47.000          41.000
 09  1  1  1 39  0.0000000  0 11G12G31G18G 9G22G14G 5G30G21G24G29
 128480088.61647 100114343.29047  24448957.0234   24448958.8774   24448956.6694
        44.000          38.000
 127041463.21147  81201131.80447  22272256.4374   22272257.9914   22272255.4814
        50.000          44.000
 121716632.92947  94844124.59847  23161908.1544   23161909.9494   23161908.2274
        47.000          40.000
 122418183.64247  95390777.67547  23295414.7994   23295417.9324   23295414.8274
        44.000          39.000
 125147687.76747  97517660.85447  23814828.1574   23814828.3784   23814828.5084
        47.000          39.000
 116690734.56647  90927835.90247  22205514.5284   22205517.0404   22205514.6824
        50.000          44.000
 123543638.43447  96267755.32047  23509584.3964   23509587.6264   23509584.7184
        46.000          40.000
 120914045.27447  94218730.98347  23009181.8654   23009184.3484   23009181.7554
        48.000          42.000
 104874479.32647  81720370.32247  19956952.4134   19956954.0744   19956952.8234
        54.000          49.000
 116769325.41547  90989061.40447  22220481.5544   22220485.6214   22220481.8664
        50.000          44.000
 123009271.15347  95851375.23747  23407888.7204   23407890.6894   23407888.6744
        47.000          41.000
 09  1  1  1 39 30.0000000  0 11G12G31G18G 9G22G14G 5G30G21G24G29
 128485766.58247 100118767.71247  24450037.5314   24450039.5884   24450037.0654
        44.000          38.000
 126950027.58547  81129883.30047  22254857.0464   22254858.5874   22254856.5684
        51.000          45.000
 121682757.73147  94817728.31547  23155462.4254   23155463.8334   23155462.6814
        47.000          40.000
 122511740.39547  95463679.03547  23313218.1124   23313221.2364   23313218.4074
        46.000          39.000
 125110957.29447  97489039.70847  23807838.4204   23807838.5034   23807838.8014
        46.000          39.000
 116720421.54547  90950968.61847  22211164.0814   22211166.0804   22211164.3544
        50.000          44.000
 123534310.57747  96260486.86747  23507809.3514   23507813.4074   23507810.0964
        46.000          40.000
 120886524.06647  94197285.91147  23003944.6064   23003947.7804   23003944.1784
        49.000          42.000
 104865633.07747  81713477.14247  19955269.0264   19955270.6284   19955269.3704
        54.000          50.000
 116833635.36447  91039173.06247  22232719.5574   22232723.2064   22232719.4334
        50.000          43.000
 123082198.33447  95908201.62647  23421766.2094   23421767.9714   23421766.1014
        46.000          41.000
 09  1  1  1 40  0.0000000  0 11G12G31G18G 9G22G14G 5G30G21G24G29
 128491578.66547 100123296.62247  24451142.3584   24451145.8024   24451142.3374
        43.000          38.000
 126858861.66347  81058844.96047  22237508.7474   22237510.3404   22237508.4774
        51.000          45.000
 121648769.18647  94791243.74247  23148993.9524   23148996.0874   23148994.3954
        47.000          41.000
 122605610.69747  95536824.72347  23331081.2904   23331084.6704   23331081.2874
        46.000          40.000
 125074009.55547  97460249.26347  23800807.5044   23800807.8974   23800807.4914
        45.000          39.000
 116750345.59547  90974286.06347  22216858.1254   22216860.3444   22216858.2714
        50.000          44.000
 123525127.66147  96253331.37247  23506062.0164   23506065.7204   23506062.3934
        46.000          39.000
 120858995.90747  94175835.40047  22998706.3254   22998709.2504   22998706.1864
        48.000          42.000
 104857391.91147  81707055.45247  19953700.7644   19953702.5334   19953701.2234
        54.000          50.000
 116898346.96147  91089597.68947  22245033.7054   22245037.5794   22245033.8514
        49.000          43.000
 123155014.89747  95964941.81247  23435622.5294   23435624.4844   23435622.5614
        46.000          41.000
 09  1  1  1 40 30.0000000  0 11G12G31G18G 9G22G14G 5G30G21G24G29
 128497526.99347 100127931.69947  24452275.2344   24452277.6654   24452274.6214
        43.000          38.000
 126767968.74547  80988019.34847  22220212.2964   22220214.0114   22220211.8794
        50.000          45.000
 121614669.20647  94764672.30947  23142505.3814   23142507.2024   23142505.7734
        48.000          41.000
 122699792.30247  95610212.98347  23349003.5234   23349007.0334   23349003.5564
        46.000          40.000
 125036845.62247  97431290.34947  23793735.1054   23793735.8664   23793734.9934
        46.000          39.000
 116780504.59947  90997786.59147  22222597.5254   22222599.5694   22222597.7784
        50.000          44.000
 123516092.21847  96246290.76847  23504342.5774   23504346.2354   23504343.1764
        45.000          39.000
 120831463.48747  94154381.58047  22993467.2804   22993469.7234   22993466.8524
        48.000          42.000
 104849757.06847  81701106.21947  19952247.8844   19952249.5884   19952248.2894
        54.000          50.000
 116963458.75847  91140334.16047  22257423.9094   22257427.8494   22257423.9824
        50.000          43.000
 123227719.70347  96021594.92547  23449457.9104   23449459.6544   23449457.3764
        46.000          41.000
 09  1  1  1 41  0.0000000  0 11G12G31G18G 9G22G14G 5G30G21G24G29
 128503613.51247 100132674.43447  24453433.3004   24453436.0994   24453433.3454
        43.000          38.000
 126677351.68347  80917408.69747  22202968.1574   22202970.0344   22202967.7634
        50.000          45.000
 121580459.33447  94738015.24047  23135995.4134   23135997.2094   23135996.1694
        47.000          41.000
 122794282.09347  95683841.38747  23366984.1374   23366987.4594   23366984.2694
        45.000          40.000
 124999465.65547  97402163.13647  23786622.3664   23786622.6164   23786622.5974
        46.000          40.000
 116810895.69747  91021467.97047  22228380.5524   22228382.7304   22228380.8034
        50.000          44.000
 123507206.22847  96239366.59947  23502651.6044   23502654.9334   23502652.0634
        46.000          40.000
 120803928.31547  94132925.62647  22988227.4384   22988229.8814   22988227.2824
        49.000          42.000
 104842729.25047  81695629.99447  19950910.6134   19950912.2694   19950911.0414
        54.000          50.000
 117028969.01947  91191381.11147  22269890.1694   22269894.0664   22269890.4804
        50.000          43.000
 123300310.51147  96078159.20247  23463271.4524   23463273.5604   23463270.8664
        46.000          41.000
 09  1  1  1 41 30.0000000  0 11G12G31G18G 9G22G14G 5G30G21G24G29
 128509840.80147 100137526.87447  24454618.2844   24454620.3514   24454618.1594
        43.000          38.000
 126587014.03447  80847015.75447  22185777.3774   22185779.1584   22185776.9644
        50.000          45.000
 121546142.16647  94711274.59147  23129464.7684   23129466.8974   23129465.2954
        47.000          41.000
 122889078.71247  95757708.86647  23385023.4734   23385026.9794   23385023.4194
        45.000          40.000
 124961871.12547  97372868.72647  23779468.4584   23779468.8594   23779468.4224
        46.000          40.000
 116841517.27247  91045328.94147  22234207.4244   22234209.6674   22234207.6864
        49.000          44.000
 123498472.70347  96232561.25847  23500989.4214   23500993.2344   23500990.1564
        46.000          40.000
 120776393.57447  94111469.97447  22982987.5754   22982990.2384   22982987.2724
        48.000          42.000
 104836310.04347  81690628.01747  19949689.1024   19949690.7164   19949689.5244
        54.000          49.000
 117094877.12047  91242738.07147  22282432.1524   22282436.0544   22282432.0564
        50.000          43.000
 123372786.71347  96134634.15647  23477063.0924   23477065.4914   23477062.1864
        46.000          41.000
 09  1  1  1 42  0.0000000  0 11G12G31G18G 9G22G14G 5G30G21G24G29
 128516210.66047 100142490.42447  24455830.0094   24455832.7584   24455830.2694
        43.000          38.000
 126496958.61447  80776842.74547  22168640.3384   22168642.2144   22168639.9424
        51.000          45.000
 121511719.44747  94684451.69147  23122914.7434   23122916.3254   23122915.0214
        48.000          41.000
 122984178.87547  95831812.87447  23403120.2314   23403124.0194   23403120.0154
        44.000          39.000
 124924062.94947  97343407.79947  23772273.5864   23772273.6134   23772273.5374
        46.000          40.000
 116872366.64347  91069367.41547  22240077.9744   22240080.2524   22240078.0344
        50.000          44.000
 123489893.64447  96225876.28747  23499357.2964   23499361.2544   23499357.6614
        46.000          40.000
 120748861.32647  94090016.29147  22977747.9744   22977751.2444   22977747.5304
        48.000          42.000
 104830500.32047  81686100.96047  19948583.5484   19948585.0384   19948583.9534
        54.000          50.000
 117161181.35347  91294403.70747  22295049.3604   22295053.2824   22295049.6884
        50.000          43.000
 123445146.49647  96191018.39247  23490832.2064   23490835.3434   23490831.5704
        45.000          41.000
 09  1  1  1 42 30.0000000  0 11G12G31G18G 9G22G14G 5G30G21G24G29
 128522722.94047 100147564.92547  24457069.5204   24457071.9654   24457069.1864
        42.000          38.000
 126407186.44347  80706890.43347  22151557.3204   22151558.8484   22151556.8054
        50.000          45.000
 121477190.75547  94657546.21447  23116344.1004   23116345.8164   23116344.5874
        48.000          41.000
 123079578.25847  95906150.05247  23421274.1304   23421277.5834   23421274.2854
        45.000          39.000
 124886039.33347  97313779.03247  23765037.9234   23765038.2044   23765037.7314
        46.000          40.000
 116903439.13147  91093579.75447  22245990.8404   22245993.0004   22245991.1774
        50.000          44.000
 123481469.20247  96219311.79847  23497754.1914   23497757.4484   23497754.6354
        46.000          40.000
 120721331.87747  94068564.78747  22972509.2804   22972512.8134   22972509.1494
        48.000          42.000
 104825298.66547  81682047.72347  19947593.6764   19947595.2374   19947594.0554
        54.000          49.000
 117227877.91347  91346375.05047  22307741.1924   22307745.1364   22307741.2394
        49.000          43.000
 123517386.03047  96247308.94347  23504579.1214   23504582.0204   23504578.6174
        45.000          41.000
 09  1  1  1 43  0.0000000  0 11G12G31G18G 9G22G14G 5G30G21G24G29
 128529381.87447 100152753.71547  24458336.6164   24458339.0384   24458336.6504
        42.000          38.000
 126317703.12447  80637163.20747  22134529.3374   22134530.6944   22134529.0684
        51.000          45.000
 121442560.69247  94630561.73047  23109754.2714   23109755.6424   23109754.7244
        48.000          41.000
 123175276.48947  95980720.09847  23439484.7864   23439488.1724   23439484.7194
        44.000          39.000
 124847803.40647  97283984.81247  23757761.6564   23757762.2774   23757761.9664
        46.000          40.000
 116934735.12647  91117966.24647  22251946.1944   22251948.7704   22251946.6424
        50.000          44.000
 123473204.21847  96212871.55747  23496181.1994   23496184.6344   23496181.5874
        46.000          40.000
 120693810.09547  94047119.23047  22967271.9744   22967275.0164   22967271.5164
        48.000          42.000
 104820708.45147  81678470.92947  19946720.2194   19946721.7504   19946720.5474
        54.000          50.000
 117294967.71247  91398652.82647  22320507.5454   22320511.7264   22320507.6534
        49.000          43.000
 123589506.35547  96303506.59547  23518303.2004   23518306.1784   23518302.9674
        45.000          41.000
 09  1  1  1 43 30.0000000  0 11G12G31G18G 9G22G14G 5G30G21G24G29
 128536188.65247 100158057.69147  24459631.8924   24459633.5394   24459631.5164
        43.000          38.000
 126228510.45947  80567662.45947  22117556.5664   22117557.7544   22117555.9924
        51.000          45.000
 121407829.65047  94603498.57847  23103145.1144   23103146.5834   23103145.5354
        48.000          41.000
 123271269.82347  96055520.10147  23457752.0964   23457755.3174   23457751.9094
        45.000          39.000
 124809355.14147  97254025.15147  23750445.4364   23750445.8254   23750445.4964
        46.000          40.000
 116966251.03347  91142524.10747  22257943.5984   22257945.7084   22257943.8624
        50.000          44.000
 123465099.81447  96206556.45747  23494639.1614   23494642.3794   23494639.4224
        46.000          40.000
 120666296.73547  94025680.24147  22962036.4294   22962039.4994   22962036.2754
        48.000          42.000
 104816729.32847  81675370.31347  19945963.0754   19945964.5214   19945963.4894
        54.000          50.000
 117362448.07347  91451234.92147  22333349.0634   22333352.8614   22333349.3044
        49.000          43.000
 123661504.59447  96359609.10547  23532003.5664   23532007.3364   23532003.2604
        45.000          40.000
 09  1  1  1 44  0.0000000  0 11G12G31G18G 9G22G14G 5G30G21G24G29
 128543144.36347 100163477.71947  24460955.5144   24460958.0444   24460954.9044
        43.000          38.000
 126139610.95647  80498390.14747  22100639.3614   22100640.8224   22100638.9634
        51.000          45.000
 121372998.77547  94576357.62647  23096517.0424   23096519.1894   23096517.4824
        48.000          41.000
 123367555.04547  96130547.55447  23476074.0904   23476077.1224   23476074.1954
        45.000          39.000
 124770694.16547  97223899.72547  23743087.9274   23743088.8254   23743087.9674
        45.000          40.000
 116997983.63547  91167250.81947  22263982.3014   22263984.3994   22263982.4094
        50.000          44.000
 123457157.36447  96200367.56347  23493127.4644   23493131.0264   23493128.0234
        45.000          40.000
 120638793.52947  94004249.16747  22956802.6364   22956805.6304   22956802.2544
        49.000          42.000
 104813361.47247  81672746.00947  19945322.0274   19945323.7134   19945322.3784
        54.000          49.000
 117430316.66747  91504119.55047  22346263.8334   22346268.2314   22346263.9444
        50.000          43.000
 123733378.27547  96415614.56747  23545680.5604   23545684.3234   23545680.3734
        45.000          40.000
 09  1  1  1 44 30.0000000  0 11G12G31G18G 9G22G14G 5G30G21G24G29
 128550251.65647 100169015.85747  24462307.7754   24462310.5234   24462307.4174
        43.000          38.000
 126051008.44747  80429349.25947  22083778.8084   22083780.3164   22083778.5654
        51.000          45.000
 121338070.89047  94549141.09547  23089870.6294   23089872.1884   23089870.8244
        48.000          41.000
 123464130.61647  96205801.26247  23494452.3034   23494455.3044   23494451.8714
        45.000          39.000
 124731822.01647  97193609.75347  23735691.2844   23735691.8774   23735691.3394
        47.000          40.000
 117029931.21547  91192145.04647  22270061.5004   22270063.9274   22270061.8124
        50.000          44.000
 123449380.05047  96194307.30947  23491647.3324   23491651.4994   23491647.1184
        45.000          40.000
 120611303.92347  93982828.70747  22951571.9374   22951574.9154   22951571.6494
        49.000          42.000
 104810606.28647  81670599.11147  19944797.7344   19944799.4814   19944798.0804
        54.000          50.000
 117498572.66747  91557306.04747  22359252.4904   22359256.4034   22359252.9734
        49.000          43.000
 123805126.99947  96471522.66047  23559334.5044   23559337.6784   23559333.8764
        45.000          40.000
 09  1  1  1 45  0.0000000  0 11G12G31G18G 9G22G14G 5G30G21G24G29
 128557511.83647 100174673.13547  24463689.7514   24463691.9514   24463689.0994
        44.000          38.000
 125962704.77747  80360541.22847  22066975.4814   22066976.5834   22066974.9844
        51.000          45.000
 121303046.99747  94521849.74847  23083205.3224   23083207.3534   23083205.8734
        48.000          41.000
 123560992.50347  96281278.06247  23512884.5124   23512887.3904   23512884.4874
        45.000          39.000
 124692738.85547  97163155.35247  23728254.7404   23728254.4654   23728254.9494
        47.000          40.000
 117062090.61947  91217204.33247  22276181.1894   22276183.6714   22276181.4904
        49.000          44.000
 123441769.28647  96188376.84447  23490198.8804   23490203.0604   23490199.0594
        45.000          40.000
 120583829.00547  93961419.70847  22946343.8554   22946346.3774   22946343.6154
        49.000          42.000
 104808463.86047  81668929.69247  19944389.9644   19944391.7264   19944390.3534
        54.000          49.000
 117567213.53347  91610792.45047  22372314.5084   22372318.5854   22372314.5624
        50.000          43.000
 123876748.58747  96527331.68047  23572963.8094   23572966.8744   23572963.3274
        45.000          41.000
 09  1  1  1 45 30.0000000  0 11G12G31G18G 9G22G14G 5G30G21G24G29
 128564927.06247 100180451.26347  24465100.9584   24465103.3264   24465100.6664
        44.000          39.000
 125874703.41747  80291968.76947  22050229.3044   22050230.6374   22050228.9654
        51.000          45.000
 121267929.02047  94494485.08747  23076522.8324   23076524.7514   23076523.2334
        48.000          41.000
 123658138.75847  96356976.46247  23531370.5314   23531373.1864   23531370.6104
        45.000          39.000
 124653445.61947  97132537.25347  23720777.1124   23720777.1254   23720776.9364
        46.000          40.000
 117094459.47747  91242426.82047  22282340.7284   22282343.0774   22282340.7914
        50.000          44.000
 123434327.37147  96182577.95647  23488783.0304   23488786.9874   23488783.4404
        45.000          40.000
 120556371.20747  93940024.03247  22941118.7004   22941121.2804   22941118.2864
        49.000          42.000
 104806934.77247  81667738.19647  19944099.0304   19944100.8334   19944099.4794
        54.000          49.000
 117636237.68047  91664577.51647  22385449.5314   22385453.0804   22385449.9394
        49.000          43.000
 123948241.30447  96583040.29147  23586567.9954   23586571.5144   23586567.4774
        45.000          41.000
 09  1  1  1 46  0.0000000  0 11G12G31G18G 9G22G14G 5G30G21G24G29
 128572498.93747 100186351.41647  24466541.7544   24466544.1504   24466541.5294
        44.000          39.000
 125787007.22847  80223634.10347  22033541.2024   22033542.6194   22033540.9494
        52.000          46.000
 121232719.25647  94467048.91347  23069822.6734   23069824.2854   23069823.0494
        47.000          41.000
 123755566.54347  96432894.22847  23549910.1294   23549913.5314   23549910.2644
        45.000          38.000
 124613943.23547  97101756.17347  23713259.9894   23713260.3424   23713260.1054
        46.000          40.000
 117127035.58347  91267810.80647  22288539.7484   22288542.0164   22288539.9144
        49.000          44.000
 123427056.70547  96176912.53347  23487398.9654   23487403.2944   23487399.4684
        46.000          40.000
 120528932.80247  93918643.45947  22935897.6104   22935900.1844   22935897.1184
        49.000          42.000
 104806019.57547  81667025.06547  19943924.8054   19943926.5504   19943925.2334
        54.000          49.000
 117705643.61347  91718660.06847  22398656.9984   22398660.7354   22398657.0034
        49.000          43.000
 124019603.79047  96638647.41347  23600148.0664   23600151.1504   23600147.6354
        45.000          40.000
 09  1  1  1 46 30.0000000  0 11G12G31G18G 9G22G14G 5G30G21G24G29
 128580229.45047 100192375.19447  24468012.8454   24468015.0924   24468012.0474
        43.000          39.000
 125699619.30547  80155539.63247  22016911.8584   22016913.4174   22016911.6964
        51.000          46.000
 121197419.29547  94439542.45247  23063105.1994   23063106.7424   23063105.5864
        47.000          40.000
 123853273.06247  96509029.16847  23568503.3584   23568506.6554   23568503.1644
        44.000          38.000
 124574232.33447  97070812.62947  23705702.8334   23705703.5694   23705703.0554
        46.000          40.000
 117159815.92347  91293353.93047  22294777.6044   22294779.8374   22294777.6914
        50.000          44.000
 123419959.25647  96171382.07047  23486048.5834   23486052.6624   23486049.0994
        45.000          40.000
 120501516.10147  93897279.82147  22930680.2454   22930682.5964   22930679.9124
        49.000          42.000
 104805719.14847  81666790.97247  19943867.7514   19943869.3954   19943868.1704
        54.000          49.000
 117775429.26247  91773038.51747  22411936.5514   22411940.8584   22411936.6114
        50.000          43.000
 124090834.45447  96694151.81747  23613702.7514   23613705.6924   23613702.6914
        46.000          40.000
 09  1  1  1 47  0.0000000  0 11G12G31G18G 9G22G14G 5G30G21G24G29
 128588119.59747 100198523.38347  24469514.3104   24469516.4384   24469513.9074
        44.000          39.000
 125612541.68747  80087686.96147  22000341.4084   22000343.0614   22000340.9134
        51.000          46.000
 121162029.99947  94411966.37547  23056370.8244   23056372.3114   23056371.1814
        47.000          40.000
 123951254.98147  96585378.71647  23587148.4294   23587151.4424   23587148.4424
        43.000          38.000
 124534312.97047  97039706.65247  23698106.4404   23698107.2034   23698106.3684
        47.000          40.000
 117192797.64747  91319053.97047  22301054.0224   22301056.1494   22301054.0094
        50.000          44.000
 123413036.43047  96165987.65347  23484731.1994   23484735.4904   23484731.4544
        46.000          40.000
 120474122.48147  93875934.15447  22925467.5144   22925469.9034   22925467.1324
        49.000          42.000
 104806033.02947  81667035.56547  19943927.4884   19943929.1324   19943927.9624
        54.000          49.000
 117845592.18347  91827710.93147  22425288.5614   22425292.4984   22425288.6354
        50.000          43.000
 124161930.97647  96749551.70947  23627231.9804   23627234.4494   23627232.2844
        46.000          40.000
 09  1  1  1 47 30.0000000  0 11G12G31G18G 9G22G14G 5G30G21G24G29
 128596172.37347 100204798.28547  24471046.7364   24471049.2114   24471046.3554
        44.000          38.000
 125525778.21047  80020079.07647  21983830.8354   21983832.5234   21983830.5244
        51.000          46.000
 121126554.09447  94384322.79247  23049620.0724   23049622.0614   23049620.4724
        47.000          41.000
 124049510.18747  96661941.20447  23605846.1964   23605849.3094   23605845.9034
        44.000          38.000
 124494186.62647  97008439.37847  23690470.5714   23690471.3194   23690470.3484
        47.000          40.000
 117225978.92547  91344909.51847  22307368.0764   22307370.7464   22307368.2854
        50.000          44.000
 123406291.21047  96160731.66247  23483447.7024   23483451.7574   23483448.2854
        46.000          40.000
 120446755.04447  93854608.87947  22920259.5184   22920262.2294   22920259.3434
        49.000          42.000
 104806962.60647  81667759.92247  19944104.1804   19944105.9584   19944104.5964
        54.000          49.000
 117916131.62747  91882676.74847  22438711.4434   22438715.7474   22438711.4484
        49.000          43.000
 124232892.37547  96804846.30847  23640735.5374   23640738.5034   23640735.6924
        45.000          40.000
 09  1  1  1 48  0.0000000  0 11G12G31G18G 9G22G14G 5G30G21G24G29
 128604389.06747 100211200.90947  24472610.2364   24472611.8774   24472610.1144
        43.000          38.000
 125439331.15447  79952717.75247  21967380.6714   21967382.1564   21967380.4224
        51.000          46.000
 121090992.99447  94356612.84647  23042853.1964   23042854.9374   23042853.8444
        48.000          41.000
 124148036.08247  96738714.61347  23624594.7634   23624598.2734   23624595.1384
        44.000          38.000
 124453853.58247  96977011.03747  23682795.5924   23682796.1324   23682795.8564
        47.000          40.000
 117259356.66647  91370918.16047  22313719.8954   22313721.8524   22313720.2684
        50.000          44.000
 123399725.28847  96155615.34347  23482198.5114   23482202.6464   23482198.5954
        46.000          40.000
 120419415.72547  93833305.49847  22915057.2504   22915059.8304   22915056.7984
        49.000          42.000
 104808507.46047  81668963.70647  19944398.2634   19944399.9524   19944398.6284
        54.000          49.000
 117987045.18547  91937934.06447  22452206.0024   22452210.2114   22452205.9954
        49.000          43.000
 124303716.91147  96860034.25247  23654213.0524   23654215.8334   23654212.9984
        45.000          40.000
 09  1  1  1 48 30.0000000  0 11G12G31G18G 9G22G14G 5G30G21G24G29
 128612771.17747 100217732.41147  24474205.3114   24474207.5724   24474205.3644
        45.000          39.000
 125353203.60647  79885605.39547  21950991.2664   21950992.4144   21950991.0454
        52.000          46.000
 121055348.62047  94328838.01247  23036070.5494   23036071.9344   23036071.0774
        48.000          41.000
 124246829.40147  96815696.41647  23643394.7604   23643397.6424   23643394.7274
        44.000          38.000
 124413315.07147  96945422.59347  23675081.4014   23675081.5804   23675081.4574
        47.000          40.000
 117292928.39247  91397077.94747  22320108.3694   22320110.6074   22320108.3824
        49.000          44.000
 123393340.86047  96150640.46547  23480983.9334   23480987.0074   23480984.2464
        46.000          40.000
 120392106.76347  93812025.76147  22909860.1114   22909862.5414   22909859.5794
        49.000          42.000
 104810668.53447  81670647.66347  19944809.4744   19944811.1474   19944809.8554
        54.000          49.000
 118058330.91247  91993481.38547  22465771.0074   22465775.3624   22465771.0914
        49.000          43.000
 124374402.95347  96915114.26347  23667664.2144   23667666.8414   23667663.8554
        44.000          40.000
 09  1  1  1 49  0.0000000  0 11G12G31G18G 9G22G14G 5G30G21G24G29
 128621319.82947 100224393.71247  24475832.0784   24475833.8084   24475831.8644
        44.000          38.000
 125267397.51947  79818743.54247  21934662.5464   21934664.0364   21934662.4224
        51.000          46.000
 121019622.02747  94300999.10847  23029271.4684   23029273.5004   23029272.1324
        47.000          41.000
 124345886.46447  96892883.72647  23662244.4224   23662247.3734   23662244.5124
        44.000          38.000
 124372570.52947  96913673.60847  23667328.0144   23667328.2264   23667328.0214
        47.000          40.000
 117326690.76147  91423386.29247  22326532.9254   22326535.2654   22326533.2244
        50.000          44.000
 123387138.99247  96145807.82047  23479803.4164   23479807.1464   23479803.7474
        46.000          40.000
 120364829.62347  93790770.87647  22904669.3584   22904671.8234   22904669.2164
        49.000          42.000
 104813445.15147  81672811.25847  19945337.9054   19945339.6424   19945338.3554
        54.000          49.000
 118129986.13347  92049316.64147  22479406.4714   22479410.5794   22479406.7214
        49.000          43.000
 124444947.98947  96970084.40747  23681088.2344   23681091.0664   23681087.8464
        45.000          40.000
 09  1  1  1 49 30.0000000  0 11G12G31G18G 9G22G14G 5G30G21G24G29
 128630039.04747 100231187.90247  24477491.2024   24477493.0444   24477490.9344
        43.000          39.000
 125181918.00247  79752136.13647  21918396.3834   21918397.9624   21918395.4724
        51.000          46.000
 120983817.40247  94273099.41347  23022458.3544   23022459.9854   23022458.6164
        48.000          41.000
 124445207.06347  96970276.38947  23681144.3824   23681147.6444   23681144.6004
        44.000          38.000
 124331623.05247  96881766.48047  23659536.3514   23659536.3914   23659536.2984
        47.000          40.000
 117360643.14247  91449842.69347  22332994.3484   22332996.1814   22332994.4914
        50.000          44.000
 123381124.23247  96141120.99247  23478658.4784   23478662.2634   23478658.9434
        46.000          40.000
 120337588.70947  93769544.19747  22899485.6104   22899488.5954   22899485.2254
        48.000          42.000
 104816839.97547  81675456.58247  19945983.8404   19945985.6394   19945984.1994
        54.000          50.000
 118202011.60447  92105440.38547  22493112.2674   22493116.9954   22493112.8344
        49.000          43.000
 124515352.92347  97024945.38847  23694485.8464   23694488.6794   23694485.5704
        45.000          40.000
 09  1  1  1 50  0.0000000  0 11G12G31G18G 9G22G14G 5G30G21G24G29
 128638928.86247 100238115.04447  24479182.1504   24479184.9834   24479182.1504
        44.000          38.000
 125096766.08947  79685784.02147  21902192.7254   21902193.9934   21902192.5474
        52.000          46.000
 120947934.77447  94245138.92947  23015630.2114   23015631.6894   23015630.7954
        48.000          41.000
 124544786.24647  97047870.55547  23700093.6054   23700096.9234   23700093.7414
        43.000          38.000
 124290471.73247  96849700.54347  23651704.9424   23651705.2004   23651705.1264
        47.000          40.000
 117394781.10247  91476443.71147  22339490.3994   22339492.4854   22339490.5494
        50.000          44.000
 123375296.77247  96136580.12547  23477549.7904   23477553.2584   23477550.2234
        46.000          40.000
 120310384.47347  93748346.06947  22894308.8414   22894311.5044   22894308.5034
        49.000          42.000
 104820851.51447  81678582.46647  19946747.2774   19946748.9884   19946747.7054
        54.000          49.000
 118274403.06247  92161849.32547  22506887.7454   22506892.1574   22506887.7344
        48.000          43.000
 124585614.43747  97079694.58147  23707856.2634   23707859.1244   23707855.8814
        45.000          40.000
 09  1  1  1 50 30.0000000  0 11G12G31G18G 9G22G14G 5G30G21G24G29
 128647992.07747 100245177.27847  24480907.2794   24480909.5734   24480906.9624
        43.000          38.000
 125011945.49147  79619690.06647  21886051.7994   21886053.3074   21886051.4744
        52.000          46.000
 120911977.07147  94217119.96347  23008787.2274   23008789.1774   23008787.7134
        48.000          41.000
 124644622.28747  97125664.86847  23719091.4294   23719095.0624   23719091.9354
        43.000          38.000
 124249118.12447  96817476.97447  23643835.6584   23643836.3194   23643835.5024
        47.000          40.000
 117429103.47347  91503188.42147  22346021.4494   22346023.7074   22346021.4754
        49.000          44.000
 123369659.64447  96132187.55447  23476477.3174   23476480.6934   23476477.5264
        46.000          40.000
 120283219.85447  93727178.82247  22889139.4114   22889142.2354   22889138.9524
        49.000          42.000
 104825480.93347  81682189.81347  19947628.2984   19947629.7844   19947628.6894
        54.000          49.000
 118347159.81647  92218542.90047  22520733.0284   22520737.3014   22520733.3944
        48.000          43.000
 124655731.79447  97134331.46047  23721199.3274   23721202.1864   23721199.0814
        45.000          40.000
 09  1  1  1 51  0.0000000  0 11G12G31G18G 9G22G14G 5G30G21G24G29
 128657230.21647 100252375.85147  24482665.4074   24482667.8124   24482665.1394
        44.000          38.000
 124927459.05847  79553856.49947  21869974.3594   21869976.1004   21869973.8164
        52.000          46.000
 120875945.83947  94189043.67747  23001930.6814   23001932.5794   23001931.0354
        48.000          41.000
 124744712.17147  97203656.96447  23738138.2854   23738141.5644   23738138.1054
        43.000          38.000
 124207563.36247  96785096.65447  23635928.0174   23635928.5304   23635928.0464
        47.000          40.000
 117463607.41647  91530074.62347  22352587.4184   22352589.6684   22352587.6744
        50.000          44.000
 123364214.62547  96127944.68247  23475441.1814   23475444.5434   23475441.4284
        46.000          40.000
 120256097.26747  93706044.33847  22883978.5524   22883980.6774   22883978.1144
        49.000          42.000
 104830728.29847  81686278.66947  19948626.8344   19948628.4314   19948627.1934
        54.000          49.000
 118420279.77047  92275519.49247  22534647.1924   22534651.2344   22534647.1344
        48.000          42.000
 124725703.38847  97188854.76947  23734514.5924   23734517.1834   23734514.3754
        45.000          40.000
 09  1  1  1 51 30.0000000  0 11G12G31G18G 9G22G14G 5G30G21G24G29
 128666644.51847 100259711.66547  24484457.0784   24484459.4064   24484457.0144
        44.000          38.000
 124843309.01147  79488285.05647  21853961.1314   21853962.8624   21853961.0844
        52.000          46.000
 120839842.44247  94160911.15947  22995060.5914   22995062.6554   22995061.0564
        48.000          41.000
 124845052.92047  97281844.54647  23757232.8534   23757235.9134   23757232.5614
        43.000          38.000
 124165807.16447  96752559.36547  23627981.8274   23627982.7564   23627981.9734
        46.000          40.000
 117498289.62647  91557099.72747  22359187.3834   22359189.7164   22359187.6024
        50.000          44.000
 123358963.56647  96123852.95947  23474441.8004   23474445.6164   23474442.2584
        47.000          40.000
 120229018.25847  93684943.81747  22878825.4934   22878828.0284   22878825.2644
        49.000          42.000
 104836593.27947  81690848.77847  19949742.8154   19949744.4154   19949743.2244
        54.000          49.000
 118493760.64147  92332777.31347  22548630.5814   22548634.4054   22548630.7214
        49.000          42.000
 124795527.17647  97243262.89047  23747801.7404   23747804.2504   23747801.3954
        45.000          40.000
 09  1  1  1 52  0.0000000  0 11G12G31G18G 9G22G14G 5G30G21G24G29
 128676235.67147 100267185.29247  24486282.3924   24486284.4914   24486282.1314
        44.000          38.000
 124759497.39647  79422977.32447  21838012.4754   21838014.1354   21838011.9454
        52.000          46.000
 120803667.90847  94132723.21247  22988176.5604   22988178.8714   22988176.9014
        48.000          41.000
 124945640.36147  97360224.36147  23776373.7134   23776377.4774   23776373.8024
        44.000          38.000
 124123849.57047  96719865.13347  23619997.3994   23619998.3434   23619997.0924
        46.000          40.000
 117533146.66447  91584261.06747  22365820.1714   22365822.2904   22365820.3484
        50.000          44.000
 123353907.46547  96119913.16647  23473479.9924   23473483.2004   23473480.4804
        47.000          40.000
 120201984.14747  93663878.26847  22873680.7014   22873683.6074   22873680.5264
        48.000          42.000
 104843075.03747  81695899.49447  19950976.1864   19950977.9094   19950976.5784
        54.000          49.000
 118567599.22847  92390313.89847  22562681.5554   22562685.5384   22562681.8284
        49.000          42.000
 124865200.76547  97297553.99147  23761060.5934   23761062.4874   23761060.1424
        45.000          40.000
 09  1  1  1 52 30.0000000  0 11G12G31G18G 9G22G14G 5G30G21G24G29
 128686008.16947 100274800.22047  24488141.6134   24488144.0214   24488141.3014
        43.000          38.000
 124676029.47747  79357937.40447  21822128.9404   21822130.5434   21822128.5514
        52.000          46.000
 120767426.45147  94104483.12947  22981280.4404   22981282.3534   22981280.9154
        48.000          41.000
 125046474.34447  97438796.29347  23795561.9024   23795565.4534   23795562.3734
        44.000          37.000
 124081694.00447  96687016.63947  23611975.8524   23611976.2544   23611975.8414
        47.000          41.000
 117568178.60247  91611558.68947  22372486.7874   22372488.7564   22372486.9034
        49.000          44.000
 123349050.80647  96116128.76247  23472555.5874   23472559.2514   23472555.7834
        46.000          40.000
 120174999.86247  93642851.54247  22868546.0694   22868548.8464   22868545.8904
        49.000          42.000
 104850176.15047  81701432.83447  19952327.5504   19952329.2154   19952327.9464
        54.000          49.000
 118641796.10747  92448129.66147  22576800.7284   22576804.5424   22576800.8454
        48.000          42.000
 124934725.32247  97351728.95347  23774290.4244   23774292.6074   23774290.2884
        45.000          40.000
 09  1  1  1 53  0.0000000  0 11G12G31G18G 9G22G14G 5G30G21G24G29
 128695961.81447 100282556.31547  24490035.5844   24490037.9564   24490034.9754
        44.000          38.000
 124592906.12947  79293165.98147  21806311.2274   21806312.6714   21806310.8904
        52.000          46.000
 120731118.70747  94076191.38547  22974371.4104   22974373.0514   22974371.8644
        48.000          42.000
 125147550.20047  97517556.71447  23814796.4714   23814799.4244   23814796.5094
        44.000          37.000
 124039339.85347  96654013.41347  23603916.4474   23603916.4894   23603916.5194
        48.000          41.000
 117603381.08647  91638989.20047  22379185.4704   22379187.8444   22379185.6964
        50.000          44.000
 123344393.92547  96112500.04047  23471668.6644   23471672.6314   23471669.3534
        45.000          40.000
 120148065.83047  93621863.98547  22863420.8144   22863423.3534   22863420.3704
        49.000          42.000
 104857894.88647  81707447.44447  19953796.5824   19953797.9504   19953797.0534
        54.000          49.000
 118716347.74947  92506221.85447  22590987.2234   22590991.4954   22590987.1784
        49.000          42.000
 125004097.37347  97405785.07747  23787491.5564   23787493.6364   23787491.1614
        45.000          40.000
 09  1  1  1 53 30.0000000  0 11G12G31G18G 9G22G14G 5G30G21G24G29
 128706097.28647 100290454.09047  24491965.0844   24491967.0154   24491964.3854
        44.000          38.000
 124510129.23547  79228664.52447  21790559.2274   21790560.5154   21790558.8754
        52.000          46.000
 120694745.40847  94047848.55347  22967449.9274   22967451.2854   22967450.3014
        49.000          42.000
 125248864.52247  97596502.94047  23834075.9414   23834078.6144   23834075.6154
        44.000          37.000
 123996786.96047  96620855.32847  23595818.8214   23595818.8674   23595818.8594
        47.000          41.000
 117638750.30347  91666549.63347  22385916.2334   22385918.1984   22385916.4704
        49.000          43.000
 123339938.06047  96109027.93047  23470821.0294   23470825.1054   23470821.1784
        46.000          40.000
 120121183.41047  93600916.61647  22858305.5044   22858307.8804   22858305.3584
        49.000          43.000
 104866230.55647  81713942.77947  19955382.8494   19955384.2714   19955383.2594
        54.000          50.000
 118791251.32447  92564588.28647  22605240.9194   22605245.0994   22605240.8424
        48.000          42.000
 125073314.74547  97459720.69747  23800662.8874   23800665.4714   23800662.8504
        46.000          40.000
 09  1  1  1 54  0.0000000  0 11G12G31G18G 9G22G14G 5G30G21G24G29
 128716419.57947 100298497.43047  24493928.7734   24493930.6694   24493928.7534
        44.000          38.000
 124427704.73447  79164437.66647  21774874.2074   21774875.7714   21774874.1814
        52.000          46.000
 120658311.51747  94019458.51147  22960516.8634   22960517.9034   22960517.3124
        49.000          42.000
 125350417.33047  97675635.00547  23853400.8324   23853403.8334   23853400.6154
        44.000          37.000
 123954039.19447  96587545.39147  23587684.1994   23587684.5084   23587683.8834
        47.000          41.000
 117674286.85647  91694240.46247  22392678.4604   22392680.6394   22392678.7954
        49.000          44.000
 123335688.14947  96105716.32147  23470012.3034   23470016.6614   23470012.8894
        45.000          40.000
 120094357.99547  93580013.72247  22853200.4024   22853202.9964   22853200.0894
        49.000          43.000
 104875186.75347  81720921.64647  19957087.0864   19957088.7064   19957087.4744
        54.000          49.000
 118866507.61847  92623229.55847  22619561.5364   22619565.8824   22619561.2774
        48.000          42.000
 125142378.99847  97513536.97647  23813805.4174   23813808.2764   23813805.2964
        45.000          40.000
 09  1  1  1 54 30.0000000  0 11G12G31G18G 9G22G14G 5G30G21G24G29
 128726927.36447 100306685.33047  24495928.7064   24495930.4874   24495928.4224
        44.000          38.000
 124345632.44547  79100485.26347  21759256.1884   21759257.9424   21759255.7034
        52.000          46.000
 120621816.09047  93991020.52347  22953572.0044   22953573.4324   22953572.2634
        49.000          42.000
 125452203.10047  97754948.60347  23872769.3044   23872772.2064   23872770.0534
        44.000          37.000
 123911094.29147  96554081.83547  23579511.9934   23579512.4164   23579511.8264
        48.000          41.000
 117709985.20547  91722057.35847  22399471.8194   22399473.7874   22399472.0434
        50.000          44.000
 123331643.33247  96102564.55547  23469242.9084   23469246.3624   23469242.8234
        47.000          40.000
 120067588.73047  93559154.55147  22848106.4404   22848109.0304   22848106.1774
        49.000          43.000
 104884760.06447  81728381.37347  19958908.7904   19958910.3424   19958909.3334
        54.000          49.000
 118942111.68047  92682141.82547  22633948.9084   22633952.8964   22633948.8474
        48.000          42.000
 125211285.68547  97567230.48147  23826917.6044   23826920.9824   23826917.6784
        45.000          40.000
 09  1  1  1 55  0.0000000  0 11G12G31G18G 9G22G14G 5G30G21G24G29
 128737624.44847 100315020.71447  24497964.0604   24497966.3964   24497964.0244
        44.000          38.000
 124263917.15647  79036811.02547  21743706.2894   21743707.9784   21743705.4984
        52.000          46.000
 120585263.12847  93962537.70147  22946616.0244   22946617.6854   22946616.0624
        48.000          42.000
 125554220.84847  97834442.95947  23892183.5174   23892186.2034   23892183.4914
        43.000          37.000
 123867955.63647  96520467.30347  23571302.8014   23571303.4554   23571302.9824
        47.000          41.000
 117745844.84447  91749999.94347  22406295.5574   22406297.5144   22406295.5274
        50.000          43.000
 123327807.71047  96099575.77047  23468513.0904   23468516.5724   23468513.4884
        46.000          40.000
 120040879.80147  93538342.38347  22843024.1274   22843026.8174   22843023.3674
        49.000          43.000
 104894952.39647  81736323.46047  19960848.2494   19960849.9404   19960848.5774
        54.000          49.000
 119018063.82247  92741325.31247  22648402.1264   22648406.2644   22648402.4104
        48.000          42.000
 125280035.59547  97620801.84347  23840000.6424   23840003.0224   23840000.4764
        45.000          40.000
 09  1  1  1 55 30.0000000  0 11G12G31G18G 9G22G14G 5G30G21G24G29
 128748511.81647 100323504.39647  24500035.8224   24500038.0004   24500035.2354
        43.000          38.000
 124182561.12847  78973416.74147  21728224.6974   21728226.3774   21728224.3954
        52.000          46.000
 120548653.81847  93934010.97447  22939649.3914   22939651.4334   22939649.8084
        48.000          42.000
 125656467.11747  97914115.36047  23911640.4414   23911642.8164   23911640.1114
        42.000          37.000
 123824623.00447  96486701.62047  23563056.9114   23563057.3404   23563057.2144
        47.000          40.000
 117781862.25047  91778065.46747  22413149.2614   22413151.4144   22413149.4074
        50.000          43.000
 123324182.56847  96096751.00647  23467823.3764   23467826.9014   23467823.4474
        46.000          40.000
 120014233.03747  93517578.64447  22837953.5464   22837955.6844   22837953.4154
        49.000          43.000
 104905762.88247  81744747.21647  19962905.4154   19962907.0964   19962905.8404
        54.000          49.000
 119094360.86647  92800777.55347  22662920.7634   22662925.0044   22662920.8004
        48.000          42.000
 125348626.36747  97674249.19147  23853053.0354   23853055.3514   23853052.9454
        45.000          39.000
 09  1  1  1 56  0.0000000  0 11G12G31G18G 9G22G14G 5G30G21G24G29
 128759590.67447 100332137.27447  24502144.0364   24502146.4784   24502143.6034
        44.000          38.000
 124101566.50747  78910304.05947  21712812.0754   21712813.6884   21712811.3894
        52.000          46.000
 120511989.55047  93905441.42547  22932672.5384   22932674.3414   22932672.6994
        48.000          42.000
 125758938.58247  97993963.24847  23931139.6184   23931142.5514   23931139.8024
        41.000          37.000
 123781096.93747  96452785.21747  23554774.0324   23554774.5524   23554773.7704
        47.000          40.000
 117818034.56347  91806251.69447  22420032.4934   22420034.7814   22420032.6784
        49.000          43.000
 123320769.44747  96094091.45247  23467173.3054   23467177.1274   23467173.7774
        47.000          40.000
 119987650.45747  93496864.93247  22832895.0244   22832897.4674   22832894.5194
        49.000          43.000
 104917191.18247  81753652.38747  19965080.1234   19965081.6214   19965080.5664
        54.000          49.000
 119171000.51947  92860496.75747  22677504.9074   22677509.0964   22677505.4264
        48.000          42.000
 125417056.35947  97727571.27247  23866074.8784   23866077.1344   23866074.5844
        45.000          39.000
 09  1  1  1 56 30.0000000  0 11G12G31G18G 9G22G14G 5G30G21G24G29
 128770862.42447 100340920.47547  24504289.0654   24504291.5324   24504288.6024
        43.000          38.000
 124020936.09547  78847475.18747  21697468.7444   21697470.2004   21697468.4064
        52.000          46.000
 120475272.81947  93876830.98047  22925685.3964   22925687.3414   22925685.8574
        49.000          42.000
 125861632.09447  98073984.13747  23950681.7224   23950683.8664   23950681.5214
        42.000          37.000
 123737378.39247  96418718.82447  23546454.6784   23546455.0944   23546455.1134
        47.000          40.000
 117854359.24947  91834556.65047  22426944.8354   22426946.9514   22426944.9174
        49.000          43.000
 123317570.45947  96091598.76347  23466565.0164   23466568.3284   23466565.6674
        47.000          40.000
 119961133.93247  93476202.70347  22827849.1704   22827851.6434   22827848.9114
        49.000          43.000
 104929237.19447  81763038.88847  19967372.3954   19967373.7944   19967372.6924
        54.000          49.000
 119247980.83447  92920481.42347  22692153.8074   22692158.0524   22692153.7784
        48.000          42.000
 125485324.15647  97780766.95247  23879065.8864   23879068.5404   23879065.4584
        44.000          40.000
 09  1  1  1 57  0.0000000  0 11G12G31G18G 9G22G14G 5G30G21G24G29
 128782330.42247 100349856.59247  24506470.9624   24506473.2644   24506470.5594
        43.000          38.000
 123940673.59747  78784933.00047  21682195.2474   21682196.6684   21682194.7054
        52.000          47.000
 120438506.55047  93848181.93347  22918689.0804   22918690.8344   22918689.4964
        49.000          42.000
 125964545.97147  98154176.74947  23970264.7404   23970268.4634   23970265.4354
        42.000          37.000
 123693469.88847  96384504.41847  23538099.0164   23538099.5824   23538099.2304
        47.000          40.000
 117890834.72947  91862979.10547  22433886.1174   22433887.8644   22433886.3104
        49.000          43.000
 123314588.59647  96089275.26247  23465997.2504   23466000.7554   23465997.7924
        46.000          40.000
 119934686.88547  93455594.63547  22822816.6144   22822818.6554   22822816.2654
        49.000          43.000
 104941901.92547  81772907.50847  19969782.3954   19969784.1224   19969782.8514
        54.000          49.000
 119325300.57847  92980730.57247  22706867.5014   22706871.4504   22706867.8574
        49.000          42.000
 125553429.39647  97833835.92647  23892025.5174   23892028.5284   23892025.5834
        44.000          39.000
 09  1  1  1 57 30.0000000  0 11G12G31G18G 9G22G14G 5G30G21G24G29
 128793994.78247 100358945.69447  24508690.5774   24508693.0024   24508690.2134
        43.000          38.000
 123860780.44447  78722678.61247  21666992.2364   21666993.5674   21666991.8834
        52.000          47.000
 120401691.14247  93819494.60247  22911683.3414   22911685.0754   22911683.7044
        48.000          42.000
 126067675.94247  98234537.74147  23989890.1114   23989893.0374   23989890.2954
        41.000          37.000
 123649370.51847  96350141.28747  23529707.6074   23529707.8534   23529707.6784
        47.000          40.000
 117927457.24147  91891516.12447  22440855.1604   22440857.1124   22440855.4364
        49.000          43.000
 123311824.38447  96087121.33547  23465471.7094   23465474.8064   23465472.1184
        46.000          40.000
 119908310.38847  93435041.51047  22817797.0734   22817799.3714   22817796.6144
        49.000          43.000
 104955183.74747  81783256.98047  19972309.8054   19972311.3204   19972310.2264
        54.000          49.000
 119402956.22447  93041241.47447  22721644.8384   22721648.5594   22721645.0744
        48.000          42.000
 125621369.60447  97886776.32847  23904953.9294   23904957.1434   23904953.7284
        44.000          39.000
