     2.11           OBSERVATION DATA    G (GPS)             RINEX VERSION / TYPE
teqc  2013Mar15     gpsops              20140511 00:23:23UTCPGM / RUN BY / DATE
Linux 2.4.21-27.ELsmp|Opteron|gcc -static|Linux x86_64|=+   COMMENT
BIT 2 OF LLI FLAGS DATA COLLECTED UNDER A/S CONDITION       COMMENT
GLPS                                                        MARKER NAME
42005M002                                                   MARKER NUMBER
GGN                 JPL                                     OBSERVER / AGENCY
ZR220013847         ASHTECH UZ-12       CQ00                REC # / TYPE / VERS
CR519992104         ASH701945B_M    SCIT                    ANT # / TYPE
   -33801.4662 -6377516.5323   -82154.3508                  APPROX POSITION XYZ
        0.0083        0.0000        0.0000                  ANTENNA: DELTA H/E/N
     1     1                                                WAVELENGTH FACT L1/2
     7    L1    L2    P1    P2    C1    S1    S2            # / TYPES OF OBSERV
    30.0000                                                 INTERVAL
                                                            COMMENT
This data is provided as a public service by NASA/JPL.      COMMENT
No warranty is expressed or implied regarding suitability   COMMENT
for use.  For further information, contact:                 COMMENT
Dave Stowers, NASA/JPL m/s 238-600                          COMMENT
4800 Oak Grove Drive, Pasadena CA 91109 USA                 COMMENT
                                                            COMMENT
Forced Modulo Decimation to 30 seconds                      COMMENT
 SNR is mapped to RINEX snr flag value [0-9]                COMMENT
  L1 & L2: min(max(int(snr_dBHz/6), 0), 9)                  COMMENT
pseudorange smoothing corrections not applied               COMMENT
  2014     5    10     0     0    0.0000000     GPS         TIME OF FIRST OBS
                                                            END OF HEADER
 14  5 10  0  0  0.0000000  0 11G13G09G07G10G11G08G17G20G04G01G28
  10050765.10447   7823994.28246  23402441.5774   23402450.3934   23402441.690
        43.0004         39.0004
 -19032829.75748 -14816726.01848  20380308.9324   20380316.7914   20380309.329
        53.0004         48.0004
 -23879117.86049 -18575923.75248  20164039.1254   20164045.2044   20164038.743
        54.0004         49.0004
  -5982193.12846  -4651572.13546  24515101.5834   24515114.8274   24515103.354
        41.0004         37.0004
                                                                  24660768.576

 -24120639.16349 -18746356.12248  20304286.5854   20304294.2834   20304286.936
        54.0004         49.0004
 -16136823.72248 -12513760.30847  22234647.3984   22234655.9194   22234647.041
        50.0004         45.0004
  -4842134.19847  -3713080.86446  23615443.0104   23615452.9284   23615443.625
        42.0004         38.0004
 -16110903.54448 -12499516.76447  22052231.5724   22052239.6714   22052231.097
        49.0004         44.0004
  -9881509.57647  -7672658.46646  22942800.5684   22942812.8824   22942800.177
        46.0004         41.0004
  -3657595.59247  -2814833.26746  24031969.8394   24031981.0824   24031970.363
        43.0004         38.0004
 14  5 10  0  0 30.0000000  0 10G13G09G07G10G08G17G20G04G01G28
  10130813.89547   7886370.01246  23417674.6974   23417682.3344   23417673.954
        43.0004         39.0004
 -19081593.72348 -14854723.81248  20371029.9104   20371037.5554   20371029.789
        53.0004         49.0004
 -23861989.41149 -18562576.86248  20167298.3944   20167304.3594   20167298.035
        54.0004         49.0004
  -6027122.64046  -4686581.98446  24506552.6714   24506565.2324   24506553.564
        41.0004         37.0004
 -24172132.99449 -18786481.09448  20294487.7684   20294495.3384   20294488.267
        54.0004         49.0004
 -16100836.34848 -12485718.17747  22241495.7244   22241504.1684   22241495.169
        50.0004         46.0004
  -4841497.32147  -3712584.54946  23615564.3824   23615574.2664   23615565.158
        42.0004         38.0004
 -16199039.15548 -12568193.75047  22035459.4014   22035467.3404   22035459.365
        49.0004         44.0004
  -9793722.76647  -7604253.18046  22959505.7884   22959519.0484   22959505.513
        46.0004         41.0004
  -3695012.96047  -2843989.44246  24024849.0584   24024860.7774   24024849.745
        43.0004         39.0004
 14  5 10  0  1  0.0000000  0 10G13G09G07G10G08G17G20G04G01G28
  10210758.65947   7948664.67946  23432886.9304   23432893.9454   23432887.738
        44.0004         39.0004
 -19129828.87348 -14892309.54548  20361850.8794   20361858.3884   20361850.761
        53.0004         49.0004
 -23844259.81949 -18548761.54648  20170672.2864   20170677.9554   20170671.700
        54.0004         49.0004
  -6072297.27947  -4721782.81846  24497956.7304   24497968.1414   24497957.699
        42.0004         37.0004
 -24223092.53349 -18826189.73948  20284790.3514   20284798.2644   20284790.618
        54.0004         49.0004
 -16064671.07148 -12457537.42647  22248377.7664   22248386.1244   22248377.136
        50.0004         45.0004
  -4840701.17447  -3711964.12046  23615714.5834   23615724.9834   23615716.093
        42.0004         37.0004
 -16286903.87248 -12636659.65647  22018739.1344   22018748.2094   22018739.209
        49.0004         44.0004
  -9705620.90847  -7535602.40046  22976271.5334   22976284.5374   22976270.754
        46.0004         41.0004
  -3732688.01747  -2873346.42046  24017680.4414   24017691.6264   24017680.979
        43.0004         39.0004
 14  5 10  0  1 30.0000000  0 10G13G09G07G10G08G17G20G04G01G28
  10290598.23647   8010877.40946  23448079.6384   23448088.1374   23448080.014
        44.0004         39.0004
 -19177532.51048 -14929481.11848  20352773.1494   20352780.4014   20352773.209
        53.0004         49.0004
 -23825928.46849 -18534477.33948  20174160.5044   20174166.5794   20174160.265
        54.0004         49.0004
  -6117716.07946  -4757173.92246  24489313.4894   24489326.3544   24489314.280
        41.0004         37.0004
 -24273514.48349 -18865479.47848  20275195.3294   20275202.6284   20275195.711
        54.0004         49.0004
 -16028329.98448 -12429219.67447  22255292.9484   22255301.8034   22255292.790
        50.0004         46.0004
  -4839743.08647  -3711217.50546  23615897.7694   23615908.2584   23615899.127
        42.0004         37.0004
 -16374494.13948 -12704911.70247  22002072.1394   22002079.6574   22002071.412
        49.0004         44.0004
  -9617205.65147  -7466707.41346  22993096.2374   22993109.7804   22993095.606
        46.0004         41.0004
  -3770618.96847  -2902902.80646  24010462.0204   24010472.2924   24010462.076
        43.0004         39.0004
 14  5 10  0  2  0.0000000  0 10G13G09G07G10G08G17G20G04G01G28
  10370329.97147   8073006.09346  23463252.0514   23463261.3964   23463252.581
        43.0004         39.0004
 -19224703.57048 -14966237.69048  20343796.9184   20343804.1664   20343796.480
        53.0004         49.0004
 -23806996.96649 -18519725.47548  20177763.0424   20177768.7394   20177762.498
        54.0004         49.0004
  -6163380.11246  -4792756.11646  24480624.6194   24480634.3534   24480624.929
        41.0004         37.0004
 -24323397.54849 -18904349.31248  20265702.7774   20265710.4224   20265702.874
        54.0004         49.0004
 -15991816.75548 -12400767.79447  22262241.2094   22262249.3504   22262240.816
        50.0004         46.0004
  -4838622.13647  -3710344.00146  23616111.6234   23616121.0734   23616112.430
        42.0004         38.0004
 -16461808.34048 -12772948.64947  21985456.3424   21985465.0754   21985455.725
        49.0004         44.0004
  -9528480.54347  -7397570.99346  23009980.2254   23009993.5874   23009979.463
        46.0004         41.0004
  -3808806.34047  -2932659.00746  24003194.7894   24003204.5444   24003195.501
        43.0004         39.0004
 14  5 10  0  2 30.0000000  0 10G13G09G07G10G08G17G20G04G01G28
  10449952.80347   8135049.92946  23478404.2714   23478412.6094   23478404.619
        44.0004         39.0004
 -19271337.94648 -15002576.07348  20334922.1084   20334929.9174   20334922.221
        53.0004         49.0004
 -23787463.41949 -18504504.49048  20181479.9874   20181485.8284   20181479.636
        54.0004         49.0004
  -6209286.86147  -4828527.45046  24471887.4544   24471899.9164   24471888.889
        42.0004         37.0004
 -24372736.73949 -18942795.34048  20256313.8634   20256321.7144   20256314.276
        54.0004         49.0004
 -15955131.96248 -12372182.22247  22269221.6904   22269230.7744   22269221.900
        50.0004         45.0004
  -4837334.46047  -3709340.56146  23616357.0914   23616364.6584   23616356.944
        42.0004         37.0004
 -16548841.92048 -12840766.92347  21968893.9704   21968903.0184   21968894.100
        49.0004         44.0004
  -9439446.04847  -7328193.48546  23026923.0004   23026935.9124   23026922.015
        46.0004         41.0004
  -3847247.39547  -2962612.88046  23995879.9944   23995891.0144   23995880.279
        43.0004         39.0004
 14  5 10  0  3  0.0000000  0 10G13G09G07G10G08G17G20G04G01G28
  10529462.68947   8197005.73946  23493534.0874   23493543.4284   23493533.822
        43.0004         39.0004
 -19317435.82948 -15038496.40748  20326150.2414   20326157.5294   20326150.140
        53.0004         49.0004
 -23767330.59749 -18488816.52848  20185311.2334   20185317.1254   20185310.985
        54.0004         49.0004
  -6255438.35547  -4864489.46346  24463105.1764   24463117.0404   24463105.898
        42.0004         37.0004
 -24421531.62249 -18980817.24048  20247028.4574   20247036.0344   20247028.860
        54.0004         49.0004
 -15918280.31948 -12343466.63547  22276235.6674   22276243.0184   22276234.245
        50.0004         46.0004
  -4835880.63347  -3708207.64746  23616632.6204   23616642.7054   23616633.144
        42.0004         37.0004
 -16635594.27648 -12908366.06547  21952385.5634   21952393.5474   21952385.030
        49.0004         45.0004
  -9350106.79747  -7258578.49846  23043923.2714   23043936.3974   23043922.605
        46.0004         41.0004
  -3885943.09447  -2992765.16446  23988515.9964   23988526.3584   23988516.773
        44.0004         39.0004
 14  5 10  0  3 30.0000000  0 10G13G09G07G10G08G17G20G04G01G28
  10608859.02147   8258873.08246  23508643.5314   23508650.6934   23508642.985
        43.0004         38.0004
 -19362994.29948 -15073996.41848  20317480.8754   20317488.0904   20317480.575
        53.0004         49.0004
 -23746597.68049 -18472660.96548  20189256.4124   20189262.4334   20189256.259
        54.0004         49.0004
  -6301832.92547  -4900640.90146  24454277.1914   24454288.8884   24454277.006
        42.0004         37.0004
 -24469778.55749 -19018412.16748  20237847.2714   20237854.9784   20237847.551
        54.0004         49.0004
 -15881262.97148 -12314621.93147  22283279.1174   22283286.7214   22283278.392
        50.0004         46.0004
  -4834257.29547  -3706942.66146  23616941.7964   23616950.8934   23616942.757
        42.0004         37.0004
 -16722061.24948 -12975742.82847  21935932.7334   21935939.5264   21935931.410
        49.0004         45.0004
  -9260463.91547  -7188726.91246  23060980.6854   23060995.6184   23060981.350
        46.0004         41.0004
  -3924891.21447  -3023114.14946  23981104.2244   23981114.6734   23981104.931
        43.0004         39.0004
 14  5 10  0  4  0.0000000  0 10G13G09G07G10G08G17G20G04G01G28
  10688139.82347   8320650.41546  23523729.8124   23523737.1314   23523729.710
        43.0004         39.0004
 -19408011.52948 -15109074.68448  20308914.2814   20308921.6044   20308914.057
        53.0004         49.0004
 -23725265.33549 -18456038.31148  20193315.7234   20193321.7274   20193315.653
        54.0004         49.0004
  -6348470.40447  -4936981.61446  24445402.5304   24445414.4394   24445402.521
        42.0004         37.0004
 -24517475.40549 -19055578.45848  20228770.8454   20228778.5754   20228770.996
        54.0004         49.0004
 -15844082.89248 -12285650.42447  22290354.1854   22290362.5974   22290353.799
        50.0004         46.0004
  -4832463.00947  -3705544.45746  23617282.5724   23617293.5514   23617283.832
        42.0004         37.0004
 -16808240.52748 -13042895.41147  21919532.3944   21919540.5794   21919531.906
        49.0004         45.0004
  -9170520.21147  -7118640.93046  23078097.4704   23078109.7454   23078096.658
        45.0004         41.0004
  -3964091.13947  -3053659.36046  23973644.6364   23973654.3934   23973645.183
        43.0004         39.0004
 14  5 10  0  4 30.0000000  0 10G13G09G07G10G08G17G20G04G01G28
  10767303.03847   8382336.12346  23538794.9044   23538800.4074   23538793.885
        43.0004         38.0004
 -19452485.41448 -15143729.56448  20300450.9124   20300458.4964   20300450.904
        53.0004         49.0004
 -23703333.89049 -18438948.82748  20197489.3854   20197494.9734   20197488.953
        54.0004         49.0004
  -6395350.31047  -4973511.25546  24436479.6924   24436493.5214   24436481.502
        42.0004         38.0004
 -24564619.88049 -19092314.32848  20219799.6604   20219806.9474   20219799.792
        54.0004         49.0004
 -15806742.71448 -12256554.15647  22297460.1784   22297467.7974   22297459.303
        50.0004         45.0004
  -4830495.87247  -3704011.58446  23617658.2654   23617666.4804   23617658.691
        42.0004         38.0004
 -16894129.29548 -13109821.62747  21903187.4524   21903196.0154   21903187.461
        49.0004         45.0004
  -9080278.09647  -7048322.41546  23095269.1554   23095282.7264   23095269.153
        45.0004         41.0004
  -4003542.11847  -3084400.19146  23966136.7474   23966147.9794   23966137.441
        43.0004         39.0004
 14  5 10  0  5  0.0000000  0 10G13G09G07G10G08G17G20G04G01G28
  10846345.48247   8443927.72146  23553834.7804   23553843.9484   23553834.952
        43.0004         39.0004
 -19496414.87548 -15177960.21448  20292091.0614   20292098.4204   20292091.050
        53.0004         49.0004
 -23680804.46849 -18421393.38348  20201776.8294   20201782.2944   20201776.251
        54.0004         49.0004
  -6442472.87847  -5010229.96546  24427514.4054   24427524.6524   24427514.655
        42.0004         37.0004
 -24611209.87549 -19128618.14048  20210933.5234   20210941.0154   20210933.750
        54.0004         49.0004
 -15769245.72748 -12227335.70347  22304595.2884   22304603.8814   22304594.890
        50.0004         46.0004
  -4828354.88947  -3702343.22546  23618064.0974   23618074.4894   23618064.556
        42.0004         37.0004
 -16979725.64548 -13176519.98747  21886899.6604   21886907.2484   21886899.429
        49.0004         45.0004
  -8989740.94047  -6977774.00546  23112498.4684   23112512.2834   23112498.009
        45.0004         40.0004
  -4043244.13747  -3115336.66946  23958582.6904   23958592.3484   23958582.535
        43.0004         39.0004
 14  5 10  0  5 30.0000000  0 10G13G09G07G10G08G17G20G04G01G28
  10925267.20647   8505425.25646  23568852.8224   23568862.0274   23568852.697
        43.0004         38.0004
 -19539796.59848 -15211764.06348  20283835.9654   20283843.1884   20283836.038
        53.0004         49.0004
 -23657676.38049 -18403371.45048  20206177.5194   20206183.1864   20206177.020
        54.0004         49.0004
  -6489836.51647  -5047136.50846  24418500.2984   24418511.5804   24418501.403
        42.0004         37.0004
 -24657241.47249 -19164486.83248  20202173.9164   20202181.4644   20202174.240
        54.0004         49.0004
 -15731592.85848 -12197995.78447  22311759.8574   22311768.4614   22311759.566
        50.0004         45.0004
  -4826036.66747  -3700536.76146  23618506.8684   23618514.1754   23618507.667
        42.0004         38.0004
 -17065025.38948 -13242987.22847  21870667.0344   21870675.1844   21870666.796
        49.0004         45.0004
  -8898909.62247  -6906996.37846  23129783.3454   23129795.9704   23129782.794
        45.0004         40.0004
  -4083194.44147  -3146466.59946  23950981.1484   23950990.5964   23950980.247
        44.0004         39.0004
 14  5 10  0  6  0.0000000  0 10G13G09G07G10G08G17G20G04G01G28
  11004064.14747   8566825.53946  23583848.2824   23583857.1514   23583847.715
        43.0004         38.0004
 -19582630.29048 -15245140.87048  20275684.5584   20275692.3314   20275684.696
        53.0004         49.0004
 -23633951.71949 -18384884.65048  20210692.2554   20210698.3164   20210691.910
        54.0004         49.0004
  -6537442.24247  -5084231.69646  24409440.2624   24409451.3804   24409441.199
        42.0004         37.0004
 -24702713.61649 -19199919.59548  20193520.6904   20193528.6214   20193521.105
        54.0004         49.0004
 -15693788.48748 -12168537.81247  22318953.8264   22318962.3034   22318953.445
        50.0004         45.0004
  -4823541.09347  -3698592.11446  23618980.2164   23618989.8854   23618981.218
        42.0004         37.0004
 -17150027.42348 -13309222.49447  21854492.0824   21854499.7014   21854491.691
        49.0004         45.0004
  -8807788.18747  -6835992.67246  23147123.3864   23147136.8314   23147122.496
        45.0004         40.0004
  -4123393.71547  -3177790.53246  23943330.2274   23943340.2464   23943330.269
        44.0004         39.0004
 14  5 10  0  6 30.0000000  0 10G13G09G07G10G08G17G20G04G01G28
  11082736.02747   8628128.38546  23598818.2934   23598825.1234   23598818.184
        43.0004         38.0004
 -19624912.55548 -15278087.99948  20267639.0494   20267645.9934   20267638.790
        53.0004         49.0004
 -23609629.58349 -18365932.28448  20215320.6264   20215326.4124   20215320.149
        54.0004         49.0004
  -6585288.13947  -5121514.02146  24400337.3514   24400348.4264   24400336.910
        42.0004         37.0004
 -24747622.36549 -19234913.34448  20184975.1564   20184983.0134   20184975.293
        54.0004         49.0004
 -15655833.21748 -12138962.25147  22326176.4594   22326185.4064   22326176.372
        50.0004         45.0004
  -4820864.61547  -3696506.50246  23619489.9074   23619500.2774   23619490.977
        42.0004         37.0004
 -17234727.37248 -13375222.35747  21838374.1474   21838381.6724   21838373.655
        49.0004         45.0004
  -8716377.57547  -6764763.63846  23164518.0324   23164531.2434   23164517.262
        45.0004         40.0004
  -4163839.34447  -3209306.41846  23935633.9534   23935644.4254   23935633.357
        43.0004         39.0004
 14  5 10  0  7  0.0000000  0 10G13G09G07G10G08G17G20G04G01G28
  11161281.21247   8689332.52846  23613763.9494   23613770.8564   23613764.704
        43.0004         38.0004
 -19666641.56048 -15310604.01648  20259698.0644   20259704.9994   20259697.872
        53.0004         49.0004
 -23584710.38949 -18346514.68148  20220062.5174   20220068.3674   20220062.100
        54.0004         49.0004
  -6633373.77547  -5158983.15246  24391184.9334   24391197.3824   24391186.093
        42.0004         37.0004
 -24791965.39649 -19269466.27948  20176536.4744   20176544.3944   20176536.996
        54.0004         49.0004
 -15617729.85148 -12109271.29847  22333427.4814   22333435.8534   22333426.920
        50.0004         45.0004
  -4818005.47747  -3694278.53846  23620034.6114   23620044.7164   23620034.787
        42.0004         37.0004
 -17319122.64348 -13440984.81247  21822313.7234   21822322.3704   21822313.193
        50.0004         45.0004
  -8624680.22647  -6693311.18046  23181968.0774   23181980.2344   23181966.974
        45.0004         40.0004
  -4204530.35347  -3241013.53646  23927890.9734   23927899.6314   23927890.047
        43.0004         39.0004
 14  5 10  0  7 30.0000000  0 10G13G09G07G10G08G17G20G04G01G28
  11239696.18147   8750435.18846  23628687.7624   23628694.9624   23628686.651
        43.0004         38.0004
 -19707816.90548 -15342688.61148  20251862.8114   20251869.8374   20251862.604
        53.0004         49.0004
 -23559196.33949 -18326633.55448  20224917.4524   20224923.6804   20224917.042
        54.0004         49.0004
  -6681700.17547  -5196639.89946  24381988.5894   24382000.1434   24381990.138
        42.0004         37.0004
 -24835741.78949 -19303577.67248  20168206.4134   20168213.8814   20168206.636
        54.0004         49.0004
 -15579482.59848 -12079468.21647  22340705.4144   22340713.9364   22340705.328
        50.0004         45.0004
  -4814963.34247  -3691908.01046  23620613.3314   23620621.5384   23620613.791
        42.0004         37.0004
 -17403211.87548 -13506508.79747  21806312.3874   21806320.2594   21806312.593
        50.0004         45.0004
  -8532700.27347  -6621638.50246  23199470.9234   23199482.7944   23199470.189
        45.0004         40.0004
  -4245467.43047  -3272912.40146  23920100.3344   23920109.5574   23920099.929
        43.0004         39.0004
 14  5 10  0  8  0.0000000  0 10G13G09G07G10G08G17G20G04G01G28
  11317980.56047   8811436.08746  23643584.4864   23643591.5584   23643583.832
        42.0004         38.0004
 -19748435.33249 -15374339.24048  20244133.0694   20244140.1374   20244132.805
        54.0004         49.0004
 -23533086.54349 -18306288.21548  20229885.8874   20229891.8114   20229885.574
        54.0004         49.0004
  -6730265.15747  -5234482.52946  24372747.9604   24372759.2714   24372748.805
        42.0004         37.0004
 -24878947.60949 -19337244.46548  20159984.2314   20159992.0094   20159984.596
        54.0004         49.0004
 -15541092.26248 -12049553.64247  22348011.1484   22348019.8574   22348010.744
        50.0004         45.0004
  -4811735.16247  -3689392.50446  23621226.2974   23621235.4434   23621227.800
        42.0004         37.0004
 -17486990.91248 -13571791.07047  21790370.2794   21790377.8224   21790369.237
        50.0004         45.0004
  -8440438.52947  -6549746.23946  23217028.1224   23217040.5124   23217027.012
        45.0004         40.0004
  -4286647.76647  -3305000.79346  23912263.6634   23912274.7264   23912263.386
        43.0004         39.0004
 14  5 10  0  8 30.0000000  0 10G13G09G07G10G08G17G20G04G01G28
  11396131.93747   8872333.35346  23658454.8284   23658462.4874   23658454.424
        42.0004         38.0004
 -19788495.76349 -15405555.07348  20236509.9454   20236517.0674   20236509.865
        54.0004         49.0004
 -23506382.31549 -18285479.68148  20234967.7304   20234973.5034   20234967.534
        54.0004         49.0004
  -6779068.97847  -5272511.28546  24363461.7354   24363471.3494   24363461.004
        42.0004         37.0004
 -24921581.25549 -19370465.41348  20151871.4374   20151879.0314   20151871.839
        54.0004         49.0004
 -15502561.89848 -12019529.95447  22355343.0264   22355351.6724   22355342.546
        50.0004         45.0004
  -4808318.98147  -3686730.49646  23621878.0854   23621886.5174   23621878.307
        42.0004         37.0004
 -17570457.64448 -13636829.99047  21774486.2254   21774494.7824   21774486.046
        50.0004         45.0004
  -8347898.19147  -6477636.90546  23234637.9744   23234651.4284   23234637.064
        45.0004         41.0004
  -4328070.68347  -3337278.21946  23904380.8344   23904390.3384   23904380.967
        43.0004         39.0004
 14  5 10  0  9  0.0000000  0 10G13G09G07G10G08G17G20G04G01G28
  11474146.94947   8933124.36046  23673302.8064   23673309.1104   23673300.518
        42.0004         37.0004
 -19827997.80649 -15436335.80148  20228992.4354   20228999.4304   20228992.595
        54.0004         49.0004
 -23479085.35749 -18264209.27348  20240161.9434   20240168.0644   20240161.418
        54.0004         49.0004
  -6828112.19347  -5310726.58246  24354128.7964   24354138.2624   24354128.444
        42.0004         37.0004
 -24963641.59049 -19403239.62448  20143867.5074   20143874.8084   20143867.730
        54.0004         49.0004
 -15463895.05448 -11989399.92547  22362701.2334   22362710.4274   22362700.979
        50.0004         45.0004
  -4804714.73347  -3683921.95646  23622562.9124   23622571.9434   23622563.403
        42.0004         37.0004
 -17653610.73348 -13701624.50247  21758662.5104   21758670.7254   21758662.076
        50.0004         45.0004
  -8255083.06947  -6405313.46946  23252299.4684   23252312.6784   23252298.946
        45.0004         40.0004
  -4369736.84447  -3369745.17146  23896451.5604   23896460.7384   23896451.594
        43.0004         39.0004
 14  5 10  0  9 30.0000000  0 10G13G09G07G10G08G17G20G04G01G28
  11552025.55047   8993809.08546  23688120.0264   23688128.3294   23688120.315
        42.0004         37.0004
 -19866938.15349 -15466678.84548  20221582.5174   20221589.7424   20221582.560
        54.0004         49.0004
 -23451195.09749 -18242476.55448  20245469.3164   20245475.2444   20245468.626
        54.0004         49.0004
  -6877392.89147  -5349126.92546  24344750.1484   24344759.8984   24344750.171
        42.0004         37.0004
 -25005124.63349 -19435563.99348  20135973.5614   20135981.2114   20135973.896
        54.0004         49.0004
 -15425093.31148 -11959164.77747  22370085.5124   22370093.0754   22370084.449
        50.0004         45.0004
  -4800919.10447  -3680964.28346  23623286.1054   23623293.7334   23623286.310
        42.0004         37.0004
 -17736445.78648 -13766171.20147  21742900.2744   21742907.6934   21742899.425
        50.0004         45.0004
  -8161994.03547  -6332776.57246  23270014.2584   23270027.5334   23270013.843
        45.0004         40.0004
  -4411643.12947  -3402399.27346  23888477.7234   23888486.4394   23888477.532
        43.0004         39.0004
 14  5 10  0 10  0.0000000  0 10G13G09G07G10G08G17G20G04G01G28
  11629765.87647   9054386.05246  23702915.4514   23702921.3134   23702913.710
        42.0004         37.0004
 -19905315.19949 -15496582.95348  20214279.3284   20214286.8474   20214279.475
        54.0004         49.0004
 -23422712.24748 -18220282.07848  20250889.2774   20250895.0714   20250888.840
        53.0004         49.0004
  -6926910.58947  -5387711.93146  24335327.1014   24335337.3954   24335327.685
        42.0004         38.0004
 -25046027.96149 -19467436.64048  20128189.4134   20128197.1794   20128190.061
        54.0004         49.0004
 -15386158.80948 -11928826.18747  22377492.9894   22377501.4764   22377493.253
        50.0004         45.0004
  -4796929.90247  -3677855.78846  23624044.8764   23624054.9434   23624045.262
        42.0004         37.0004
 -17818960.01248 -13830467.89447  21727197.1944   21727204.8274   21727197.336
        50.0004         45.0004
  -8068633.49447  -6260028.10746  23287779.9794   23287792.5424   23287779.473
        45.0004         40.0004
  -4453788.84247  -3435239.93946  23880455.8824   23880466.6934   23880456.368
        43.0004         38.0004
 14  5 10  0 10 30.0000000  0 10G13G09G07G10G08G17G20G04G01G28
  11707366.54747   9114854.20646  23717680.0744   23717688.7814   23717680.951
        42.0004         38.0004
 -19943126.48949 -15526046.21848  20207084.1764   20207091.6124   20207084.224
        54.0004         49.0004
 -23393637.06548 -18197626.04348  20256422.1254   20256428.0904   20256421.618
        53.0004         49.0004
  -6976664.03847  -5426480.64346  24325859.3884   24325868.4304   24325859.485
        42.0004         38.0004
 -25086348.87749 -19498855.45948  20120517.0044   20120524.3284   20120517.465
        54.0004         49.0004
 -15347093.71148 -11898385.82147  22384927.3444   22384936.0164   22384926.835
        50.0004         45.0004
  -4792744.99147  -3674594.77246  23624841.7864   23624851.0624   23624841.735
        42.0004         38.0004
 -17901150.40248 -13894512.25247  21711557.1874   21711565.1194   21711556.618
        50.0004         45.0004
  -7975003.55347  -6187069.70846  23305596.8104   23305609.9964   23305596.222
        45.0004         40.0004
  -4496172.43347  -3468265.95146  23872390.6954   23872402.0764   23872391.077
        43.0004         38.0004
 14  5 10  0 11  0.0000000  0 11G13G09G07G10G08G17G26G20G04G01G28
  11784820.19947   9175207.80046  23732419.8884   23732426.9074   23732419.786
        42.0004         38.0004
 -19980375.92149 -15555071.65948  20199995.6254   20200003.0914   20199995.714
        54.0004         49.0004
 -23363976.04048 -18174513.50648  20262066.1684   20262072.0114   20262065.761
        53.0004         49.0004
  -7026658.35947  -5465437.04246  24316345.3454   24316355.4034   24316345.482
        43.0004         38.0004
 -25126090.71749 -19529823.05448  20112954.0264   20112961.6224   20112954.578
        54.0004         49.0004
 -15307906.09748 -11867849.98847  22392385.4034   22392392.8544   22392384.426
        50.0004         45.0004
   -153263.79748   -101376.06246  24190977.0734   24190992.1654   24190976.417
        50.0004         36.0004
  -4788368.29247  -3671184.32846  23625673.8474   23625683.1314   23625673.882
        42.0004         37.0004
 -17983019.56548 -13958306.29847  21695978.5594   21695986.1394   21695977.788
        50.0004         45.0004
  -7881112.23047  -6113907.64546  23323463.7334   23323476.8814   23323463.137
        45.0004         40.0004
  -4538797.89547  -3501480.44246  23864279.9794   23864289.2304   23864280.126
        43.0004         38.0004
 14  5 10  0 11 30.0000000  0 11G13G09G07G10G08G17G26G20G04G01G28
  11862130.88747   9235449.98946  23747131.6784   23747139.4894   23747131.280
        42.0004         38.0004
 -20017056.36049 -15583653.73648  20193015.5594   20193022.8214   20193015.473
        54.0004         49.0004
 -23333724.09748 -18150940.51648  20267823.0894   20267829.1934   20267822.674
        53.0004         49.0004
  -7076887.22047  -5504576.20446  24306787.0684   24306797.5884   24306787.265
        43.0004         38.0004
 -25165245.36949 -19560333.10548  20105503.3494   20105510.5974   20105503.803
        54.0004         49.0004
 -15268592.36148 -11837215.88347  22399866.2964   22399874.3884   22399865.555
        50.0004         45.0004
   -176044.70947   -119127.33346  24186641.5184   24186658.2024   24186641.062
        45.0004         37.0004
  -4783792.28947  -3667618.56146  23626545.5174   23626553.9874   23626545.475
        42.0004         38.0004
 -18064559.42548 -14021843.74847  21680461.2234   21680468.5784   21680460.770
        50.0004         45.0004
  -7786956.47347  -6040539.53846  23341381.1494   23341394.1974   23341380.290
        45.0004         40.0004
  -4581658.46647  -3534878.13146  23856124.4504   23856133.9364   23856124.146
        43.0004         39.0004
 14  5 10  0 12  0.0000000  0 11G13G09G07G10G08G17G26G20G04G01G28
  11939295.44847   9295578.33046  23761815.1924   23761823.1734   23761814.820
        42.0004         38.0004
 -20053167.28349 -15611792.03548  20186144.0344   20186151.1094   20186143.978
        54.0004         49.0004
 -23302883.15148 -18126908.56148  20273691.9374   20273697.5094   20273691.648
        53.0004         49.0004
  -7127351.01947  -5543898.43346  24297183.1994   24297195.7784   24297183.445
        43.0004         38.0004
 -25203811.75649 -19590384.76048  20098164.3104   20098171.7324   20098164.483
        54.0004         49.0004
 -15229156.26548 -11806486.41847  22407370.5534   22407379.1554   22407370.036
        50.0004         45.0004
   -198459.27047   -136593.10246  24182376.1284   24182389.9994   24182375.885
        42.0004         37.0004
  -4779016.01347  -3663896.75646  23627454.2224   23627462.9794   23627453.333
        42.0004         37.0004
 -18145768.00748 -14085123.06547  21665008.5654   21665014.9894   21665007.715
        50.0004         45.0004
  -7692539.65247  -5966968.00646  23359347.1324   23359361.0254   23359347.557
        45.0004         40.0004
  -4624754.12547  -3568459.01146  23847923.2014   23847931.4304   23847922.961
        43.0004         39.0004
 14  5 10  0 12 30.0000000  0 11G13G09G07G10G08G17G26G20G04G01G28
  12016312.85747   9355592.00846  23776472.3564   23776478.7354   23776470.295
        42.0004         38.0004
 -20088706.63949 -15639484.96348  20179381.0924   20179388.0884   20179380.866
        54.0004         49.0004
 -23271453.72248 -18102418.05448  20279672.6314   20279678.4854   20279672.098
        53.0004         49.0004
  -7178048.47847  -5583402.72346  24287535.4954   24287546.7114   24287535.754
        43.0004         38.0004
 -25241787.44649 -19619976.13648  20090937.7634   20090945.4304   20090938.137
        54.0004         49.0004
 -15189599.78748 -11775663.15547  22414897.8494   22414905.5424   22414897.161
        49.0004         45.0004
   -220507.92746   -153773.74746  24178180.0194   24178196.9674   24178178.880
        41.0004         36.0004
  -4774036.95247  -3660016.95146  23628401.8614   23628410.5054   23628401.528
        42.0004         38.0004
 -18226642.56548 -14148142.10147  21649618.6584   21649626.1284   21649617.460
        50.0004         45.0004
  -7597863.91347  -5893194.71946  23377363.4844   23377376.9104   23377363.908
        44.0004         40.0004
  -4668083.32347  -3602221.86846  23839677.6984   23839687.3864   23839677.340
        43.0004         39.0004
 14  5 10  0 13  0.0000000  0 11G13G09G07G10G08G17G26G20G04G01G28
  12093182.59647   9415490.59746  23791099.7704   23791106.0254   23791098.851
        42.0004         38.0004
 -20123671.61549 -15666730.32848  20172727.3424   20172734.4554   20172727.405
        54.0004         49.0004
 -23239435.72548 -18077468.92148  20285765.7364   20285771.0844   20285765.224
        53.0004         49.0004
  -7228978.08147  -5623087.93546  24277843.9174   24277855.8514   24277845.077
        43.0004         38.0004
 -25279169.13549 -19649104.65348  20083823.9154   20083831.4204   20083824.330
        54.0004         49.0004
 -15149924.55748 -11744747.36647  22422448.0544   22422455.5054   22422447.110
        49.0004         45.0004
   -242190.47546   -170669.10046  24174054.4084   24174068.5114   24174054.442
        41.0004         37.0004
  -4768852.67047  -3655977.21646  23629386.8394   23629396.5594   23629387.208
        42.0004         38.0004
 -18307179.01948 -14210897.67647  21634292.2274   21634299.5704   21634292.062
        50.0004         45.0004
  -7502930.75947  -5819220.84346  23395430.2334   23395441.9404   23395429.161
        44.0004         40.0004
  -4711643.49447  -3636164.70446  23831388.7464   23831397.9884   23831388.513
        43.0004         39.0004
 14  5 10  0 13 30.0000000  0 11G13G09G07G10G08G17G26G20G04G01G28
  12169902.65947   9475272.56046  23805698.9034   23805704.8314   23805698.443
        42.0004         38.0004
 -20158060.85249 -15693527.06248  20166183.0624   20166190.2224   20166183.009
        54.0004         49.0004
 -23206829.89548 -18052061.73848  20291970.1814   20291975.7444   20291969.663
        53.0004         49.0004
  -7280139.23547  -5662953.54146  24268108.9334   24268120.4224   24268109.191
        43.0004         38.0004
 -25315954.48749 -19677768.49748  20076824.1534   20076831.9784   20076824.446
        54.0004         49.0004
 -15110133.08448 -11713740.99747  22430020.1524   22430028.5954   22430019.296
        50.0004         45.0004
   -263508.00646   -187280.03446  24169996.9474   24170012.1784   24169996.323
        41.0004         37.0004
  -4763461.20347  -3651776.05646  23630414.5774   23630422.5344   23630414.640
        42.0004         38.0004
 -18387374.85348 -14273387.82747  21619031.7544   21619039.3514   21619031.110
        50.0004         45.0004
  -7407742.72747  -5745048.36546  23413542.8254   23413555.7994   23413542.333
        44.0004         40.0004
  -4755433.82047  -3670286.87946  23823054.4074   23823064.8484   23823054.799
        43.0004         38.0004
 14  5 10  0 14  0.0000000  0 11G13G09G07G10G08G17G26G20G04G01G28
  12246469.85447   9534935.41546  23820269.0504   23820276.0964   23820268.766
        42.0004         38.0004
 -20191874.37049 -15719875.18548  20159748.4984   20159755.7204   20159748.591
        54.0004         49.0004
 -23173639.07048 -18026198.71948  20298286.3004   20298292.0654   20298285.711
        53.0004         49.0004
  -7331533.08847  -5703000.49246  24258328.4444   24258338.5614   24258329.027
        43.0004         38.0004
 -25352143.27049 -19705967.48048  20069937.3574   20069945.1114   20069937.803
        54.0004         49.0004
 -15070229.26148 -11682647.08447  22437612.7704   22437620.7534   22437612.472
        49.0004         45.0004
   -284462.89546   -203608.39846  24166010.3384   24166025.0834   24166009.453
        41.0004         37.0004
  -4757862.45647  -3647413.36346  23631479.2264   23631487.6694   23631478.935
        42.0004         37.0004
 -18467228.76548 -14335611.54847  21603835.0804   21603843.1204   21603835.561
        50.0004         45.0004
  -7312303.91047  -5670680.46546  23431704.2244   23431717.9254   23431703.965
        44.0004         40.0004
  -4799454.44047  -3704588.49546  23814678.4084   23814687.9294   23814678.314
        43.0004         38.0004
 14  5 10  0 14 30.0000000  0 11G13G09G07G10G08G17G26G20G04G01G28
  12322881.66747   9594477.18646  23834809.9774   23834817.6244   23834809.996
        42.0004         38.0004
 -20225111.46249 -15745774.14448  20153423.3094   20153430.3674   20153423.582
        54.0004         49.0004
 -23139864.58848 -17999880.89548  20304713.1094   20304718.9774   20304712.833
        53.0004         49.0004
  -7383159.18947  -5743228.40246  24248504.4054   24248514.6804   24248505.210
        43.0004         38.0004
 -25387734.11749 -19733700.54448  20063164.7304   20063171.9174   20063165.134
        54.0004         49.0004
 -15030216.52248 -11651468.29647  22445226.9314   22445235.9094   22445226.830
        50.0004         45.0004
   -305056.79946   -219655.47846  24162090.8924   24162105.9114   24162089.999
        41.0004         37.0004
  -4752055.37147  -3642888.34246  23632583.6204   23632592.5064   23632585.025
        42.0004         38.0004
 -18546739.16048 -14397567.59747  21588705.5544   21588712.6084   21588705.057
        50.0004         46.0004
  -7216617.56247  -5596119.68746  23449912.3774   23449927.2404   23449912.067
        44.0004         39.0004
  -4843704.61647  -3739068.99046  23806257.0394   23806266.2934   23806257.376
        43.0004         38.0004
 14  5 10  0 15  0.0000000  0 11G13G09G07G10G08G17G26G20G04G01G28
  12399135.84947   9653896.14046  23849321.2514   23849327.1404   23849320.246
        42.0004         38.0004
 -20257771.19349 -15771223.21448  20147208.4574   20147215.9094   20147208.461
        54.0004         49.0004
 -23105508.25048 -17973109.67948  20311251.0934   20311256.3194   20311250.405
        53.0004         49.0004
  -7435017.43147  -5783637.19946  24238636.0984   24238646.1004   24238637.123
        43.0004         39.0004
 -25422725.62349 -19760966.58548  20056506.0854   20056513.4814   20056506.263
        54.0004         49.0004
 -14990097.87048 -11620206.98147  22452861.4914   22452868.8404   22452861.334
        50.0004         45.0004
   -325291.34846   -235422.52846  24158240.4804   24158255.7924   24158240.193
        41.0004         37.0004
  -4746038.83947  -3638200.10746  23633728.8314   23633738.1464   23633729.520
        42.0004         37.0004
 -18625904.00648 -14459254.38647  21573640.8164   21573648.3654   21573640.101
        50.0004         46.0004
  -7120686.83747  -5521368.48746  23468168.3534   23468182.0294   23468166.793
        44.0004         39.0004
  -4888184.01847  -3773728.12046  23797793.0004   23797802.0844   23797792.910
        43.0004         38.0004
 14  5 10  0 15 30.0000000  0 11G13G09G07G10G08G17G26G20G04G01G28
  12475232.43247   9713192.27846  23863800.5924   23863808.1144   23863800.882
        42.0004         38.0004
 -20289850.49549 -15796219.99848  20141103.9794   20141111.0434   20141104.272
        54.0004         49.0004
 -23070569.47948 -17945884.61848  20317899.5404   20317904.9454   20317899.020
        53.0004         49.0004
  -7487105.69847  -5824225.24846  24228723.5804   24228733.9604   24228723.819
        43.0004         38.0004
 -25457114.00649 -19787762.67048  20049962.2004   20049969.3444   20049962.650
        54.0004         49.0004
 -14949873.85448 -11588863.56747  22460516.7284   22460524.0034   22460515.514
        50.0004         45.0004
   -345165.92046   -250909.09046  24154458.5464   24154472.7874   24154457.363
        41.0004         37.0004
  -4739809.25447  -3633345.85646  23634913.6914   23634923.2934   23634915.418
        42.0004         38.0004
 -18704718.82448 -14520668.43047  21558643.1314   21558649.7494   21558642.525
        50.0004         46.0004
  -7024512.55647  -5446427.51046  23486468.5524   23486482.2524   23486467.862
        43.0004         39.0004
  -4932889.46947  -3808563.37646  23789284.7074   23789295.3684   23789285.760
        43.0004         38.0004
 14  5 10  0 16  0.0000000  0 11G13G09G07G10G08G17G26G20G04G01G28
  12551170.99247   9772365.29146  23878250.2074   23878258.0174   23878250.659
        42.0004         38.0004
 -20321347.35349 -15820762.93548  20135110.6844   20135117.2754   20135110.353
        54.0004         49.0004
 -23035048.49048 -17918205.88548  20324658.9204   20324664.7244   20324658.272
        53.0004         49.0004
  -7539422.45347  -5864991.32446  24218767.5994   24218777.7644   24218767.955
        43.0004         38.0004
 -25490896.39249 -19814086.54548  20043533.5324   20043540.6214   20043533.938
        54.0004         49.0004
 -14909546.54848 -11557439.66947  22468189.4824   22468198.5094   22468189.620
        50.0004         45.0004
   -364680.76546   -266115.32646  24150745.3914   24150760.4974   24150744.053
        41.0004         37.0004
  -4733364.26847  -3628323.76246  23636140.6084   23636149.6054   23636141.281
        42.0004         37.0004
 -18783180.35748 -14581807.18247  21543712.1104   21543719.1504   21543711.692
        50.0004         46.0004
  -6928096.74447  -5371298.30946  23504816.7394   23504830.5234   23504815.626
        44.0004         39.0004
  -4977819.07747  -3843573.32046  23780735.7724   23780745.2434   23780735.564
        43.0004         38.0004
 14  5 10  0 16 30.0000000  0 11G13G09G07G10G08G17G26G20G04G01G28
  12626946.54347   9831411.26846  23892670.0204   23892679.5284   23892670.519
        42.0004         38.0004
 -20352262.71449 -15844852.75748  20129227.9084   20129234.4294   20129227.532
        54.0004         49.0004
 -22998949.05848 -17890076.41948  20331528.2674   20331534.5074   20331527.886
        53.0004         49.0004
  -7591969.45947  -5905936.82846  24208768.6304   24208779.2224   24208769.003
        43.0004         38.0004
 -25524073.11549 -19839938.47948  20037219.9814   20037227.1134   20037220.466
        54.0004         49.0004
 -14869120.83148 -11525939.07747  22475883.0774   22475890.3974   22475882.316
        50.0004         45.0004
   -383839.24946   -281043.90146  24147097.2034   24147112.6374   24147096.943
        41.0004         36.0004
  -4726704.52547  -3623134.32446  23637408.7934   23637417.4064   23637408.734
        42.0004         37.0004
 -18861288.28148 -14642670.40347  21528848.6714   21528855.6634   21528847.940
        50.0004         46.0004
  -6831444.16447  -5295984.62746  23523208.9604   23523222.5424   23523208.407
        44.0004         39.0004
  -5022973.90647  -3878758.76846  23772143.2574   23772152.8544   23772143.440
        43.0004         38.0004
 14  5 10  0 17  0.0000000  0 11G13G09G07G10G08G17G26G20G04G01G28
  12702559.08047   9890330.23446  23907059.0434   23907066.6264   23907059.204
        42.0004         38.0004
 -20382593.88149 -15868487.36048  20123455.4494   20123462.3104   20123455.310
        54.0004         49.0004
 -22962270.90748 -17861495.99848  20338507.8124   20338513.3254   20338507.501
        53.0004         49.0004
  -7644744.46247  -5947059.98246  24198724.8684   24198736.1414   24198726.070
        43.0004         38.0004
 -25556641.11049 -19865316.07548  20031022.7814   20031029.6584   20031023.179
        54.0004         49.0004
 -14828597.59448 -11494362.51047  22483593.6294   22483602.4874   22483593.487
        50.0004         45.0004
   -402641.02446   -295694.50346  24143519.2324   24143536.7664   24143520.590
        41.0004         36.0004
  -4719827.09147  -3617775.26546  23638716.2324   23638724.0224   23638717.094
        42.0004         37.0004
 -18939038.55848 -14703254.93147  21514052.2964   21514060.4864   21514052.457
        50.0004         46.0004
  -6734556.05747  -5220487.42146  23541646.0094   23541659.0274   23541645.274
        44.0004         39.0004
  -5068351.28847  -3914117.62046  23763507.3874   23763516.5964   23763507.852
        43.0004         38.0004
 14  5 10  0 17 30.0000000  0 11G13G09G07G10G08G17G26G20G04G01G28
  12778006.99747   9949120.92846  23921415.1344   23921423.4694   23921415.401
        42.0004         37.0004
 -20412339.62349 -15891665.79248  20117794.9654   20117801.7914   20117795.031
        54.0004         49.0004
 -22925015.00548 -17832465.38448  20345597.6184   20345603.0244   20345596.943
        53.0004         49.0004
  -7697746.93147  -5988360.38446  24188638.3644   24188649.8004   24188639.493
        43.0004         38.0004
 -25588598.39049 -19890217.79048  20024941.0064   20024948.9624   20024941.420
        54.0004         49.0004
 -14787979.63048 -11462712.12347  22491323.2724   22491331.5244   22491322.815
        50.0004         45.0004
   -421087.30746   -310068.12046  24140009.7324   24140026.3754   24140009.764
        41.0004         37.0004
  -4712730.04647  -3612245.07346  23640067.8134   23640075.4654   23640067.025
        42.0004         37.0004
 -19016428.87948 -14763558.97547  21499325.9874   21499333.3764   21499325.590
        50.0004         46.0004
  -6637435.04747  -5144808.72146  23560127.1574   23560140.8764   23560127.405
        44.0004         39.0004
  -5113950.14747  -3949649.04446  23754829.5304   23754840.5034   23754830.774
        43.0004         39.0004
 14  5 10  0 18  0.0000000  0 11G13G09G07G10G08G17G26G20G04G01G28
  12853289.59947  10007782.80246  23935742.5694   23935748.4554   23935741.896
        42.0004         37.0004
 -20441497.73149 -15914386.32348  20112246.2524   20112253.2164   20112246.255
        54.0004         49.0004
 -22887181.65348 -17802984.81148  20352796.9704   20352802.7744   20352796.421
        53.0004         49.0004
  -7750975.13647  -6029836.68646  24178510.0734   24178520.4394   24178510.381
        43.0004         38.0004
 -25619942.46649 -19914641.68048  20018976.8074   20018983.6434   20018977.331
        54.0004         49.0004
 -14747268.22948 -11430988.92047  22499069.7824   22499078.8344   22499069.910
        50.0004         45.0004
   -439178.32846   -324164.87946  24136568.2294   24136583.7674   24136567.216
        41.0004         37.0004
  -4705410.94547  -3606541.85146  23641458.9024   23641468.7744   23641460.059
        42.0004         37.0004
 -19093455.61348 -14823579.71447  21484668.2194   21484675.4324   21484667.381
        51.0004         46.0004
  -6540082.87247  -5068949.89946  23578654.5764   23578666.7694   23578652.914
        44.0004         39.0004
  -5159768.07847  -3985351.17146  23746111.9704   23746120.8664   23746112.179
        43.0004         39.0004
 14  5 10  0 18 30.0000000  0 11G13G09G07G10G08G17G26G20G04G01G28
  12928404.01947  10066313.61146  23950035.7584   23950044.0454   23950035.767
        42.0004         38.0004
 -20470068.37649 -15936649.09048  20106809.3784   20106816.7564   20106809.539
        54.0004         49.0004
 -22848773.83248 -17773056.59748  20360105.4264   20360111.0704   20360105.050
        53.0004         49.0004
  -7804429.75947  -6071489.41946  24168338.4364   24168349.4964   24168338.702
        43.0004         38.0004
 -25650672.70149 -19938587.25148  20013128.6304   20013136.0764   20013129.183
        54.0004         49.0004
 -14706467.25348 -11399195.92747  22506834.4754   22506842.8994   22506834.050
        50.0004         45.0004
   -456916.45846   -337986.68946  24133192.9484   24133206.5394   24133191.816
        41.0004         37.0004
  -4697869.36447  -3600665.27246  23642894.3454   23642903.8624   23642894.837
        42.0004         37.0004
 -19170117.70048 -14883316.30747  21470080.0114   21470086.9524   21470079.494
        51.0004         46.0004
  -6442503.50047  -4992914.04146  23597222.2184   23597234.8924   23597221.437
        44.0004         39.0004
  -5205805.35447  -4021224.22546  23737350.8294   23737360.5074   23737351.264
        43.0004         39.0004
 14  5 10  0 19  0.0000000  0 11G13G09G07G10G08G17G26G20G04G01G28
  13003347.93147  10124711.56446  23964296.5484   23964304.5624   23964296.750
        42.0004         37.0004
 -20498050.78949 -15958453.49348  20101484.6624   20101491.4944   20101484.656
        54.0004         49.0004
 -22809793.10248 -17742681.95948  20367523.6444   20367528.9894   20367523.079
        53.0004         49.0004
  -7858110.53347  -6113318.37646  24158123.2124   24158132.1234   24158122.512
        43.0004         38.0004
 -25680787.69349 -19962053.41248  20007398.4414   20007405.2574   20007398.548
        54.0004         49.0004
 -14665580.00248 -11367335.70347  22514614.7304   22514623.6584   22514614.758
        50.0004         45.0004
   -474303.34046   -351534.78146  24129882.4324   24129898.9144   24129881.772
        41.0004         37.0004
  -4690104.07547  -3594614.39646  23644371.7664   23644381.4864   23644372.183
        42.0004         37.0004
 -19246412.80348 -14942766.93747  21455560.8224   21455568.3814   21455560.303
        51.0004         46.0004
  -6344699.94447  -4916703.49546  23615833.9124   23615847.6814   23615832.816
        44.0004         39.0004
  -5252061.23347  -4057267.62646  23728548.8964   23728558.5224   23728548.381
        43.0004         39.0004
 14  5 10  0 19 30.0000000  0 11G13G09G07G10G08G17G26G20G04G01G28
  13078120.76447  10182976.21346  23978524.9914   23978532.0464   23978525.216
        42.0004         37.0004
 -20525443.20049 -15979798.15548  20096272.0874   20096278.8894   20096271.856
        54.0004         49.0004
 -22770239.90548 -17711861.24548  20375049.7434   20375055.9554   20375049.553
        53.0004         49.0004
  -7912015.63647  -6155322.14046  24147863.5934   24147874.2294   24147865.528
        43.0004         38.0004
 -25710284.84049 -19985038.13748  20001784.6934   20001792.2734   20001785.047
        54.0004         49.0004
 -14624607.97748 -11335409.42547  22522411.9044   22522420.4184   22522411.101
        50.0004         45.0004
   -491339.18546   -364809.35546  24126641.4404   24126656.8604   24126641.617
        41.0004         37.0004
  -4682112.69747  -3588387.32546  23645892.7884   23645903.8894   23645893.977
        42.0004         37.0004
 -19322337.73348 -15001929.12747  21441112.8534   21441120.6224   21441112.890
        51.0004         46.0004
  -6246674.03947  -4840319.68246  23634487.3214   23634500.1484   23634486.554
        44.0004         39.0004
  -5298532.77447  -4093479.08546  23719705.2394   23719714.5664   23719705.511
        43.0004         39.0004
 14  5 10  0 20  0.0000000  0 11G13G09G07G10G08G17G26G20G04G01G28
  13152721.68946  10241106.91046  23992721.3524   23992728.0324   23992720.928
        41.0004         37.0004
 -20552243.49049 -16000681.43048  20091172.1224   20091178.6394   20091171.715
        54.0004         49.0004
 -22730114.64948 -17680594.77148  20382686.1534   20382691.3664   20382685.590
        53.0004         49.0004
  -7966143.49947  -6197499.48046  24137564.4074   24137576.1554   24137564.897
        43.0004         38.0004
 -25739161.52049 -20007539.38348  19996289.8874   19996296.8874   19996290.213
        54.0004         49.0004
 -14583552.53248 -11303418.13947  22530224.6914   22530232.2564   22530223.911
        50.0004         45.0004
   -508024.36146   -377810.65346  24123466.1584   24123480.9254   24123465.238
        41.0004         37.0004
  -4673892.53146  -3581982.00846  23647457.9294   23647465.6384   23647457.770
        41.0004         37.0004
 -19397889.01848 -15060800.16447  21426735.7324   21426743.3104   21426735.387
        51.0004         46.0004
  -6148427.37747  -4763763.85246  23653183.2264   23653196.6824   23653182.519
        44.0004         39.0004
  -5345218.29747  -4129857.28346  23710821.3314   23710831.1134   23710821.298
        43.0004         39.0004
 14  5 10  0 20 30.0000000  0 11G13G09G07G10G08G17G26G20G04G01G28
  13227147.01046  10299100.77546  24006883.8904   24006889.8764   24006883.979
        41.0004         37.0004
 -20578452.55549 -16021104.00848  20086184.4934   20086191.1424   20086184.430
        54.0004         49.0004
 -22689420.93848 -17648885.34648  20390429.4144   20390434.9934   20390428.907
        53.0004         49.0004
  -8020495.54647  -6239851.50046  24127221.7414   24127230.7294   24127221.727
        43.0004         38.0004
 -25767418.20449 -20029557.51248  19990912.7354   19990920.0094   19990912.867
        54.0004         49.0004
 -14542418.53848 -11271365.64347  22538051.8184   22538059.7844   22538051.453
        50.0004         45.0004
   -524362.23147   -390541.34346  24120358.7784   24120372.1224   24120357.189
        42.0004         37.0004
  -4665444.41347  -3575399.05346  23649064.9694   23649075.8484   23649066.618
        42.0004         37.0004
 -19473066.38848 -15119379.84147  21412430.2924   21412437.3194   21412429.856
        51.0004         46.0004
  -6049964.88747  -4687039.84746  23671918.8904   23671931.8664   23671919.183
        44.0004         39.0004
  -5392118.72647  -4166402.93946  23701895.8314   23701906.6414   23701896.488
        44.0004         39.0004
 14  5 10  0 21  0.0000000  0 11G13G09G07G10G08G17G26G20G04G01G28
  13301397.19447  10356958.17046  24021013.6214   24021020.3664   24021013.455
        42.0004         37.0004
 -20604067.29449 -16041063.46648  20081310.0294   20081316.8884   20081309.952
        54.0004         49.0004
 -22648157.73548 -17616732.15948  20398281.6654   20398287.2664   20398281.304
        53.0004         49.0004
  -8075068.91747  -6282376.00046  24116835.5884   24116846.1774   24116836.083
        43.0004         38.0004
 -25795051.25649 -20051089.70348  19985654.3274   19985661.2944   19985654.506
        54.0004         49.0004
 -14501205.94848 -11239251.91147  22545894.4404   22545902.3424   22545894.164
        49.0004         45.0004
   -540351.82347   -403000.61346  24117314.7884   24117332.1844   24117314.128
        42.0004         38.0004
  -4656764.11847  -3568635.16546  23650716.6194   23650726.5004   23650717.382
        42.0004         37.0004
 -19547865.03748 -15177664.40747  21398196.9174   21398203.3494   21398196.358
        51.0004         46.0004
  -5951286.95947  -4610147.95746  23690697.4854   23690710.4564   23690696.968
        44.0004         39.0004
  -5439230.25447  -4203113.06646  23692930.4874   23692940.2814   23692931.863
        44.0004         39.0004
 14  5 10  0 21 30.0000000  0 11G13G09G07G10G08G17G26G20G04G01G28
  13375469.24447  10414676.74346  24035109.4204   24035116.7694   24035108.887
        42.0004         37.0004
 -20629088.65149 -16060560.54948  20076548.4624   20076555.2634   20076548.594
        54.0004         49.0004
 -22606328.60948 -17584137.99748  20406241.5894   20406246.9884   20406240.909
        53.0004         49.0004
  -8129864.46347  -6325073.60446  24106408.5634   24106419.8694   24106408.848
        43.0004         38.0004
 -25822060.66949 -20072135.93848  19980514.2464   19980521.7734   19980514.652
        54.0004         49.0004
 -14459919.75548 -11207080.81147  22553751.3394   22553759.4084   22553750.472
        49.0004         45.0004
   -555996.23547   -415190.91846  24114338.0284   24114351.1274   24114337.158
        42.0004         37.0004
  -4647852.07647  -3561690.72146  23652414.1544   23652422.9654   23652413.946
        42.0004         37.0004
 -19622284.51948 -15235653.52847  21384034.1634   21384041.8894   21384034.457
        51.0004         46.0004
  -5852398.24147  -4533091.82046  23709515.8524   23709527.7134   23709515.311
        44.0004         39.0004
  -5486553.37947  -4239988.10346  23683926.1704   23683934.1734   23683926.265
        44.0004         39.0004
 14  5 10  0 22  0.0000000  0 11G13G09G07G10G08G17G26G20G04G01G28
  13449364.59747  10472257.63346  24049170.0924   24049178.4794   24049170.201
        42.0004         37.0004
 -20653512.07249 -16079591.71148  20071900.5884   20071907.6544   20071900.686
        54.0004         49.0004
 -22563931.74848 -17551101.44148  20414309.2694   20414314.5314   20414308.804
        53.0004         49.0004
  -8184878.26547  -6367941.28946  24095938.9684   24095949.7764   24095939.769
        43.0004         38.0004
 -25848441.56449 -20092692.41948  19975494.1564   19975501.3734   19975494.544
        54.0004         49.0004
 -14418558.95048 -11174851.58047  22561621.1794   22561629.5934   22561621.065
        49.0004         45.0004
   -571293.63747   -427110.82546  24111425.9744   24111443.0274   24111425.143
        42.0004         38.0004
  -4638703.33247  -3554561.82446  23654153.2254   23654163.7504   23654154.275
        42.0004         37.0004
 -19696319.11448 -15293342.72147  21369946.3674   21369953.3974   21369946.054
        51.0004         46.0004
  -5753298.00847  -4455870.85946  23728374.2994   23728385.8854   23728373.159
        44.0004         39.0004
  -5534083.72847  -4277024.58946  23674881.8344   23674889.0644   23674881.426
        44.0004         39.0004
 14  5 10  0 22 30.0000000  0 11G13G09G07G10G08G17G26G20G04G01G28
  13523077.52447  10529696.35846  24063197.9984   24063204.1334   24063197.520
        42.0004         37.0004
 -20677340.56749 -16098159.29348  20067366.2484   20067373.3294   20067366.250
        54.0004         49.0004
 -22520972.23148 -17517626.45448  20422483.7214   20422489.5864   20422483.652
        53.0004         49.0004
  -8240113.17247  -6410981.26146  24085428.6374   24085438.4914   24085429.115
        43.0004         38.0004
 -25874196.41549 -20112761.07548  19970593.4614   19970600.4624   19970593.589
        54.0004         49.0004
 -14377129.62048 -11142568.95447  22569505.6744   22569513.1264   22569504.653
        49.0004         44.0004
   -586248.90947   -438764.14346  24108579.7964   24108594.8074   24108580.770
        42.0004         38.0004
  -4629320.28247  -3547250.35346  23655939.5214   23655949.2804   23655940.155
        42.0004         37.0004
 -19769970.02648 -15350732.96147  21355930.8174   21355937.9294   21355930.488
        51.0004         46.0004
  -5653992.72147  -4378490.12246  23747270.4524   23747284.1104   23747270.131
        44.0004         40.0004
  -5581823.53647  -4314224.30046  23665795.7484   23665805.3384   23665796.636
        43.0004         39.0004
 14  5 10  0 23  0.0000000  0 11G13G09G07G10G08G17G26G20G04G01G28
  13596608.93646  10586993.64246  24077189.6344   24077196.4794   24077189.613
        41.0004         37.0004
 -20700571.06349 -16116260.90348  20062945.9074   20062952.4754   20062945.587
        54.0004         49.0004
 -22477449.37148 -17483712.49948  20430766.0564   20430771.9354   20430765.742
        53.0004         49.0004
  -8295565.89147  -6454190.96846  24074876.8334   24074886.4884   24074877.393
        43.0004         38.0004
 -25899321.25649 -20132338.82048  19965812.0344   19965818.9804   19965812.519
        54.0004         49.0004
 -14335631.88748 -11110233.02947  22577402.1844   22577409.6874   22577401.380
        49.0004         44.0004
   -600861.13247   -450150.13446  24105799.0754   24105814.4194   24105798.652
        42.0004         38.0004
  -4619699.04647  -3539753.27946  23657769.7974   23657778.7434   23657770.060
        42.0004         37.0004
 -19843232.53648 -15407820.53947  21341989.4124   21341996.2794   21341989.115
        51.0004         46.0004
  -5554482.73647  -4300949.87746  23766206.6704   23766220.0774   23766206.181
        44.0004         40.0004
  -5629768.93647  -4351584.22946  23656672.4384   23656681.3074   23656672.192
        43.0004         39.0004
 14  5 10  0 23 30.0000000  0 11G13G09G07G10G08G17G26G20G04G01G28
  13669957.57546  10644148.52746  24091148.8324   24091154.5194   24091147.092
        41.0004         37.0004
 -20723202.41549 -16133895.64848  20058638.9344   20058645.9724   20058639.152
        54.0004         49.0004
 -22433364.88348 -17449360.91348  20439154.9844   20439160.7064   20439154.468
        53.0004         49.0004
  -8351235.77347  -6497569.89046  24064282.5884   24064291.9324   24064284.029
        43.0004         38.0004
 -25923814.58949 -20151424.48048  19961151.3064   19961158.5584   19961151.356
        54.0004         49.0004
 -14294068.58548 -11077846.00747  22585310.5384   22585318.2544   22585310.822
        49.0004         44.0004
   -615131.50047   -461269.75346  24103083.4644   24103098.8024   24103083.250
        42.0004         38.0004
  -4609837.89047  -3532069.27646  23659647.3914   23659655.0084   23659647.399
        42.0004         37.0004
 -19916104.40848 -15464603.72747  21328122.8954   21328129.1684   21328121.668
        51.0004         46.0004
  -5454770.70047  -4223252.20046  23785181.3464   23785193.8974   23785180.678
        44.0004         40.0004
  -5677918.51747  -4389103.24546  23647509.5674   23647517.7854   23647509.800
        43.0004         39.0004
 14  5 10  0 24  0.0000000  0 11G13G09G07G10G08G17G26G20G04G01G28
  13743120.80446  10701158.92046  24105070.0304   24105076.5604   24105070.286
        41.0004         37.0004
 -20745235.00049 -16151063.83148  20054446.4314   20054453.1914   20054446.350
        54.0004         49.0004
 -22388721.45748 -17414573.78848  20447650.3264   20447655.8504   20447649.957
        53.0004         49.0004
  -8407123.08047  -6541118.24346  24053647.6814   24053658.0744   24053648.364
        43.0004         38.0004
 -25947676.05449 -20170017.78048  19956610.4524   19956617.5374   19956610.717
        54.0004         49.0004
 -14252443.07648 -11045410.51047  22593231.9724   22593241.8654   22593231.475
        49.0004         44.0004
   -629062.61847   -472125.02246  24100430.8124   24100447.2774   24100431.610
        42.0004         37.0004
  -4599736.49147  -3524198.05346  23661569.1214   23661576.3634   23661569.309
        42.0004         37.0004
 -19988584.25548 -15521081.43247  21314329.2144   21314336.3924   21314329.314
        51.0004         46.0004
  -5354860.42747  -4145400.04646  23804193.6164   23804206.9974   23804192.769
        44.0004         39.0004
  -5726272.14147  -4426781.26246  23638307.6124   23638315.5544   23638308.625
        44.0004         39.0004
 14  5 10  0 24 30.0000000  0 12G13G09G07G10G02G08G17G26G20G04G01G28
  13816095.63046  10758022.50946  24118956.6164   24118965.3104   24118957.108
        41.0004         37.0004
 -20766669.03549 -16167765.60748  20050367.3914   20050374.5724   20050367.630
        54.0004         49.0004
 -22343521.79948 -17379353.23848  20456251.4264   20456257.4094   20456251.045
        53.0004         48.0004
  -8463228.29747  -6584836.38546  24042971.3804   24042980.4534   24042971.948
        43.0004         38.0004
  -1426904.11848  -1044144.61646  24091241.0704   24091250.8514   24091241.934
        50.0004         38.0004
 -25970905.26849 -20188118.41748  19952189.9444   19952197.0934   19952190.251
        54.0004         49.0004
 -14210759.08348 -11012929.44447  22601163.2954   22601172.5134   22601163.679
        49.0004         44.0004
   -642657.08047   -482717.93846  24097845.0664   24097861.3554   24097845.252
        42.0004         37.0004
  -4589394.44546  -3516139.32346  23663536.7604   23663545.1054   23663537.571
        41.0004         37.0004
 -20060670.77048 -15577252.65547  21300612.1064   21300619.3004   21300611.796
        51.0004         46.0004
  -5254755.79447  -4067396.44946  23823242.7114   23823255.4554   23823242.353
        44.0004         39.0004
  -5774829.71347  -4464618.20946  23629068.7014   23629075.9294   23629068.318
        44.0004         39.0004
 14  5 10  0 25  0.0000000  0 12G13G09G07G10G02G08G17G26G20G04G01G28
  13888883.42146  10814740.34446  24132808.9794   24132813.4314   24132807.649
        41.0004         37.0004
 -20787501.00849 -16183998.25048  20046403.0994   20046409.9254   20046403.226
        54.0004         49.0004
 -22297764.40948 -17343698.09148  20464958.6154   20464964.4814   20464958.541
        53.0004         48.0004
  -8519547.67747  -6628721.41846  24032254.4324   24032263.0424   24032254.031
        42.0004         38.0004
  -1520729.07247  -1117254.65846  24073386.6034   24073394.3564   24073386.668
        46.0004         38.0004
 -25993498.25349 -20205723.29248  19947890.8154   19947897.9494   19947891.068
        54.0004         49.0004
 -14169016.29848 -10980402.56647  22609107.4574   22609115.3054   22609107.212
        49.0004         44.0004
   -655913.25047   -493047.26846  24095321.8034   24095336.7244   24095322.064
        42.0004         37.0004
  -4578807.86046  -3507890.04846  23665549.0874   23665560.7764   23665552.583
        41.0004         37.0004
 -20132358.95748 -15633113.48647  21286970.2734   21286977.6214   21286970.060
        51.0004         46.0004
  -5154456.68747  -3989241.31246  23842329.3594   23842343.0734   23842328.773
        44.0004         39.0004
  -5823586.98647  -4502610.75846  23619789.4914   23619798.9704   23619789.979
        44.0004         39.0004
 14  5 10  0 25 30.0000000  0 12G13G09G07G10G02G08G17G26G20G04G01G28
  13961483.04646  10871311.55046  24146623.4564   24146629.1384   24146622.456
        41.0004         37.0004
 -20807729.86849 -16199760.93348  20042554.0524   20042560.4344   20042553.775
        54.0004         49.0004
 -22251451.19548 -17307609.83748  20473771.9264   20473777.4394   20473771.401
        53.0004         48.0004
  -8576080.08647  -6672772.43646  24021495.1594   24021506.4144   24021495.254
        42.0004         37.0004
  -1614396.08647  -1190241.63646  24055561.1014   24055571.5454   24055561.484
        44.0004         38.0004
 -26015453.51849 -20222831.24348  19943712.7594   19943719.7744   19943713.177
        54.0004         49.0004
 -14127216.98548 -10947831.64147  22617061.6324   22617069.6044   22617061.637
        49.0004         44.0004
   -668832.37447   -503113.95346  24092863.5744   24092881.9174   24092862.855
        42.0004         37.0004
  -4567974.37946  -3499448.40446  23667613.1234   23667622.1764   23667613.521
        41.0004         37.0004
 -20203645.97648 -15688661.72747  21273405.2014   21273411.3824   21273404.320
        51.0004         46.0004
  -5053965.51747  -3910936.50846  23861452.5904   23861465.7084   23861451.838
        44.0004         39.0004
  -5872541.99547  -4540757.39546  23610474.4614   23610482.3574   23610473.939
        44.0004         40.0004
 14  5 10  0 26  0.0000000  0 12G13G09G07G10G02G08G17G26G20G04G01G28
  14033892.50446  10927734.58746  24160402.4184   24160408.8664   24160401.630
        41.0004         37.0004
 -20827355.49049 -16215053.56448  20038819.4294   20038825.8014   20038819.360
        54.0004         49.0004
 -22204584.19348 -17271090.05548  20482690.6254   20482695.9374   20482689.854
        53.0004         48.0004
  -8632825.25847  -6716989.25046  24010695.5064   24010706.9504   24010696.657
        42.0004         38.0004
  -1707903.27747  -1263104.07746  24037768.6644   24037777.7154   24037767.374
        43.0004         38.0004
 -26036770.09749 -20239441.51448  19939656.2554   19939663.8654   19939656.627
        54.0004         49.0004
 -14085364.32948 -10915219.14547  22625025.3204   22625034.6734   22625025.259
        49.0004         44.0004
   -681416.55947   -512919.66046  24090469.0024   24090485.2644   24090468.476
        42.0004         37.0004
  -4556893.41046  -3490813.86446  23669721.5744   23669731.2244   23669721.605
        41.0004         36.0004
 -20274530.19548 -15743896.09947  21259916.3214   21259923.2194   21259915.381
        51.0004         46.0004
  -4953285.61847  -3832484.64446  23880611.2164   23880623.8814   23880610.471
        44.0004         39.0004
  -5921693.82747  -4579057.39046  23601120.9634   23601128.4564   23601120.602
        44.0004         39.0004
 14  5 10  0 26 30.0000000  0 12G13G09G07G10G02G08G17G26G20G04G01G28
  14106109.30346  10984007.49646  24174144.5444   24174151.4634   24174144.396
        41.0004         37.0004
 -20846377.73249 -16229876.03148  20035199.4444   20035205.8264   20035199.420
        54.0004         49.0004
 -22157165.81548 -17234140.63348  20491713.7114   20491719.3284   20491713.442
        53.0004         48.0004
  -8689782.75947  -6761371.52446  23999858.3244   23999868.7804   23999858.510
        42.0004         38.0004
  -1801249.26947  -1335840.89746  24020005.3034   24020013.1634   24020005.128
        43.0004         38.0004
 -26057447.55449 -20255553.77448  19935721.6404   19935728.7284   19935721.867
        54.0004         49.0004
 -14043461.29648 -10882567.39847  22632999.0954   22633008.6464   22632999.449
        49.0004         44.0004
   -693667.84346   -522465.90946  24088137.5214   24088154.4004   24088137.573
        41.0004         37.0004
  -4545564.02846  -3481985.80446  23671877.4384   23671886.8844   23671877.870
        41.0004         36.0004
 -20345010.02748 -15798815.36647  21246503.6794   21246510.9544   21246503.728
        51.0004         46.0004
  -4852420.34247  -3753888.31746  23899804.9214   23899817.7844   23899804.217
        44.0004         39.0004
  -5971041.92447  -4617510.32846  23591730.0234   23591738.0884   23591729.901
        44.0004         39.0004
 14  5 10  0 27  0.0000000  0 12G13G09G07G10G02G08G17G26G20G04G01G28
  14178132.58546  11040129.60146  24187849.0224   24187857.2244   24187849.385
        41.0004         36.0004
 -20864795.72549 -16244227.65348  20031694.7704   20031700.9584   20031694.455
        54.0004         49.0004
 -22109197.21248 -17196762.45848  20500841.8394   20500847.1804   20500841.463
        53.0004         48.0004
  -8746951.41047  -6805918.31746  23988978.5164   23988989.1134   23988979.469
        42.0004         38.0004
  -1894431.03847  -1408449.76246  24002272.9954   24002280.9674   24002273.361
        43.0004         38.0004
 -26077484.27149 -20271166.75148  19931908.8894   19931915.5114   19931909.011
        54.0004         49.0004
 -14001509.81148 -10849877.89647  22640982.7244   22640990.7304   22640982.554
        49.0004         44.0004
   -705587.22846   -531753.57246  24085869.6614   24085884.6674   24085870.112
        41.0004         37.0004
  -4533984.16646  -3472962.53946  23674081.3514   23674089.4674   23674081.323
        41.0004         36.0004
 -20415082.69048 -15853417.35047  21233169.6124   21233176.2404   21233168.999
        51.0004         47.0004
  -4751371.92047  -3675149.30346  23919033.0314   23919047.3344   23919033.388
        43.0004         39.0004
  -6020584.40047  -4656114.74046  23582302.2514   23582310.8454   23582302.491
        44.0004         39.0004
 14  5 10  0 27 30.0000000  0 12G13G09G07G10G02G08G17G26G20G04G01G28
  14249960.73746  11096099.66746  24201517.8874   24201523.5494   24201517.694
        41.0004         36.0004
 -20882609.01149 -16258108.07948  20028304.7294   20028311.2724   20028304.722
        54.0004         49.0004
 -22060680.74748 -17158957.38248  20510074.2524   20510079.8644   20510073.819
        53.0004         48.0004
  -8804330.37247  -6850628.99946  23978059.0224   23978069.2354   23978060.684
        43.0004         38.0004
  -1987446.63947  -1480929.15246  23984571.0104   23984580.4644   23984572.799
        43.0004         38.0004
 -26096879.12749 -20286279.57648  19928217.9144   19928224.6394   19928218.129
        54.0004         49.0004
 -13959512.89148 -10817152.98747  22648975.4534   22648982.8774   22648974.176
        49.0004         44.0004
   -717176.33646   -540783.86546  24083664.2744   24083678.3434   24083663.849
        41.0004         37.0004
  -4522152.99046  -3463743.43646  23676333.7274   23676341.4134   23676333.257
        41.0004         36.0004
 -20484745.98448 -15907700.35947  21219913.0254   21219920.4404   21219912.604
        51.0004         47.0004
  -4650143.33947  -3596269.89946  23938297.5314   23938310.1724   23938296.019
        44.0004         39.0004
  -6070319.80647  -4694869.47246  23572836.0414   23572846.8584   23572837.711
        44.0004         39.0004
 14  5 10  0 28  0.0000000  0 12G13G09G07G10G02G08G17G26G20G04G01G28
  14321592.27246  11151916.51446  24215151.0604   24215156.7894   24215148.706
        41.0004         36.0004
 -20899817.05449 -16271516.88248  20025030.1564   20025036.7474   20025030.152
        54.0004         49.0004
 -22011618.24348 -17120726.81848  20519410.4004   20519416.0284   20519409.891
        53.0004         48.0004
  -8861918.94847  -6895503.00846  23967100.2654   23967109.9324   23967101.401
        43.0004         38.0004
  -2080293.86447  -1553277.34846  23966903.5404   23966911.9384   23966903.928
        43.0004         38.0004
 -26115631.03949 -20300891.40748  19924649.4044   19924656.2684   19924649.794
        54.0004         49.0004
 -13917472.80448 -10784394.44847  22656974.7024   22656982.9934   22656974.276
        49.0004         44.0004
   -728436.73246   -549558.00546  24081521.7434   24081535.4134   24081520.729
        41.0004         37.0004
  -4510068.82446  -3454327.22046  23678632.2974   23678643.6374   23678632.532
        41.0004         36.0004
 -20553997.83548 -15961662.76247  21206734.4144   21206741.4014   21206734.359
        51.0004         47.0004
  -4548737.34847  -3517252.23946  23957593.9134   23957607.0744   23957592.843
        44.0004         39.0004
  -6120246.91547  -4733773.59646  23563336.1954   23563345.7304   23563336.761
        44.0004         39.0004
 14  5 10  0 28 30.0000000  0 12G13G09G07G10G02G08G17G26G20G04G01G28
  14393027.52346  11207580.43246  24228742.7264   24228749.0214   24228743.127
        41.0004         36.0004
 -20916416.97949 -16284451.83148  20021871.1554   20021877.9074   20021871.043
        54.0004         49.0004
 -21962009.02048 -17082070.24648  20528851.0984   20528856.4354   20528850.316
        53.0004         48.0004
  -8919713.75147  -6940537.71246  23956103.3244   23956111.5614   23956103.525
        43.0004         38.0004
  -2172968.24447  -1625490.85646  23949268.2454   23949276.6494   23949267.915
        43.0004         38.0004
 -26133736.48249 -20314999.50048  19921204.2304   19921210.9234   19921204.536
        54.0004         50.0004
 -13875390.25248 -10751602.83547  22664982.5104   22664991.1544   22664982.602
        49.0004         44.0004
   -739367.81446   -558075.55446  24079442.1014   24079455.5644   24079441.166
        41.0004         37.0004
  -4497727.97546  -3444710.99346  23680981.8664   23680988.6664   23680981.113
        41.0004         36.0004
 -20622833.78748 -16015301.07647  21193635.3574   21193642.7814   21193635.146
        51.0004         47.0004
  -4447154.46347  -3438096.75246  23976924.4434   23976937.0544   23976924.200
        44.0004         39.0004
  -6170361.85947  -4772824.07446  23553799.3474   23553807.6364   23553799.483
        43.0004         39.0004
 14  5 10  0 29  0.0000000  0 12G13G09G07G10G02G08G17G26G20G04G01G28
  14464263.62346  11263089.16546  24242300.3504   24242305.3214   24242298.699
        41.0004         36.0004
 -20932410.39949 -16296914.17748  20018827.5924   20018834.1964   20018827.723
        54.0004         50.0004
 -21911857.05548 -17042990.75448  20538394.2684   20538400.0184   20538394.033
        53.0004         48.0004
  -8977716.10647  -6985734.15546  23945066.0594   23945074.0494   23945065.161
        43.0004         38.0004
  -2265469.95047  -1697569.80846  23931664.3124   23931673.6734   23931665.423
        42.0004         38.0004
 -26151196.68949 -20328604.81048  19917881.7734   19917887.9064   19917882.112
        54.0004         49.0004
 -13833269.68448 -10718781.56747  22672999.0844   22673006.7334   22672997.867
        49.0004         44.0004
   -749973.35947   -566339.43446  24077423.5794   24077439.1044   24077421.801
        42.0004         37.0004
  -4485131.52646  -3434895.58246  23683377.1164   23683386.4324   23683378.314
        41.0004         37.0004
 -20691253.73248 -16068615.24147  21180615.7304   21180623.0734   21180615.065
        51.0004         47.0004
  -4345399.57347  -3358807.22146  23996287.6234   23996301.4724   23996287.917
        44.0004         39.0004
  -6220665.47347  -4812021.57046  23544227.0914   23544235.5974   23544226.978
        44.0004         39.0004
 14  5 10  0 29 30.0000000  0 12G13G09G07G10G02G08G17G26G20G04G01G28
  14535298.79446  11318441.32846  24255816.3944   24255822.1794   24255816.291
        41.0004         36.0004
 -20947796.21249 -16308903.05748  20015899.7404   20015906.1734   20015899.690
        54.0004         50.0004
 -21861164.06748 -17003489.68748  20548041.0044   20548046.1044   20548040.400
        53.0004         48.0004
  -9035924.74347  -7031091.33546  23933988.2154   23933997.5874   23933988.469
        43.0004         38.0004
  -2357795.89547  -1769511.81646  23914095.9334   23914104.3384   23914096.511
        42.0004         38.0004
 -26168010.28749 -20341706.26848  19914682.0684   19914689.0094   19914682.562
        54.0004         50.0004
 -13791112.76048 -10685931.97847  22681019.3494   22681028.1934   22681019.184
        49.0004         44.0004
   -760254.13447   -574350.25046  24075465.6844   24075479.7734   24075466.355
        42.0004         37.0004
  -4472277.42546  -3424879.41246  23685823.5964   23685832.9634   23685823.553
        41.0004         36.0004
 -20759254.83948 -16121603.03947  21167675.6444   21167683.0964   21167675.381
        51.0004         47.0004
  -4243474.91047  -3279385.39946  24015683.0014   24015697.7634   24015682.824
        44.0004         39.0004
  -6271155.59747  -4851364.39546  23534619.6744   23534628.0974   23534619.167
        44.0004         39.0004
 14  5 10  0 30  0.0000000  0 12G13G09G07G10G02G08G17G26G20G04G01G28
  14606132.09446  11373636.18146  24269295.6874   24269301.6094   24269294.983
        41.0004         36.0004
 -20962574.18249 -16320418.29448  20013087.8654   20013093.9754   20013087.938
        54.0004         50.0004
 -21809931.88348 -16963568.46148  20557789.9004   20557795.1854   20557789.682
        53.0004         48.0004
  -9094338.93347  -7076608.70246  23922872.9954   23922881.4624   23922872.832
        43.0004         39.0004
  -2449943.77647  -1841315.06946  23896559.7644   23896568.5964   23896560.077
        42.0004         38.0004
 -26184176.05449 -20354302.92648  19911606.0484   19911612.5974   19911606.116
        54.0004         49.0004
 -13748922.22548 -10653056.20547  22689048.2224   22689057.5084   22689048.336
        49.0004         44.0004
   -770212.02247   -582109.46446  24073570.7744   24073585.3834   24073570.335
        42.0004         37.0004
  -4459164.23246  -3414661.35346  23688319.1454   23688326.1954   23688319.114
        41.0004         36.0004
 -20826835.02348 -16174262.84147  21154815.4514   21154821.9654   21154815.103
        51.0004         47.0004
  -4141383.27447  -3199833.47346  24035111.2854   24035124.2094   24035110.861
        44.0004         39.0004
  -6321830.90647  -4890851.52946  23524976.1694   23524983.9444   23524976.280
        44.0004         40.0004
 14  5 10  0 30 30.0000000  0 12G13G09G07G10G02G08G17G26G20G04G01G28
  14676763.92246  11428674.03346  24282735.9624   24282740.9864   24282736.119
        41.0004         36.0004
 -20976741.89449 -16331457.99848  20010391.6384   20010398.1554   20010391.516
        54.0004         50.0004
 -21758160.39048 -16923226.99648  20567641.7474   20567647.2984   20567641.357
        53.0004         48.0004
  -9152955.59647  -7122283.82346  23911717.4844   23911727.3294   23911718.148
        44.0004         39.0004
  -2541909.69747  -1912976.53446  23879059.6514   23879068.1664   23879059.594
        43.0004         38.0004
 -26199691.16549 -20366392.57748  19908653.3344   19908659.9124   19908653.587
        54.0004         49.0004
 -13706698.68648 -10620154.71647  22697084.3824   22697091.8494   22697083.511
        49.0004         44.0004
   -779846.64347   -589616.77246  24071735.8204   24071752.6884   24071737.001
        42.0004         37.0004
  -4445788.64146  -3404238.84546  23690863.7414   23690875.3804   23690863.859
        41.0004         36.0004
 -20893990.18548 -16226591.46547  21142036.7554   21142043.4164   21142035.781
        52.0004         47.0004
  -4039125.48647  -3120152.08746  24054570.3164   24054583.1304   24054569.506
        44.0004         39.0004
  -6372687.73347  -4930480.10346  23515297.7384   23515306.9724   23515298.510
        44.0004         40.0004
 14  5 10  0 31  0.0000000  0 12G13G09G07G10G02G08G17G26G20G04G01G28
  14747190.39546  11483551.88446  24296138.0864   24296144.7294   24296137.895
        41.0004         36.0004
 -20990301.51649 -16342023.87548  20007811.5024   20007817.6814   20007811.289
        54.0004         49.0004
 -21705854.25848 -16882468.93148  20577595.1184   20577600.6394   20577594.889
        53.0004         48.0004
  -9211776.08847  -7168117.77546  23900524.6734   23900534.0474   23900525.099
        44.0004         39.0004
  -2633693.92947  -1984496.43446  23861593.0534   23861600.9264   23861593.618
        43.0004         38.0004
 -26214557.13049 -20377976.39848  19905824.3734   19905831.1024   19905824.820
        54.0004         49.0004
 -13664447.01048 -10587231.29247  22705123.2744   22705130.4604   22705123.351
        49.0004         44.0004
   -789161.90647   -596875.23346  24069964.4704   24069979.7324   24069964.073
        42.0004         37.0004
  -4432151.68746  -3393612.65246  23693458.3634   23693467.7484   23693460.129
        41.0004         36.0004
 -20960720.64448 -16278589.15147  21129337.8444   21129344.5374   21129337.414
        52.0004         47.0004
  -3936706.70347  -3040345.24346  24074059.8624   24074072.9004   24074059.218
        44.0004         39.0004
  -6423727.22547  -4970251.00346  23505585.3204   23505593.4844   23505585.831
        44.0004         40.0004
 14  5 10  0 31 30.0000000  0 12G13G09G07G10G02G08G17G26G20G04G01G28
  14817410.91146  11538269.23546  24309500.2764   24309506.1254   24309499.887
        41.0004         36.0004
 -21003252.03549 -16352115.12148  20005347.0554   20005353.3294   20005346.749
        54.0004         50.0004
 -21653014.64048 -16841295.16548  20587650.5914   20587655.5934   20587649.696
        53.0004         48.0004
  -9270798.72947  -7214109.24846  23889293.3844   23889301.6944   23889293.306
        44.0004         39.0004
  -2725293.48347  -2055872.43146  23844162.4044   23844169.8814   23844163.301
        43.0004         38.0004
 -26228772.49449 -20389053.25648  19903119.2244   19903125.8474   19903119.467
        54.0004         49.0004
 -13622169.01948 -10554287.36147  22713168.7724   22713176.9934   22713168.626
        49.0004         44.0004
   -798158.98547   -603885.75046  24068252.7344   24068266.7864   24068251.790
        42.0004         37.0004
  -4418251.72646  -3382781.52446  23696104.1174   23696113.4564   23696104.357
        41.0004         36.0004
 -21027023.74748 -16330253.83147  21116720.9534   21116726.9034   21116720.422
        52.0004         47.0004
  -3834129.12947  -2960414.67346  24093579.1614   24093593.3704   24093578.798
        44.0004         39.0004
  -6474946.99847  -5010162.40246  23495838.5274   23495847.7944   23495839.306
        45.0004         40.0004
 14  5 10  0 32  0.0000000  0 12G13G09G07G10G02G08G17G26G20G04G01G28
  14887425.47946  11592826.11746  24322821.8664   24322830.7914   24322822.768
        41.0004         36.0004
 -21015591.66449 -16361730.35948  20002998.4124   20003004.9814   20002998.298
        54.0004         49.0004
 -21599642.20348 -16799706.22048  20597806.9154   20597812.0964   20597806.564
        53.0004         48.0004
  -9330021.25247  -7260256.48746  23878023.4444   23878032.1044   23878023.844
        44.0004         39.0004
  -2816704.54647  -2127101.56446  23826767.4904   23826776.1104   23826768.309
        43.0004         38.0004
 -26242334.66349 -20399621.13648  19900538.5844   19900545.1164   19900538.976
        54.0004         49.0004
 -13579865.95848 -10521323.89847  22721218.9644   22721226.7914   22721218.828
        49.0004         44.0004
   -806837.87647   -610648.33946  24066600.8304   24066615.6484   24066601.030
        42.0004         37.0004
  -4404085.68746  -3371743.07946  23698801.7174   23698809.9234   23698800.891
        41.0004         37.0004
 -21092895.67148 -16381582.52247  21104185.4864   21104192.6204   21104185.008
        52.0004         47.0004
  -3731394.03547  -2880361.35446  24113129.3344   24113142.6454   24113128.969
        44.0004         39.0004
  -6526344.13147  -5050212.00646  23486057.7534   23486066.8784   23486058.270
        45.0004         40.0004
 14  5 10  0 32 30.0000000  0 12G13G09G07G10G02G08G17G26G20G04G01G28
  14957231.97646  11647220.82546  24336107.3784   24336113.9974   24336106.602
        40.0004         36.0004
 -21027320.69249 -16370869.80648  20000766.7624   20000772.7624   20000766.710
        54.0004         49.0004
 -21545739.49748 -16757704.07348  20608063.9554   20608069.3934   20608063.613
        53.0004         48.0004
  -9389443.17847  -7306559.09546  23866715.0134   23866724.4134   23866716.105
        44.0004         39.0004
  -2907925.95047  -2198182.90346  23809408.4424   23809415.0624   23809409.187
        43.0004         38.0004
 -26255243.24849 -20409679.72048  19898081.7724   19898088.3724   19898082.281
        54.0004         49.0004
 -13537540.74348 -10488343.19547  22729272.2674   22729281.1594   22729272.573
        49.0004         44.0004
   -815201.02347   -617164.89546  24065009.5904   24065023.3994   24065009.032
        42.0004         37.0004
  -4389653.04446  -3360496.88046  23701545.4684   23701555.1214   23701546.421
        41.0004         36.0004
 -21158334.85548 -16432574.01347  21091732.3024   21091739.4104   21091732.411
        52.0004         47.0004
  -3628504.72147  -2800187.86746  24132708.0334   24132721.4524   24132707.858
        44.0004         39.0004
  -6577917.76247  -5090399.13846  23476244.3034   23476252.4664   23476243.857
        45.0004         40.0004
 14  5 10  0 33  0.0000000  0 12G13G09G07G10G02G08G17G26G20G04G01G28
  15026829.60746  11701452.81546  24349351.8134   24349359.2094   24349350.385
        41.0004         36.0004
 -21038438.47549 -16379532.96348  19998650.8404   19998657.2414   19998650.832
        54.0004         50.0004
 -21491308.22448 -16715290.06548  20618421.8444   20618427.0254   20618421.370
        53.0004         48.0004
  -9449063.30247  -7353016.16046  23855370.4824   23855378.7214   23855370.887
        44.0004         39.0004
  -2998954.50147  -2269113.97046  23792086.2844   23792093.0264   23792086.662
        43.0004         39.0004
 -26267497.16949 -20419228.18348  19895749.7034   19895756.8664   19895750.263
        54.0004         49.0004
 -13495195.17348 -10455346.61247  22737330.8384   22737338.9844   22737330.756
        49.0004         44.0004
   -823249.54247   -623436.28746  24063477.9724   24063491.8394   24063477.798
        42.0004         38.0004
  -4374952.01846  -3349041.56746  23704344.2604   23704352.9664   23704344.634
        41.0004         36.0004
 -21223338.88148 -16483226.42847  21079363.0414   21079369.6094   21079362.402
        52.0004         47.0004
  -3525463.47947  -2719895.99246  24152317.2034   24152329.9384   24152316.155
        44.0004         39.0004
  -6629665.69447  -5130722.08146  23466396.7274   23466404.9394   23466396.960
        45.0004         40.0004
 14  5 10  0 33 30.0000000  0 12G13G09G07G10G02G08G17G26G20G04G01G28
  15096216.45146  11755520.55846  24362556.4834   24362559.9144   24362554.855
        41.0004         36.0004
 -21048945.45649 -16387720.16948  19996651.3904   19996657.7874   19996651.230
        54.0004         49.0004
 -21436351.16048 -16672466.34748  20628879.8304   20628885.2264   20628879.455
        53.0004         48.0004
  -9508880.66947  -7399626.90246  23843987.6084   23843995.4284   23843987.693
        44.0004         39.0004
  -3089788.97447  -2339893.81046  23774801.5204   23774807.9374   23774801.059
        43.0004         39.0004
 -26279096.28149 -20428266.41048  19893542.7514   19893549.5554   19893543.061
        54.0004         49.0004
 -13452832.41048 -10422336.62947  22745392.5724   22745400.1344   22745392.432
        49.0004         44.0004
   -830985.69247   -629464.27146  24062005.0504   24062020.2004   24062004.791
        42.0004         37.0004
  -4359981.82246  -3337376.51846  23707192.7054   23707203.4224   23707192.827
        41.0004         36.0004
 -21287906.14848 -16533538.50947  21067076.1294   21067082.8524   21067075.835
        52.0004         47.0004
  -3422273.70647  -2639488.38746  24171952.1894   24171966.9654   24171952.450
        44.0004         39.0004
  -6681587.08447  -5171180.19346  23456516.2574   23456523.8604   23456516.227
        45.0004         40.0004
 14  5 10  0 34  0.0000000  0 12G13G09G07G10G02G08G17G26G20G04G01G28
  15165391.28346  11809423.07346  24375717.3994   24375724.7944   24375718.424
        41.0004         36.0004
 -21058840.85349 -16395430.81948  19994768.1924   19994774.6794   19994768.314
        54.0004         50.0004
 -21380869.95748 -16629234.21248  20639437.8574   20639443.3034   20639437.146
        53.0004         48.0004
  -9568894.28647  -7446390.56846  23832566.8634   23832575.6624   23832567.444
        44.0004         39.0004
  -3180426.70747  -2410520.35146  23757553.2374   23757560.0994   23757553.359
        43.0004         38.0004
 -26290039.68149 -20436793.68848  19891459.9184   19891466.8044   19891460.356
        54.0004         49.0004
 -13410454.31748 -10389314.70847  22753457.1034   22753465.0084   22753456.365
        49.0004         44.0004
   -838410.87647   -635249.94246  24060591.5684   24060605.9444   24060591.357
        42.0004         37.0004
  -4344740.96246  -3325500.53446  23710094.6384   23710102.8694   23710092.875
        40.0004         36.0004
 -21352034.37648 -16583508.48047  21054872.1214   21054879.5224   21054872.535
        52.0004         47.0004
  -3318937.82047  -2558966.92946  24191616.5114   24191629.9174   24191615.969
        44.0004         39.0004
  -6733679.83747  -5211771.83146  23446603.4814   23446611.4884   23446603.532
        45.0004         40.0004
 14  5 10  0 34 30.0000000  0 12G13G09G07G10G02G08G17G26G20G04G01G28
  15234354.17346  11863160.43446  24388841.6644   24388849.8684   24388841.647
        41.0004         36.0004
 -21068123.26749 -16402663.81148  19993001.8584   19993008.0554   19993001.799
        54.0004         50.0004
 -21324865.66448 -16585594.47048  20650094.5784   20650100.4154   20650094.542
        53.0004         48.0004
  -9629101.84247  -7493305.37246  23821108.9464   23821117.9944   23821109.650
        44.0004         39.0004
  -3270864.28947  -2480990.93946  23740342.3714   23740349.3584   23740342.578
        43.0004         39.0004
 -26300325.69449 -20444808.71548  19889502.9014   19889509.6654   19889503.190
        54.0004         49.0004
 -13368062.71348 -10356282.25747  22761523.7294   22761532.5444   22761523.368
        49.0004         44.0004
   -845525.54847   -640793.66046  24059236.6484   24059254.2644   24059237.298
        42.0004         37.0004
  -4329226.94846  -3313411.73146  23713046.2184   23713055.9934   23713045.536
        40.0004         36.0004
 -21415720.35448 -16633133.84447  21042753.9724   21042760.1784   21042753.382
        52.0004         47.0004
  -3215457.36447  -2478332.81546  24211307.8624   24211322.7994   24211307.955
        43.0004         38.0004
  -6785941.12847  -5252494.80646  23436657.9274   23436666.6564   23436658.297
        45.0004         40.0004
 14  5 10  0 35  0.0000000  0 12G13G09G07G10G02G08G17G26G20G04G01G28
  15303100.92846  11916729.37646  24401923.6204   24401929.1724   24401923.299
        40.0004         36.0004
 -21076795.58749 -16409421.40648  19991351.3594   19991358.1614   19991351.600
        54.0004         50.0004
 -21268343.34448 -16541551.07648  20660850.4454   20660856.2704   20660850.063
        53.0004         48.0004
  -9689505.27947  -7540372.82346  23809614.0514   23809623.8494   23809615.328
        44.0004         39.0004
  -3361102.28247  -2551306.01546  23723171.7094   23723177.7734   23723170.987
        43.0004         39.0004
 -26309956.31049 -20452313.04448  19887670.1944   19887677.2054   19887670.349
        54.0004         49.0004
 -13325662.69948 -10323243.26247  22769591.5244   22769599.5644   22769591.499
        49.0004         44.0004
   -852334.52347   -646099.17846  24057943.1644   24057957.4464   24057941.625
        42.0004         37.0004
  -4313441.67146  -3301111.56245  23716048.6864   23716058.6694   23716049.832
        40.0004         35.0004
 -21478964.77948 -16682415.13547  21030718.4974   21030725.0554   21030718.128
        52.0004         47.0004
  -3111838.05147  -2397590.50246  24231027.5354   24231040.4534   24231026.217
        43.0004         38.0004
  -6838372.47747  -5293350.29146  23426681.3564   23426689.1134   23426680.844
        45.0004         40.0004
 14  5 10  0 35 30.0000000  0 12G13G09G07G10G02G08G17G26G20G04G01G28
  15371634.48346  11970132.20545  24414964.4964   24414970.3474   24414964.826
        40.0004         35.0004
 -21084853.64349 -16415700.35848  19989818.1604   19989824.5494   19989818.019
        54.0004         49.0004
 -21211300.80848 -16497102.32448  20671705.5374   20671710.9734   20671705.232
        53.0004         48.0004
  -9750099.00747  -7587588.54646  23798083.4524   23798092.2214   23798084.146
        44.0004         39.0004
  -3451134.48347  -2621460.72146  23706038.3664   23706045.6924   23706038.818
        43.0004         38.0004
 -26318926.64649 -20459302.86648  19885963.3154   19885969.9954   19885963.444
        54.0004         49.0004
 -13283252.08148 -10290195.99947  22777662.1504   22777670.9304   22777662.103
        49.0004         44.0004
   -858835.21447   -651164.45846  24056705.7124   24056720.2524   24056704.157
        42.0004         37.0004
  -4297379.28146  -3288595.42845  23719104.6094   23719114.4034   23719106.231
        40.0004         35.0004
 -21541761.35448 -16731347.45847  21018768.7774   21018775.3564   21018768.493
        52.0004         47.0004
  -3008078.38747  -2316738.80946  24250772.1034   24250784.6134   24250771.083
        43.0004         38.0004
  -6890967.69647  -5334333.48046  23416671.9814   23416680.3544   23416672.575
        45.0004         40.0004
 14  5 10  0 36  0.0000000  0 12G13G09G07G10G02G08G17G26G20G04G01G28
  15439949.36446  12023364.60345  24427964.0374   24427970.4524   24427964.594
        40.0004         35.0004
 -21092301.31349 -16421503.68848  19988400.6694   19988406.9654   19988400.862
        54.0004         49.0004
 -21153744.23048 -16452253.01648  20682658.1654   20682663.4514   20682657.243
        53.0004         48.0004
  -9810886.02147  -7634954.86846  23786515.3704   23786524.8574   23786516.706
        44.0004         39.0004
  -3540962.41447  -2691456.26846  23688944.4654   23688951.5194   23688944.669
        43.0004         38.0004
 -26327239.78149 -20465780.58748  19884381.1944   19884387.8224   19884381.480
        54.0004         49.0004
 -13240837.22048 -10257145.44247  22785734.6444   22785741.3924   22785733.480
        49.0004         44.0004
   -865033.23547   -655993.91046  24055525.2214   24055540.1064   24055525.305
        42.0004         37.0004
  -4281042.62446  -3275865.62846  23722213.1914   23722223.0544   23722215.478
        40.0004         36.0004
 -21604112.24248 -16779932.49847  21006903.5264   21006910.4494   21006903.236
        52.0004         47.0004
  -2904184.94347  -2235782.89046  24270541.7604   24270556.6444   24270540.958
        43.0004         38.0004
  -6943729.24747  -5375446.28346  23406632.4974   23406639.4834   23406632.087
        45.0004         40.0004
 14  5 10  0 36 30.0000000  0 12G13G09G07G10G02G08G17G26G20G04G01G28
  15508048.77846  12076429.11045  24440924.1174   24440929.9264   24440923.446
        40.0004         35.0004
 -21099134.08049 -16426827.86748  19987100.4384   19987106.9644   19987100.399
        54.0004         50.0004
 -21095671.57948 -16407001.58148  20693709.4694   20693714.3474   20693709.102
        53.0004         48.0004
  -9871860.87447  -7682467.55446  23774912.7074   23774920.9394   23774913.942
        44.0004         39.0004
  -3630579.53147  -2761287.54146  23671891.3484   23671897.7324   23671890.714
        43.0004         38.0004
 -26334890.90849 -20471742.45948  19882925.0024   19882932.0254   19882925.506
        54.0004         49.0004
 -13198416.71948 -10224090.48947  22793806.7614   22793814.6134   22793805.670
        49.0004         44.0004
   -870926.00947   -660585.49246  24054404.4594   24054417.5144   24054403.888
        42.0004         38.0004
  -4264426.09146  -3262917.71446  23725375.3114   23725383.9234   23725377.606
        41.0004         36.0004
 -21666010.98048 -16828165.20547  20995124.5734   20995131.6014   20995124.405
        52.0004         47.0004
  -2800156.26047  -2154721.58346  24290339.0544   24290352.0974   24290337.370
        42.0004         38.0004
  -6996651.15347  -5416684.04146  23396560.0184   23396568.8524   23396561.366
        45.0004         40.0004
 14  5 10  0 37  0.0000000  0 12G13G09G07G10G02G08G17G26G20G04G01G28
  15575929.66246  12129323.34146  24453841.6614   24453848.0204   24453840.307
        40.0004         36.0004
 -21105354.05249 -16431674.54848  19985916.9204   19985923.0984   19985916.658
        54.0004         49.0004
 -21037087.22648 -16361351.40048  20704857.2174   20704862.9624   20704856.692
        53.0004         48.0004
  -9933024.75747  -7730127.54946  23763272.8324   23763280.9644   23763274.211
        44.0004         39.0004
  -3719986.14047  -2830954.78546  23654876.5424   23654883.1854   23654877.220
        43.0004         39.0004
 -26341881.75349 -20477189.82448  19881594.5924   19881601.3374   19881594.908
        54.0004         49.0004
 -13155995.12348 -10191034.67447  22801879.0604   22801886.4404   22801878.288
        49.0004         44.0004
   -876517.44847   -664942.27646  24053339.6574   24053353.7654   24053340.006
        42.0004         38.0004
  -4247530.73146  -3249752.53746  23728592.4274   23728601.9774   23728592.411
        40.0004         36.0004
 -21727457.54148 -16876045.57047  20983431.5114   20983438.2254   20983431.091
        52.0004         47.0004
  -2695997.23047  -2073558.68846  24310159.7414   24310171.2724   24310158.117
        42.0004         37.0004
  -7049733.84647  -5458047.08646  23386459.8904   23386468.3184   23386459.638
        45.0004         40.0004
 14  5 10  0 37 30.0000000  0 12G13G09G07G10G02G08G17G26G20G04G01G28
  15643588.47346  12182044.53046  24466716.1784   24466722.7554   24466716.037
        40.0004         36.0004
 -21110963.07349 -16436045.16548  19984849.6844   19984856.1764   19984849.767
        54.0004         50.0004
 -20977995.10448 -16315305.56948  20716101.9604   20716107.4034   20716101.769
        53.0004         48.0004
  -9994378.17747  -7777935.24946  23751598.1424   23751606.9044   23751598.872
        44.0004         39.0004
  -3809181.58047  -2900457.49046  23637903.6644   23637909.6274   23637904.118
        43.0004         39.0004
 -26348213.62849 -20482123.70748  19880390.0154   19880396.6914   19880390.415
        54.0004         49.0004
 -13113576.36648 -10157981.07047  22809951.8874   22809958.7244   22809950.555
        49.0004         44.0004
   -881811.33747   -669067.18446  24052333.4004   24052347.2454   24052332.133
        43.0004         38.0004
  -4230356.85746  -3236370.36246  23731861.6454   23731868.3804   23731860.463
        40.0004         36.0004
 -21788452.12348 -16923573.74547  20971824.7314   20971831.4714   20971824.525
        52.0004         47.0004
  -2591712.40747  -1992297.77946  24330004.5534   24330016.4154   24330002.765
        42.0004         37.0004
  -7102977.38147  -5499535.46946  23376328.1594   23376335.8194   23376328.128
        45.0004         40.0004
 14  5 10  0 38  0.0000000  0 12G13G09G07G10G02G08G17G26G20G04G01G28
  15711028.03546  12234594.85845  24479547.6024   24479554.8314   24479549.179
        40.0004         35.0004
 -21115957.15049 -16439936.60248  19983899.2244   19983905.1754   19983899.136
        54.0004         50.0004
 -20918393.45148 -16268862.68848  20727443.6264   20727449.3524   20727443.322
        53.0004         48.0004
 -10055916.07547  -7825886.68946  23739887.5754   23739896.6204   23739888.071
        44.0004         39.0004
  -3898159.81347  -2969790.94446  23620971.2794   23620978.1084   23620971.457
        44.0004         39.0004
 -26353882.09049 -20486540.64148  19879311.0504   19879317.6194   19879311.379
        54.0004         49.0004
 -13071158.76948 -10124928.38047  22818022.3634   22818030.6764   22818021.925
        49.0004         44.0004
   -886805.29647   -672958.36446  24051382.1134   24051396.0084   24051381.401
        43.0004         38.0004
  -4212899.55846  -3222767.32346  23735179.3424   23735192.4524   23735182.235
        40.0004         36.0004
 -21848988.57748 -16970744.93847  20960304.8324   20960311.8154   20960304.499
        52.0004         47.0004
  -2487300.45246  -1910937.79246  24349873.6114   24349885.8934   24349872.164
        41.0004         37.0004
  -7156376.15447  -5541144.80946  23366165.6794   23366174.2844   23366166.403
        45.0004         40.0004
 14  5 10  0 38 30.0000000  0 12G13G09G07G10G02G08G17G26G20G04G01G28
  15778245.41346  12286972.08346  24492340.8854   24492346.8074   24492340.599
        40.0004         36.0004
 -21120338.21849 -16443350.37648  19983065.3774   19983071.8574   19983065.213
        54.0004         50.0004
 -20858286.65848 -16222026.20248  20738881.7944   20738887.1824   20738881.518
        53.0004         48.0004
 -10117639.08147  -7873982.34346  23728142.3504   23728151.7644   23728142.871
        44.0004         39.0004
  -3986920.50047  -3038954.88046  23604080.5124   23604087.9624   23604080.377
        44.0004         39.0004
 -26358888.41249 -20490441.62148  19878358.3934   19878364.9554   19878358.716
        54.0004         49.0004
 -13028746.77648 -10091880.06047  22826093.6324   22826100.7724   22826092.894
        49.0004         44.0004
   -891502.98547   -676618.69746  24050486.4554   24050501.9754   24050487.356
        42.0004         38.0004
  -4195159.41246  -3208943.86846  23738559.7624   23738567.3974   23738558.820
        40.0004         36.0004
 -21909066.67748 -17017558.97248  20948872.2704   20948878.9154   20948872.088
        52.0004         48.0004
  -2382766.03846  -1829482.41346  24369764.0024   24369778.1344   24369764.118
        41.0004         37.0004
  -7209930.29247  -5582875.22046  23355974.9344   23355983.8804   23355974.993
        45.0004         40.0004
 14  5 10  0 39  0.0000000  0 12G13G09G07G10G02G08G17G26G20G04G01G28
  15845239.68446  12339175.41345  24505087.4984   24505094.5254   24505089.130
        40.0004         35.0004
 -21124106.09749 -16446286.33648  19982348.3044   19982354.5704   19982348.465
        54.0004         50.0004
 -20797676.57348 -16174797.53048  20750415.4704   20750420.7524   20750414.927
        52.0004         48.0004
 -10179545.53547  -7922220.96646  23716362.2364   23716369.6964   23716362.686
        44.0004         39.0004
  -4075460.81447  -3107947.09846  23587232.2644   23587238.3624   23587231.278
        44.0004         39.0004
 -26363231.65249 -20493825.90648  19877531.9754   19877538.2644   19877532.244
        54.0004         49.0004
 -12986342.17048 -10058837.48147  22834162.9404   22834170.0194   22834162.501
        49.0004         44.0004
   -895905.93847   -680049.34946  24049648.3684   24049663.5504   24049648.811
        42.0004         38.0004
  -4177134.81746  -3194898.76446  23741987.2494   23742000.1094   23741988.340
        40.0004         36.0004
 -21968684.23648 -17064014.14447  20937527.6834   20937534.2124   20937527.165
        52.0004         47.0004
  -2278111.46146  -1747933.40246  24389680.1354   24389692.3484   24389679.341
        41.0004         37.0004
  -7263637.72647  -5624725.07746  23345755.3604   23345764.4594   23345754.904
        45.0004         40.0004
 14  5 10  0 39 30.0000000  0 12G13G09G07G10G02G08G17G26G20G04G01G28
  15912009.72246  12391204.03346  24517795.2724   24517800.9744   24517795.158
        40.0004         36.0004
 -21127261.10249 -16448744.72848  19981748.1564   19981754.1514   19981747.823
        54.0004         50.0004
 -20736565.45548 -16127178.44548  20762044.3554   20762050.2094   20762044.288
        52.0004         48.0004
 -10241634.34647  -7970601.68846  23704546.7874   23704554.5674   23704547.751
        44.0004         40.0004
  -4163779.18247  -3176766.37646  23570424.8724   23570431.3284   23570425.197
        44.0004         39.0004
 -26366911.95549 -20496693.62148  19876831.5494   19876838.0194   19876831.918
        54.0004         49.0004
 -12943947.47248 -10025802.62947  22842229.9564   22842237.6004   22842229.798
        49.0004         44.0004
   -900016.17647   -683251.93946  24048867.0454   24048881.3234   24048867.508
        42.0004         38.0004
  -4158824.98046  -3180631.41646  23745471.6374   23745482.0004   23745473.060
        40.0004         36.0004
 -22027839.62148 -17110109.18147  20926270.4754   20926277.5274   20926270.595
        52.0004         47.0004
  -2173339.74346  -1666293.10346  24409616.0864   24409628.8064   24409616.757
        41.0004         36.0004
  -7317496.90747  -5666693.19346  23335505.3504   23335513.3884   23335506.074
        45.0004         40.0004
 14  5 10  0 40  0.0000000  0 12G13G09G07G10G02G08G17G26G20G04G01G28
  15978554.75246  12443057.31746  24530457.9214   24530462.5934   24530457.763
        40.0004         36.0004
 -21129802.86049 -16450725.26848  19981263.6954   19981270.3484   19981264.015
        54.0004         49.0004
 -20674955.42748 -16079170.59448  20773768.6364   20773773.6764   20773768.054
        52.0004         48.0004
 -10303904.11847  -8019123.42646  23692696.8454   23692704.8644   23692697.448
        44.0004         40.0004
  -4251872.69847  -3245410.43146  23553660.5334   23553667.5464   23553661.032
        44.0004         39.0004
 -26369928.56349 -20499044.17248  19876257.6974   19876264.0424   19876257.819
        54.0004         49.0004
 -12901564.63148  -9992777.02847  22850294.4904   22850302.3024   22850294.976
        49.0004         44.0004
   -903834.96147   -686227.40046  24048140.3594   24048154.9794   24048140.300
        42.0004         38.0004
  -4140227.99446  -3166140.27046  23749010.0264   23749019.1834   23749012.498
        41.0004         36.0004
 -22086530.50948 -17155842.27447  20915102.0214   20915108.6874   20915101.493
        52.0004         47.0004
  -2068452.99646  -1584563.17046  24429576.4734   24429589.4314   24429576.217
        41.0004         36.0004
  -7371505.05447  -5708777.37746  23325228.1244   23325236.5684   23325228.532
        45.0004         40.0004
 14  5 10  0 40 30.0000000  0 12G13G09G07G10G02G08G17G26G20G04G01G28
  16044872.49946  12494733.51046  24543077.3824   24543085.2054   24543077.490
        41.0004         36.0004
 -21131732.45549 -16452228.79948  19980896.7364   19980903.5614   19980896.991
        54.0004         50.0004
 -20612849.93048 -16030776.67248  20785587.2194   20785592.0144   20785586.347
        52.0004         48.0004
 -10366354.89547  -8067786.19446  23680812.4354   23680821.6994   23680813.213
        44.0004         39.0004
  -4339740.27447  -3313878.44146  23536940.5364   23536947.0804   23536939.549
        44.0004         39.0004
 -26372282.01649 -20500877.98048  19875809.8134   19875815.7944   19875810.001
        54.0004         49.0004
 -12859197.21248  -9959763.43247  22858357.2524   22858365.5614   22858357.202
        48.0004         44.0004
   -907365.10447   -688977.95446  24047468.1884   24047481.1474   24047468.927
        42.0004         38.0004
  -4121343.92646  -3151425.47845  23752604.6264   23752616.6794   23752604.877
        40.0004         35.0004
 -22144755.82548 -17201212.58347  20904022.1804   20904028.7144   20904021.981
        52.0004         47.0004
  -1963454.98046  -1502746.54146  24449556.5564   24449571.8194   24449556.250
        41.0004         37.0004
  -7425661.77747  -5750977.33546  23314921.2514   23314930.9954   23314922.979
        45.0004         40.0004
 14  5 10  0 41  0.0000000  0 12G13G09G07G10G02G08G17G26G20G04G01G28
  16110964.10146  12546233.50145  24555653.9094   24555658.3324   24555654.742
        40.0004         35.0004
 -21133048.06649 -16453253.89648  19980646.5444   19980652.8274   19980646.478
        54.0004         49.0004
 -20550248.91048 -15981996.61748  20797498.8134   20797504.3904   20797498.880
        52.0004         48.0004
 -10428982.71847  -8116586.91846  23668894.8534   23668903.0184   23668895.578
        44.0004         39.0004
  -4427377.48547  -3382166.95446  23520263.6024   23520269.8494   23520263.588
        44.0004         39.0004
 -26373969.82649 -20502193.10048  19875488.2124   19875494.7564   19875488.791
        54.0004         49.0004
 -12816845.31248  -9926761.93347  22866416.2994   22866424.8614   22866416.534
        48.0004         44.0004
   -910606.38847   -691503.39746  24046851.2384   24046864.9464   24046851.241
        42.0004         38.0004
  -4102169.37646  -3136484.29646  23756254.7474   23756262.5974   23756253.771
        40.0004         36.0004
 -22202511.46448 -17246216.91247  20893031.5524   20893037.8374   20893030.939
        52.0004         47.0004
  -1858346.28647  -1420843.65546  24469558.1984   24469572.4764   24469557.404
        42.0004         37.0004
  -7479963.28947  -5793290.10846  23304589.0104   23304596.8154   23304589.343
        45.0004         40.0004
 14  5 10  0 41 30.0000000  0 12G13G09G07G10G02G08G17G26G20G04G01G28
  16176827.03746  12597555.25746  24568188.9354   24568194.2094   24568187.886
        40.0004         36.0004
 -21133751.32049 -16453801.83748  19980512.9874   19980518.9984   19980512.797
        54.0004         50.0004
 -20487156.50548 -15932833.67648  20809505.1264   20809510.1984   20809504.986
        52.0004         48.0004
 -10491787.95947  -8165525.91046  23656944.3144   23656951.6414   23656944.112
        44.0004         39.0004
  -4514783.64647  -3450275.40846  23503630.6454   23503636.2124   23503631.435
        44.0004         39.0004
 -26374993.10749 -20502990.41248  19875293.8134   19875299.9774   19875293.920
        54.0004         49.0004
 -12774512.41748  -9893775.24647  22874471.9464   22874480.2934   22874471.966
        48.0004         44.0004
   -913562.10847   -693806.32846  24046289.3514   24046302.6384   24046288.814
        42.0004         38.0004
  -4082704.70146  -3121317.04245  23759958.7114   23759965.9884   23759957.577
        40.0004         35.0004
 -22259797.36148 -17290855.21147  20882130.2924   20882136.8584   20882129.773
        52.0004         47.0004
  -1753131.10647  -1338857.80446  24489580.6734   24489591.9724   24489579.569
        42.0004         37.0004
  -7534409.18847  -5835715.39746  23294229.8214   23294236.9534   23294228.768
        45.0004         40.0004
 14  5 10  0 42  0.0000000  0 12G13G09G07G10G02G08G17G26G20G04G01G28
  16242460.55346  12648698.24645  24580676.9604   24580684.7114   24580677.688
        40.0004         35.0004
 -21133841.84949 -16453872.33348  19980495.5784   19980501.5894   19980495.506
        54.0004         50.0004
 -20423574.49648 -15883289.21748  20821604.4214   20821610.0044   20821604.025
        52.0004         48.0004
 -10554769.07947  -8214601.95546  23644958.0594   23644966.3294   23644958.909
        44.0004         39.0004
  -4601956.04547  -3518201.72446  23487041.3384   23487047.6574   23487041.879
        44.0004         39.0004
 -26375351.41949 -20503269.55448  19875225.3734   19875231.7094   19875225.683
        54.0004         49.0004
 -12732200.56848  -9860804.95547  22882524.3644   22882531.7404   22882523.920
        48.0004         44.0004
   -916233.75347   -695887.91446  24045780.1144   24045794.5644   24045779.695
        42.0004         38.0004
  -4062948.36146  -3105922.55046  23763719.3734   23763725.7234   23763717.812
        40.0004         36.0004
 -22316611.09348 -17335125.58647  20871318.7284   20871326.1174   20871318.637
        52.0004         47.0004
  -1647811.63747  -1256790.69146  24509622.6664   24509634.2394   24509621.187
        42.0004         37.0004
  -7588997.18847  -5878251.42146  23283840.3124   23283849.9184   23283840.724
        45.0004         40.0004
 14  5 10  0 42 30.0000000  0 12G13G09G07G10G02G08G17G26G20G04G01G28
  16307863.46046  12699661.56045  24593124.5224   24593129.2644   24593124.356
        40.0004         35.0004
 -21133320.01549 -16453465.65848  19980594.7644   19980600.8844   19980594.784
        54.0004         50.0004
 -20359505.22348 -15833365.08048  20833796.6264   20833801.9944   20833796.216
        52.0004         48.0004
 -10617924.44847  -8263813.77846  23632940.2354   23632949.4054   23632940.405
        44.0004         39.0004
  -4688892.67847  -3585944.33146  23470498.7224   23470504.7234   23470498.286
        44.0004         40.0004
 -26375044.50149 -20503030.35148  19875283.8934   19875290.1194   19875283.923
        54.0004         49.0004
 -12689911.78648  -9827852.64647  22890571.4424   22890579.0484   22890571.010
        48.0004         44.0004
   -918623.17547   -697749.57846  24045325.3984   24045339.7094   24045325.270
        42.0004         38.0004
  -4042899.41646  -3090300.03245  23767531.9724   23767540.6974   23767533.340
        40.0004         35.0004
 -22372950.74448 -17379026.55547  20860597.8864   20860604.0304   20860597.548
        52.0004         47.0004
  -1542390.57646  -1174644.42046  24529683.0304   24529695.0814   24529682.323
        41.0004         37.0004
  -7643725.30647  -5920896.63146  23273424.9174   23273432.8954   23273426.578
        45.0004         41.0004
 14  5 10  0 43  0.0000000  0 12G13G09G07G10G02G08G17G26G20G04G01G28
  16373035.17146  12750444.73145  24605526.7514   24605531.7244   24605524.484
        40.0004         35.0004
 -21132186.13749 -16452582.06648  19980810.5074   19980816.5554   19980810.432
        54.0004         50.0004
 -20294950.99548 -15783063.06148  20846080.8624   20846086.3354   20846080.423
        52.0004         48.0004
 -10681252.66447  -8313160.28946  23620889.0764   23620897.4404   23620889.899
        44.0004         39.0004
  -4775591.06147  -3653501.29246  23454000.5084   23454005.8814   23454000.547
        44.0004         40.0004
 -26374071.90349 -20502272.43348  19875468.7994   19875475.4014   19875469.231
        54.0004         49.0004
 -12647648.37448  -9794920.10147  22898612.7364   22898621.9744   22898613.248
        48.0004         44.0004
   -920731.94647   -699392.55746  24044922.5974   24044937.8554   24044923.800
        42.0004         38.0004
  -4022556.51546  -3074448.46945  23771404.6554   23771412.1064   23771404.122
        40.0004         35.0004
 -22428814.31548 -17422556.55647  20849967.7114   20849973.8064   20849967.286
        52.0004         47.0004
  -1436870.37147  -1092420.88846  24549761.7454   24549775.6124   24549762.199
        42.0004         37.0004
  -7698591.53947  -5963649.46346  23262985.7264   23262992.2554   23262985.436
        45.0004         41.0004
 14  5 10  0 43 30.0000000  0 12G13G09G07G10G02G08G17G26G20G04G01G28
  16437975.89246  12801047.87145  24617882.9664   24617888.1814   24617882.297
        40.0004         35.0004
 -21130439.18349 -16451220.75148  19981142.8094   19981149.0414   19981142.767
        54.0004         50.0004
 -20229912.86148 -15732383.96848  20858457.0194   20858462.0484   20858456.801
        52.0004         48.0004
 -10744751.05947  -8362639.38546  23608806.0124   23608813.3414   23608806.256
        44.0004         39.0004
  -4862047.79747  -3720869.95246  23437547.8974   23437553.9154   23437548.548
        44.0004         40.0004
 -26372432.26649 -20500994.74548  19875780.7414   19875786.6954   19875781.139
        54.0004         49.0004
 -12605411.26448  -9762008.04847  22906651.3224   22906657.7584   22906650.579
        48.0004         44.0004
   -922560.69447   -700817.32546  24044575.9974   24044588.7464   24044575.640
        42.0004         38.0004
  -4001917.19246  -3058365.94545  23775329.4014   23775339.3494   23775331.789
        40.0004         35.0004
 -22484198.77948 -17465713.22047  20839427.8594   20839434.3384   20839426.893
        52.0004         47.0004
  -1331252.40547  -1010121.18646  24569860.6824   24569874.7164   24569860.543
        42.0004         38.0004
  -7753592.52147  -6006507.30346  23252518.6674   23252527.1154   23252519.014
        45.0004         40.0004
 14  5 10  0 44  0.0000000  0 12G13G09G07G10G02G08G17G26G20G04G01G28
  16502682.05046  12851468.27145  24630196.9574   24630202.6484   24630194.721
        40.0004         35.0004
 -21128081.74649 -16449383.73348  19981591.7294   19981597.6024   19981591.457
        54.0004         50.0004
 -20164395.90948 -15681331.77248  20870924.6374   20870929.4694   20870924.156
        52.0004         48.0004
 -10808420.57347  -8412251.85046  23596689.1914   23596696.4114   23596691.157
        44.0004         39.0004
  -4948262.92747  -3788050.36246  23421141.3844   23421147.0134   23421141.096
        44.0004         40.0004
 -26370127.87549 -20499199.06948  19876219.1434   19876225.4934   19876219.604
        54.0004         49.0004
 -12563205.10848  -9729120.12947  22914683.6294   22914690.4844   22914682.228
        48.0004         44.0004
   -924113.78947   -702027.30446  24044280.1384   24044293.4674   24044280.209
        42.0004         38.0004
  -3980982.79846  -3042053.46045  23779315.0424   23779323.7894   23779314.667
        40.0004         35.0004
 -22539104.52248 -17508496.85947  20828979.6534   20828986.0334   20828979.964
        52.0004         47.0004
  -1225541.83447   -927749.30646  24589978.4154   24589990.0444   24589976.672
        42.0004         38.0004
  -7808728.69147  -6049470.47346  23242027.2354   23242035.1024   23242026.864
        45.0004         40.0004
 14  5 10  0 44 30.0000000  0 12G13G09G07G10G02G08G17G26G20G04G01G28
  16567154.38546  12901706.45045  24642465.2074   24642470.7064   24642464.299
        39.0004         35.0004
 -21125112.87749 -16447070.27948  19982156.1634   19982162.3344   19982156.248
        54.0004         50.0004
 -20098400.52848 -15629906.77647  20883483.2074   20883488.0634   20883482.523
        52.0004         47.0004
 -10872258.39347  -8461995.47346  23584542.4364   23584549.1044   23584542.747
        44.0004         39.0004
  -5034232.88447  -3855039.72646  23404781.5884   23404787.4294   23404781.658
        44.0004         40.0004
 -26367156.84449 -20496883.93648  19876784.4444   19876790.9884   19876784.657
        54.0004         49.0004
 -12521030.42848  -9696256.72547  22922707.3124   22922715.7164   22922707.862
        48.0004         43.0004
   -925391.42047   -703022.62846  24044036.1534   24044052.2724   24044036.711
        43.0004         38.0004
  -3959750.19646  -3025508.63945  23783354.7644   23783364.2364   23783355.190
        40.0004         35.0004
 -22593528.39248 -17550905.02447  20818623.2834   20818629.3934   20818622.533
        52.0004         47.0004
  -1119739.63847   -845306.05246  24610110.0974   24610124.0834   24610110.191
        42.0004         37.0004
  -7863996.74947  -6092536.42446  23231509.0754   23231517.8054   23231509.835
        45.0004         41.0004
 14  5 10  0 45  0.0000000  0 12G13G09G07G10G02G08G17G26G20G04G01G28
  16631391.04246  12951760.97645  24654688.0044   24654695.3574   24654687.248
        39.0004         35.0004
 -21121533.53549 -16444281.14448  19982837.4254   19982843.5994   19982837.560
        54.0004         50.0004
 -20031930.08248 -15578111.60247  20896131.9494   20896136.6234   20896131.373
        52.0004         47.0004
 -10936263.67647  -8511869.58446  23572361.1684   23572371.1044   23572362.829
        44.0004         39.0004
  -5119955.85147  -3921836.62746  23388468.6734   23388474.6204   23388469.002
        44.0004         40.0004
 -26363519.92149 -20494049.91848  19877476.4994   19877483.0034   19877476.847
        54.0004         49.0004
 -12478889.97048  -9663419.98747  22930727.0634   22930734.7014   22930727.100
        48.0004         43.0004
   -926395.96447   -703805.17246  24043845.4084   24043858.0074   24043845.759
        43.0004         38.0004
  -3938219.27746  -3008731.33645  23787452.2854   23787460.1504   23787453.006
        40.0004         35.0004
 -22647468.93948 -17592936.55247  20808358.6044   20808364.3934   20808357.961
        52.0004         47.0004
  -1013848.98247   -762793.86146  24630259.8094   24630274.2934   24630260.402
        42.0004         37.0004
  -7919395.33547  -6135704.07846  23220967.6474   23220975.2414   23220967.610
        45.0004         41.0004
 14  5 10  0 45 30.0000000  0 12G13G09G07G10G02G08G17G26G20G04G01G28
  16695399.08046  13001637.36645  24666865.8644   24666875.7284   24666867.640
        40.0004         35.0004
 -21117336.41249 -16441010.61448  19983636.1104   19983642.1584   19983635.999
        54.0004         50.0004
 -19964979.53748 -15525942.32747  20908872.3894   20908877.5214   20908871.726
        52.0004         47.0004
 -11000427.70947  -8561867.37746  23560150.8684   23560160.1554   23560152.656
        44.0004         40.0004
  -5205422.32347  -3988433.66546  23372204.9114   23372210.6414   23372205.060
        44.0004         40.0004
 -26359209.42249 -20490691.04748  19878296.8244   19878303.1214   19878296.959
        54.0004         49.0004
 -12436777.99248  -9630605.43647  22938741.5074   22938749.5674   22938740.809
        48.0004         44.0004
   -927121.84347   -704370.57446  24043706.6904   24043719.7594   24043706.346
        43.0004         38.0004
  -3916381.45946  -2991714.88245  23791609.3524   23791615.6944   23791608.580
        40.0004         35.0004
 -22700917.00248 -17634584.34648  20798187.9824   20798194.2204   20798187.913
        52.0004         48.0004
   -907864.94147   -680208.88846  24650427.4494   24650441.4804   24650428.360
        42.0004         37.0004
  -7974914.91447  -6178966.03146  23210402.4474   23210410.2194   23210402.585
        45.0004         41.0004
 14  5 10  0 46  0.0000000  0 12G13G09G07G10G02G08G17G26G20G04G01G28
  16759162.32146  13051322.98445  24679002.6994   24679007.8184   24679002.452
        40.0004         35.0004
 -21112536.96549 -16437270.75048  19984549.3134   19984555.4664   19984549.356
        54.0004         50.0004
 -19897566.44348 -15473412.62947  20921700.4564   20921705.4874   20921699.922
        52.0004         47.0004
 -11064763.63947  -8611999.10746  23547908.9924   23547917.3334   23547909.420
        44.0004         40.0004
  -5290644.86147  -4054840.63946  23355987.3424   23355993.5514   23355986.762
        44.0004         40.0004
 -26354240.33649 -20486818.98748  19879242.6664   19879248.7344   19879243.090
        54.0004         49.0004
 -12394712.49248  -9597827.11647  22946745.6094   22946754.0814   22946745.348
        48.0004         44.0004
   -927585.98547   -704732.03646  24043618.9744   24043632.3144   24043618.880
        43.0004         38.0004
  -3894250.72446  -2974470.18145  23795819.3414   23795831.8824   23795819.041
        40.0004         35.0004
 -22753885.63348 -17675858.54648  20788108.3404   20788114.9644   20788107.558
        52.0004         48.0004
   -801805.10946   -597564.87446  24670611.9934   24670625.1044   24670610.681
        41.0004         37.0004
  -8030568.23147  -6222332.19746  23199811.6244   23199819.8884   23199812.090
        45.0004         41.0004
 14  5 10  0 46 30.0000000  0 12G13G09G07G10G02G08G17G26G20G04G01G28
  16822688.57046  13100823.96745  24691094.3334   24691098.2384   24691091.100
        40.0004         35.0004
 -21107127.28649 -16433055.38048  19985578.9224   19985584.6964   19985579.010
        54.0004         50.0004
 -19829684.45348 -15420517.55247  20934617.9094   20934622.6234   20934617.608
        52.0004         47.0004
 -11129261.69147  -8662257.18946  23535635.1384   23535642.4714   23535635.403
        44.0004         40.0004
  -5375612.83447  -4121049.25146  23339817.9564   23339824.8524   23339817.827
        45.0004         40.0004
 -26348604.22749 -20482427.16648  19880314.9184   19880321.3674   19880315.195
        54.0004         49.0004
 -12352686.78848  -9565079.81247  22954742.8214   22954751.0114   22954742.755
        48.0004         44.0004
   -927781.77347   -704884.38646  24043581.3524   24043595.1414   24043581.516
        43.0004         38.0004
  -3871816.95146  -2956989.35945  23800088.3784   23800099.9114   23800089.465
        40.0004         35.0004
 -22806364.81248 -17716751.36248  20778121.7784   20778127.6094   20778121.156
        52.0004         48.0004
   -695663.62846   -514857.22546  24690809.0454   24690823.6834   24690808.867
        41.0004         36.0004
  -8086345.06947  -6265794.60546  23189197.7404   23189205.4224   23189197.898
        45.0004         41.0004
 14  5 10  0 47  0.0000000  0 12G13G09G07G10G02G08G17G26G20G04G01G28
  16885976.64146  13150139.31245  24703135.5914   24703137.4804   24703134.548
        39.0004         35.0004
 -21101107.78149 -16428364.82348  19986724.1224   19986730.2414   19986723.925
        54.0004         50.0004
 -19761336.29348 -15367259.22547  20947624.2944   20947629.1504   20947623.659
        52.0004         47.0004
 -11193920.57647  -8712640.58646  23523330.9734   23523338.9124   23523331.194
        45.0004         40.0004
  -5460324.12047  -4187057.85746  23323697.5854   23323705.0154   23323697.811
        45.0004         40.0004
 -26342300.98149 -20477515.49948  19881514.0974   19881520.6464   19881514.447
        54.0004         49.0004
 -12310702.88848  -9532365.06547  22962732.5014   22962740.3684   22962732.240
        48.0004         44.0004
   -927711.02747   -704829.04446  24043594.7134   24043609.1814   24043593.767
        43.0004         38.0004
  -3849079.76246  -2939272.10945  23804415.2684   23804424.8494   23804414.353
        39.0004         35.0004
 -22858352.60348 -17757261.27848  20768228.9804   20768234.8754   20768228.328
        52.0004         48.0004
   -589443.11946   -432087.99446  24711023.9134   24711035.0684   24711022.439
        41.0004         36.0004
  -8142243.30747  -6309351.61546  23178561.2404   23178568.4294   23178560.995
        45.0004         41.0004
 14  5 10  0 47 30.0000000  0 12G13G09G07G10G02G08G17G26G20G04G01G28
  16949025.81246  13199268.55145  24715130.6734   24715139.9234   24715132.525
        39.0004         34.0004
 -21094479.13949 -16423199.62248  19987985.8424   19987991.6994   19987985.898
        54.0004         50.0004
 -19692524.53648 -15313639.65447  20960718.8064   20960723.9104   20960718.117
        52.0004         47.0004
 -11258738.50247  -8763147.92346  23510997.2454   23511004.7934   23510996.762
        45.0004         40.0004
  -5544776.52347  -4252864.73446  23307626.7464   23307634.0324   23307627.139
        45.0004         40.0004
 -26335331.04949 -20472084.33848  19882840.4314   19882847.1764   19882841.106
        54.0004         49.0004
 -12268763.24548  -9499684.80547  22970712.3844   22970721.2784   22970712.787
        48.0004         44.0004
   -927375.86547   -704567.66646  24043657.7574   24043672.1954   24043658.713
        43.0004         38.0004
  -3826037.75946  -2921317.35645  23808799.1834   23808812.0044   23808800.709
        40.0004         35.0004
 -22909847.56048 -17797387.17748  20758429.4834   20758435.5274   20758428.569
        52.0004         48.0004
   -483146.30746   -349259.32046  24731252.3874   24731263.5064   24731250.316
        40.0004         36.0004
  -8198261.07247  -6353001.76046  23167900.6114   23167908.5394   23167900.940
        46.0004         41.0004
 14  5 10  0 48  0.0000000  0 12G13G09G07G10G02G08G17G26G20G04G01G28
  17011833.84846  13248209.87545  24727086.1834   24727087.8174   24727084.357
        39.0004         34.0004
 -21087242.97749 -16417561.02448  19989362.7194   19989368.4964   19989362.406
        54.0004         50.0004
 -19623252.96248 -15259661.78547  20973900.4584   20973905.6944   20973899.767
        52.0004         47.0004
 -11323715.39947  -8813779.13246  23498630.7074   23498639.7304   23498631.912
        45.0004         40.0004
  -5628969.38247  -4318469.37546  23291605.8074   23291612.5184   23291606.282
        45.0004         40.0004
 -26327695.58249 -20466134.57848  19884293.2184   19884299.8264   19884293.493
        54.0004         49.0004
 -12226870.89548  -9467041.40047  22978685.2254   22978693.1404   22978684.464
        48.0004         43.0004
   -926779.37847   -704102.64946  24043770.7744   24043785.4754   24043771.174
        43.0004         38.0004
  -3802691.34746  -2903125.38645  23813243.3064   23813253.2964   23813243.074
        40.0004         35.0004
 -22960849.27748 -17837128.72248  20748724.0574   20748729.7404   20748723.856
        52.0004         48.0004
   -376776.94246   -266374.10345  24751492.1194   24751503.7914   24751491.500
        40.0004         35.0004
  -8254397.43147  -6396744.33046  23157218.4374   23157226.4074   23157218.721
        46.0004         41.0004
 14  5 10  0 48 30.0000000  0 12G13G09G07G10G02G08G17G26G20G04G01G28
  17074401.36746  13296963.77745  24738992.2524   24738996.1774   24738990.776
        39.0004         34.0004
 -21079398.49649 -16411448.41448  19990855.1474   19990861.3494   19990855.142
        54.0004         50.0004
 -19553522.59048 -15205326.40547  20987169.6054   20987174.1764   20987169.065
        52.0004         47.0004
 -11388848.37847  -8864531.96546  23486236.7124   23486244.2784   23486237.811
        45.0004         40.0004
  -5712898.60047  -4383868.58846  23275634.9494   23275640.1344   23275634.957
        45.0004         41.0004
 -26319393.46749 -20459665.35348  19885873.3614   19885879.7674   19885873.576
        54.0004         49.0004
 -12185026.67248  -9434435.48747  22986647.7694   22986654.3244   22986646.889
        48.0004         44.0004
   -925922.10447   -703434.43846  24043934.2344   24043947.7124   24043934.679
        43.0004         38.0004
  -3779037.91946  -2884694.18945  23817743.2894   23817751.4144   23817744.046
        40.0004         35.0004
 -23011354.31348 -17876483.26148  20739113.4764   20739119.6864   20739113.028
        52.0004         48.0004
   -270336.14746   -183433.24245  24771746.6494   24771761.8284   24771746.289
        40.0004         35.0004
  -8310648.87247  -6440576.57247  23146514.8344   23146521.6594   23146514.022
        46.0004         42.0004
 14  5 10  0 49  0.0000000  0 12G13G09G07G10G02G08G17G26G20G04G01G28
  17136726.43346  13345528.77245  24750852.7284   24750857.7334   24750850.928
        39.0004         35.0004
 -21070947.40049 -16404863.11748  19992463.4584   19992469.7424   19992463.486
        54.0004         50.0004
 -19483337.08048 -15150636.37947  21000525.4284   21000530.9714   21000525.147
        52.0004         47.0004
 -11454136.86447  -8915405.97546  23473813.2364   23473820.5554   23473813.600
        45.0004         40.0004
  -5796563.38047  -4449061.75346  23259713.3884   23259719.4554   23259713.803
        45.0004         41.0004
 -26310426.11149 -20452677.75748  19887580.1884   19887586.2604   19887580.466
        54.0004         49.0004
 -12143233.84948  -9401869.62947  22994601.2064   22994608.4854   22994600.070
        48.0004         43.0004
   -924807.11847   -702565.39046  24044146.0174   24044160.1464   24044146.398
        43.0004         38.0004
  -3755077.90846  -2866024.10945  23822303.8564   23822311.7984   23822304.012
        40.0004         35.0004
 -23061362.51948 -17915450.65048  20729596.3224   20729603.4154   20729596.067
        52.0004         48.0004
   -163827.62646   -100439.57645  24792016.0494   24792029.8914   24792014.060
        40.0004         35.0004
  -8367014.57347  -6484497.84747  23135788.8394   23135795.6094   23135788.361
        46.0004         42.0004
 14  5 10  0 49 30.0000000  0 12G13G09G07G10G02G08G17G26G20G04G01G28
  17198808.92146  13393904.75145  24762666.2934   24762668.7224   24762664.699
        39.0004         35.0004
 -21061889.63749 -16397805.09448  19994186.9404   19994193.1514   19994186.859
        54.0004         50.0004
 -19412698.16648 -15095593.04747  21013967.6964   21013972.8074   21013966.966
        52.0004         47.0004
 -11519578.55247  -8966399.34746  23461358.4424   23461367.8564   23461360.490
        45.0004         40.0004
  -5879960.94247  -4514046.68646  23243843.8694   23243849.6634   23243843.984
        45.0004         41.0004
 -26300792.91649 -20445171.32848  19889413.1724   19889419.3484   19889413.152
        54.0004         49.0004
 -12101493.70148  -9369344.82547  23002544.4514   23002550.8874   23002542.803
        48.0004         43.0004
   -923435.49147   -701496.36846  24044407.6274   24044420.5904   24044407.626
        43.0004         38.0004
  -3730809.12946  -2847113.43045  23826918.5894   23826931.8464   23826921.245
        39.0004         35.0004
 -23110871.12748 -17954028.73848  20720175.7534   20720182.1554   20720175.960
        52.0004         48.0004
    -57253.26946    -17394.64345  24812295.1274   24812309.0944   24812294.127
        39.0004         35.0004
  -8423491.61647  -6528505.89747  23125041.2194   23125047.5514   23125041.180
        46.0004         42.0004
 14  5 10  0 50  0.0000000  0 12G13G09G07G10G02G08G17G26G20G04G01G28
  17260647.54246  13442090.67545  24774432.4544   24774438.2104   24774432.033
        40.0004         35.0004
 -21052226.54149 -16390275.37348  19996025.7964   19996031.8254   19996026.106
        54.0004         50.0004
 -19341609.23748 -15040199.05947  21027494.7874   21027500.5244   21027494.974
        52.0004         47.0004
 -11585172.73647  -9017511.54946  23448877.9864   23448884.2044   23448878.316
        45.0004         40.0004
  -5963089.61947  -4578822.11146  23228023.7554   23228030.3794   23228024.585
        45.0004         41.0004
 -26290494.51849 -20437146.56548  19891372.3064   19891378.9664   19891372.831
        54.0004         49.0004
 -12059808.78148  -9336863.05447  23010475.7374   23010484.2324   23010474.877
        48.0004         43.0004
   -921809.84247   -700229.42146  24044717.3284   24044728.8704   24044716.283
        43.0004         38.0004
  -3706231.38546  -2827961.98045  23831598.8374   23831608.3884   23831598.927
        40.0004         35.0004
 -23159879.42848 -17992216.98348  20710849.5924   20710856.1364   20710848.849
        52.0004         48.0004
     49383.83146     65699.20445  24832587.2684   24832601.7534   24832586.953
        39.0004         35.0004
  -8480078.42447  -6572599.45947  23114273.3494   23114279.4354   23114272.986
        47.0004         42.0004
 14  5 10  0 50 30.0000000  0 12G13G09G07G10G02G08G17G26G20G04G01G28
  17322241.33546  13490085.84445  24786150.5094   24786158.6544   24786152.673
        40.0004         35.0004
 -21041958.79049 -16382274.48448  19997979.5334   19997986.0394   19997979.686
        54.0004         50.0004
 -19270073.16148 -14984456.63747  21041108.3974   21041112.7044   21041107.927
        52.0004         47.0004
 -11650917.62047  -9068741.18746  23436366.6874   23436374.0034   23436366.935
        45.0004         40.0004
  -6045946.96547  -4643386.11446  23212257.4064   23212262.9354   23212256.954
        45.0004         41.0004
 -26279531.21349 -20428603.69048  19893458.5814   19893464.9654   19893458.928
        54.0004         49.0004
 -12018181.13148  -9304425.90447  23018397.5804   23018404.7964   23018397.017
        48.0004         43.0004
   -919931.99947   -698765.95046  24045073.4524   24045086.0794   24045073.070
        43.0004         38.0004
  -3681343.71646  -2808569.04845  23836333.2364   23836345.4904   23836334.887
        40.0004         35.0004
 -23208385.86048 -18030014.16348  20701619.1564   20701625.7364   20701618.923
        52.0004         48.0004
 -18748958.91746 -14582360.10545  24852890.8624   24852901.7434   24852890.790
        39.0004         34.0004
  -8536773.02247  -6616777.03347  23103483.6404   23103492.7624   23103484.235
        46.0004         42.0004
 14  5 10  0 51  0.0000000  0 12G13G09G07G10G02G08G17G26G20G04G01G28
  17383587.34646  13537887.94245  24797828.3124   24797833.9184   24797826.499
        40.0004         35.0004
 -21031089.49949 -16373804.86648  20000048.1824   20000054.0454   20000048.101
        54.0004         50.0004
 -19198094.41648 -14928369.28547  21054805.4884   21054810.1314   21054805.189
        52.0004         47.0004
 -11716814.18647  -9120089.04246  23423827.5694   23423834.2604   23423827.371
        45.0004         40.0004
  -6128533.65247  -4707739.20246  23196540.5664   23196546.4774   23196541.915
        46.0004         41.0004
 -26267905.84149 -20419544.91848  19895671.2734   19895677.5014   19895671.341
        54.0004         49.0004
 -11976615.59348  -9272037.16447  23026306.9764   23026315.7274   23026306.455
        48.0004         43.0004
   -917806.55947   -697109.54046  24045478.4854   24045491.1424   24045478.412
        43.0004         38.0004
  -3656147.62446  -2788935.77345  23841129.3844   23841137.6154   23841129.570
        39.0004         35.0004
 -23256390.87348 -18067420.63148  20692484.1924   20692490.3724   20692483.963
        52.0004         48.0004
 -18642206.47746 -14499176.39145  24873204.0814   24873216.6894   24873204.855
        39.0004         34.0004
  -8593575.43047  -6661038.60447  23092674.2144   23092682.3184   23092674.640
        46.0004         42.0004
 14  5 10  0 51 30.0000000  0 12G13G09G07G10G02G08G17G26G20G04G01G28
  17444690.64946  13585500.90545  24809454.3474   24809460.5794   24809454.277
        39.0004         35.0004
 -21019613.26249 -16364862.30348  20002231.8904   20002237.8894   20002231.906
        54.0004         50.0004
 -19125669.79248 -14871934.48447  21068587.2604   21068592.7174   21068586.879
        52.0004         47.0004
 -11782854.54047  -9171548.94746  23411259.3544   23411267.2354   23411259.593
        45.0004         40.0004
  -6210841.12347  -4771874.73146  23180879.0204   23180883.7324   23180878.638
        46.0004         41.0004
 -26255612.83449 -20409965.91248  19898010.2914   19898016.5234   19898010.354
        54.0004         49.0004
 -11935107.96248  -9239693.53747  23034205.3264   23034213.4654   23034205.184
        48.0004         43.0004
   -915429.37847   -695256.97346  24045930.0754   24045943.6424   24045929.905
        43.0004         38.0004
  -3630635.98746  -2769056.64745  23845982.1754   23845992.3254   23845984.281
        39.0004         35.0004
 -23303887.13048 -18104430.66448  20683445.6644   20683452.2304   20683445.121
        52.0004         48.0004
 -18535395.31046 -14415946.91645  24893527.2634   24893546.6564   24893529.499
        39.0004         34.0004
  -8650477.67247  -6705377.96846  23081847.2384   23081855.3904   23081846.279
        46.0004         41.0004
 14  5 10  0 52  0.0000000  0 12G13G09G07G10G02G08G17G26G20G04G01G28
  17505546.66846  13632921.16945  24821036.5724   24821041.3854   24821034.616
        40.0004         35.0004
 -21007534.83249 -16355450.49848  20004530.3824   20004536.1774   20004530.455
        54.0004         50.0004
 -19052805.83448 -14815157.35147  21082453.0384   21082457.7964   21082452.764
        52.0004         47.0004
 -11849041.09847  -9223122.76146  23398664.5864   23398671.6754   23398664.975
        45.0004         40.0004
  -6292871.43347  -4835794.29746  23165267.7114   23165273.8944   23165269.444
        46.0004         41.0004
 -26242656.17849 -20399869.77648  19900475.9164   19900482.1614   19900476.131
        54.0004         49.0004
 -11893664.01148  -9207399.53847  23042092.7984   23042098.8524   23042091.534
        48.0004         43.0004
   -912806.28447   -693212.79646  24046429.5084   24046441.4244   24046429.689
        42.0004         38.0004
  -3604811.73846  -2748933.92545  23850898.8844   23850907.6474   23850898.540
        39.0004         35.0004
 -23350876.89748 -18141046.02948  20674504.1034   20674510.3784   20674503.636
        53.0004         48.0004
 -18428531.86256 -14332676.67955  24913865.3295   24913878.8975   24913865.593
        38.0004         33.0004
  -8707481.55147  -6749796.52846  23070998.6204   23071005.5274   23070999.050
        46.0004         41.0004
 14  5 10  0 52 30.0000000  0 11G13G09G07G10G02G08G17G26G20G04G28
  17566160.82346  13680153.00445  24832566.2444   24832577.7944   24832568.994
        40.0004         35.0004
 -20994848.68849 -16345565.14848  20006944.5444   20006950.2904   20006944.198
        54.0004         50.0004
 -18979498.96748 -14758035.09847  21096402.5734   21096407.1294   21096402.038
        52.0004         47.0004
 -11915366.02447  -9274804.38046  23386043.3144   23386051.0604   23386043.694
        45.0004         40.0004
  -6374616.32347  -4899491.44846  23149713.1104   23149717.7014   23149713.144
        46.0004         41.0004
 -26229030.24149 -20389252.12048  19903068.4714   19903075.0974   19903068.912
        54.0004         49.0004
 -11852279.83548  -9175152.10947  23049966.8374   23049975.2174   23049966.416
        48.0004         43.0004
   -909933.30447   -690973.87946  24046975.8124   24046989.1884   24046975.889
        42.0004         38.0004
  -3578668.49346  -2728562.62145  23855875.0494   23855883.5434   23855873.910
        40.0004         35.0004
 -23397352.60548 -18177260.83648  20665659.9304   20665666.1884   20665659.538
        53.0004         48.0004
  -8764578.68547  -6794287.77646  23060132.9134   23060141.1444   23060133.703
        46.0004         41.0004
 14  5 10  0 53  0.0000000  0 12G13G09G07G10G02G08G17G26G20G04G01G28
  17626521.75146  13727187.46245  24844055.2394   24844063.6464   24844054.592
        39.0004         34.0004
 -20981566.55049 -16335215.39748  20009472.0384   20009478.2174   20009472.030
        54.0004         50.0004
 -18905762.38948 -14700577.99947  21110434.0594   21110439.5714   21110433.584
        51.0004         47.0004
 -11981838.26147  -9326600.80346  23373393.5534   23373400.8294   23373393.960
        45.0004         40.0004
  -6456084.09247  -4962972.67646  23134210.3474   23134215.3384   23134210.282
        46.0004         41.0004
 -26214746.41849 -20378121.82748  19905786.7224   19905792.7734   19905787.138
        54.0004         49.0004
 -11810967.95648  -9142961.01847  23057828.3104   23057836.1794   23057827.982
        48.0004         43.0004
   -906822.81547   -688549.90346  24047567.9144   24047580.3864   24047567.553
        42.0004         38.0004
  -3552215.03646  -2707949.58845  23860906.8894   23860915.7154   23860907.148
        39.0004         34.0004
 -23443323.41348 -18213082.21148  20656911.9294   20656918.3164   20656911.649
        53.0004         48.0004
 -18214650.63856 -14166015.95655  24954564.4055   24954580.9365   24954566.458
        38.0004         33.0004
  -8821777.60947  -6838858.34046  23049249.8004   23049257.9674   23049249.773
        46.0004         41.0004
 14  5 10  0 53 30.0000000  0 11G13G09G07G10G02G08G17G26G20G04G28
  17686634.27346  13774028.38345  24855493.9514   24855501.8554   24855494.284
        39.0004         34.0004
 -20967683.68449 -16324397.54148  20012113.5024   20012119.8594   20012113.735
        54.0004         50.0004
 -18831593.72848 -14642784.21247  21124547.6494   21124552.8914   21124547.312
        51.0004         47.0004
 -12048450.66547  -9378506.44946  23360717.8754   23360725.9944   23360718.093
        45.0004         40.0004
  -6537267.07247  -5026232.00346  23118760.1974   23118767.0324   23118761.604
        46.0004         41.0004
 -26199799.42049 -20366474.77748  19908631.2974   19908637.2034   19908631.150
        54.0004         49.0004
 -11769724.78048  -9110823.46447  23065676.4754   23065684.3034   23065676.480
        48.0004         43.0004
   -903471.37747   -685938.18346  24048203.4574   24048217.5704   24048204.599
        42.0004         38.0004
  -3525445.51346  -2687090.29045  23866003.3814   23866013.5984   23866001.819
        39.0004         34.0004
 -23488782.23948 -18248504.63848  20648261.5514   20648267.4154   20648261.123
        53.0004         48.0004
  -8879070.22147  -6883501.91246  23038346.8714   23038354.2834   23038347.042
        46.0004         41.0004
 14  5 10  0 54  0.0000000  0 11G13G09G07G10G02G08G17G26G20G04G28
  17746498.94246  13820676.16845  24866886.2054   24866893.0254   24866885.897
        39.0004         34.0004
 -20953199.97749 -16313111.49848  20014869.6404   20014875.7964   20014869.829
        54.0004         50.0004
 -18756994.31848 -14584654.76847  21138743.5654   21138748.7644   21138743.188
        51.0004         47.0004
 -12115200.65047  -9430519.29946  23348015.7474   23348023.7564   23348016.259
        45.0004         40.0004
  -6618162.41647  -5089267.19046  23103366.9344   23103373.3154   23103366.744
        46.0004         41.0004
 -26184188.70149 -20354310.54648  19911601.6874   19911607.7534   19911601.833
        54.0004         49.0004
 -11728551.50448  -9078740.38147  23073512.2824   23073519.0714   23073511.446
        48.0004         43.0004
   -899879.98047   -683139.46346  24048889.2124   24048901.6994   24048888.478
        42.0004         38.0004
  -3498357.52546  -2665982.82345  23871155.4704   23871165.2234   23871156.670
        39.0004         34.0004
 -23533726.46148 -18283526.07648  20639708.6374   20639715.2614   20639708.477
        53.0004         48.0004
  -8936453.48647  -6928216.13646  23027428.0754   23027435.4994   23027427.309
        46.0004         41.0004
 14  5 10  0 54 30.0000000  0 11G13G09G07G10G02G08G17G26G20G04G28
  17806111.20146  13867127.26845  24878228.7384   24878238.0994   24878230.763
        39.0004         34.0004
 -20938119.80349 -16301360.67748  20017739.4354   20017745.4394   20017739.451
        54.0004         50.0004
 -18681970.12748 -14526194.33547  21153019.8184   21153025.3594   21153019.760
        51.0004         47.0004
 -12182089.73847  -9482640.56246  23335287.3874   23335294.9564   23335288.120
        45.0004         40.0004
  -6698771.50647  -5152079.33346  23088027.3144   23088033.0814   23088028.111
        46.0004         41.0004
 -26167918.29949 -20341632.27648  19914697.5254   19914703.8584   19914697.995
        54.0004         49.0004
 -11687453.51948  -9046715.96847  23081332.2794   23081340.1714   23081331.902
        48.0004         43.0004
   -896054.17747   -680158.11246  24049617.1274   24049629.7494   24049615.610
        42.0004         38.0004
  -3470953.92546  -2644629.43445  23876371.0804   23876377.5344   23876370.368
        39.0004         34.0004
 -23578158.27348 -18318148.23848  20631253.6784   20631259.8974   20631253.410
        53.0004         48.0004
  -8993928.76847  -6973002.07446  23016491.0484   23016496.7194   23016490.276
        45.0004         41.0004
 14  5 10  0 55  0.0000000  0 11G13G09G07G10G02G08G17G26G20G04G28
  17865474.45346  13913384.33645  24889523.8514   24889532.3514   24889525.549
        39.0004         34.0004
 -20922440.00549 -16289142.61848  20020723.4324   20020729.2384   20020723.267
        54.0004         50.0004
 -18606520.33348 -14467402.26347  21167377.6124   21167383.0794   21167377.422
        51.0004         47.0004
 -12249112.48347  -9534865.95946  23322532.3324   23322540.3294   23322533.610
        45.0004         40.0004
  -6779088.10347  -5214663.54847  23072744.2204   23072749.1374   23072744.642
        46.0004         42.0004
 -26150984.85449 -20328437.35048  19917919.9374   19917926.2964   19917920.521
        54.0004         49.0004
 -11646428.72548  -9014748.58947  23089139.9154   23089147.0434   23089139.180
        48.0004         43.0004
   -891991.97047   -676992.53146  24050389.1804   24050401.1074   24050389.648
        42.0004         38.0004
  -3443229.80946  -2623026.26645  23881644.5144   23881657.9744   23881647.246
        39.0004         34.0004
 -23622072.21048 -18352366.86348  20622897.1574   20622903.5954   20622896.694
        53.0004         48.0004
  -9051489.78047  -7017854.80746  23005536.4494   23005543.1054   23005536.885
        46.0004         41.0004
 14  5 10  0 55 30.0000000  0 11G13G09G07G10G02G08G17G26G20G04G28
  17924584.34846  13959443.97345  24900774.1374   24900782.0644   24900774.581
        39.0004         34.0004
 -20906165.59549 -16276461.22248  20023820.2624   20023825.9514   20023820.241
        54.0004         50.0004
 -18530651.06548 -14408283.33047  21181815.5334   21181820.9764   21181815.037
        51.0004         47.0004
 -12316270.70247  -9587196.93946  23309752.8134   23309760.1194   23309753.204
        45.0004         40.0004
  -6859113.67547  -5277021.00346  23057514.7684   23057520.8244   23057515.291
        46.0004         41.0004
 -26133392.91649 -20314729.30848  19921267.2614   19921274.0844   19921267.638
        54.0004         49.0004
 -11605483.09348  -8982842.89247  23096930.9944   23096938.3484   23096930.461
        48.0004         43.0004
   -887699.30547   -673647.36846  24051205.7554   24051218.9614   24051205.065
        42.0004         38.0004
  -3415188.31946  -2601175.81645  23886980.3954   23886993.2034   23886982.594
        39.0004         34.0004
 -23665470.61848 -18386183.78348  20614638.7224   20614644.3894   20614638.152
        53.0004         48.0004
  -9109138.11847  -7062775.57046  22994565.2804   22994572.9454   22994566.342
        46.0004         41.0004
 14  5 10  0 56  0.0000000  0 11G13G09G07G10G02G08G17G26G20G04G28
  17983443.25946  14005308.05045  24911976.0584   24911981.9304   24911975.649
        39.0004         34.0004
 -20889294.69149 -16263315.02248  20027030.2594   20027036.0394   20027030.227
        54.0004         50.0004
 -18454362.13948 -14348837.38747  21196332.8174   21196337.4134   21196332.339
        51.0004         47.0004
 -12383560.21147  -9639630.22946  23296948.4104   23296955.9374   23296948.210
        45.0004         40.0004
  -6938843.36547  -5339147.90646  23042342.9124   23042349.1814   23042342.989
        46.0004         41.0004
 -26115140.22548 -20300506.39648  19924740.8274   19924747.2724   19924740.971
        53.0004         49.0004
 -11564615.28148  -8950997.83347  23104708.2874   23104715.9264   23104707.443
        48.0004         43.0004
   -883175.18347   -670121.87246  24052066.3314   24052079.0004   24052066.841
        43.0004         38.0004
  -3386825.55746  -2579075.05945  23892381.6824   23892388.2404   23892381.428
        39.0004         35.0004
 -23708349.20148 -18419595.63148  20606479.3684   20606485.5684   20606479.007
        53.0004         48.0004
  -9166868.58047  -7107760.33546  22983579.3874   22983588.9084   22983580.502
        46.0004         41.0004
 14  5 10  0 56 30.0000000  0 11G13G09G07G10G02G08G17G26G20G04G28
  18042049.50346  14050975.24545  24923127.5064   24923133.5654   24923126.858
        39.0004         34.0004
 -20871829.18249 -16249705.49948  20030354.3034   20030359.8464   20030354.181
        54.0004         50.0004
 -18377657.58148 -14289067.57347  21210929.3904   21210933.7444   21210928.905
        51.0004         47.0004
 -12450979.97747  -9692165.00846  23284119.1804   23284125.3844   23284119.082
        45.0004         41.0004
  -7018276.33547  -5401043.58646  23027227.7024   23027232.2434   23027227.698
        46.0004         41.0004
 -26096228.23148 -20285769.74648  19928339.4894   19928345.6434   19928340.068
        53.0004         49.0004
 -11523828.36948  -8919215.81547  23112468.7624   23112477.9354   23112468.995
        48.0004         43.0004
   -878422.60647   -666418.33546  24052970.6304   24052982.3084   24052970.669
        43.0004         38.0004
  -3358141.86146  -2556724.19945  23897839.0044   23897848.7434   23897838.525
        39.0004         35.0004
 -23750707.76448 -18452602.28448  20598418.5444   20598424.9334   20598418.366
        53.0004         48.0004
  -9224679.87947  -7152808.10046  22972578.9204   22972585.8234   22972579.692
        46.0004         41.0004
 14  5 10  0 57  0.0000000  0 11G13G09G07G10G02G08G17G26G20G04G28
  18100402.73046  14096445.29445  24934232.8354   24934237.2144   24934231.619
        39.0004         34.0004
 -20853769.96449 -16235633.34548  20033790.6434   20033796.2354   20033790.629
        54.0004         50.0004
 -18300539.99848 -14228975.92347  21225604.3014   21225609.0784   21225603.727
        51.0004         47.0004
 -12518528.08947  -9744799.79246  23271264.8184   23271271.7634   23271265.127
        45.0004         41.0004
  -7097410.23047  -5462706.24746  23012169.0344   23012173.3144   23012169.103
        46.0004         41.0004
 -26076657.76248 -20270520.00348  19932064.2534   19932069.8974   19932064.377
        53.0004         49.0004
 -11483124.39848  -8887498.44647  23120215.2334   23120223.0124   23120214.528
        48.0004         43.0004
   -873443.67347   -662538.43346  24053917.8374   24053930.4444   24053917.728
        43.0004         38.0004
  -3329136.38046  -2534122.58545  23903357.7874   23903368.2824   23903357.812
        39.0004         35.0004
 -23792544.71148 -18485202.47548  20590457.3314   20590463.2404   20590456.569
        53.0004         48.0004
  -9282569.53747  -7197916.91346  22961563.9324   22961571.4924   22961563.441
        46.0004         41.0004
 14  5 10  0 57 30.0000000  0 11G13G09G07G10G02G08G17G26G20G04G28
  18158501.32246  14141716.90645  24945286.7124   24945292.7924   24945287.730
        39.0004         34.0004
 -20835119.13449 -16221100.19848  20037339.9224   20037345.3724   20037339.842
        54.0004         50.0004
 -18223012.94048 -14168565.20047  21240356.9054   21240361.6734   21240356.576
        51.0004         47.0004
 -12586203.75247  -9797533.96746  23258385.6174   23258393.2724   23258386.845
        45.0004         41.0004
  -7176243.89747  -5524134.95146  22997167.3754   22997171.9984   22997166.804
        46.0004         41.0004
 -26056430.34048 -20254758.34748  19935913.0814   19935919.0864   19935913.372
        53.0004         49.0004
 -11442506.11548  -8855847.82647  23127944.7954   23127951.4054   23127943.773
        48.0004         43.0004
   -868241.20847   -658484.33746  24054907.5924   24054920.3694   24054908.156
        43.0004         38.0004
  -3299809.14046  -2511270.24745  23908937.4564   23908947.3484   23908938.739
        40.0004         35.0004
 -23833859.79548 -18517396.02348  20582595.3254   20582601.3094   20582595.367
        53.0004         48.0004
  -9340536.46447  -7243085.94046  22950532.2374   22950539.9304   22950532.699
        46.0004         41.0004
 14  5 10  0 58  0.0000000  0 11G13G09G07G10G02G08G17G26G20G04G28
  18216345.08346  14186789.96245  24956295.2864   24956297.6184   24956294.169
        39.0004         34.0004
 -20815877.18149 -16206106.43148  20041001.2324   20041006.9584   20041001.419
        54.0004         50.0004
 -18145078.48548 -14107837.02747  21255187.5554   21255192.2014   21255186.931
        51.0004         47.0004
 -12654004.67847  -9850365.75446  23245484.2754   23245490.6424   23245484.690
        45.0004         41.0004
  -7254774.77447  -5585327.71846  22982221.9524   22982228.0944   22982223.347
        46.0004         41.0004
 -26035546.04548 -20238484.84848  19939887.3534   19939893.1814   19939887.492
        53.0004         49.0004
 -11401974.53248  -8824264.75847  23135656.7314   23135665.0894   23135656.936
        48.0004         43.0004
   -862816.82747   -654257.33446  24055940.0144   24055951.6414   24055940.312
        43.0004         38.0004
  -3270158.59546  -2488166.03645  23914580.5364   23914591.1124   23914582.290
        40.0004         35.0004
 -23874651.07748 -18549181.42248  20574832.7454   20574838.9954   20574832.179
        53.0004         48.0004
  -9398577.36547  -7288312.61246  22939487.2614   22939494.4814   22939487.787
        46.0004         41.0004
 14  5 10  0 58 30.0000000  0 11G13G09G07G10G02G08G17G26G20G04G28
  18273934.64746  14231664.93645  24967253.0914   24967262.4014   24967253.609
        39.0004         34.0004
 -20796044.23449 -16190652.15748  20044775.1034   20044781.0804   20044775.254
        54.0004         50.0004
 -18066738.37948 -14046792.75347  21270094.5844   21270099.8144   21270094.246
        51.0004         47.0004
 -12721927.83447  -9903292.78746  23232558.6594   23232566.0634   23232559.490
        45.0004         41.0004
  -7332999.59847  -5646282.00146  22967336.6034   22967343.3144   22967337.247
        46.0004         41.0004
 -26014004.82349 -20221699.45648  19943986.4174   19943992.4164   19943986.583
        54.0004         49.0004
 -11361530.72747  -8792750.10147  23143353.3534   23143360.8764   23143352.632
        47.0004         43.0004
   -857171.36047   -649858.06446  24057013.4824   24057025.4394   24057013.727
        43.0004         38.0004
  -3240182.94746  -2464808.45445  23920286.1154   23920295.5584   23920287.295
        40.0004         35.0004
 -23914916.00848 -18580556.66848  20567170.9804   20567176.9554   20567170.552
        53.0004         48.0004
  -9456689.02947  -7333594.39647  22928430.0424   22928437.8184   22928429.759
        46.0004         42.0004
 14  5 10  0 59  0.0000000  0 11G13G09G07G10G02G08G17G26G20G04G28
  18331269.43746  14276341.40245  24978164.1154   24978171.1504   24978164.068
        39.0004         34.0004
 -20775621.43049 -16174738.25448  20048661.7724   20048667.3614   20048661.637
        54.0004         50.0004
 -17987995.72048 -13985434.81547  21285078.9094   21285083.9564   21285078.640
        51.0004         46.0004
 -12789971.73447  -9956313.91446  23219609.8924   23219617.6994   23219611.168
        45.0004         41.0004
  -7410916.45947  -5706996.33546  22952509.6994   22952514.2644   22952509.805
        46.0004         41.0004
 -25991807.52349 -20204402.83848  19948210.2124   19948216.5314   19948210.548
        54.0004         49.0004
 -11321176.69147  -8761305.40547  23151032.3854   23151040.8314   23151031.953
        47.0004         43.0004
   -851307.13947   -645288.34446  24058129.5194   24058142.1954   24058129.915
        43.0004         38.0004
  -3209881.77246  -2441197.18945  23926052.9404   23926060.0184   23926052.871
        39.0004         35.0004
 -23954653.75948 -18611521.13548  20559609.0834   20559614.9724   20559608.514
        53.0004         48.0004
  -9514869.59447  -7378929.89447  22917358.9364   22917366.4754   22917358.433
        46.0004         42.0004
 14  5 10  0 59 30.0000000  0 11G13G09G07G10G02G08G17G26G20G04G28
  18388346.41246  14320816.96445  24989023.9664   24989031.9374   24989025.916
        39.0004         34.0004
 -20754612.36149 -16158367.52048  20052659.2944   20052665.3844   20052659.553
        54.0004         50.0004
 -17908855.04948 -13923766.72947  21300139.0404   21300144.4944   21300138.215
        51.0004         46.0004
 -12858136.67947 -10009429.36146  23206639.0624   23206645.9284   23206639.159
        45.0004         41.0004
  -7488525.73847  -5767470.97447  22937741.0384   22937746.2454   22937741.982
        46.0004         42.0004
 -25968957.38649 -20186597.51748  19952558.7684   19952564.8254   19952558.998
        54.0004         49.0004
 -11280916.67047  -8729933.97147  23158693.2384   23158701.2134   23158693.398
        47.0004         43.0004
   -845228.53347   -640551.55646  24059286.9254   24059298.0824   24059285.662
        42.0004         38.0004
  -3179256.54046  -2417333.44245  23931880.9994   23931889.8174   23931880.060
        39.0004         35.0004
 -23993865.22448 -18642075.50348  20552146.8454   20552152.8554   20552146.498
        53.0004         48.0004
  -9573118.39547  -7424318.56247  22906274.7974   22906281.9164   22906273.980
        46.0004         42.0004
 14  5 10  1  0  0.0000000  0 11G13G09G07G10G02G08G17G26G20G04G28
  18445166.34746  14365092.22045  24999838.4984   24999847.7204   24999838.448
        39.0004         34.0004
 -20733016.99749 -16141539.93648  20056768.7614   20056774.6444   20056768.823
        54.0004         50.0004
 -17829318.66248 -13861790.29447  21315274.1174   21315279.4584   21315274.153
        51.0004         46.0004
 -12926419.60747 -10062636.73946  23193645.5764   23193651.8704   23193646.019
        45.0004         41.0004
  -7565824.23947  -5827703.44647  22923031.3054   22923037.9004   22923032.305
        46.0004         42.0004
 -25945454.03549 -20168283.19348  19957030.8644   19957037.1824   19957031.365
        54.0004         49.0004
 -11240751.02547  -8698636.06447  23166337.3854   23166345.0404   23166336.169
        47.0004         43.0004
   -838936.29547   -635648.30746  24060483.7604   24060494.4284   24060483.723
        42.0004         38.0004
  -3148305.35046  -2393215.72345  23937767.8174   23937779.9324   23937769.814
        39.0004         34.0004
 -24032547.91448 -18672217.84248  20544786.4624   20544792.5144   20544786.006
        53.0004         48.0004
  -9631432.14747  -7469757.83147  22895176.8464   22895185.4524   22895177.331
        46.0004         42.0004
 14  5 10  1  0 30.0000000  0 11G13G09G07G10G02G08G17G26G20G04G28
  18501746.97746  14409181.02445  25010602.9244   25010612.6454   25010605.185
        39.0004         35.0004
 -20710818.43649 -16124242.32648  20060993.0284   20060998.7714   20060993.065
        54.0004         50.0004
 -17749371.18848 -13799493.53747  21330487.4054   21330491.9594   21330486.881
        51.0004         46.0004
 -12994800.73247 -10115920.62546  23180632.0444   23180638.9654   23180633.194
        45.0004         41.0004
  -7642791.82047  -5887678.07847  22908385.3444   22908390.0454   22908385.778
        46.0004         42.0004
 -25921280.31149 -20149446.50748  19961631.3244   19961637.1944   19961631.484
        54.0004         49.0004
 -11200663.57847  -8667399.09847  23173965.1714   23173973.2214   23173964.665
        47.0004         43.0004
   -832414.65547   -630566.28246  24061726.1844   24061735.7424   24061724.438
        42.0004         38.0004
 -22022049.18546 -17100029.18545  23943723.0314   23943735.6474   23943724.838
        39.0004         34.0004
 -24070682.62048 -18701933.17948  20537529.0854   20537535.7694   20537528.578
        53.0004         48.0004
  -9689790.41247  -7515231.79546  22884070.9694   22884080.6184   22884072.030
        46.0004         41.0004
 14  5 10  1  1  0.0000000  0 11G13G09G07G10G02G08G17G26G20G04G28
  18558043.67846  14453048.57445  25021317.3444   25021326.4424   25021318.462
        39.0004         34.0004
 -20688062.22449 -16106510.18448  20065323.5314   20065329.1904   20065323.759
        54.0004         50.0004
 -17669059.54148 -13736913.00647  21345770.4614   21345775.3304   21345770.301
        51.0004         46.0004
 -13063322.58547 -10169314.19146  23167593.6944   23167599.0304   23167593.890
        45.0004         41.0004
  -7719470.50547  -5947427.58647  22893794.5074   22893798.5974   22893794.152
        47.0004         42.0004
 -25896481.80049 -20130122.96948  19966349.8704   19966356.1824   19966350.364
        54.0004         49.0004
 -11160700.38147  -8636258.95247  23181570.4954   23181577.7084   23181569.276
        47.0004         43.0004
   -825709.77147   -625341.50646  24063001.0394   24063012.2204   24062999.682
        42.0004         38.0004
 -21990451.72946 -17075407.88345  23949736.1404   23949747.2054   23949737.196
        39.0004         34.0004
 -24108312.53248 -18731255.17248  20530368.6564   20530374.9214   20530368.143
        53.0004         48.0004
  -9748235.14647  -7560773.12147  22872950.7524   22872956.9644   22872950.415
        46.0004         42.0004
 14  5 10  1  1 30.0000000  0 11G13G09G07G10G02G08G17G26G20G04G28
  18614087.32246  14496718.92945  25031981.6964   25031989.7384   25031982.673
        39.0004         34.0004
 -20664718.03149 -16088319.86448  20069765.6094   20069771.5524   20069765.536
        54.0004         50.0004
 -17588354.74448 -13674026.12047  21361128.0074   21361132.4604   21361127.569
        51.0004         46.0004
 -13131951.29147 -10222791.01046  23154533.8164   23154540.0174   23154533.918
        46.0004         41.0004
  -7795826.72647  -6006925.82647  22879264.0574   22879269.1524   22879263.910
        47.0004         42.0004
 -25871027.44249 -20110288.38548  19971193.9384   19971200.0284   19971194.389
        54.0004         49.0004
 -11120831.79647  -8605192.53447  23189156.9744   23189164.6664   23189156.341
        47.0004         43.0004
   -818792.07747   -619950.88546  24064315.3874   24064328.5504   24064316.282
        42.0004         38.0004
 -21958520.64846 -17050526.59045  23955815.3094   23955822.6724   23955814.876
        39.0004         34.0004
 -24145404.69848 -18760158.13648  20523310.2134   20523316.0714   20523309.821
        53.0004         48.0004
  -9806732.02247  -7606355.09347  22861818.4074   22861826.3224   22861818.636
        46.0004         42.0004
 14  5 10  1  2  0.0000000  0 11G13G09G07G10G02G08G17G26G20G04G28
  18669873.44346  14540188.58845  25042596.9164   25042606.9894   25042597.786
        39.0004         35.0004
 -20640791.16649 -16069675.52048  20074318.9564   20074324.7134   20074318.923
        54.0004         50.0004
 -17507263.97648 -13610838.47847  21376558.7284   21376564.1644   21376558.656
        51.0004         46.0004
 -13200688.97147 -10276352.73546  23141452.7104   23141459.8104   23141453.255
        46.0004         41.0004
  -7871862.68747  -6066174.51847  22864794.2974   22864799.3234   22864794.235
        47.0004         42.0004
 -25844922.85648 -20089947.12948  19976161.4494   19976167.7614   19976161.669
        53.0004         49.0004
 -11081063.71447  -8574204.43247  23196723.8234   23196731.7284   23196724.230
        47.0004         42.0004
   -811667.88547   -614399.36446  24065672.7284   24065683.3824   24065672.096
        43.0004         38.0004
 -21926259.34946 -17025387.99245  23961954.6064   23961962.6714   23961953.489
        39.0004         34.0004
 -24181962.07948 -18788644.38648  20516353.4344   20516359.3824   20516353.089
        53.0004         48.0004
  -9865282.83147  -7651979.08747  22850676.8434   22850684.3684   22850676.550
        46.0004         42.0004
 14  5 10  1  2 30.0000000  0 11G13G09G07G10G02G08G17G26G20G04G28
  18725402.54246  14583458.01545  25053164.5944   25053171.8004   25053165.034
        39.0004         34.0004
 -20616282.25649 -16050577.63748  20078982.5134   20078988.6284   20078982.675
        54.0004         50.0004
 -17425789.13648 -13547351.57047  21392063.0344   21392067.9634   21392062.884
        51.0004         46.0004
 -13269532.94747 -10329997.29046  23128351.7584   23128359.4944   23128352.447
        46.0004         41.0004
  -7947575.54247  -6125171.43547  22850386.9964   22850390.7014   22850387.266
        47.0004         42.0004
 -25818167.72748 -20069098.95848  19981252.9184   19981258.9914   19981253.058
        53.0004         49.0004
 -11041396.85747  -8543295.19647  23204272.8754   23204280.8824   23204272.241
        47.0004         42.0004
   -804338.35947   -608687.82946  24067066.2614   24067077.5554   24067066.107
        43.0004         38.0004
 -21893666.57246 -16999991.11245  23968156.2314   23968162.0304   23968156.138
        39.0004         34.0004
 -24217982.78248 -18816712.45248  20509498.5094   20509504.9424   20509498.170
        53.0004         48.0004
  -9923884.46147  -7697642.66747  22839524.2164   22839531.9994   22839525.129
        46.0004         42.0004
 14  5 10  1  3  0.0000000  0 11G13G09G07G10G02G08G17G26G20G04G28
  18780672.18646  14626525.20245  25063683.1154   25063690.6664   25063682.520
        39.0004         34.0004
 -20591194.62749 -16031028.80948  20083756.5204   20083762.4214   20083756.614
        54.0004         50.0004
 -17343934.94648 -13483569.05547  21407639.6404   21407644.3054   21407639.222
        51.0004         46.0004
 -13338483.42247 -10383724.84646  23115232.2434   23115237.5054   23115232.213
        46.0004         41.0004
  -8022965.44047  -6183916.69647  22836039.9134   22836044.8004   22836040.418
        47.0004         42.0004
 -25790765.41648 -20047746.48448  19986467.3294   19986473.4604   19986467.690
        53.0004         49.0004
 -11001835.47947  -8512468.13447  23211800.2154   23211809.8584   23211800.656
        47.0004         43.0004
   -796807.69647   -602819.56546  24068499.6284   24068510.2304   24068499.539
        43.0004         38.0004
 -21860743.68646 -16974336.95845  23974420.3084   23974430.5964   23974420.475
        39.0004         34.0004
 -24253467.90448 -18844363.18648  20502746.4094   20502752.5774   20502746.152
        53.0004         48.0004
  -9982536.34047  -7743345.40147  22828363.4754   22828371.1744   22828363.876
        46.0004         42.0004
 14  5 10  1  3 30.0000000  0 11G13G09G07G10G02G08G17G26G20G04G28
  18835683.02146  14669390.78345  25074153.0824   25074154.6004   25074151.328
        38.0004         33.0004
 -20565528.35449 -16011029.09648  20088640.6594   20088646.3444   20088640.856
        54.0004         50.0004
 -17261703.36848 -13419492.47147  21423287.9304   21423292.8554   21423287.631
        51.0004         46.0004
 -13407537.00747 -10437532.74146  23102090.7904   23102098.4574   23102092.021
        46.0004         41.0004
  -8098029.08447  -6242407.76247  22821756.3754   22821761.3244   22821755.227
        46.0004         42.0004
 -25762715.96649 -20025889.75248  19991804.8944   19991810.9274   19991805.126
        54.0004         49.0004
 -10962379.76147  -8481723.43847  23219308.8254   23219317.0764   23219308.884
        47.0004         42.0004
   -789076.75347   -596795.25046  24069970.8754   24069982.2144   24069970.185
        43.0004         38.0004
 -21827488.49346 -16948423.94245  23980750.7794   23980758.4004   23980750.525
        39.0004         34.0004
 -24288415.02748 -18871594.70648  20496095.8884   20496101.9854   20496095.705
        53.0004         48.0004
 -10041234.84747  -7789084.48947  22817194.5044   22817201.6334   22817194.531
        46.0004         42.0004
 14  5 10  1  4  0.0000000  0 11G13G09G07G10G02G08G17G26G20G04G28
  18890431.90646  14712052.22445  25084570.4854   25084576.9144   25084568.898
        38.0004         34.0004
 -20539287.80949 -15990581.90048  20093633.9524   20093639.7414   20093634.005
        54.0004         50.0004
 -17179099.95948 -13355126.15447  21439006.5884   21439011.8114   21439006.138
        51.0004         46.0004
 -13476694.79047 -10491421.84046  23088930.8744   23088937.4474   23088930.963
        46.0004         41.0004
  -8172767.47147  -6300645.35847  22807534.4564   22807538.9974   22807534.201
        46.0004         42.0004
 -25734023.12748 -20003531.67248  19997265.1624   19997270.9694   19997265.391
        53.0004         49.0004
 -10923034.45147  -8451064.75947  23226797.0934   23226804.7284   23226796.251
        47.0004         43.0004
   -781150.58847   -590618.81746  24071478.5244   24071489.0314   24071478.700
        43.0004         38.0004
 -21793903.45146 -16922253.84045  23987138.6574   23987147.4954   23987140.503
        39.0004         34.0004
 -24322826.07748 -18898408.50348  20489547.8874   20489553.9724   20489547.509
        53.0004         48.0004
 -10099980.42247  -7834860.22447  22806015.3444   22806023.0994   22806015.589
        47.0004         42.0004
 14  5 10  1  4 30.0000000  0 11G13G09G07G10G02G08G17G26G20G04G28
  18944920.99646  14754511.22145  25094939.6964   25094945.8154   25094937.978
        38.0004         34.0004
 -20512471.78049 -15969686.27648  20098737.2324   20098742.3694   20098737.155
        54.0004         50.0004
 -17096124.79048 -13290470.16047  21454796.1794   21454800.8454   21454796.153
        51.0004         46.0004
 -13545952.11847 -10545388.49246  23075750.4824   23075758.3834   23075751.368
        46.0004         41.0004
  -8247175.86147  -6358625.81147  22793374.8724   22793378.6034   22793374.994
        46.0004         42.0004
 -25704685.44648 -19980671.11848  20002847.7894   20002853.5074   20002847.963
        53.0004         49.0004
 -10883798.78847  -8420491.51947  23234263.1914   23234270.8244   23234262.364
        47.0004         42.0004
   -773028.58247   -584289.76946  24073024.4584   24073034.0734   24073023.985
        43.0004         38.0004
 -21759985.14946 -16895824.08445  23993592.1364   23993605.2724   23993594.361
        38.0004         34.0004
 -24356697.36448 -18924801.71448  20483102.4574   20483108.5314   20483102.340
        53.0004         48.0004
 -10158767.88947  -7880668.61047  22794827.7724   22794836.8154   22794828.615
        47.0004         42.0004
 14  5 10  1  5  0.0000000  0 11G13G09G07G10G02G08G17G26G20G04G28
  18999148.17346  14796766.16445  25105254.6184   25105265.1364   25105257.891
        38.0004         34.0004
 -20485083.47149 -15948344.72248  20103948.8984   20103954.6794   20103948.772
        54.0004         50.0004
 -17012782.63848 -13225528.20547  21470655.5994   21470660.9784   21470655.242
        51.0004         46.0004
 -13615308.98147 -10599432.70446  23062553.2244   23062558.8614   23062553.634
        46.0004         41.0004
  -8321254.04247  -6416348.96747  22779277.6264   22779281.7384   22779276.903
        47.0004         42.0004
 -25674706.09248 -19957310.55948  20008552.8254   20008558.8844   20008552.647
        53.0004         49.0004
 -10844675.82047  -8390006.07947  23241707.5464   23241715.6854   23241706.988
        47.0004         43.0004
   -764714.65447   -577811.18946  24074605.9844   24074615.3584   24074605.841
        43.0004         38.0004
 -21725734.73446 -16869135.51845  24000113.1984   24000120.7054   24000111.380
        38.0004         34.0004
 -24390029.36648 -18950774.70048  20476759.1894   20476765.5274   20476758.799
        53.0004         48.0004
 -10217596.65647  -7926509.17947  22783633.6324   22783641.2164   22783633.660
        47.0004         42.0004
 14  5 10  1  5 30.0000000  0 11G13G09G07G10G02G08G17G26G20G04G28
  19053113.39146  14838816.94545  25115529.7914   25115531.6174   25115526.679
        39.0004         34.0004
 -20457123.99749 -15926558.09948  20109269.7594   20109275.4294   20109269.699
        54.0004         50.0004
 -16929076.08848 -13160302.30047  21486584.5704   21486589.9334   21486584.401
        51.0004         46.0004
 -13684762.74147 -10653552.43146  23049335.9904   23049344.1694   23049337.287
        46.0004         41.0004
  -8394999.78247  -6473813.08247  22765243.7564   22765248.8664   22765244.560
        47.0004         42.0004
 -25644085.73548 -19933450.52248  20014378.8524   20014385.4764   20014379.660
        53.0004         49.0004
 -10805667.05047  -8359609.63147  23249130.6854   23249138.4554   23249130.032
        47.0004         42.0004
   -756210.57847   -571184.42246  24076224.6774   24076236.4304   24076224.284
        43.0004         38.0004
 -21691151.46546 -16842187.61245  24006694.8884   24006703.7104   24006694.142
        38.0004         34.0004
 -24422820.86348 -18976326.51348  20470519.6424   20470525.5514   20470519.415
        53.0004         48.0004
 -10276463.61147  -7972379.51047  22772431.6264   22772439.4554   22772431.633
        47.0004         42.0004
 14  5 10  1  6  0.0000000  0 11G13G09G07G10G02G08G17G26G20G04G28
  19106817.49546  14880664.27945  25125748.7884   25125753.5984   25125746.012
        38.0004         34.0004
 -20428593.81849 -15904326.76848  20114698.4894   20114704.0264   20114698.368
        54.0004         50.0004
 -16845007.01448 -13094793.91147  21502581.8964   21502586.7954   21502581.762
        51.0004         46.0004
 -13754310.38447 -10707745.31246  23036101.5544   23036108.7764   23036102.841
        46.0004         41.0004
  -8468410.10347  -6531015.83947  22751274.3744   22751279.1414   22751274.795
        47.0004         42.0004
 -25612824.74448 -19909091.29048  20020328.2784   20020333.9594   20020328.662
        53.0004         49.0004
 -10766773.19347  -8329302.73947  23256531.8864   23256539.6654   23256531.948
        47.0004         43.0004
   -747517.47547   -564410.39046  24077877.4744   24077890.0114   24077876.885
        42.0004         38.0004
                 -16814979.04045                  24013347.6874   24013337.644
                        33.0004
 -24455070.03248 -19001455.74448  20464382.9624   20464388.6814   20464382.237
        53.0004         48.0004
 -10335365.49247  -8018277.04747  22761223.4794   22761230.1614   22761222.875
        47.0004         42.0004
 14  5 10  1  6 30.0000000  0 11G13G09G07G10G02G08G17G26G20G04G28
  19160261.33746  14922308.77645  25135917.1044   25135920.2674   25135916.215
        39.0004         34.0004
 -20399493.62649 -15881651.26948  20120236.1134   20120241.9944   20120236.141
        54.0004         50.0004
 -16760577.29948 -13029004.49147  21518648.7564   21518654.2314   21518648.323
        50.0004         46.0004
 -13823948.78547 -10762008.92946  23022850.3344   23022856.4124   23022850.436
        46.0004         41.0004
  -8541482.21347  -6587955.06247  22737369.0764   22737374.6174   22737369.539
        47.0004         42.0004
 -25580923.43548 -19884233.10348  20026398.5694   20026404.7494   20026398.900
        53.0004         49.0004
 -10727995.13247  -8299086.07147  23263910.6734   23263918.5664   23263910.853
        47.0004         42.0004
   -738636.43747   -557489.90246  24079568.6674   24079578.6364   24079568.194
        42.0004         38.0004
 -21620980.04956 -16787508.72455  24020047.0925   24020055.9475   24020047.389
        38.0004         33.0004
 -24486774.90048 -19026160.83548  20458349.4884   20458355.7394   20458349.201
        53.0004         48.0004
 -10394298.47447  -8064198.80947  22750008.3744   22750015.9644   22750008.763
        47.0004         42.0004
 14  5 10  1  7  0.0000000  0 11G13G09G07G10G02G08G17G26G20G04G28
  19213435.38346  14963743.01745  25146034.8194   25146039.0954   25146034.659
        38.0004         33.0004
 -20369833.81149 -15858539.70048  20125880.1154   20125885.8044   20125879.820
        54.0004         50.0004
 -16675798.65448 -12962943.19447  21534781.3734   21534786.2684   21534780.895
        50.0004         46.0004
 -13893684.92847 -10816348.69147  23009580.1954   23009586.0804   23009580.065
        46.0004         42.0004
  -8614222.95047  -6644636.05947  22723526.8384   22723532.3654   22723527.967
        47.0004         43.0004
 -25548392.09248 -19858883.98248  20032589.0794   20032595.2424   20032589.344
        53.0004         49.0004
 -10689343.43047  -8268967.86047  23271266.6854   23271274.2874   23271265.834
        47.0004         42.0004
   -729578.47347   -550431.54846  24081290.6894   24081302.7774   24081291.115
        42.0004         38.0004
 -21585398.81446 -16759783.18245  24026814.2554   24026822.6254   24026817.115
        38.0004         34.0004
 -24517943.53648 -19050448.08348  20452418.0044   20452424.3224   20452417.723
        53.0004         48.0004
 -10453269.12247  -8110149.93447  22738786.3904   22738794.0544   22738786.821
        47.0004         42.0004
 14  5 10  1  7 30.0000000  0 11G13G09G07G10G02G08G17G26G20G04G28
  19266351.06246  15004976.01345  25156101.1064   25156111.5454   25156104.703
        38.0004         33.0004
 -20339604.32749 -15834984.23548  20131632.5454   20131638.4894   20131632.696
        54.0004         50.0004
 -16590662.19148 -12896603.07647  21550982.4764   21550987.8604   21550981.864
        50.0004         46.0004
 -13963504.99247 -10870753.85747  22996293.7484   22996299.9104   22996294.528
        46.0004         42.0004
  -8686618.83647  -6701048.34847  22709751.8484   22709754.7724   22709750.473
        47.0004         42.0004
 -25515220.41448 -19833035.89748  20038901.4044   20038907.8444   20038901.686
        53.0004         49.0004
 -10650807.90747  -8238940.16847  23278599.0654   23278606.9294   23278598.883
        47.0004         42.0004
   -720334.22547   -543228.05046  24083051.0304   24083060.8434   24083050.890
        42.0004         38.0004
 -21549477.37746 -16731792.54545  24033653.9244   24033665.8894   24033654.649
        38.0004         33.0004
 -24548563.30248 -19074307.63648  20446591.4534   20446597.3554   20446591.175
        53.0004         49.0004
 -10512263.41847  -8156119.49547  22727560.7074   22727567.9524   22727560.245
        47.0004         42.0004
 14  5 10  1  8  0.0000000  0 11G13G09G07G10G02G08G17G26G20G04G28
  19319002.16846  15046002.81345  25166124.0784   25166131.9264   25166123.904
        38.0004         33.0004
 -20308812.72049 -15810990.75148  20137492.1154   20137497.6144   20137492.054
        54.0004         50.0004
 -16505177.01548 -12829991.23147  21567250.4674   21567255.0104   21567249.759
        50.0004         46.0004
 -14033413.00147 -10925227.54647  22982991.0944   22982997.1984   22982990.567
        46.0004         42.0004
  -8758674.01547  -6757195.16647  22696038.7664   22696044.1704   22696039.010
        47.0004         43.0004
 -25481415.62948 -19806694.48248  20045334.0924   20045340.1644   20045334.814
        53.0004         49.0004
 -10612396.35447  -8209009.08547  23285908.3174   23285916.5804   23285908.510
        47.0004         42.0004
   -710911.75647   -535885.66846  24084844.6244   24084854.8024   24084843.271
        42.0004         38.0004
 -21513221.49746 -16703541.27045  24040550.2864   24040561.5144   24040552.055
        38.0004         34.0004
 -24578639.43948 -19097743.58748  20440868.1244   20440874.4894   20440868.114
        53.0004         49.0004
 -10571284.30847  -8202109.76047  22716327.3024   22716336.9704   22716329.468
        47.0004         42.0004
 14  5 10  1  8 30.0000000  0 11G13G09G07G10G02G08G17G26G20G04G28
                  15086824.88345                  25176100.3494   25176093.284
                        33.0004
 -20277458.48949 -15786558.86448  20143458.7544   20143464.1924   20143458.636
        54.0004         50.0004
 -16419344.17948 -12763108.47347  21583583.2134   21583587.8134   21583582.350
        50.0004         46.0004
 -14103405.02547 -10979766.69347  22969671.9954   22969677.6464   22969671.763
        46.0004         42.0004
  -8830384.47947  -6813073.36747  22682392.8704   22682397.0774   22682392.720
        47.0004         42.0004
 -25446977.01548 -19779859.17648  20051887.8664   20051893.7474   20051887.962
        53.0004         49.0004
 -10574108.05847  -8179174.04547  23293194.9224   23293202.4244   23293194.403
        47.0004         42.0004
   -701311.19847   -528404.50546  24086671.0174   24086681.2114   24086669.980
        42.0004         38.0004
 -21476628.92546 -16675027.67645  24047513.4824   24047522.6974   24047516.297
        38.0004         34.0004
 -24608168.90148 -19120753.55448  20435249.0664   20435254.9534   20435248.401
        53.0004         49.0004
 -10630327.50647  -8248117.40947  22705092.6894   22705100.5944   22705093.642
        47.0004         42.0004
 14  5 10  1  9  0.0000000  0 11G13G09G07G10G02G08G17G26G20G04G28
  19423520.92446  15127445.91345  25186012.8784   25186020.4894   25186013.188
        38.0004         33.0004
 -20245538.23149 -15761685.91148  20149532.5434   20149538.0814   20149532.734
        54.0004         50.0004
 -16333160.99448 -12695952.72447  21599982.8594   21599988.2104   21599983.017
        50.0004         45.0004
 -14173473.68847 -11034365.56647  22956337.9304   22956344.4914   22956337.909
        47.0004         42.0004
  -8901743.27847  -6868677.54547  22668813.7844   22668818.0244   22668813.384
        47.0004         43.0004
 -25411900.99648 -19752527.18948  20058562.3764   20058568.5994   20058562.990
        53.0004         49.0004
 -10535939.85047  -8149432.56747  23300457.0254   23300466.5014   23300457.584
        46.0004         42.0004
   -691529.36347   -520782.10346  24088530.2004   24088541.8504   24088530.925
        42.0004         38.0004
 -21439693.79256 -16646247.11655  24054542.6055   24054553.7895   24054543.724
        38.0004         34.0004
 -24637145.96648 -19143333.08848  20429735.1844   20429741.0314   20429734.584
        53.0004         49.0004
 -10689385.23347  -8294136.39847  22693854.7394   22693861.6164   22693854.857
        47.0004         42.0004
 14  5 10  1  9 30.0000000  0 11G13G09G07G10G02G08G17G26G20G04G28
  19475372.41246  15167849.61645  25195884.3044   25195890.0124   25195880.493
        37.0004         33.0004
 -20213074.40849 -15736389.40448  20155710.1014   20155715.8494   20155710.287
        54.0004         50.0004
 -16246651.48848 -12628542.70347  21616445.6384   21616450.7324   21616444.651
        50.0004         45.0004
 -14243637.52447 -11089038.60647  22942985.7714   22942991.8994   22942985.968
        46.0004         42.0004
  -8972769.17547  -6924022.31447  22655298.8244   22655302.9634   22655298.933
        47.0004         43.0004
 -25376209.86848 -19724715.90148  20065354.2334   20065360.5164   20065354.474
        53.0004         49.0004
 -10497913.86547  -8119801.91247  23307694.6834   23307701.8894   23307693.831
        46.0004         42.0004
   -681589.27447   -513036.38646  24090422.8514   24090434.0854   24090423.254
        43.0004         38.0004
 -21402436.15246 -16617215.27045  24061635.9534   24061644.4894   24061635.699
        39.0004         34.0004
 -24665590.29548 -19165497.50248  20424322.3114   20424328.2124   20424321.602
        53.0004         49.0004
 -10748475.51247  -8340180.72747  22682609.8024   22682618.2244   22682610.244
        47.0004         42.0004
 14  5 10  1 10  0.0000000  0 11G13G09G07G10G02G08G17G26G20G04G28
  19526966.87246  15208053.06745  25205697.2464   25205704.0944   25205698.806
        38.0004         33.0004
 -20180046.53549 -15710653.38148  20161995.3384   20162001.0054   20161995.470
        54.0004         50.0004
 -16159796.40848 -12560863.40547  21632972.8584   21632978.2594   21632972.782
        50.0004         45.0004
 -14313872.31747 -11143766.93447  22929619.7264   22929626.1544   22929621.376
        46.0004         42.0004
  -9043438.29547  -6979089.08147  22641849.5064   22641854.3234   22641849.885
        47.0004         43.0004
 -25339882.92848 -19696409.17348  20072266.9954   20072273.2364   20072267.435
        53.0004         49.0004
 -10460009.83047  -8090266.28847  23314906.8664   23314914.5414   23314907.044
        46.0004         42.0004
   -671471.13147   -505151.91946  24092348.5294   24092358.7734   24092347.507
        42.0004         38.0004
 -21364833.89046 -16587914.84445  24068787.6764   24068799.7494   24068789.296
        38.0004         33.0004
 -24693479.10948 -19187229.03748  20419014.9804   20419020.8844   20419014.820
        53.0004         49.0004
 -10807573.70747  -8386231.22147  22671363.3954   22671372.5754   22671364.387
        47.0004         42.0004
 14  5 10  1 10 30.0000000  0 10G13G09G07G10G02G08G17G26G04G28
  19578310.88546  15248061.31045  25215471.6284   25215477.9944   25215467.484
        38.0004         33.0004
 -20146449.65849 -15684473.97948  20168388.6084   20168394.1124   20168388.625
        54.0004         50.0004
 -16072591.74748 -12492911.69847  21649567.6464   21649573.1274   21649567.860
        50.0004         45.0004
 -14384169.27547 -11198543.69047  22916242.9004   22916250.2544   22916242.866
        46.0004         42.0004
  -9113742.21747  -7033871.27547  22628471.2464   22628475.0304   22628471.527
        47.0004         43.0004
 -25302915.08348 -19667603.03648  20079301.7164   20079307.5994   20079302.136
        53.0004         49.0004
 -10422222.35747  -8060821.48747  23322097.8454   23322105.3244   23322097.533
        47.0004         42.0004
   -661170.07247   -497124.93246  24094308.0064   24094319.1264   24094308.139
        42.0004         38.0004
 -24720804.95848 -19208521.90948  20413814.6904   20413821.0824   20413814.482
        53.0004         49.0004
 -10866670.87947  -8432280.93047  22660118.4254   22660124.6914   22660118.457
        47.0004         42.0004
 14  5 10  1 11  0.0000000  0 10G13G09G07G10G02G08G17G26G04G28
  19629375.67846  15287852.02145  25225185.4384   25225191.2654   25225186.033
        38.0004         34.0004
 -20112314.09749 -15657874.82848  20174884.3894   20174890.2074   20174884.229
        54.0004         50.0004
 -15985069.49348 -12424712.52247  21666223.1404   21666228.2904   21666222.222
        50.0004         45.0004
 -14454554.85547 -11253389.52347  22902849.2744   22902855.4154   22902849.655
        46.0004         42.0004
  -9183707.62847  -7088389.70447  22615156.7054   22615162.1514   22615157.477
        47.0004         43.0004
 -25265336.65548 -19638321.11948  20086452.6764   20086458.6504   20086453.121
        53.0004         49.0004
 -10384581.94247  -8031491.27747  23329260.5644   23329267.8504   23329259.457
        47.0004         42.0004
   -650717.14447   -488979.59446  24096298.5874   24096307.3054   24096297.598
        43.0004         38.0004
 -24747596.08248 -19229398.10248  20408716.9484   20408722.8244   20408716.598
        53.0004         49.0004
 -10925792.67447  -8478349.82347  22648866.7054   22648875.3854   22648867.899
        47.0004         42.0004
 14  5 10  1 11 30.0000000  0 10G13G09G07G10G02G08G17G26G04G28
  14953915.49446  11644636.25345  25234856.4744   25234857.8624   25234854.358
        38.0004         33.0004
 -20077627.24049 -15630846.09648  20181485.0124   20181490.6154   20181485.035
        54.0004         50.0004
 -15897218.02348 -12356256.82447  21682940.0134   21682945.0204   21682939.976
        50.0004         45.0004
 -14525012.22847 -11308291.29847  22889441.8184   22889447.6624   22889441.560
        47.0004         42.0004
  -9253318.48847  -7142631.87147  22601911.0764   22601915.2294   22601911.224
        47.0004         43.0004
 -25227134.61448 -19608553.26748  20093722.6494   20093728.6764   20093722.644
        53.0004         49.0004
 -10347075.55147  -8002265.50047  23336397.0974   23336405.6924   23336396.991
        46.0004         42.0004
   -640099.95647   -480706.27846  24098317.5504   24098327.9844   24098317.612
        43.0004         38.0004
 -24773836.94148 -19249845.52448  20403723.4944   20403729.3274   20403723.145
        53.0004         49.0004
 -10984921.95647  -8524424.55447  22637615.5454   22637622.7274   22637616.226
        47.0004         42.0004
 14  5 10  1 12  0.0000000  0 10G13G09G07G10G02G08G17G26G04G28
  15004449.24646  11684013.13545  25244468.4014   25244478.3324   25244469.618
        37.0004         32.0004
 -20042391.26149 -15603389.47148  20188190.0234   20188196.0594   20188189.929
        54.0004         50.0004
 -15809040.48948 -12287547.03947  21699720.6064   21699724.6224   21699719.828
        50.0004         45.0004
 -14595539.66947 -11363247.66647  22876019.9954   22876027.8864   22876020.817
        46.0004         42.0004
  -9322573.14847  -7196596.47747  22588731.1784   22588734.9014   22588731.947
        47.0004         43.0004
 -25188310.95148 -19578301.03648  20101110.2434   20101116.3034   20101110.385
        53.0004         49.0004
 -10309704.90447  -7973145.50147  23343508.8264   23343516.6844   23343508.611
        47.0004         42.0004
   -629321.10547   -472306.98646  24100368.6554   24100380.2274   24100367.938
        43.0004         38.0004
 -24799527.30348 -19269863.98148  20398834.4824   20398840.6534   20398834.106
        53.0004         49.0004
 -11044056.66447  -8570503.51547  22626362.7664   22626371.0994   22626363.049
        47.0004         42.0004
 14  5 10  1 12 30.0000000  0 10G13G09G07G10G02G08G17G26G04G28
                  11723181.59545                  25254041.5934   25254034.659
                        33.0004
 -20006609.82749 -15575507.81948  20194998.8754   20195004.7404   20194999.074
        54.0004         50.0004
 -15720541.45148 -12218586.73047  21716560.4414   21716565.7794   21716559.982
        50.0004         45.0004
 -14666137.16847 -11418258.62547  22862585.9514   22862591.9764   22862587.416
        47.0004         42.0004
  -9391471.64447  -7250283.54647  22575620.9074   22575625.6074   22575621.526
        47.0004         43.0004
 -25148869.42848 -19547567.35648  20108615.7644   20108621.8554   20108616.036
        53.0004         49.0004
 -10272473.88947  -7944134.31747  23350593.9164   23350601.6944   23350593.282
        47.0004         42.0004
   -618384.67047   -463784.90546  24102449.9204   24102460.4694   24102449.502
        43.0004         38.0004
 -24824668.67848 -19289454.65348  20394050.5954   20394056.8404   20394050.213
        53.0004         49.0004
 -11103195.73647  -8616585.87147  22615108.9084   22615117.8894   22615109.182
        47.0004         42.0004
 14  5 10  1 13  0.0000000  0 10G13G09G07G10G02G08G17G26G04G28
                  11762143.86445                  25263554.8484   25263550.147
                        32.0004
 -19970281.67249 -15547200.14548  20201911.8524   20201917.7384   20201911.890
        54.0004         50.0004
 -15631721.24248 -12149376.15647  21733462.8414   21733467.8294   21733462.389
        50.0004         45.0004
 -14736799.26347 -11473319.91247  22849139.6264   22849146.1704   22849139.355
        47.0004         42.0004
  -9460009.21747  -7303689.38947  22562577.7934   22562583.7644   22562577.665
        47.0004         43.0004
 -25108808.57148 -19516351.07848  20116238.8664   20116245.2804   20116238.900
        53.0004         49.0004
 -10235380.61147  -7915230.45347  23357651.5334   23357660.6464   23357651.997
        47.0004         42.0004
   -607289.73747   -455139.32546  24104560.0074   24104570.1874   24104560.770
        42.0004         38.0004
 -24849257.19848 -19308614.53648  20389371.4674   20389377.3854   20389370.792
        53.0004         49.0004
 -11162333.85547  -8662667.49547  22603855.5864   22603862.7004   22603855.581
        47.0004         42.0004
 14  5 10  1 13 30.0000000  0 10G13G09G07G10G02G08G17G26G04G28
  15154452.29246  11800898.51545  25273014.8554   25273021.0534   25273014.430
        37.0004         33.0004
 -19933410.50049 -15518469.34848  20208928.6384   20208934.4104   20208928.522
        54.0004         50.0004
 -15542584.66648 -12079919.07347  21750424.7424   21750429.6414   21750424.506
        50.0004         45.0004
 -14807525.47647 -11528431.17547  22835680.9764   22835688.0054   22835680.730
        47.0004         42.0004
  -9528185.78948  -7356813.92547  22549604.6544   22549609.9384   22549605.833
        48.0004         43.0004
 -25068131.72048 -19484654.80848  20123979.3014   20123985.8124   20123979.797
        53.0004         49.0004
 -10198428.41947  -7886436.54347  23364684.5564   23364691.9964   23364683.547
        47.0004         42.0004
   -596040.10447   -446373.20346  24106701.3034   24106710.8424   24106701.142
        42.0004         38.0004
 -24873293.87648 -19327344.41348  20384797.3344   20384803.6424   20384797.294
        53.0004         49.0004
 -11221469.73247  -8708747.37647  22592601.4264   22592610.5424   22592602.593
        47.0004         42.0004
 14  5 10  1 14  0.0000000  0 10G13G09G07G10G02G08G17G26G04G28
  15203919.97346  11839444.68545  25282427.4574   25282433.3634   25282427.327
        38.0004         33.0004
 -19895998.81949 -15489317.37648  20216047.7214   20216053.4684   20216047.508
        54.0004         50.0004
 -15453134.97748 -12010217.99947  21767445.8894   21767451.6454   21767445.998
        50.0004         45.0004
 -14878314.34947 -11583591.26347  22822209.3364   22822216.9264   22822210.370
        46.0004         42.0004
  -9596000.28248  -7409656.32247  22536700.5064   22536703.8074   22536700.790
        48.0004         43.0004
 -25026841.30848 -19452480.43748  20131836.7714   20131842.8364   20131836.931
        53.0004         49.0004
 -10161619.48147  -7857754.24747  23371688.7584   23371695.8254   23371688.782
        47.0004         42.0004
   -584638.80147   -437488.88546  24108870.2214   24108880.2464   24108870.144
        42.0004         38.0004
 -24896778.97148 -19345644.48348  20380328.3954   20380334.6254   20380327.898
        53.0004         49.0004
 -11280601.47347  -8754824.03047  22581350.3774   22581357.5284   22581350.071
        47.0004         42.0004
 14  5 10  1 14 30.0000000  0 10G13G09G07G10G02G08G17G26G04G28
  15253122.73646  11877784.45445  25291789.0624   25291793.2864   25291789.507
        37.0004         33.0004
 -19858045.54249 -15459743.38548  20223269.8084   20223275.5624   20223270.062
        54.0004         50.0004
 -15363372.65348 -11940273.32247  21784528.1724   21784533.1204   21784527.482
        50.0004         45.0004
 -14949160.78047 -11638796.21447  22808728.1674   22808734.5094   22808728.545
        46.0004         42.0004
  -9663448.16448  -7462213.05747  22523865.4114   22523869.2024   22523865.011
        48.0004         43.0004
 -24984936.32548 -19419827.18748  20139811.1494   20139817.2484   20139811.151
        53.0004         49.0004
 -10124952.50447  -7829182.56947  23378665.0954   23378674.0364   23378665.646
        47.0004         42.0004
   -573085.03147   -428485.76646  24111069.2664   24111080.1144   24111069.440
        43.0004         38.0004
 -24919709.22148 -19363512.21048  20375965.0194   20375970.7204   20375964.318
        53.0004         49.0004
 -11339723.66547  -8800893.23147  22570098.7014   22570107.4634   22570099.423
        47.0004         42.0004
 14  5 10  1 15  0.0000000  0 10G13G09G07G10G02G08G17G26G04G28
                  11915915.25645                  25301105.6854   25301102.766
                        33.0004
 -19819556.34849 -15429751.79948  20230594.1614   20230599.7544   20230594.077
        54.0004         50.0004
 -15273304.07948 -11870090.00247  21801666.9644   21801672.5794   21801666.566
        50.0004         45.0004
 -15020066.24547 -11694047.16047  22795234.4014   22795241.2024   22795235.921
        46.0004         42.0004
  -9730531.43148  -7514485.68047  22511099.3654   22511103.8334   22511100.513
        48.0004         43.0004
 -24942422.19948 -19386699.27948  20147900.9644   20147907.1244   20147901.518
        53.0004         49.0004
 -10088432.14947  -7800725.14647  23385615.7354   23385623.8064   23385615.194
        47.0004         42.0004
   -561384.64947   -419368.40346  24113294.9404   24113305.4654   24113295.343
        43.0004         38.0004
 -24942087.65948 -19380949.95448  20371706.3284   20371712.5284   20371706.061
        53.0004         49.0004
 -11398837.09247  -8846955.60947  22558849.2234   22558857.6164   22558850.535
        47.0004         43.0004
 14  5 10  1 15 30.0000000  0 10G13G09G07G10G02G08G17G26G04G28
  15350727.07046  11953839.69445  25310362.1524   25310372.3904   25310364.511
        37.0004         33.0004
 -19780529.54649 -15399341.30048  20238020.6634   20238026.3164   20238020.753
        54.0004         50.0004
 -15182928.59948 -11799667.53947  21818865.2564   21818870.9444   21818864.741
        50.0004         45.0004
 -15091024.73547 -11749339.42847  22781732.0364   22781738.4774   22781732.521
        46.0004         42.0004
  -9797244.76248  -7566470.03447  22498405.7384   22498408.8434   22498405.093
        48.0004         43.0004
 -24899297.10348 -19353095.28848  20156107.5664   20156113.4814   20156107.744
        53.0004         48.0004
 -10052056.89247  -7772380.78947  23392537.2424   23392545.8534   23392537.346
        47.0004         42.0004
   -549536.16047   -410135.62846  24115549.4224   24115560.0584   24115550.156
        42.0004         38.0004
 -24963909.95348 -19397954.33848  20367553.4254   20367559.8084   20367553.016
        53.0004         49.0004
 -11457935.18447  -8893006.02847  22547602.3524   22547612.7604   22547604.120
        47.0004         43.0004
 14  5 10  1 16  0.0000000  0 10G13G09G07G10G02G08G17G26G04G28
  15399128.22746  11991554.79745  25319575.5894   25319583.7974   25319574.796
        38.0004         33.0004
 -19740970.89349 -15368516.37348  20245548.9114   20245554.0224   20245548.667
        54.0004         50.0004
 -15092253.13148 -11729011.32847  21836119.9834   21836125.2864   21836119.815
        50.0004         45.0004
 -15162037.69847 -11804674.15447  22768218.5634   22768225.8754   22768219.179
        47.0004         42.0004
  -9863590.17648  -7618167.71447  22485779.6394   22485783.8584   22485780.051
        48.0004         44.0004
 -24855566.73048 -19319019.65848  20164429.0534   20164435.3454   20164429.575
        53.0004         49.0004
 -10015832.00147  -7744153.59847  23399430.9844   23399439.1684   23399430.878
        47.0004         42.0004
   -537545.56847   -400792.13446  24117831.6924   24117840.8424   24117831.082
        42.0004         38.0004
 -24985179.70048 -19414528.17148  20363506.4024   20363512.1514   20363506.116
        53.0004         49.0004
 -11517019.60147  -8939045.80747  22536361.1014   22536368.6154   22536361.276
        47.0004         43.0004
 14  5 10  1 16 30.0000000  0 10G13G09G07G10G02G08G17G26G04G28
  15447263.01456  12029062.39945  25328735.7705   25328738.3774   25328734.651
        37.0004         33.0004
 -19700880.07649 -15337276.76948  20253177.3444   20253183.0594   20253177.406
        54.0004         49.0004
 -15001278.23148 -11658121.78647  21853431.7214   21853437.1154   21853431.718
        50.0004         45.0004
 -15233100.08447 -11860047.38647  22754695.9274   22754702.8504   22754696.563
        47.0004         42.0004
  -9929563.57748  -7669575.49647  22473225.2344   22473228.8624   22473225.810
        48.0004         44.0004
 -24811230.74548 -19284472.12448  20172865.7834   20172872.0584   20172866.201
        53.0004         48.0004
  -9979756.42847  -7716042.75747  23406296.2264   23406303.5684   23406295.967
        47.0004         42.0004
   -525412.79647   -391337.86346  24120139.9104   24120151.1394   24120141.050
        42.0004         38.0004
 -25005894.07848 -19430669.25548  20359564.2874   20359570.4164   20359563.599
        53.0004         49.0004
 -11576084.84548  -8985070.64947  22525119.9764   22525127.6534   22525120.895
        48.0004         43.0004
 14  5 10  1 17  0.0000000  0 10G13G09G07G10G02G08G17G26G04G28
  15495128.88046  12066360.43745  25337843.0704   25337850.6524   25337842.917
        38.0004         33.0004
 -19660261.53249 -15305625.94948  20260907.0584   20260912.4494   20260907.024
        54.0004         49.0004
 -14910009.46548 -11587003.25947  21870800.0864   21870804.9004   21870799.953
        50.0004         45.0004
 -15304212.62447 -11915459.70247  22741162.9004   22741171.6094   22741164.423
        47.0004         42.0004
  -9995165.87748  -7720694.13147  22460742.5524   22460746.4784   22460741.821
        48.0004         44.0004
 -24766293.31548 -19249455.92548  20181417.4394   20181423.0914   20181417.629
        53.0004         48.0004
  -9943833.97647  -7688051.22847  23413132.0494   23413139.3354   23413131.437
        47.0004         42.0004
   -513142.64247   -381776.52646  24122474.7304   24122485.5454   24122474.925
        42.0004         38.0004
 -25026055.20648 -19446379.22648  20355727.5934   20355734.0604   20355727.518
        53.0004         49.0004
 -11635130.87448  -9031080.52047  22513884.8104   22513892.3114   22513885.050
        48.0004         43.0004
 14  5 10  1 17 30.0000000  0 10G13G09G07G10G02G08G17G26G04G28
  15542729.34646  12103451.63045  25346902.1974   25346906.9554   25346901.245
        38.0004         34.0004
 -19619113.87949 -15273562.84048  20268737.1134   20268742.7784   20268737.135
        54.0004         49.0004
 -14818446.38048 -11515655.39547  21888224.0574   21888228.2764   21888223.645
        50.0004         45.0004
 -15375369.64447 -11970906.66947  22727623.4944   22727629.9264   22727624.065
        47.0004         42.0004
 -10060391.87148  -7771519.54047  22448329.0084   22448332.9754   22448329.781
        48.0004         44.0004
 -24720753.07948 -19213970.00648  20190083.1794   20190089.5734   20190083.537
        53.0004         48.0004
  -9908062.61347  -7660177.43147  23419938.2924   23419947.3944   23419938.828
        46.0004         42.0004
   -500733.65047   -372107.01746  24124836.4024   24124846.2754   24124835.795
        42.0004         38.0004
 -25045659.16948 -19461655.05448  20351997.2824   20352003.3014   20351997.362
        53.0004         49.0004
 -11694151.52748  -9077070.61147  22502652.4354   22502661.9354   22502653.644
        48.0004         43.0004
 14  5 10  1 18  0.0000000  0 10G13G09G07G10G02G08G17G26G04G28
  15590060.62456  12140333.08455  25355906.7795   25355917.5005   25355908.207
        38.0004         33.0004
 -19577442.88449 -15241091.93248  20276666.8204   20276672.6084   20276666.851
        54.0004         49.0004
 -14726595.48948 -11444083.26647  21905702.8804   21905708.2824   21905702.477
        50.0004         45.0004
 -15446572.21047 -12026389.14747  22714073.4414   22714080.4364   22714073.996
        47.0004         42.0004
 -10125243.77948  -7822053.45247  22435988.3274   22435992.0504   22435988.321
        48.0004         44.0004
 -24674615.68148 -19178018.77248  20198863.0504   20198869.1544   20198863.380
        53.0004         48.0004
  -9872447.38347  -7632425.30647  23426716.2294   23426723.8644   23426716.286
        47.0004         42.0004
   -488191.74047   -362333.93346  24127221.8654   24127232.8334   24127223.338
        42.0004         38.0004
 -25064709.27348 -19476499.30448  20348372.2734   20348378.4614   20348371.722
        53.0004         49.0004
 -11753147.50048  -9123041.47147  22491427.6664   22491434.2464   22491427.239
        48.0004         43.0004
 14  5 10  1 18 30.0000000  0 10G13G09G07G10G02G08G17G26G04G28
                                                                  25364864.432

 -19535248.31349 -15208213.04748  20284696.5274   20284701.8584   20284696.426
        54.0004         50.0004
 -14634457.46748 -11372287.39747  21923235.9264   21923240.0984   21923235.421
        50.0004         45.0004
 -15517815.99247 -12081903.74347  22700516.4144   22700523.2434   22700517.060
        47.0004         42.0004
 -10189717.42648  -7872292.61647  22423717.9654   22423722.9574   22423719.502
        48.0004         43.0004
 -24627880.62848 -19141601.83148  20207756.2214   20207762.0734   20207756.296
        53.0004         48.0004
  -9836987.25747  -7604794.02647  23433464.0964   23433472.3644   23433463.693
        47.0004         42.0004
   -475516.80947   -352457.19146  24129635.6434   24129644.3104   24129633.837
        42.0004         38.0004
 -25083202.83848 -19490909.88348  20344853.2134   20344859.1174   20344852.647
        53.0004         49.0004
 -11812113.70548  -9168989.15047  22480206.1304   22480213.2734   22480206.529
        48.0004         43.0004
 14  5 10  1 19  0.0000000  0 10G13G09G07G10G02G08G17G26G04G28
  15683921.84446  12213471.61945  25373768.4634   25373775.3924   25373769.180
        38.0004         34.0004
 -19492532.73549 -15174928.18148  20292824.8364   20292830.1234   20292824.623
        54.0004         49.0004
 -14542036.16848 -11300270.80347  21940822.4094   21940827.7984   21940822.638
        49.0004         45.0004
 -15589099.18747 -12137449.04347  22686952.1404   22686956.8084   22686951.858
        47.0004         42.0004
 -10253811.95348  -7922236.36447  22411522.8264   22411526.9384   22411523.276
        48.0004         43.0004
 -24580550.64448 -19104721.31348  20216763.3254   20216769.0104   20216763.437
        53.0004         48.0004
  -9801684.51147  -7577285.38547  23440181.3014   23440190.6484   23440181.568
        47.0004         42.0004
   -462711.76247   -342479.06146  24132071.6454   24132082.3774   24132071.466
        42.0004         38.0004
 -25101140.42048 -19504887.23248  20341439.5384   20341445.8544   20341439.236
        53.0004         49.0004
 -11871048.36848  -9214912.23547  22468990.5584   22468998.0334   22468991.586
        48.0004         43.0004
 14  5 10  1 19 30.0000000  0 10G13G09G07G10G02G08G17G26G04G28
  15730452.20646  12249729.00445  25382621.5774   25382630.6814   25382623.150
        38.0004         33.0004
 -19449297.54149 -15141238.42848  20301052.1594   20301057.9574   20301052.133
        54.0004         49.0004
 -14449333.71748 -11228035.13747  21958464.2134   21958468.6904   21958463.438
        49.0004         45.0004
 -15660418.55247 -12193022.53547  22673379.4014   22673385.8184   22673380.569
        47.0004         42.0004
 -10317525.18448  -7971882.98347  22399398.6064   22399402.9654   22399398.451
        48.0004         44.0004
 -24532627.12848 -19067378.30548  20225882.3704   20225888.8744   20225882.477
        53.0004         48.0004
  -9766539.86047  -7549899.93647  23446869.9084   23446878.5394   23446869.766
        46.0004         42.0004
   -449777.93747   -332400.58846  24134532.8934   24134543.8614   24134531.472
        43.0004         38.0004
 -25118520.78748 -19518430.39448  20338132.1154   20338138.0814   20338131.924
        53.0004         49.0004
 -11929947.65648  -9260807.76847  22457783.7224   22457791.1854   22457783.235
        48.0004         43.0004
 14  5 10  1 20  0.0000000  0 10G13G09G07G10G02G08G17G26G04G28
  15776714.97646  12285777.87745  25391425.1494   25391432.0234   25391427.770
        38.0004         33.0004
 -19405545.68649 -15107146.08348  20309377.9234   20309383.7814   20309377.815
        54.0004         49.0004
 -14356353.60248 -11155583.10247  21976157.4254   21976161.7664   21976157.261
        49.0004         45.0004
 -15731772.53247 -12248623.00347  22659802.0464   22659807.8334   22659802.543
        47.0004         42.0004
 -10380856.12548  -8021231.73847  22387346.2184   22387351.8834   22387346.178
        48.0004         43.0004
 -24484112.58748 -19029574.76348  20235114.4274   20235120.5324   20235114.864
        53.0004         48.0004
  -9731555.19347  -7522639.14047  23453527.6304   23453535.2494   23453527.129
        46.0004         42.0004
   -436718.27547   -322224.05546  24137017.9414   24137027.4924   24137017.843
        43.0004         38.0004
 -25135344.38548 -19531539.70048  20334930.6644   20334936.9064   20334930.123
        53.0004         49.0004
 -11988809.62848  -9306674.22147  22446581.2874   22446589.7624   22446582.441
        48.0004         43.0004
 14  5 10  1 20 30.0000000  0 10G13G09G07G10G02G08G17G26G04G28
                  12321618.07845                  25400192.6644   25400179.751
                        33.0004
 -19361279.85349 -15072653.23648  20317801.2364   20317807.2114   20317801.156
        54.0004         49.0004
 -14263099.49448 -11082917.55847  21993903.0514   21993906.7224   21993902.402
        49.0004         45.0004
 -15803159.12447 -12304248.88547  22646216.7024   22646224.2094   22646217.890
        47.0004         42.0004
 -10443803.33648  -8070281.46447  22375367.6564   22375373.4074   22375369.158
        48.0004         44.0004
 -24435009.58448 -18991312.67348  20244458.4954   20244464.6974   20244458.792
        53.0004         48.0004
  -9696732.21347  -7495504.33947  23460152.7894   23460161.2554   23460153.776
        46.0004         42.0004
   -423535.37147   -311951.50646  24139524.3834   24139535.2574   24139524.826
        42.0004         38.0004
 -25151611.28348 -19544215.22248  20331835.6234   20331841.2454   20331835.289
        53.0004         49.0004
 -12047631.80348  -9352509.66147  22435389.3604   22435395.6864   22435388.462
        48.0004         43.0004
 14  5 10  1 21  0.0000000  0 10G13G09G07G10G02G08G17G26G04G28
  15868436.45746                  25408881.6264                   25408881.194
        38.0004
 -19316502.80449 -15037762.03648  20326322.3094   20326327.6214   20326322.127
        54.0004         50.0004
 -14169575.25148 -11010041.52747  22011699.8664   22011705.1014   22011699.773
        49.0004         45.0004
 -15874576.57747 -12359898.81947  22632627.4174   22632632.8184   22632627.358
        47.0004         43.0004
 -10506366.30648  -8119031.79747  22363463.2754   22363466.5144   22363462.825
        48.0004         44.0004
 -24385320.95048 -18952594.24848  20253914.0884   20253919.8854   20253914.149
        53.0004         48.0004
  -9662073.26247  -7468497.36847  23466749.4434   23466757.4464   23466749.299
        46.0004         42.0004
   -410232.30847   -301585.33646  24142056.8854   24142065.8364   24142057.331
        42.0004         38.0004
 -25167322.41848 -19556457.67748  20328845.2734   20328852.0624   20328845.024
        53.0004         49.0004
 -12106412.27748  -9398312.59547  22424203.4574   22424210.7114   22424203.066
        48.0004         43.0004
 14  5 10  1 21 30.0000000  0 10G13G09G07G10G02G08G17G26G04G28
  15913894.94346  12392671.20845  25417529.9504   25417541.6644   25417531.923
        39.0004         34.0004
 -19271216.40649 -15002473.93248  20334940.0464   20334945.3314   20334939.874
        54.0004         49.0004
 -14075783.27948 -10936956.87147  22029548.3474   22029552.9424   22029547.830
        49.0004         45.0004
 -15946022.19047 -12415570.69547  22619031.7344   22619038.0654   22619032.214
        47.0004         43.0004
 -10568542.88748  -8167481.05247  22351630.9074   22351636.1964   22351631.004
        48.0004         44.0004
 -24335048.60348 -18913420.98348  20263480.7224   20263485.9374   20263480.675
        53.0004         48.0004
  -9627579.03047  -7441618.74547  23473313.5894   23473320.5564   23473312.805
        46.0004         42.0004
   -396810.89947   -291126.94646  24144611.5864   24144621.4474   24144611.135
        43.0004         38.0004
 -25182477.06348 -19568266.49848  20325961.7834   20325967.7694   20325961.495
        53.0004         49.0004
 -12165147.84448  -9444080.53947  22413024.9684   22413033.3264   22413026.069
        48.0004         43.0004
 14  5 10  1 22  0.0000000  0  9G09G07G10G02G08G17G26G04G28
 -19225421.89349 -14966789.90248  20343654.2594   20343659.9754   20343654.342
        54.0004         49.0004
 -13981725.65348 -10863665.20347  22047447.4604   22047451.3444   22047446.015
        49.0004         44.0004
 -16017492.68947 -12471261.96247  22605431.3634   22605435.9804   22605431.842
        47.0004         43.0004
 -10630330.98048  -8215627.58147  22339872.5244   22339878.3704   22339873.658
        48.0004         44.0004
 -24284193.66148 -18873793.74548  20273157.8494   20273163.6364   20273158.302
        53.0004         48.0004
  -9593250.01947  -7414868.85347  23479845.9024   23479853.7014   23479845.138
        46.0004         42.0004
   -383272.20647   -280577.15846  24147188.2354   24147197.3824   24147187.695
        43.0004         38.0004
 -25197074.04548 -19579640.77948  20323184.4034   20323190.3864   20323183.966
        53.0004         49.0004
 -12223834.29248  -9489810.20547  22401857.4304   22401865.3694   22401858.385
        48.0004         43.0004
 14  5 10  1 22 30.0000000  0  9G09G07G10G02G08G17G26G04G28
 -19179122.34349 -14930712.32648  20352464.7724   20352470.5984   20352464.708
        54.0004         49.0004
 -13887406.63348 -10790169.88247  22065394.4334   22065398.6914   22065394.653
        49.0004         45.0004
 -16088986.70247 -12526971.55447  22591827.6824   22591832.6744   22591826.591
        47.0004         43.0004
 -10691729.70348  -8263470.71747  22328189.6864   22328194.0804   22328189.737
        48.0004         44.0004
 -24232759.60048 -18833715.25148  20282945.3224   20282951.3074   20282945.549
        53.0004         48.0004
  -9559088.53847  -7388249.50647  23486346.9144   23486354.7914   23486346.244
        47.0004         42.0004
   -369619.72047   -269938.70646  24149784.7274   24149795.0294   24149784.924
        43.0004         38.0004
 -25211114.06549 -19590581.05848  20320512.4524   20320518.5894   20320511.832
        54.0004         49.0004
 -12282470.19048  -9535500.48147  22390700.6804   22390707.8954   22390700.089
        48.0004         43.0004
 14  5 10  1 23  0.0000000  0  9G09G07G10G02G08G17G26G04G28
 -19132318.88349 -14894242.10048  20361371.2104   20361376.9184   20361371.193
        54.0004         49.0004
 -13792827.80748 -10716472.10547  22083392.7744   22083397.0054   22083392.386
        49.0004         44.0004
 -16160500.30247 -12582696.41847  22578217.4564   22578223.9774   22578218.056
        47.0004         43.0004
 -10752736.50848  -8311008.46847  22316580.9214   22316585.1184   22316580.655
        49.0004         44.0004
 -24180747.17248 -18793186.08448  20292843.0324   20292849.0154   20292843.349
        53.0004         48.0004
  -9525094.59347  -7361760.69147  23492814.9794   23492822.6524   23492814.944
        47.0004         42.0004
   -355854.23447   -259212.19646  24152404.7984   24152414.0094   24152404.300
        43.0004         38.0004
 -25224596.18749 -19601086.61948  20317947.1304   20317953.1234   20317946.715
        54.0004         49.0004
 -12341051.77248  -9581148.44347  22379552.9854   22379560.9274   22379552.689
        48.0004         43.0004
 14  5 10  1 23 30.0000000  0  9G09G07G10G02G08G17G26G04G28
 -19085015.12049 -14857382.02748  20370372.7004   20370378.4464   20370372.680
        54.0004         49.0004
 -13697993.48048 -10642575.23447  22101438.8964   22101444.3714   22101438.103
        49.0004         44.0004
 -16232032.49047 -12638435.76747  22564606.6574   22564611.8604   22564606.304
        47.0004         43.0004
 -10813351.40348  -8358240.82847  22305044.7964   22305049.4904   22305045.709
        49.0004         44.0004
 -24128159.81548 -18752208.91548  20302849.8274   20302855.7334   20302850.368
        53.0004         48.0004
  -9491270.70747  -7335404.41047  23499252.1814   23499259.7664   23499251.067
        47.0004         42.0004
   -341979.22647   -248400.36346  24155045.4734   24155055.2864   24155045.152
        43.0004         38.0004
 -25237521.32949 -19611158.16148  20315487.4224   20315493.1264   20315486.992
        54.0004         49.0004
 -12399576.92648  -9626752.44047  22368415.8064   22368423.2054   22368416.138
        48.0004         43.0004
 14  5 10  1 24  0.0000000  0  9G09G07G10G02G08G17G26G04G28
 -19037213.63249 -14820134.12848  20379469.1954   20379474.5964   20379468.996
        54.0004         49.0004
 -13602907.02548 -10568481.91147  22119533.9014   22119538.1974   22119532.656
        49.0004         44.0004
 -16303581.34547 -12694188.12747  22550990.1644   22550996.4744   22550990.906
        47.0004         43.0004
 -10873572.84148  -8405166.60147  22293586.0114   22293590.0524   22293586.323
        49.0004         44.0004
 -24075000.24148 -18710785.87348  20312965.9624   20312971.7564   20312966.156
        53.0004         48.0004
  -9457618.46447  -7309181.88447  23505655.6084   23505663.0774   23505655.443
        47.0004         42.0004
   -327997.19547   -237505.12146  24157705.6854   24157715.8214   24157705.828
        43.0004         39.0004
 -25249889.59849 -19620795.78448  20313133.6484   20313139.3044   20313133.084
        54.0004         49.0004
 -12458043.27148  -9672310.61847  22357290.1844   22357296.7574   22357289.976
        48.0004         44.0004
 14  5 10  1 24 30.0000000  0  9G09G07G10G02G08G17G26G04G28
 -18988916.11949 -14782499.71648  20388660.0454   20388665.5104   20388660.000
        54.0004         49.0004
 -13507570.60148 -10494193.79847  22137675.9134   22137680.3964   22137675.094
        49.0004         44.0004
 -16375143.54847 -12749950.89647  22537370.9654   22537378.9614   22537372.230
        47.0004         43.0004
 -10933398.91948  -8451784.30347  22282200.8484   22282205.0794   22282201.446
        49.0004         44.0004
 -24021270.00948 -18668918.16048  20323190.3824   20323196.2544   20323190.729
        53.0004         48.0004
  -9424138.51247  -7283093.59047  23512027.3864   23512034.1644   23512026.514
        47.0004         42.0004
   -313909.78047   -226527.76046  24160386.1244   24160395.9364   24160385.896
        43.0004         38.0004
 -25261700.74849 -19629999.28148  20310886.0914   20310892.1384   20310885.780
        54.0004         49.0004
 -12516447.37748  -9717820.27047  22346174.8694   22346184.3824   22346175.853
        48.0004         43.0004
 14  5 10  1 25  0.0000000  0  9G09G07G10G02G08G17G26G04G28
 -18940126.41649 -14744481.78348  20397944.6404   20397949.8094   20397944.409
        54.0004         49.0004
 -13411988.87148 -10419714.52847  22155863.9684   22155868.8694   22155863.232
        49.0004         44.0004
 -16446717.94047 -12805723.14947  22523752.0934   22523759.2074   22523752.449
        47.0004         43.0004
 -10992829.47748  -8498093.81947  22270891.4984   22270896.6614   22270892.341
        49.0004         44.0004
 -23966973.25748 -18626609.01048  20333522.4564   20333528.6854   20333522.896
        53.0004         48.0004
  -9390833.57247  -7257141.65647  23518364.5744   23518371.8604   23518363.828
        46.0004         42.0004
   -299720.69247   -215471.17846  24163086.4004   24163095.8604   24163086.350
        43.0004         38.0004
 -25272956.15449 -19638769.73348  20308744.3164   20308750.5884   20308744.036
        54.0004         49.0004
 -12574787.79148  -9763280.29247  22335073.2044   22335081.5764   22335074.004
        48.0004         43.0004
 14  5 10  1 25 30.0000000  0  9G09G07G10G02G08G17G26G04G28
 -18890844.12649 -14706080.01048  20407322.3004   20407327.8954   20407322.457
        54.0004         49.0004
 -13316162.02948 -10345044.27447  22174098.4504   22174104.0424   22174098.514
        48.0004         44.0004
 -16518299.53447 -12861501.02647  22510130.3194   22510136.4154   22510131.433
        47.0004         43.0004
 -11051860.62448  -8544092.09347  22259658.9984   22259663.0534   22259659.333
        49.0004         44.0004
 -23912109.10748 -18583857.73048  20343963.3524   20343969.3124   20343963.476
        53.0004         48.0004
  -9357702.06147  -7231324.87147  23524669.1734   23524677.5744   23524669.161
        46.0004         42.0004
   -285429.41847   -204334.98446  24165805.9654   24165815.6684   24165805.515
        43.0004         38.0004
 -25283653.21149 -19647105.11248  20306709.0954   20306714.5914   20306708.276
        54.0004         49.0004
 -12633059.05948  -9808686.44347  22323985.6084   22323992.9774   22323986.076
        48.0004         44.0004
 14  5 10  1 26  0.0000000  0  9G09G07G10G02G08G17G26G04G28
 -18841074.66049 -14667298.61248  20416793.1754   20416799.2064   20416792.931
        54.0004         49.0004
 -13220096.17348 -10270187.77147  22192379.8954   22192384.2354   22192379.710
        48.0004         44.0004
 -16589888.77347 -12917284.85947  22496507.0264   22496514.4894   22496507.818
        47.0004         43.0004
 -11110493.96748  -8589780.38947  22248501.6764   22248505.0154   22248501.538
        49.0004         44.0004
 -23856682.91148 -18540668.49048  20354510.1094   20354516.5264   20354510.499
        53.0004         48.0004
  -9324747.98147  -7205646.34446  23530940.1534   23530947.3334   23530940.058
        46.0004         41.0004
   -271041.23247   -193123.26346  24168543.7244   24168552.0074   24168543.551
        43.0004         38.0004
 -25293794.81449 -19655007.66648  20304778.7114   20304785.1164   20304778.387
        54.0004         49.0004
 -12691261.14448  -9854038.68147  22312910.3164   22312917.0524   22312910.049
        48.0004         44.0004
 14  5 10  1 26 30.0000000  0  9G09G07G10G02G08G17G26G04G28
 -18790817.53849 -14628137.22948  20426356.7274   20426362.5094   20426356.747
        54.0004         49.0004
 -13123791.80048 -10195145.41447  22210705.5984   22210710.1374   22210705.637
        48.0004         44.0004
 -16661480.39147 -12973070.54147  22482883.6114   22482890.4854   22482884.574
        47.0004         43.0004
 -11168725.29448  -8635155.43347  22237419.6064   22237423.7604   22237420.510
        49.0004         44.0004
 -23800694.34648 -18497041.04848  20365164.4604   20365170.1634   20365164.805
        53.0004         48.0004
  -9291970.26247  -7180105.25347  23537178.0414   23537184.0354   23537177.225
        46.0004         42.0004
   -256555.52047   -181835.54546  24171300.9114   24171309.6544   24171299.540
        43.0004         38.0004
 -25303378.53148 -19662475.51448  20302955.1014   20302961.0884   20302954.875
        53.0004         49.0004
 -12749388.64748  -9899332.79647  22301848.7134   22301856.3694   22301848.773
        49.0004         44.0004
 14  5 10  1 27  0.0000000  0  9G09G07G10G02G08G17G26G04G28
 -18740077.23649 -14588599.33448  20436012.2554   20436018.1324   20436012.357
        54.0004         49.0004
 -13027253.59348 -10119920.85447  22229077.2034   22229081.5494   22229076.147
        48.0004         44.0004
 -16733074.03148 -13028857.79647  22469259.4724   22469267.7864   22469260.788
        48.0004         43.0004
 -11226555.22648  -8680217.70847  22226415.4794   22226419.3164   22226416.028
        49.0004         45.0004
 -23744148.02348 -18452978.98748  20375925.0824   20375930.7494   20375925.323
        52.0004         48.0004
  -9259372.14847  -7154704.08346  23543381.5464   23543388.8694   23543379.839
        46.0004         41.0004
   -241976.59647   -170475.20646  24174074.8754   24174084.0294   24174073.939
        43.0004         38.0004
 -25312406.24948 -19669510.12048  20301237.1714   20301243.4184   20301236.614
        53.0004         49.0004
 -12807440.65348  -9944568.08947  22290802.1684   22290809.4004   22290801.885
        49.0004         44.0004
 14  5 10  1 27 30.0000000  0  9G09G07G10G02G08G17G26G04G28
 -18688855.88649 -14548686.60248  20445759.3264   20445765.1664   20445759.219
        54.0004         49.0004
 -12930484.40748 -10044516.30447  22247491.1014   22247495.9404   22247490.798
        48.0004         44.0004
 -16804666.81048 -13084644.37847  22455637.2594   22455643.2224   22455637.117
        48.0004         43.0004
 -11283982.17548  -8724965.96147  22215487.2544   22215491.4244   22215487.606
        49.0004         44.0004
 -23687046.24248 -18408484.10448  20386791.0264   20386797.3574   20386791.251
        52.0004         48.0004
  -9226954.21747  -7129443.33846  23549550.4864   23549557.6374   23549549.337
        46.0004         41.0004
   -227306.42947   -159043.77146  24176865.0484   24176874.9194   24176865.283
        43.0004         38.0004
 -25320877.90549 -19676111.42248  20299624.7364   20299631.4654   20299624.724
        54.0004         49.0004
 -12865413.82548  -9989741.94947  22279769.5594   22279776.9774   22279769.609
        49.0004         44.0004
 14  5 10  1 28  0.0000000  0  9G09G07G10G02G08G17G26G04G28
 -18637157.50449 -14508402.14548  20455597.3374   20455602.9334   20455597.195
        54.0004         49.0004
 -12833488.73948  -9968935.27147  22265949.0494   22265952.6434   22265948.902
        48.0004         44.0004
 -16876257.68148 -13140429.47047  22442012.6784   22442019.9404   22442013.405
        48.0004         43.0004
 -11341006.28848  -8769400.32747  22204635.5224   22204640.5614   22204636.035
        49.0004         44.0004
 -23629392.98448 -18363559.50348  20397762.7164   20397767.9994   20397762.668
        52.0004         48.0004
  -9194719.37847  -7104325.25146  23555683.2574   23555691.5364   23555682.996
        46.0004         41.0004
   -212548.58647   -147544.02246  24179673.8814   24179682.9664   24179673.160
        43.0004         38.0004
 -25328795.32148 -19682280.85948  20298118.1944   20298124.6764   20298118.141
        53.0004         49.0004
 -12923307.04048 -10034853.49847  22268752.8764   22268760.8864   22268752.864
        49.0004         44.0004
 14  5 10  1 28 30.0000000  0  9G09G07G10G02G08G17G26G04G28
 -18584981.06549 -14467745.18348  20465526.2394   20465531.6044   20465526.121
        54.0004         49.0004
 -12736266.57048  -9893177.75147  22284449.4634   22284454.8314   22284449.277
        48.0004         44.0004
 -16947840.81948 -13196208.53347  22428391.6744   22428397.6334   22428392.335
        48.0004         43.0004
 -11397623.06848  -8813517.28647  22193861.9614   22193865.6984   22193862.567
        49.0004         44.0004
 -23571187.40348 -18318204.51048  20408838.4764   20408844.3874   20408838.361
        52.0004         48.0004
  -9162665.34747  -7079348.06446  23561783.3294   23561791.6914   23561782.838
        46.0004         41.0004
   -197702.17647   -135975.25146  24182499.1174   24182508.1324   24182499.324
        43.0004         38.0004
 -25336155.31948 -19688015.94248  20296717.9254   20296723.9124   20296717.531
        53.0004         49.0004
 -12981114.07948 -10079897.90047  22257753.8874   22257759.7114   22257752.789
        49.0004         44.0004
 14  5 10  1 29  0.0000000  0  9G09G07G10G02G08G17G26G04G28
 -18532330.69049 -14426718.91948  20475545.1284   20475550.5794   20475545.081
        54.0004         49.0004
 -12638822.33148  -9817247.18147  22302992.5564   22302997.4054   22302992.585
        48.0004         44.0004
 -17019415.20348 -13251980.77847  22414770.2364   22414777.8964   22414772.237
        48.0004         43.0004
 -11453832.65848  -8857316.95747  22183165.8334   22183169.3854   22183165.920
        49.0004         45.0004
 -23512433.34548 -18272422.13948  20420019.0654   20420025.0054   20420019.289
        52.0004         48.0004
  -9130794.85947  -7054513.89547  23567847.7394   23567855.9114   23567847.859
        46.0004         42.0004
   -182770.83047   -124340.30046  24185338.9584   24185348.3084   24185339.262
        43.0004         38.0004
 -25342959.63548 -19693318.02748  20295423.0834   20295429.0564   20295422.740
        53.0004         49.0004
 -13038833.34748 -10124873.91447  22246769.1684   22246775.8874   22246769.125
        49.0004         44.0004
 14  5 10  1 29 30.0000000  0  9G09G07G10G02G08G17G26G04G28
 -18479209.77349 -14385326.00048  20485653.5154   20485659.7354   20485653.554
        54.0004         49.0004
 -12541160.07848  -9741146.73347  22321577.4324   22321582.5334   22321576.754
        48.0004         43.0004
 -17090979.02848 -13307744.80147  22401153.0554   22401159.4434   22401153.915
        48.0004         43.0004
 -11509634.81548  -8900799.14347  22172546.8664   22172551.1854   22172547.382
        49.0004         45.0004
 -23453134.19248 -18226215.02348  20431303.0844   20431309.5334   20431303.369
        52.0004         48.0004
  -9099109.96647  -7029824.36047  23573877.3404   23573886.0114   23573877.468
        46.0004         42.0004
   -167757.73147   -112641.64546  24188195.5154   24188205.1174   24188196.646
        42.0004         38.0004
 -25349209.46848 -19698188.04948  20294233.5314   20294239.6184   20294233.489
        53.0004         49.0004
 -13096462.79048 -10169779.91447  22235801.2304   22235809.9214   22235802.620
        49.0004         44.0004
 14  5 10  1 30  0.0000000  0  9G09G07G10G02G08G17G26G04G28
 -18425621.42749 -14343568.85448  20495851.2504   20495857.0114   20495851.131
        54.0004         49.0004
 -12443283.17248  -9664879.02347  22340202.1094   22340207.3434   22340201.976
        48.0004         43.0004
 -17162530.44048 -13363499.15747  22387536.7244   22387543.2174   22387537.718
        48.0004         43.0004
 -11565029.00348  -8943963.43347  22162006.3984   22162010.6494   22162005.876
        49.0004         45.0004
 -23393293.07248 -18179585.60448  20442690.2584   20442696.6264   20442690.802
        52.0004         48.0004
  -9067612.34947  -7005280.74747  23579871.0084   23579878.5284   23579870.674
        46.0004         42.0004
   -152665.65347   -100881.45446  24191068.8044   24191077.3934   24191067.493
        42.0004         37.0004
 -25354905.72448 -19702626.71248  20293149.7874   20293156.0014   20293149.414
        53.0004         49.0004
 -13154000.35848 -10214614.34047  22224853.0164   22224859.9204   22224853.471
        48.0004         44.0004
 14  5 10  1 30 30.0000000  0  9G09G07G10G02G08G17G26G04G28
 -18371564.98749 -14301446.95748  20506137.8994   20506143.7404   20506138.000
        54.0004         49.0004
 -12345191.42048  -9588443.90047  22358867.6954   22358872.3564   22358868.150
        48.0004         43.0004
 -17234063.62848 -13419239.30547  22373924.7814   22373932.8244   22373925.798
        48.0004         43.0004
 -11620010.31748  -8986806.00647  22151543.4754   22151547.2664   22151543.857
        49.0004         45.0004
 -23332909.41448 -18132533.42348  20454180.8724   20454186.7664   20454181.596
        52.0004         48.0004
  -9036300.09747  -6980881.57246  23585829.1054   23585837.8344   23585829.374
        46.0004         41.0004
   -137493.71847    -89059.04046  24193955.0374   24193965.4714   24193955.776
        42.0004         38.0004
 -25360045.47848 -19706631.73248  20292171.7314   20292177.7874   20292171.373
        53.0004         49.0004
 -13211439.77048 -10259372.26547  22213923.0814   22213930.3994   22213922.942
        48.0004         44.0004
 14  5 10  1 31  0.0000000  0  9G09G07G10G02G08G17G26G04G28
 -18317046.53149 -14258965.04648  20516512.1164   20516517.9364   20516512.269
        54.0004         49.0004
 -12246891.50048  -9511846.56747  22377575.3674   22377579.2354   22377574.317
        48.0004         43.0004
 -17305579.74248 -13474966.15647  22360316.9454   22360322.5614   22360316.584
        48.0004         43.0004
 -11674581.07648  -9029328.67447  22141158.4404   22141162.7954   22141158.949
        49.0004         45.0004
 -23271989.18248 -18085063.13748  20465773.8954   20465779.5344   20465774.312
        52.0004         48.0004
  -9005177.77547  -6956630.40246  23591751.9604   23591759.3684   23591751.405
        46.0004         41.0004
   -122247.54047    -77178.75746  24196857.8374   24196865.1524   24196856.688
        42.0004         37.0004
 -25364632.58548 -19710206.12648  20291299.0794   20291304.6994   20291298.839
        53.0004         49.0004
 -13268781.53048 -10304054.11047  22203010.5774   22203018.5434   22203011.118
        48.0004         44.0004
 14  5 10  1 31 30.0000000  0  9G09G07G10G02G08G17G26G04G28
 -18262067.72549 -14216124.42048  20526974.3634   20526980.3294   20526974.319
        54.0004         49.0004
 -12148385.63248  -9435088.76147  22396319.5064   22396325.4314   22396319.032
        48.0004         43.0004
 -17377075.17648 -13530676.89447  22346710.4994   22346716.5204   22346711.877
        48.0004         43.0004
 -11728739.44748  -9071529.99547  22130853.2594   22130857.0214   22130853.053
        49.0004         45.0004
 -23210534.54748 -18037176.42848  20477468.2054   20477473.9744   20477468.841
        52.0004         48.0004
  -8974245.65847  -6932527.44846  23597637.2794   23597646.2034   23597637.671
        46.0004         41.0004
   -106928.52047    -65241.73846  24199772.3164   24199781.9254   24199771.354
        42.0004         37.0004
 -25368666.48849 -19713349.44948  20290530.9884   20290537.7134   20290530.713
        54.0004         49.0004
 -13326021.97248 -10348656.99947  22192118.3784   22192125.5214   22192118.433
        48.0004         44.0004
 14  5 10  1 32  0.0000000  0  9G09G07G10G02G08G17G26G04G28
 -18206630.33649 -14172926.46248  20537523.5464   20537529.6294   20537523.791
        54.0004         49.0004
 -12049675.62148  -9358171.88247  22415103.6464   22415107.6664   22415102.874
        48.0004         43.0004
 -17448546.51548 -13586368.85647  22333110.2624   22333117.2374   22333110.756
        48.0004         43.0004
 -11782483.44248  -9113408.42247  22120624.9934   22120630.1404   22120625.668
        49.0004         45.0004
 -23148547.11048 -17988874.55248  20489264.1644   20489270.3664   20489264.500
        52.0004         48.0004
  -8943503.63447  -6908572.60347  23603488.7594   23603495.5934   23603487.955
        46.0004         42.0004
    -91538.16847    -53249.11546  24202700.2194   24202709.0834   24202699.931
        42.0004         38.0004
 -25372146.79849 -19716061.39948  20289868.9944   20289875.4124   20289868.719
        54.0004         49.0004
 -13383157.38048 -10393178.04047  22181245.5124   22181253.0344   22181245.663
        48.0004         44.0004
 14  5 10  1 32 30.0000000  0  9G09G07G10G02G08G17G26G04G28
 -18150737.39849 -14129373.53348  20548160.2584   20548165.6114   20548160.009
        54.0004         49.0004
 -11950765.08748  -9281098.74747  22433925.8504   22433930.2334   22433925.135
        48.0004         43.0004
 -17519991.58448 -13642040.36047  22319515.0484   22319521.2114   22319515.551
        48.0004         44.0004
 -11835812.13648  -9154963.24047  22110477.8544   22110481.8564   22110477.775
        49.0004         45.0004
 -23086029.59448 -17940159.62948  20501160.8524   20501166.9464   20501161.172
        52.0004         48.0004
  -8912953.23147  -6884767.08947  23609302.0034   23609309.5184   23609301.418
        46.0004         42.0004
    -76078.95647    -41202.84946  24205641.8864   24205651.1234   24205641.510
        42.0004         38.0004
 -25375074.24449 -19718342.55748  20289311.7714   20289318.1454   20289311.841
        54.0004         49.0004
 -13440185.28348 -10437615.33147  22170395.0624   22170400.9504   22170394.149
        48.0004         44.0004
 14  5 10  1 33  0.0000000  0  9G09G07G10G02G08G17G26G04G28
 -18094391.54648 -14085467.67648  20558881.9554   20558887.6934   20558881.921
        53.0004         49.0004
 -11851657.14748  -9203871.79147  22452784.3194   22452790.3274   22452784.754
        48.0004         43.0004
 -17591407.71948 -13697689.33147  22305924.8294   22305930.7164   22305925.487
        48.0004         44.0004
 -11888724.53948  -9196193.67647  22100409.7794   22100412.9034   22100408.979
        49.0004         45.0004
 -23022984.92248 -17891033.93048  20513158.4104   20513163.6014   20513158.227
        52.0004         48.0004
  -8882596.01747  -6861112.11346  23615078.7664   23615086.2634   23615077.811
        46.0004         41.0004
    -60553.15247    -29104.70746  24208596.6194   24208606.8544   24208595.839
        42.0004         38.0004
 -25377449.45449 -19720193.39048  20288859.7414   20288866.1534   20288859.369
        54.0004         49.0004
 -13497102.56448 -10481966.40447  22159562.1594   22159570.5624   22159562.707
        48.0004         44.0004
 14  5 10  1 33 30.0000000  0  9G09G07G10G02G08G17G26G04G28
 -18037596.96248 -14041212.15548  20569689.6634   20569695.3574   20569689.849
        53.0004         49.0004
 -11752356.48248  -9126494.67347  22471681.7594   22471685.8814   22471681.178
        48.0004         43.0004
 -17662794.19748 -13753315.18747  22292339.9694   22292346.9474   22292340.941
        48.0004         44.0004
 -11941221.10348  -9237100.08847  22090418.7614   22090423.1184   22090419.069
        49.0004         45.0004
 -22959417.39948 -17841500.82048  20525254.4104   20525260.5594   20525254.696
        52.0004         48.0004
  -8852434.32547  -6837609.50546  23620817.1974   23620826.2884   23620817.677
        46.0004         41.0004
    -44964.57947    -16957.64546  24211562.6404   24211572.2634   24211562.376
        43.0004         38.0004
 -25379274.48548 -19721615.51948  20288512.8274   20288519.0464   20288512.730
        53.0004         49.0004
 -13553908.15648 -10526230.44647  22148753.0534   22148760.7684   22148752.865
        48.0004         44.0004
 14  5 10  1 34  0.0000000  0  9G09G07G10G02G08G17G26G04G28
 -17980353.21048 -13996606.62848  20580582.7814   20580588.7414   20580582.997
        53.0004         49.0004
 -11652863.14448  -9048967.40247  22490615.6134   22490618.4164   22490614.108
        48.0004         43.0004
 -17734144.92448 -13808913.16547  22278762.8414   22278768.5954   22278763.284
        48.0004         44.0004
 -11993297.70648  -9277679.25047  22080509.1694   22080513.3854   22080509.174
        49.0004         45.0004
 -22895327.05748 -17791560.31748  20537450.2534   20537456.4594   20537450.735
        52.0004         48.0004
  -8822466.08647  -6814257.61346  23626520.8404   23626528.6164   23626520.491
        46.0004         41.0004
    -29312.51547     -4761.08846  24214540.5884   24214549.6494   24214540.778
        43.0004         38.0004
 -25380546.82148 -19722606.98048  20288270.3544   20288276.7704   20288270.277
        53.0004         49.0004
 -13610596.09848 -10570402.81547  22137966.0284   22137973.2504   22137965.695
        48.0004         44.0004
 14  5 10  1 34 30.0000000  0  9G09G07G10G02G08G17G26G04G28
 -17922664.97648 -13951654.75948  20591560.7454   20591566.4804   20591560.485
        53.0004         49.0004
 -11553181.98548  -8971293.78247  22509582.8244   22509586.2604   22509583.064
        48.0004         43.0004
 -17805459.17848 -13864482.72847  22265191.9734   22265199.3034   22265192.699
        48.0004         44.0004
 -12044955.20348  -9317931.84147  22070678.8934   22070683.0884   22070679.251
        49.0004         45.0004
 -22830718.26148 -17741215.81948  20549745.0054   20549751.2604   20549745.224
        52.0004         48.0004
  -8792694.44347  -6791058.89846  23632186.1664   23632194.4834   23632185.921
        46.0004         41.0004
    -13601.09447      7481.71046  24217530.0204   24217539.3304   24217530.116
        43.0004         38.0004
 -25381268.81948 -19723169.60048  20288133.2874   20288139.5704   20288132.977
        53.0004         49.0004
 -13667165.23748 -10614482.62447  22127200.0494   22127207.6344   22127200.733
        49.0004         44.0004
 14  5 10  1 35  0.0000000  0  9G09G07G10G02G08G17G26G04G28
 -17864535.14348 -13906358.78048  20602622.1704   20602628.5114   20602622.423
        53.0004         49.0004
 -11453316.28747  -8893476.35547  22528585.9194   22528591.1884   22528586.230
        47.0004         43.0004
 -17876735.10648 -13920022.43747  22251628.5384   22251634.9374   22251629.640
        48.0004         44.0004
 -12096192.65848  -9357857.11747  22060928.2054   22060933.6074   22060928.919
        49.0004         45.0004
 -22765594.23848 -17690469.85248  20562138.1084   20562144.0494   20562138.138
        52.0004         48.0004
  -8763120.79247  -6768014.47646  23637813.4564   23637821.9774   23637813.516
        46.0004         41.0004
      2167.12847     19768.76746  24220533.1134   24220538.6864   24220532.283
        43.0004         38.0004
 -25381441.46548 -19723304.15948  20288100.8044   20288106.7174   20288100.282
        53.0004         49.0004
 -13723612.72048 -10658467.62547  22116458.2054   22116466.2964   22116459.124
        49.0004         44.0004
 14  5 10  1 35 30.0000000  0  9G09G07G10G02G08G17G26G04G28
 -17805966.01848 -13860720.50148  20613767.6574   20613773.3354   20613767.789
        53.0004         49.0004
 -11353268.72047  -8815517.23347  22547626.2684   22547629.9504   22547625.144
        47.0004         43.0004
 -17947969.55648 -13975529.81947  22238073.7284   22238079.5304   22238074.039
        48.0004         44.0004
 -12147008.64348  -9397453.98947  22051258.8274   22051262.7014   22051258.851
        49.0004         45.0004
 -22699957.29848 -17639324.20948  20574628.2154   20574634.4114   20574628.279
        52.0004         48.0004
  -8733745.62247  -6745124.71946  23643404.0464   23643411.7194   23643403.260
        46.0004         41.0004
     17990.33247     32098.66446  24223541.2084   24223551.1194   24223542.199
        43.0004         38.0004
 -25381065.08748 -19723010.90548  20288172.0994   20288178.1134   20288171.331
        53.0004         49.0004
 -13779935.58648 -10702355.51747  22105741.2774   22105748.3324   22105741.385
        49.0004         44.0004
 14  5 10  1 36  0.0000000  0  9G09G07G10G02G08G17G26G04G28
 -17746959.98948 -13814741.77748  20624996.0144   20625001.8954   20624996.171
        53.0004         49.0004
 -11253042.14347  -8737418.62047  22566696.9894   22566703.2814   22566697.934
        47.0004         42.0004
 -18019159.54048 -14031002.54647  22224525.9974   22224533.0284   22224526.876
        49.0004         44.0004
 -12197402.30648  -9436721.76847  22041669.1634   22041673.7544   22041669.587
        50.0004         45.0004
 -22633809.86748 -17587780.78547  20587215.7864   20587221.4624   20587215.871
        52.0004         47.0004
  -8704569.90547  -6722390.37046  23648956.3864   23648963.4424   23648955.024
        46.0004         41.0004
     33866.53947     44469.88646  24226563.3934   24226571.6664   24226563.997
        43.0004         38.0004
 -25380139.96248 -19722290.05148  20288348.2164   20288354.2274   20288348.039
        53.0004         49.0004
 -13836130.48648 -10746143.69947  22095047.7014   22095054.1624   22095047.809
        49.0004         44.0004
 14  5 10  1 36 30.0000000  0  9G09G07G10G02G08G17G26G04G28
 -17687519.94648 -13768424.86348  20636307.4344   20636313.0074   20636307.092
        53.0004         49.0004
 -11152639.45547  -8659182.76947  22585804.4614   22585807.8204   22585803.284
        47.0004         43.0004
 -18090302.46948 -14086438.61047  22210988.2624   22210994.2944   22210989.549
        49.0004         44.0004
 -12247372.32948  -9475659.44147  22032160.5304   22032165.0524   22032160.207
        50.0004         45.0004
 -22567154.78948 -17535841.79047  20599899.7834   20599906.0304   20599900.038
        52.0004         47.0004
  -8675593.54247  -6699811.37546  23654470.0294   23654477.2794   23654469.803
        46.0004         41.0004
     49793.45647     56880.58846  24229594.0614   24229603.3244   24229593.055
        43.0004         38.0004
 -25378666.50548 -19721141.93548  20288628.5344   20288634.7404   20288628.045
        53.0004         49.0004
 -13892194.38948 -10789829.80547  22084379.0114   22084385.9864   22084378.937
        49.0004         44.0004
 14  5 10  1 37  0.0000000  0  9G09G07G10G02G08G17G26G04G28
 -17627649.20148 -13721772.33848  20647700.2834   20647706.0944   20647700.390
        53.0004         49.0004
 -11052064.41347  -8580812.62047  22604942.6174   22604947.7464   22604941.850
        47.0004         42.0004
 -18161396.35448 -14141836.45447  22197459.4924   22197465.8324   22197460.416
        49.0004         44.0004
 -12296918.23148  -9514266.62947  22022732.4234   22022736.4524   22022732.222
        50.0004         45.0004
 -22499995.83048 -17483510.16047  20612679.2664   20612685.7304   20612679.777
        52.0004         47.0004
  -8646819.77047  -6677390.23946  23659945.4874   23659953.2944   23659945.192
        46.0004         41.0004
     65768.27047     69328.63346  24232632.9084   24232641.8484   24232633.568
        43.0004         38.0004
 -25376646.43848 -19719567.87548  20289013.1074   20289019.2044   20289012.639
        53.0004         49.0004
 -13948125.12448 -10833412.14947  22073734.9284   22073742.4514   22073735.728
        49.0004         44.0004
 14  5 10  1 37 30.0000000  0  9G09G07G10G02G08G17G26G04G28
 -17567351.13048 -13674786.83048  20659174.4684   20659180.1034   20659174.384
        53.0004         49.0004
 -10951320.69747  -8502311.03847  22624112.9454   22624118.3284   22624113.009
        47.0004         42.0004
 -18232439.04648 -14197194.39947  22183940.5734   22183948.7574   22183941.397
        49.0004         44.0004
 -12346040.12348  -9552543.42747  22013384.4734   22013388.7234   22013384.648
        50.0004         45.0004
 -22432336.48648 -17430788.62147  20625554.6194   20625560.9064   20625555.023
        52.0004         47.0004
  -8618249.59947  -6655127.71946  23665381.5384   23665388.6924   23665381.971
        46.0004         41.0004
     81788.05147     81811.70346  24235682.2984   24235691.5244   24235681.676
        43.0004         38.0004
 -25374080.95048 -19717568.81148  20289501.5154   20289507.9464   20289500.978
        53.0004         49.0004
 -14003920.32548 -10876888.87347  22063118.1194   22063124.1364   22063118.612
        49.0004         44.0004
 14  5 10  1 38  0.0000000  0  9G09G07G10G02G08G17G26G04G28
 -17506624.94948 -13627467.72348  20670730.4554   20670736.3494   20670730.258
        53.0004         49.0004
 -10850407.48947  -8423677.39147  22643317.0054   22643321.4494   22643316.055
        47.0004         42.0004
 -18303424.21448 -14252507.52247  22170433.2214   22170439.3364   22170433.377
        49.0004         44.0004
 -12394733.08948  -9590485.99947  22004117.9674   22004122.9204   22004118.868
        50.0004         45.0004
 -22364175.85248 -17377676.46847  20638525.4014   20638531.5004   20638525.700
        52.0004         47.0004
  -8589880.29147  -6633021.74246  23670780.2384   23670787.7594   23670780.032
        46.0004         41.0004
     97854.19547     94330.89946  24238740.0354   24238747.1734   24238739.579
        43.0004         38.0004
 -25370967.09948 -19715142.44948  20290093.7514   20290100.0824   20290093.385
        53.0004         49.0004
 -14059573.35148 -10920254.82347  22052527.4684   22052535.2174   22052527.914
        49.0004         44.0004
 14  5 10  1 38 30.0000000  0  9G09G07G10G02G08G17G26G04G28
 -17445478.77148 -13579821.34248  20682366.4054   20682372.1184   20682366.313
        53.0004         49.0004
 -10749333.67347  -8344918.57347  22662550.9974   22662555.8714   22662549.914
        47.0004         42.0004
 -18374354.69048 -14307778.04247  22156935.5854   22156941.7534   22156935.960
        49.0004         44.0004
 -12443001.93248  -9628098.09047  21994932.5364   21994937.5954   21994932.729
        50.0004         45.0004
 -22295522.15748 -17324180.10447  20651589.5254   20651595.3064   20651589.853
        52.0004         47.0004
  -8561718.09047  -6611077.15646  23676140.2184   23676146.1204   23676139.097
        45.0004         41.0004
    113958.92947    106880.15946  24241804.2244   24241812.0914   24241804.078
        43.0004         38.0004
 -25367311.10348 -19712293.63848  20290789.6434   20290796.0104   20290789.201
        53.0004         49.0004
 -14115086.81948 -10963512.02347  22041963.8854   22041971.1154   22041963.907
        49.0004         44.0004
 14  5 10  1 39  0.0000000  0  9G09G07G10G02G08G17G26G04G28
 -17383910.69249 -13531846.21648  20694082.1064   20694087.8144   20694082.318
        54.0004         49.0004
 -10648097.09347  -8266032.94647  22681814.8174   22681819.8164   22681815.644
        47.0004         42.0004
 -18445222.77248 -14362999.93847  22143449.3974   22143456.5084   22143449.914
        49.0004         44.0004
 -12490840.65848  -9665375.01147  21985829.7794   21985834.2334   21985830.108
        50.0004         45.0004
 -22226373.53848 -17270298.09347  20664748.4954   20664753.9804   20664748.487
        52.0004         47.0004
  -8533759.10947  -6589290.90646  23681459.8124   23681466.7234   23681459.813
        45.0004         41.0004
    130104.99247    119461.62746  24244875.7484   24244884.7734   24244875.443
        43.0004         38.0004
 -25363109.06248 -19709019.33748  20291589.1134   20291595.2334   20291588.592
        53.0004         49.0004
 -14170452.79448 -11006654.29047  22031428.0284   22031434.9774   22031428.461
        49.0004         44.0004
 14  5 10  1 39 30.0000000  0  9G09G07G10G02G08G17G26G04G28
 -17321926.41549 -13483546.78248  20705877.3814   20705883.0514   20705877.566
        54.0004         49.0004
 -10546703.70347  -8187025.12847  22701110.2084   22701114.1594   22701109.647
        47.0004         43.0004
 -18516028.79448 -14418173.47147  22129975.3024   22129981.8974   22129976.041
        49.0004         44.0004
 -12538251.28348  -9702318.36047  21976807.5984   21976812.4874   21976807.671
        50.0004         45.0004
 -22156735.80348 -17216034.94747  20678000.2244   20678005.9674   20677999.947
        52.0004         47.0004
  -8506007.25547  -6567666.06046  23686741.0514   23686748.5864   23686740.762
        46.0004         41.0004
    146287.22247    132071.26846  24247956.0324   24247963.5234   24247955.842
        43.0004         38.0004
 -25358364.59348 -19705322.36848  20292492.0094   20292498.4484   20292491.777
        53.0004         49.0004
 -14225671.37748 -11049681.70547  22020919.8734   22020927.8094   22020920.413
        49.0004         44.0004
 14  5 10  1 40  0.0000000  0  9G09G07G10G02G08G17G26G04G28
 -17259529.07648 -13434925.48748  20717750.9924   20717757.2714   20717751.139
        53.0004         49.0004
 -10445157.03047  -8107897.85847  22720433.4954   22720438.1364   22720432.876
        47.0004         42.0004
 -18586770.54548 -14473296.91547  22116514.0694   22116521.3814   22116514.518
        49.0004         44.0004
 -12585233.27148  -9738927.70147  21967866.9004   21967871.2394   21967867.602
        50.0004         45.0004
 -22086612.66048 -17161393.56047  20691343.6874   20691349.4754   20691344.091
        52.0004         47.0004
  -8478464.08847  -6546203.81046  23691981.3044   23691989.4114   23691981.388
        46.0004         41.0004
    162502.92247    144707.00546  24251041.1734   24251049.0244   24251040.292
        42.0004         38.0004
 -25353079.06048 -19701203.80048  20293498.0164   20293504.1574   20293497.421
        53.0004         49.0004
 -14280740.09548 -11092592.34547  22010441.0304   22010448.1614   22010440.981
        49.0004         44.0004
 14  5 10  1 40 30.0000000  0  9G09G07G10G02G08G17G26G04G28
 -17196717.02748 -13385981.03948  20729704.0864   20729709.4494   20729704.133
        53.0004         49.0004
 -10343455.49747  -8028649.93547  22739787.0314   22739790.7014   22739785.630
        47.0004         42.0004
 -18657440.87048 -14528364.70547  22103065.8184   22103072.1824   22103066.308
        49.0004         44.0004
 -12631781.42648  -9775198.99047  21959009.2554   21959014.1984   21959009.461
        50.0004         45.0004
 -22016002.21748 -17106372.45847  20704780.8984   20704786.5134   20704780.956
        52.0004         47.0004
  -8451125.87247  -6524901.29046  23697184.2764   23697191.9264   23697183.362
        45.0004         40.0004
    178754.39547    157370.62546  24254134.0694   24254141.9914   24254133.697
        43.0004         38.0004
 -25347248.56248 -19696660.58048  20294607.0064   20294613.8424   20294607.107
        53.0004         49.0004
 -14335651.29448 -11135380.23947  21999991.7434   21999998.5054   21999991.778
        49.0004         44.0004
 14  5 10  1 41  0.0000000  0  9G09G07G10G02G08G17G26G04G28
 -17133499.51148 -13336720.65048  20741734.0174   20741739.6614   20741733.695
        53.0004         49.0004
 -10241608.52947  -7949288.68347  22759167.8984   22759172.3224   22759167.316
        47.0004         42.0004
 -18728043.42148 -14583379.68647  22089629.9044   22089636.2694   22089630.998
        49.0004         44.0004
 -12677901.55248  -9811136.74847  21950233.2604   21950237.3344   21950233.923
        50.0004         45.0004
 -21944913.99348 -17050979.07247  20718308.3954   20718314.1044   20718308.582
        52.0004         47.0004
  -8423999.73747  -6503764.00346  23702346.8024   23702354.7164   23702345.866
        45.0004         40.0004
    195033.07447    170055.42746  24257230.6894   24257239.7314   24257230.632
        42.0004         38.0004
 -25340880.53948 -19691698.51048  20295819.3584   20295825.2654   20295818.725
        53.0004         49.0004
 -14390408.44748 -11178048.09947  21989571.0244   21989579.1964   21989571.891
        49.0004         44.0004
 14  5 10  1 41 30.0000000  0  9G09G07G10G02G08G17G26G04G28
 -17069876.11948 -13287143.98748  20753840.8914   20753846.7204   20753841.125
        53.0004         49.0004
 -10139615.85747  -7869813.88847  22778576.4544   22778580.7934   22778576.369
        47.0004         42.0004
 -18798572.18748 -14638337.17047  22076208.7434   22076215.4944   22076209.996
        49.0004         44.0004
 -12723589.58748  -9846737.81447  21941539.6124   21941543.8074   21941539.008
        50.0004         45.0004
 -21873347.88148 -16995213.29647  20731926.9864   20731933.1874   20731927.006
        52.0004         47.0004
  -8397083.45347  -6482790.24446  23707468.3224   23707476.0914   23707468.293
        45.0004         41.0004
    211339.88547    182762.14246  24260334.6334   24260342.8904   24260334.314
        43.0004         38.0004
 -25333972.71948 -19686315.82048  20297133.7864   20297140.0344   20297133.499
        53.0004         49.0004
 -14445005.32848 -11220591.07447  21979181.8914   21979189.3834   21979182.114
        49.0004         44.0004
 14  5 10  1 42  0.0000000  0  9G09G07G10G02G08G17G26G04G28
 -17005848.50648 -13237252.33748  20766025.1104   20766030.6474   20766024.750
        53.0004         49.0004
 -10037479.19447  -7790226.88947  22798012.3194   22798016.7004   22798011.613
        47.0004         42.0004
 -18869023.01148 -14693233.92347  22062803.1054   22062809.7434   22062803.648
        49.0004         44.0004
 -12768843.22648  -9882000.39247  21932927.8454   21932931.9654   21932927.694
        50.0004         45.0004
 -21801305.68748 -16939076.55047  20745636.1024   20745642.0864   20745636.655
        52.0004         47.0004
  -8370376.82747  -6461979.85946  23712550.3534   23712558.1984   23712550.091
        46.0004         41.0004
    227673.94447    195490.09846  24263442.4884   24263451.5504   24263442.157
        43.0004         38.0004
 -25326524.69348 -19680512.19848  20298550.9984   20298557.1864   20298550.592
        53.0004         49.0004
 -14499437.87948 -11263005.98947  21968824.4594   21968830.4234   21968823.741
        49.0004         44.0004
 14  5 10  1 42 30.0000000  0  9G09G07G10G02G08G17G26G04G28
 -16941421.29548 -13187049.30748  20778284.9504   20778291.2214   20778285.076
        53.0004         49.0004
  -9935203.55447  -7710531.60347  22817474.2774   22817479.8174   22817473.872
        47.0004         42.0004
 -18939395.01748 -14748069.26547  22049411.7074   22049418.2394   22049412.055
        49.0004         44.0004
 -12813663.62748  -9916925.37347  21924398.6424   21924402.4574   21924398.656
        50.0004         45.0004
 -21728792.07048 -16882572.45647  20759435.0734   20759441.3594   20759435.078
        52.0004         47.0004
  -8343882.20947  -6441334.64246  23717592.3274   23717599.0254   23717591.347
        46.0004         41.0004
    244031.18347    208236.11246  24266555.4444   24266563.9144   24266554.906
        43.0004         38.0004
 -25318539.30849 -19674289.84848  20300070.5634   20300076.8244   20300070.129
        54.0004         49.0004
 -14553704.73048 -11305291.80547  21958497.7934   21958504.3814   21958497.500
        49.0004         45.0004
 14  5 10  1 43  0.0000000  0  9G09G07G10G02G08G17G26G04G28
 -16876597.20748 -13136537.02548  20790620.7914   20790626.4254   20790620.509
        53.0004         49.0004
  -9832791.45447  -7630729.98347  22836962.5014   22836967.9844   22836962.520
        47.0004         42.0004
 -19009685.27448 -14802840.90647  22036035.9504   22036042.2694   22036036.310
        49.0004         44.0004
 -12858049.74548  -9951511.95547  21915952.3094   21915956.3714   21915952.605
        50.0004         45.0004
 -21655809.56548 -16825702.99347  20773323.2174   20773329.0444   20773323.615
        51.0004         47.0004
  -8317600.46047  -6420855.33246  23722593.3604   23722601.3794   23722592.806
        46.0004         41.0004
    260409.66547    220998.66646  24269671.7104   24269679.4734   24269671.513
        43.0004         38.0004
 -25310017.28449 -19667649.34048  20301692.6444   20301698.9154   20301692.138
        54.0004         49.0004
 -14607802.67848 -11347445.99747  21948203.3284   21948210.6324   21948202.925
        49.0004         45.0004
 14  5 10  1 43 30.0000000  0  9G09G07G10G02G08G17G26G04G28
 -16811378.72548 -13085717.42648  20803031.0664   20803036.8644   20803031.305
        53.0004         48.0004
  -9730245.64447  -7550824.19847  22856477.3784   22856482.1704   22856476.439
        47.0004         42.0004
 -19079890.83448 -14857546.54947  22022676.0234   22022682.7064   22022677.034
        49.0004         44.0004
 -12902000.30048  -9985759.13647  21907588.1664   21907593.0804   21907588.442
        50.0004         45.0004
 -21582361.12848 -16768470.46247  20787299.8614   20787305.6024   20787299.905
        51.0004         47.0004
  -8291531.96347  -6400542.18046  23727554.3424   23727560.6204   23727553.721
        46.0004         41.0004
    276807.50647    233776.32446  24272791.6104   24272800.5234   24272792.215
        42.0004         38.0004
 -25300959.29949 -19660591.20048  20303416.0604   20303422.5684   20303415.545
        54.0004         49.0004
 -14661728.51048 -11389466.08047  21937940.7184   21937948.4174   21937941.328
        49.0004         45.0004
 14  5 10  1 44  0.0000000  0  9G09G07G10G02G08G17G26G04G28
 -16745769.82848 -13034593.61248  20815516.2824   20815521.8404   20815516.316
        53.0004         48.0004
  -9627570.43847  -7470817.56147  22876014.8474   22876019.8174   22876014.899
        47.0004         42.0004
 -19150009.80648 -14912184.71547  22009332.4784   22009339.7514   22009333.473
        49.0004         44.0004
 -12945515.88248 -10019667.37947  21899307.3284   21899312.1514   21899308.229
        50.0004         45.0004
 -21508450.78648 -16710878.01147  20801364.4884   20801371.1184   20801365.074
        52.0004         47.0004
  -8265678.60447  -6380396.66046  23732473.2294   23732481.1244   23732472.793
        46.0004         41.0004
    293221.50147    246566.55046  24275915.2324   24275923.9914   24275914.985
        42.0004         38.0004
 -25291367.63249 -19653117.20748  20305241.4484   20305247.4014   20305240.929
        54.0004         49.0004
 -14715480.10148 -11431350.38647  21927712.6834   21927719.0034   21927712.555
        49.0004         45.0004
 14  5 10  1 44 30.0000000  0  9G09G07G10G02G08G17G26G04G28
 -16679771.45448 -12983166.31148  20828075.2414   20828081.3604   20828075.277
        53.0004         48.0004
  -9524766.70747  -7390710.77447  22895577.3984   22895583.2984   22895577.376
        47.0004         42.0004
 -19220037.53448 -14966751.78847  21996007.2904   21996013.2304   21996008.163
        49.0004         44.0004
 -12988593.77148 -10053234.56547  21891110.5324   21891114.5524   21891110.381
        50.0004         45.0004
 -21434079.81248 -16652926.62447  20815517.3334   20815523.2844   20815517.473
        51.0004         47.0004
  -8240039.39347  -6360418.01946  23737352.4424   23737360.6634   23737352.189
        46.0004         41.0004
    309651.16747    259369.00646  24279042.3404   24279049.1844   24279041.776
        43.0004         38.0004
 -25281241.18949 -19645226.50048  20307168.6864   20307174.8274   20307168.046
        54.0004         49.0004
 -14769052.98248 -11473095.44047  21917517.3844   21917523.9444   21917518.127
        49.0004         45.0004
 14  5 10  1 45  0.0000000  0  9G09G07G10G02G08G17G26G04G28
 -16613387.21148 -12931438.33848  20840707.8274   20840713.7444   20840707.996
        53.0004         48.0004
  -9421837.74947  -7310506.41547  22915165.3034   22915170.4084   22915164.257
        47.0004         42.0004
 -19289971.97748 -15021246.16947  21982698.3724   21982705.6384   21982699.149
        49.0004         44.0004
 -13031234.15148 -10086460.82747  21882996.4424   21883000.3384   21882996.259
        50.0004         45.0004
 -21359252.32048 -16594619.50747  20829756.0814   20829762.5944   20829756.176
        51.0004         47.0004
  -8214615.60647  -6340607.23246  23742189.9344   23742197.7324   23742190.525
        46.0004         41.0004
    326093.75347    272181.53446  24282171.8734   24282178.3724   24282170.882
        43.0004         38.0004
 -25270581.79949 -19636920.51148  20309196.5924   20309202.9934   20309196.363
        54.0004         49.0004
 -14822444.65048 -11514699.28647  21907357.7974   21907364.9324   21907357.823
        49.0004         45.0004
 14  5 10  1 45 30.0000000  0  9G09G07G10G02G08G17G26G04G28
 -16546622.71448 -12879414.06248  20853412.7994   20853418.6704   20853412.645
        53.0004         48.0004
  -9318788.99647  -7230208.71147  22934774.6714   22934777.8474   22934774.295
        46.0004         42.0004
 -19359812.95148 -15075667.71947  21969408.3674   21969415.0574   21969409.296
        49.0004         44.0004
 -13073438.85548 -10119347.61347  21874964.9724   21874969.3134   21874965.331
        50.0004         46.0004
 -21283973.42048 -16535960.64247  20844081.2644   20844087.4014   20844081.450
        51.0004         47.0004
  -8189409.97547  -6320966.44346  23746986.8684   23746994.0424   23746987.088
        46.0004         41.0004
    342544.47747    285000.37546  24285302.1874   24285309.8714   24285301.152
        43.0004         38.0004
 -25259393.18849 -19628202.14048  20311325.8744   20311332.2174   20311325.557
        54.0004         49.0004
 -14875654.00348 -11556161.07247  21897232.4964   21897239.4224   21897232.763
        49.0004         45.0004
 14  5 10  1 46  0.0000000  0  9G09G07G10G02G08G17G26G04G28
 -16479476.96848 -12827092.71048  20866190.2814   20866196.2354   20866190.293
        53.0004         48.0004
  -9215619.90947  -7149817.23346  22954406.1884   22954412.3184   22954406.134
        46.0004         41.0004
 -19429553.80348 -15130011.25047  21956137.9414   21956143.0384   21956138.122
        49.0004         44.0004
 -13115203.48048 -10151891.48547  21867017.4614   21867021.2084   21867017.596
        50.0004         46.0004
 -21208242.71348 -16476949.72747  20858492.8474   20858498.0874   20858492.549
        51.0004         47.0004
  -8164420.41547  -6301494.03546  23751743.0304   23751749.9664   23751742.121
        46.0004         41.0004
    359005.04147    297826.89246  24288434.3324   24288442.1284   24288434.045
        43.0004         38.0004
 -25247672.59749 -19619069.23748  20313556.0494   20313562.6504   20313555.940
        54.0004         49.0004
 -14928675.07048 -11597476.12947  21887142.2874   21887149.1074   21887142.770
        49.0004         45.0004
 14  5 10  1 46 30.0000000  0  9G09G07G10G02G08G17G26G04G28
 -16411954.87448 -12774478.10148  20879039.3094   20879044.9074   20879039.190
        53.0004         48.0004
  -9112335.24947  -7069335.70547  22974061.8354   22974067.5174   22974060.269
        46.0004         42.0004
 -19499193.59448 -15184276.03147  21942885.3114   21942892.6104   21942886.092
        49.0004         44.0004
 -13156529.01148 -10184093.19547  21859153.4394   21859158.0174   21859153.836
        50.0004         46.0004
 -21132065.03348 -16417590.51747  20872988.3834   20872994.4434   20872988.589
        51.0004         46.0004
  -8139649.31947  -6282191.85146  23756456.4694   23756462.7094   23756455.612
        46.0004         41.0004
    375471.35447    310657.89946  24291566.6924   24291574.5074   24291566.625
        43.0004         38.0004
 -25235423.04349 -19609524.15248  20315887.2934   20315893.6154   20315887.142
        54.0004         49.0004
 -14981506.43148 -11638643.38047  21877089.0394   21877096.5444   21877089.251
        49.0004         45.0004
 14  5 10  1 47  0.0000000  0 10G09G07G10G02G08G17G26G04G05G28
 -16344060.58448 -12721573.47648  20891959.2434   20891965.0364   20891959.220
        53.0004         48.0004
  -9008939.31047  -6988767.47847  22993736.4184   22993742.4214   22993736.549
        46.0004         42.0004
 -19568730.67648 -15238460.77947  21929653.2364   21929659.7074   21929653.646
        49.0004         45.0004
 -13197416.23648 -10215953.38147  21851372.5434   21851377.7364   21851372.853
        50.0004         46.0004
 -21055444.98448 -16357886.61247  20887568.9844   20887574.4224   20887569.148
        51.0004         47.0004
  -8115098.69547  -6263061.46346  23761128.1594   23761134.9664   23761127.260
        46.0004         41.0004
    391940.03947    323490.74546  24294701.7234   24294709.2734   24294701.360
        43.0004         38.0004
 -25222647.14749 -19599568.93948  20318318.4404   20318324.8534   20318318.179
        54.0004         49.0004
  -1552982.79548  -1166474.16246  25135746.0514   25135753.8504   25135745.489
        50.0004         36.0004
 -15034146.61148 -11679661.66247  21867071.8984   21867078.7164   21867071.849
        49.0004         45.0004
 14  5 10  1 47 30.0000000  0 10G09G07G10G02G08G17G26G04G05G28
 -16275796.36048 -12668380.58748  20904949.3364   20904955.3454   20904949.421
        53.0004         48.0004
  -8905434.31147  -6908114.25046  23013433.7954   23013437.8374   23013432.476
        46.0004         41.0004
 -19638161.63348 -15292562.81547  21916441.3724   21916448.0164   21916441.702
        49.0004         45.0004
 -13237864.13548 -10247471.23147  21843676.0564   21843680.0764   21843675.965
        50.0004         45.0004
 -20978384.86648 -16297839.78647  20902233.2664   20902239.1554   20902233.407
        51.0004         46.0004
  -8090768.39247  -6244102.75446  23765757.3944   23765764.4644   23765757.669
        46.0004         41.0004
    408409.41347    336324.13446  24297834.7754   24297843.2654   24297833.542
        42.0004         38.0004
 -25209345.52849 -19589204.07248  20320849.9234   20320856.3184   20320849.400
        54.0004         49.0004
  -1638050.63747  -1232760.60146  25119558.4804   25119564.4894   25119556.308
        45.0004         36.0004
 -15086591.76648 -11720527.97147  21857091.8534   21857097.8814   21857092.235
        49.0004         45.0004
 14  5 10  1 48  0.0000000  0 10G09G07G10G02G08G17G26G04G05G28
 -16207161.40448 -12614898.82448  20918010.3814   20918015.8604   20918010.564
        53.0004         48.0004
  -8801819.54747  -6827375.51546  23033150.4054   23033156.2784   23033150.139
        46.0004         41.0004
 -19707479.89248 -15346577.04947  21903250.1964   21903256.4374   21903250.372
        49.0004         45.0004
 -13277868.30948 -10278643.33247  21836063.0064   21836066.5134   21836063.437
        50.0004         46.0004
 -20900884.23648 -16237449.70447  20916980.9554   20916987.2954   20916981.045
        51.0004         46.0004
  -8066655.47047  -6225313.43846  23770347.1934   23770354.0854   23770345.907
        46.0004         41.0004
    424881.21947    349159.41046  24300967.5074   24300976.0274   24300968.923
        42.0004         38.0004
 -25195515.19849 -19578427.22248  20323481.6594   20323487.9304   20323481.285
        54.0004         49.0004
  -1723304.38747  -1299191.89546  25103334.1414   25103342.1694   25103332.757
        42.0004         36.0004
 -15138835.09248 -11761237.02147  21847149.5914   21847157.4174   21847150.324
        49.0004         45.0004
 14  5 10  1 48 30.0000000  0 10G09G07G10G02G08G17G26G04G05G28
 -16138164.16148 -12561134.74748  20931139.9734   20931146.0974   20931139.915
        53.0004         48.0004
  -8698103.08347  -6746557.51646  23052886.6124   23052890.5474   23052886.363
        46.0004         41.0004
 -19776688.00348 -15400505.46747  21890080.6624   21890086.3314   21890081.222
        50.0004         45.0004
 -13317433.46648 -10309473.33147  21828534.1194   21828538.4714   21828534.654
        50.0004         46.0004
 -20822951.49048 -16176722.90747  20931811.0414   20931817.0274   20931811.205
        51.0004         46.0004
  -8042766.04147  -6206698.25946  23774893.0984   23774899.9774   23774891.570
        46.0004         41.0004
    441347.89247    361990.68446  24304101.0594   24304111.2784   24304102.165
        42.0004         38.0004
 -25181163.30949 -19567243.96148  20326212.9264   20326219.2524   20326212.440
        54.0004         49.0004
  -1808748.11546  -1365771.22246  25087075.2144   25087083.9994   25087072.855
        41.0004         37.0004
 -15190878.94248 -11801790.63747  21837247.0374   21837253.9934   21837246.909
        49.0004         45.0004
 14  5 10  1 49  0.0000000  0 10G09G07G10G02G08G17G26G04G05G28
 -16068805.32948 -12507088.91148  20944338.2214   20944344.3814   20944338.538
        53.0004         48.0004
  -8594285.66447  -6665660.86046  23072642.2794   23072647.2754   23072641.980
        46.0004         41.0004
 -19845781.18848 -15454344.31947  21876932.4344   21876938.5834   21876933.370
        50.0004         45.0004
 -13356557.09748 -10339959.28847  21821089.7454   21821093.8794   21821089.351
        50.0004         46.0004
 -20744587.65748 -16115660.19647  20946723.0404   20946729.1654   20946723.527
        51.0004         46.0004
  -8019098.47247  -6188255.95846  23779396.1224   23779403.8114   23779395.738
        45.0004         41.0004
    457809.32447    374817.85746  24307234.6314   24307242.5904   24307234.256
        42.0004         38.0004
 -25166288.54649 -19555653.25848  20329043.2124   20329049.6784   20329042.898
        54.0004         49.0004
  -1894377.88346  -1432495.47346  25070779.2934   25070786.1824   25070779.074
        41.0004         37.0004
 -15242718.27148 -11842184.87747  21827381.7494   21827389.3564   21827382.232
        49.0004         45.0004
 14  5 10  1 49 30.0000000  0 10G09G07G10G02G08G17G26G04G05G28
 -15999085.95448 -12452762.13548  20957605.6894   20957611.4074   20957605.616
        53.0004         48.0004
  -8490368.25347  -6584686.28146  23092417.0754   23092422.5784   23092416.965
        46.0004         41.0004
 -19914754.25048 -15508089.56447  21863806.5754   21863813.9924   21863807.407
        50.0004         45.0004
 -13395236.45248 -10370099.06547  21813728.6244   21813733.1874   21813728.910
        50.0004         46.0004
 -20665793.92348 -16054262.50447  20961717.1364   20961723.6204   20961717.508
        51.0004         46.0004
  -7995651.20747  -6169985.33346  23783858.7304   23783865.4374   23783857.524
        45.0004         40.0004
    474265.57447    387641.00546  24310366.1274   24310374.0394   24310366.011
        42.0004         38.0004
 -25150890.56949 -19543654.85848  20331973.7734   20331980.3534   20331973.199
        54.0004         49.0004
  -1980190.23647  -1499361.98846  25054449.3854   25054458.1484   25054449.314
        42.0004         37.0004
 -15294348.03148 -11882415.81447  21817557.1034   21817563.5064   21817557.147
        49.0004         45.0004
 14  5 10  1 50  0.0000000  0 10G09G07G10G02G08G17G26G04G05G28
 -15929013.27948 -12398160.05048  20970940.1144   20970945.7404   20970939.845
        53.0004         48.0004
  -8386358.01147  -6503639.37146  23112210.2624   23112215.8674   23112210.066
        46.0004         41.0004
 -19983608.59948 -15561742.31847  21850704.9224   21850710.0994   21850705.176
        50.0004         45.0004
 -13433474.98848 -10399895.34347  21806452.4394   21806456.8324   21806452.802
        50.0004         46.0004
 -20586577.92048 -15992535.76747  20976790.7524   20976797.5974   20976791.771
        51.0004         46.0004
  -7972429.35647  -6151890.33746  23788276.4594   23788283.8864   23788276.488
        45.0004         41.0004
    490710.25347    400455.13446  24313494.9604   24313502.7484   24313495.000
        42.0004         38.0004
 -25134974.47549 -19531252.73848  20335002.2954   20335008.8064   20335001.871
        54.0004         49.0004
  -2066187.82847  -1566372.81646  25038084.5384   25038093.5044   25038084.305
        42.0004         37.0004
 -15345769.31048 -11922484.30247  21807771.3694   21807778.8074   21807772.171
        49.0004         45.0004
 14  5 10  1 50 30.0000000  0 10G09G07G10G02G08G17G26G04G05G28
 -15858588.45048 -12343283.57148  20984341.2964   20984347.0544   20984341.446
        53.0004         48.0004
  -8282256.10147  -6422521.03446  23132020.1904   23132025.4134   23132020.006
        46.0004         41.0004
 -20052339.85148 -15615299.15047  21837625.4004   21837632.3974   21837626.220
        50.0004         45.0004
 -13471271.10748 -10429346.87047  21799259.5324   21799264.8594   21799260.000
        50.0004         46.0004
 -20506941.21548 -15930481.20947  20991945.3964   20991951.9704   20991946.005
        51.0004         46.0004
  -7949432.00147  -6133970.28546  23792653.0674   23792660.4224   23792652.650
        46.0004         41.0004
    507142.85647    413259.84946  24316622.4524   24316630.4234   24316622.633
        43.0004         38.0004
 -25118540.29049 -19518446.91248  20338129.5664   20338135.7984   20338129.234
        54.0004         49.0004
  -2152368.36346  -1633526.27446  25021685.0074   25021692.7444   25021684.420
        41.0004         37.0004
 -15396977.76548 -11962386.96147  21798027.2564   21798033.6894   21798027.305
        50.0004         45.0004
 14  5 10  1 51  0.0000000  0 10G09G07G10G02G08G17G26G04G05G28
 -15787813.27148 -12288134.09548  20997809.4834   20997815.2814   20997809.743
        53.0004         48.0004
  -8178064.15647  -6341332.53346  23151847.5304   23151852.4154   23151847.201
        46.0004         41.0004
 -20120943.47048 -15668756.52447  21824570.4654   21824577.1174   21824571.407
        50.0004         45.0004
 -13508622.85048 -10458452.13547  21792152.3364   21792156.7394   21792152.246
        50.0004         46.0004
 -20426885.78348 -15868100.38147  21007179.7474   21007185.2054   21007180.179
        51.0004         46.0004
  -7926658.93447  -6116224.99246  23796987.0984   23796993.6244   23796986.361
        46.0004         41.0004
    523562.36447    426054.37446  24319746.4074   24319754.6714   24319746.025
        43.0004         38.0004
 -25101587.90049 -19505237.29848  20341355.2154   20341362.1074   20341354.954
        54.0004         49.0004
  -2238728.54646  -1700819.74446  25005250.6114   25005258.8264   25005250.773
        41.0004         37.0004
 -15447968.85248 -12002120.23547  21788324.1734   21788330.7414   21788323.789
        50.0004         45.0004
 14  5 10  1 51 30.0000000  0 10G09G07G10G02G08G17G26G04G05G28
 -15716689.43948 -12232712.94448  21011344.1874   21011349.9384   21011344.072
        53.0004         48.0004
  -8073783.80147  -6260075.14946  23171691.3954   23171696.8404   23171690.798
        46.0004         41.0004
 -20189415.67848 -15722111.51447  21811540.6054   21811547.0714   21811541.101
        50.0004         45.0004
 -13545528.68648 -10487209.93647  21785129.1894   21785134.5044   21785129.426
        50.0004         46.0004
 -20346413.28548 -15805394.56147  21022493.3474   21022500.2184   21022493.480
        51.0004         46.0004
  -7904108.22947  -6098652.98846  23801278.1314   23801285.2514   23801277.270
        45.0004         41.0004
    539968.13747    438838.18646  24322870.1294   24322876.6724   24322869.322
        43.0004         38.0004
 -25084117.44548 -19491623.99348  20344680.0704   20344686.3554   20344679.852
        53.0004         49.0004
  -2325265.18046  -1768250.67146  24988781.2244   24988791.4734   24988782.743
        41.0004         37.0004
 -15498737.79648 -12041680.42247  21778663.7024   21778669.2914   21778663.315
        50.0004         45.0004
 14  5 10  1 52  0.0000000  0 10G09G07G10G02G08G17G26G04G05G28
 -15645223.99848 -12177025.61948  21024943.2804   21024948.9534   21024943.444
        53.0004         48.0004
  -7969421.60847  -6178753.99046  23191550.5084   23191556.3354   23191549.874
        45.0004         41.0004
 -20257757.24648 -15775364.68747  21798535.6284   21798542.4434   21798536.256
        50.0004         45.0004
 -13581991.69848 -10515622.67047  21778189.8074   21778194.5874   21778190.915
        50.0004         46.0004
 -20265530.87448 -15742369.32147  21037884.2624   21037891.7254   21037885.034
        51.0004         46.0004
  -7881785.19947  -6081258.36746  23805526.1314   23805533.5154   23805525.015
        45.0004         41.0004
    556354.10747    451606.57146  24325986.4574   24325994.8474   24325986.162
        43.0004         38.0004
 -25066134.18448 -19477611.10148  20348102.1584   20348108.8994   20348101.765
        53.0004         49.0004
  -2411980.70646  -1835820.97346  24972281.5414   24972289.1314   24972280.557
        41.0004         37.0004
 -15549285.99348 -12081068.58947  21769044.3464   21769050.3404   21769044.089
        50.0004         45.0004
 14  5 10  1 52 30.0000000  0 10G09G07G10G02G08G17G26G04G05G28
 -15573419.38948 -12121073.99548  21038607.4744   21038613.1644   21038607.224
        53.0004         48.0004
  -7864980.34747  -6097371.22346  23211424.6544   23211429.9764   23211424.764
        45.0004         41.0004
 -20325965.45948 -15828513.95247  21785556.8284   21785562.7814   21785556.717
        50.0004         45.0004
 -13618011.55148 -10543690.09147  21771336.0444   21771340.8904   21771336.512
        51.0004         46.0004
 -20184241.54548 -15679027.00947  21053353.9214   21053359.9694   21053353.867
        51.0004         46.0004
  -7859690.27747  -6064041.50146  23809728.8914   23809737.1694   23809729.098
        45.0004         41.0004
    572718.50147    464358.15646  24329101.3634   24329108.9084   24329100.737
        43.0004         38.0004
 -25047639.28748 -19463199.52348  20351621.5124   20351627.8334   20351621.165
        53.0004         49.0004
  -2498873.13746  -1903529.09746  24955747.7394   24955753.3344   24955746.287
        41.0004         37.0004
 -15599610.16048 -12120282.18547  21759467.5154   21759474.3384   21759467.883
        50.0004         45.0004
 14  5 10  1 53  0.0000000  0 10G09G07G10G02G08G17G26G04G05G28
 -15501275.28848 -12064857.83748  21052335.8304   21052341.6744   21052335.883
        53.0004         48.0004
  -7760459.32647  -6015926.30446  23231314.5324   23231319.4284   23231314.473
        45.0004         41.0004
 -20394033.58848 -15881554.07247  21772603.4074   21772609.6124   21772603.935
        50.0004         45.0004
 -13653584.24148 -10571409.08147  21764567.0864   21764570.9134   21764567.263
        51.0004         46.0004
 -20102545.18948 -15615367.53547  21068899.9184   21068906.1544   21068900.196
        51.0004         46.0004
  -7837820.24047  -6046999.88846  23813891.3694   23813898.9504   23813891.615
        45.0004         41.0004
    589062.53747    477093.88646  24332210.3824   24332217.6194   24332211.170
        43.0004         38.0004
 -25028630.91848 -19448387.84448  20355238.7894   20355245.5234   20355238.291
        53.0004         49.0004
  -2585938.02847  -1971371.61046  24939178.5754   24939187.6794   24939177.413
        42.0004         37.0004
 -15649703.96948 -12159316.28647  21749934.8054   21749941.5274   21749935.205
        50.0004         46.0004
 14  5 10  1 53 30.0000000  0 10G09G07G10G02G08G17G26G04G05G28
 -15428797.89948 -12008381.95948  21066127.7674   21066133.4944   21066127.904
        52.0004         48.0004
  -7655864.50947  -5934423.88446  23251218.7984   23251223.2874   23251218.176
        45.0004         41.0004
 -20461961.82248 -15934485.17447  21759676.7604   21759683.6814   21759677.487
        50.0004         45.0004
 -13688712.55848 -10598781.79847  21757882.3104   21757887.0684   21757882.447
        51.0004         46.0004
 -20020447.83748 -15551395.58947  21084522.6474   21084528.7334   21084522.816
        51.0004         46.0004
  -7816178.75047  -6030136.34446  23818010.1164   23818017.1884   23818009.607
        45.0004         41.0004
    605381.09647    489809.73346  24335315.4374   24335323.5274   24335315.354
        42.0004         38.0004
 -25009113.23548 -19433179.29648  20358952.8704   20358959.3984   20358952.665
        53.0004         49.0004
  -2673176.78647  -2039349.61346  24922577.0184   24922584.8424   24922576.331
        42.0004         37.0004
 -15699567.28348 -12198170.77947  21740446.7844   21740453.8274   21740446.391
        50.0004         45.0004
 14  5 10  1 54  0.0000000  0 10G09G07G10G02G08G17G26G04G05G28
 -15355990.58948 -11951649.00248  21079982.1894   21079988.2434   21079982.572
        52.0004         48.0004
  -7551199.01847  -5852866.38846  23271136.9474   23271140.4794   23271135.367
        45.0004         41.0004
 -20529747.61148 -15987305.27547  21746777.6514   21746784.7674   21746778.303
        50.0004         45.0004
 -13723396.48548 -10625808.23647  21751282.6944   21751286.8254   21751282.658
        51.0004         46.0004
 -19937953.45848 -15487114.27847  21100220.5004   21100226.9624   21100220.683
        51.0004         46.0004
  -7794766.68447  -6013451.58246  23822085.1844   23822091.9674   23822084.346
        46.0004         41.0004
    621671.76147    502503.84646  24338416.0764   24338423.6494   24338416.377
        42.0004         38.0004
 -24989088.60448 -19417575.72148  20362763.7074   20362769.8974   20362763.322
        53.0004         49.0004
  -2760588.31447  -2107462.25146  24905942.2314   24905951.6104   24905942.139
        42.0004         37.0004
 -15749196.80048 -12236843.10047  21731002.1964   21731009.4164   21731002.022
        50.0004         45.0004
 14  5 10  1 54 30.0000000  0 10G09G07G10G02G08G17G26G04G05G28
 -15282852.24848 -11894658.09948  21093900.2344   21093906.3124   21093900.301
        52.0004         48.0004
  -7446461.46547  -5771252.75146  23291066.8454   23291070.4764   23291065.927
        45.0004         40.0004
 -20597384.01548 -16040008.96747  21733906.7654   21733913.7894   21733907.460
        50.0004         45.0004
 -13757631.72948 -10652485.06347  21744767.5724   21744770.9774   21744767.133
        51.0004         46.0004
 -19855061.27248 -15422522.99347  21115995.1824   21116000.3354   21115995.000
        51.0004         46.0004
  -7773580.40047  -5996942.74046  23826117.0654   23826124.0384   23826115.722
        46.0004         41.0004
    637936.46147    515177.73746  24341512.0964   24341518.8494   24341510.895
        43.0004         38.0004
 -24968554.02648 -19401574.78448  20366671.3714   20366677.2124   20366670.631
        53.0004         49.0004
  -2848166.42647  -2175704.82046  24889278.0804   24889285.0664   24889277.108
        42.0004         37.0004
 -15798586.74248 -12275328.73747  21721603.5994   21721609.9794   21721603.628
        50.0004         45.0004
 14  5 10  1 55  0.0000000  0 10G09G07G10G02G08G17G26G04G05G28
 -15209391.69448 -11837416.11348  21107879.5134   21107885.7914   21107879.284
        52.0004         48.0004
  -7341660.76047  -5689589.88846  23311010.5884   23311014.2224   23311008.951
        45.0004         40.0004
 -20664873.93248 -16092598.52447  21721063.9074   21721070.5764   21721064.713
        50.0004         45.0004
 -13791423.89048 -10678816.61447  21738337.2614   21738341.2344   21738337.753
        51.0004         46.0004
 -19771780.05648 -15357628.56447  21131842.4374   21131848.7404   21131842.759
        51.0004         46.0004
  -7752626.17247  -5980614.74146  23830103.4034   23830111.0694   23830103.433
        46.0004         41.0004
    654167.28247    527825.21146  24344598.6964   24344606.5544   24344599.130
        43.0004         38.0004
 -24947516.80848 -19385182.17948  20370674.6024   20370680.8794   20370674.124
        53.0004         49.0004
  -2935915.76047  -2244080.73246  24872579.8504   24872586.5264   24872579.692
        42.0004         37.0004
 -15847739.37348 -12313629.44747  21712249.8474   21712256.6634   21712249.971
        50.0004         45.0004
 14  5 10  1 55 30.0000000  0 10G09G07G10G02G08G17G26G04G05G28
 -15135606.97648 -11779921.53648  21121920.0904   21121926.1604   21121920.010
        52.0004         48.0004
  -7236794.53147  -5607875.97646  23330964.9594   23330970.2614   23330964.388
        45.0004         40.0004
 -20732209.31448 -16145067.67147  21708250.6484   21708257.7394   21708251.089
        50.0004         45.0004
 -13824767.51048 -10704798.65947  21731991.4964   21731996.3854   21731992.035
        51.0004         46.0004
 -19688108.15648 -15292429.70547  21147764.1934   21147770.9014   21147764.736
        51.0004         46.0004
  -7731900.10147  -5964464.53046  23834047.8934   23834055.0054   23834047.618
        46.0004         41.0004
    670367.24147    540448.65346  24347681.2934   24347690.6614   24347681.953
        42.0004         38.0004
 -24925973.87848 -19368395.51348  20374773.9114   20374780.4274   20374773.726
        53.0004         49.0004
  -3023829.47447  -2312584.75146  24855849.3184   24855855.9304   24855849.871
        42.0004         37.0004
 -15896646.57048 -12351738.92447  21702943.6014   21702950.3414   21702943.683
        50.0004         45.0004
 14  5 10  1 56  0.0000000  0 10G09G07G10G02G08G17G26G04G05G28
 -15061503.31548 -11722178.43648  21136021.7234   21136027.6904   21136021.704
        52.0004         48.0004
  -7131867.87247  -5526114.98846  23350931.7334   23350937.3814   23350932.062
        45.0004         40.0004
 -20799389.42748 -16197415.82347  21695466.5874   21695473.1664   21695467.109
        50.0004         45.0004
 -13857664.22948 -10730432.46847  21725732.1314   21725735.9434   21725731.985
        51.0004         46.0004
 -19604051.10148 -15226930.72447  21163759.7554   21163766.7514   21163760.437
        51.0004         46.0004
  -7711404.41747  -5948493.82646  23837947.3044   23837955.6464   23837947.517
        45.0004         41.0004
    686532.09447    553044.73846  24350757.7294   24350765.6004   24350757.411
        42.0004         38.0004
 -24903928.69448 -19351217.47648  20378968.7894   20378975.5694   20378968.535
        53.0004         49.0004
  -3111908.08247  -2381217.26646  24839087.5524   24839096.5664   24839089.234
        42.0004         37.0004
 -15945307.48448 -12389656.48747  21693683.0734   21693689.9664   21693683.121
        50.0004         45.0004
 14  5 10  1 56 30.0000000  0 10G09G07G10G02G08G17G26G04G05G28
 -14987095.30548 -11664198.17848  21150181.0924   21150187.4044   21150181.370
        52.0004         48.0004
  -7026894.98947  -5444317.97746  23370907.5744   23370913.0714   23370907.507
        45.0004         40.0004
 -20866423.01148 -16249649.79147  21682709.9694   21682716.4114   21682711.252
        50.0004         45.0004
 -13890125.93348 -10755727.31047  21719554.8684   21719559.0564   21719555.404
        51.0004         46.0004
 -19519623.89248 -15161143.31647  21179827.0214   21179832.8944   21179826.812
        51.0004         46.0004
  -7691150.96347  -5932711.88346  23841802.0884   23841807.9204   23841801.379
        46.0004         41.0004
    702648.16347    565602.80446  24353824.9654   24353834.0144   24353824.356
        42.0004         38.0004
 -24881394.26948 -19333658.20748  20383257.3704   20383263.8094   20383256.958
        53.0004         49.0004
  -3200161.68947  -2449986.15746  24822294.7234   24822302.1294   24822295.023
        42.0004         37.0004
 -15993730.77648 -12427388.89347  21684469.2184   21684475.3344   21684469.116
        50.0004         45.0004
 14  5 10  1 57  0.0000000  0 10G09G07G10G02G08G17G26G04G05G28
 -14912362.54748 -11605964.87248  21164402.0754   21164407.7944   21164402.365
        52.0004         48.0004
  -6921855.54147  -5362469.09146  23390896.2064   23390900.3534   23390895.616
        45.0004         40.0004
 -20933283.67248 -16301749.02147  21669987.8454   21669994.5484   21669988.119
        50.0004         46.0004
 -13922128.46148 -10780664.35047  21713465.0124   21713468.8294   21713464.567
        51.0004         46.0004
 -19434806.33748 -15095051.73247  21195966.0774   21195972.5774   21195966.444
        50.0004         46.0004
  -7671116.97247  -5917100.94646  23845614.1574   23845621.6904   23845614.129
        46.0004         41.0004
    718736.79947    578139.50546  24356886.7724   24356894.7054   24356886.553
        42.0004         38.0004
 -24858349.13748 -19315700.98848  20387642.3524   20387649.2944   20387641.992
        53.0004         49.0004
  -3288565.06947  -2518871.72946  24805472.1454   24805479.0374   24805471.771
        42.0004         37.0004
 -16041889.73048 -12464915.32147  21675304.4374   21675311.2664   21675304.275
        50.0004         45.0004
 14  5 10  1 57 30.0000000  0 10G09G07G10G02G08G17G26G04G05G28
 -14837320.68948 -11547490.72048  21178681.9384   21178688.0774   21178682.168
        52.0004         48.0004
  -6816764.45447  -5280579.97246  23410894.5734   23410899.8144   23410893.800
        45.0004         40.0004
 -20999980.90448 -16353720.90147  21657295.4184   21657302.1814   21657295.897
        50.0004         46.0004
 -13953684.23548 -10805253.26447  21707459.9494   21707463.8594   21707460.479
        51.0004         46.0004
 -19349614.34348 -15028668.37547  21212178.3834   21212183.8354   21212178.248
        50.0004         46.0004
  -7651315.47547  -5901671.17046  23849382.5104   23849389.9704   23849382.272
        46.0004         41.0004
    734783.42547    590643.44946  24359940.9124   24359946.9934   24359939.711
        42.0004         38.0004
 -24834807.38748 -19297356.79248  20392122.7444   20392128.8834   20392122.084
        53.0004         49.0004
  -3377129.00347  -2587882.45146  24788617.8594   24788624.8744   24788618.595
        42.0004         37.0004
 -16089794.21648 -12502243.46847  21666188.8684   21666195.3084   21666188.445
        50.0004         45.0004
 14  5 10  1 58  0.0000000  0 10G09G07G10G02G08G17G26G04G05G28
 -14761973.61148 -11488778.72448  21193020.3044   21193026.2584   21193020.388
        52.0004         48.0004
  -6711625.28447  -5198653.38046  23430901.9724   23430907.4194   23430901.201
        45.0004         40.0004
 -21066512.64948 -16405563.82747  21644634.2314   21644641.2604   21644635.478
        50.0004         46.0004
 -13984794.13248 -10829494.74047  21701540.1064   21701544.1544   21701540.110
        51.0004         46.0004
 -19264051.84448 -14961996.31747  21228460.6484   21228466.5814   21228460.060
        50.0004         46.0004
  -7631747.40947  -5886423.29446  23853105.7914   23853112.7654   23853105.564
        46.0004         41.0004
    750785.24747    603112.47646  24362983.8994   24362992.4584   24362984.309
        42.0004         38.0004
 -24810771.27048 -19278627.37648  20396696.1604   20396702.7704   20396695.891
        53.0004         49.0004
  -3465851.74347  -2657016.92446  24771735.7784   24771742.3454   24771734.912
        42.0004         37.0004
 -16137441.74748 -12539371.39547  21657121.2674   21657128.3814   21657121.470
        50.0004         46.0004
 14  5 10  1 58 30.0000000  0 10G09G07G10G02G08G17G26G04G05G28
 -14686323.16648 -11429830.33848  21207416.0684   21207422.9684   21207416.500
        52.0004         48.0004
  -6606439.73047  -5116690.64246  23450917.8184   23450923.7394   23450917.452
        45.0004         40.0004
 -21132874.68548 -16457274.51047  21632006.8164   21632013.3424   21632007.049
        50.0004         46.0004
 -14015456.64648 -10853387.60047  21695704.4944   21695709.7234   21695705.210
        51.0004         46.0004
 -19178121.08648 -14895037.31047  21244811.6864   21244818.4094   21244811.934
        50.0004         46.0004
  -7612412.06347  -5871356.76746  23856785.5924   23856792.3434   23856785.113
        46.0004         41.0004
    766741.38847    615545.89946  24366021.5984   24366028.0424   24366021.475
        43.0004         38.0004
 -24786241.48648 -19259513.28948  20401364.1664   20401370.8344   20401363.889
        53.0004         49.0004
  -3554732.23047  -2726274.32746  24754822.6984   24754829.4604   24754821.031
        42.0004         37.0004
 -16184828.44848 -12576296.07747  21648104.2514   21648110.8714   21648104.307
        50.0004         46.0004
 14  5 10  1 59  0.0000000  0 10G09G07G10G02G08G17G26G04G05G28
 -14610370.14948 -11370646.16848  21221869.5714   21221875.7464   21221869.599
        52.0004         48.0004
  -6501208.67747  -5034692.45946  23470942.3864   23470947.1924   23470942.083
        44.0004         40.0004
 -21199062.15448 -16508849.17147  21619410.8824   21619417.3684   21619412.037
        50.0004         46.0004
 -14045669.64648 -10876930.20347  21689955.8604   21689960.3384   21689955.785
        51.0004         46.0004
 -19091823.46348 -14827792.42547  21261233.3554   21261240.6534   21261234.454
        50.0004         46.0004
  -7593308.20347  -5856470.62146  23860421.1714   23860428.4584   23860419.967
        46.0004         41.0004
    782651.80747    627943.69746  24369049.0284   24369056.8384   24369048.548
        43.0004         38.0004
 -24761217.52548 -19240014.12848  20406126.0254   20406132.6444   20406125.744
        53.0004         49.0004
  -3643765.64447  -2795650.88046  24737880.1474   24737886.0994   24737878.670
        42.0004         37.0004
 -16231949.15048 -12613013.48547  21639137.4064   21639143.6804   21639137.168
        50.0004         45.0004
 14  5 10  1 59 30.0000000  0 10G09G07G10G02G08G17G26G04G05G28
 -14534121.64248 -11311231.75347  21236379.1904   21236385.0474   21236379.290
        52.0004         47.0004
  -6395938.53847  -4952663.81646  23490974.2734   23490979.9094   23490974.515
        44.0004         40.0004
 -21265075.63048 -16560288.26047  21606849.5564   21606856.4204   21606850.046
        50.0004         46.0004
 -14075436.61348 -10900125.24547  21684290.9204   21684295.2974   21684291.492
        51.0004         46.0004
 -19005165.95448 -14760267.12147  21277724.5194   21277731.0884   21277724.607
        50.0004         45.0004
  -7574439.71647  -5841767.88446  23864010.8524   23864019.0054   23864010.900
        46.0004         41.0004
    798510.82047    640301.44746  24372067.2824   24372074.9634   24372066.557
        43.0004         38.0004
 -24735704.87148 -19220134.16648  20410980.8324   20410987.8514   20410980.694
        53.0004         49.0004
  -3732953.92347  -2865148.12046  24720908.0704   24720914.3444   24720906.527
        42.0004         37.0004
 -16278804.60648 -12649524.21747  21630221.4474   21630227.1564   21630221.229
        50.0004         46.0004
 14  5 10  2  0  0.0000000  0 10G09G07G10G02G08G17G26G04G05G28
 -14457578.31348 -11251587.61747  21250945.1754   21250950.6194   21250945.076
        52.0004         47.0004
  -6290629.46447  -4870604.84146  23511014.7624   23511020.6644   23511013.930
        44.0004         40.0004
 -21330910.04348 -16611587.81447  21594322.0144   21594328.5264   21594322.316
        50.0004         46.0004
 -14104755.30048 -10922970.97947  21678711.8784   21678716.4324   21678711.931
        51.0004         46.0004
 -18918149.28548 -14692461.95047  21294282.8604   21294289.4634   21294283.120
        50.0004         45.0004
  -7555804.41947  -5827246.84346  23867556.6954   23867564.2394   23867556.821
        46.0004         41.0004
    814318.62847    652619.31946  24375074.7764   24375083.3544   24375074.469
        43.0004         38.0004
 -24709702.91548 -19199872.93548  20415928.8864   20415935.6714   20415928.782
        53.0004         49.0004
  -3822293.41547  -2934763.12546  24703905.5944   24703913.7094   24703904.340
        42.0004         37.0004
 -16325389.41048 -12685824.04847  21621355.8154   21621363.0274   21621356.351
        50.0004         46.0004
