     2.11           OBSERVATION DATA    G (GPS)             RINEX VERSION / TYPE
teqc  2013Mar15     gpsops              20140512 00:23:20UTCPGM / RUN BY / DATE
Linux 2.4.21-27.ELsmp|Opteron|gcc -static|Linux x86_64|=+   COMMENT
BIT 2 OF LLI FLAGS DATA COLLECTED UNDER A/S CONDITION       COMMENT
GLPS                                                        MARKER NAME
42005M002                                                   MARKER NUMBER
GGN                 JPL                                     OBSERVER / AGENCY
ZR220013847         ASHTECH UZ-12       CQ00                REC # / TYPE / VERS
CR519992104         ASH701945B_M    SCIT                    ANT # / TYPE
   -33801.4662 -6377516.5323   -82154.3508                  APPROX POSITION XYZ
        0.0083        0.0000        0.0000                  ANTENNA: DELTA H/E/N
     1     1                                                WAVELENGTH FACT L1/2
     7    L1    L2    P1    P2    C1    S1    S2            # / TYPES OF OBSERV
    30.0000                                                 INTERVAL
                                                            COMMENT
This data is provided as a public service by NASA/JPL.      COMMENT
No warranty is expressed or implied regarding suitability   COMMENT
for use.  For further information, contact:                 COMMENT
Dave Stowers, NASA/JPL m/s 238-600                          COMMENT
4800 Oak Grove Drive, Pasadena CA 91109 USA                 COMMENT
                                                            COMMENT
Forced Modulo Decimation to 30 seconds                      COMMENT
 SNR is mapped to RINEX snr flag value [0-9]                COMMENT
  L1 & L2: min(max(int(snr_dBHz/6), 0), 9)                  COMMENT
pseudorange smoothing corrections not applied               COMMENT
  2014     5    11     0    15    0.0000000     GPS         TIME OF FIRST OBS
                                                            END OF HEADER
 14  5 11  0 15  0.0000000  0 10G20G09G07G28G01G10G08G13G17G04
  -3956480.29547  -3022623.91546  23641418.8084   23641429.0494   23641419.708
        42.0004         37.0004
 -13364354.38349 -10404300.35048  20100410.5944   20100418.2204   20100410.621
        54.0004         49.0004
 -23309514.32048 -18127237.46948  20369379.0774   20369385.0814   20369378.919
        53.0004         48.0004
  -1618017.18347  -1260921.28346  23727145.0144   23727156.5504   23727145.217
        43.0004         39.0004
  -5200497.96747  -4020683.37946  23618877.1954   23618890.7914   23618875.968
        44.0004         40.0004
  -8136830.23347  -6329079.69546  24157881.6924   24157894.1804   24157882.519
        43.0004         38.0004
 -20971993.14749 -16323142.71948  20005107.6954   20005115.2924   20005108.088
        54.0004         49.0004
  -2120668.39647  -1636547.26446  23969397.7134   23969405.8174   23969397.549
        42.0004         37.0004
 -12784050.75948  -9901576.20247  22516347.6514   22516357.8634   22516347.871
        50.0004         45.0004
 -20060833.80448 -15573204.87947  21454658.7384   21454667.4934   21454658.282
        51.0004         46.0004
 14  5 11  0 15 30.0000000  0 10G20G09G07G28G01G10G08G13G17G04
  -3948499.55546  -3016405.12046  23642937.9064   23642949.8434   23642939.032
        41.0004         37.0004
 -13391654.10049 -10425572.77048  20095215.6894   20095223.0144   20095215.529
        54.0004         49.0004
 -23269823.89748 -18096309.82148  20376931.8284   20376938.4444   20376931.302
        53.0004         48.0004
  -1664525.84147  -1297161.70046  23718295.4194   23718305.9584   23718295.158
        43.0004         39.0004
  -5102432.72947  -3944268.96946  23637537.3874   23637552.0364   23637537.247
        44.0004         40.0004
  -8190775.16347  -6371114.49946  24147617.2424   24147628.3604   24147617.133
        43.0004         38.0004
 -21001177.50349 -16345883.69748  19999553.9674   19999561.5444   19999554.237
        54.0004         49.0004
  -2045925.94647  -1578306.31146  23983620.6804   23983628.4174   23983620.147
        42.0004         37.0004
 -12743026.29548  -9869609.09147  22524155.0994   22524164.8704   22524154.378
        50.0004         45.0004
 -20136721.09948 -15632337.73447  21440218.7084   21440225.7584   21440218.333
        51.0004         46.0004
 14  5 11  0 16  0.0000000  0 10G20G09G07G28G01G10G08G13G17G04
  -3940289.74746  -3010007.83846  23644500.4584   23644511.0584   23644501.551
        41.0004         37.0004
 -13418361.21749 -10446383.42448  20090133.4364   20090140.6624   20090133.250
        54.0004         49.0004
 -23229561.26648 -18064936.29948  20384593.7254   20384599.4544   20384593.469
        53.0004         49.0004
  -1711247.90847  -1333568.39446  23709404.4844   23709415.0814   23709404.195
        44.0004         39.0004
  -5004146.96747  -3867682.71346  23656240.9124   23656254.8114   23656240.470
        44.0004         40.0004
  -8244942.63747  -6413322.69746  24137307.8434   24137319.8444   24137309.499
        43.0004         38.0004
 -21029740.60149 -16368140.58248  19994118.3064   19994126.0474   19994118.608
        54.0004         49.0004
  -1971355.73047  -1520199.56846  23997811.4084   23997817.3474   23997810.495
        42.0004         37.0004
 -12701918.91348  -9837577.37047  22531977.8214   22531987.3744   22531977.168
        50.0004         45.0004
 -20212234.39548 -15691179.16647  21425848.6314   21425856.9414   21425847.770
        51.0004         46.0004
 14  5 11  0 16 30.0000000  0 11G20G26G09G07G28G01G10G08G13G17G04
  -3931856.34447  -3003436.34046  23646105.4844   23646116.4564   23646106.788
        42.0004         37.0004
   -215097.00948   -153103.40846  24120569.8024   24120588.3064   24120570.115
        48.0004         37.0004
 -13444481.81449 -10466737.05248  20085162.6174   20085170.0554   20085162.618
        54.0004         49.0004
 -23188735.43248 -18033123.91448  20392362.5074   20392368.3944   20392362.004
        53.0004         49.0004
  -1758189.62247  -1370146.23946  23700471.8574   23700481.1684   23700471.840
        44.0004         39.0004
  -4905650.72547  -3790932.45146  23674984.5554   23674998.1464   23674983.863
        44.0004         40.0004
  -8299339.01847  -6455709.24946  24126956.2334   24126967.9744   24126958.034
        43.0004         38.0004
 -21057687.78249 -16389917.53248  19988800.3424   19988807.8154   19988800.580
        54.0004         49.0004
  -1896966.24247  -1462233.64046  24011966.3014   24011974.2094   24011966.516
        42.0004         37.0004
 -12660738.43748  -9805488.68447  22539813.4124   22539824.2534   22539813.117
        49.0004         45.0004
 -20287378.39948 -15749732.84147  21411548.9664   21411556.9024   21411548.599
        51.0004         46.0004
 14  5 11  0 17  0.0000000  0 11G20G26G09G07G28G01G10G08G13G17G04
  -3923189.14846  -2996682.63346  23647754.0084   23647766.1174   23647754.926
        41.0004         37.0004
   -231033.73047   -165521.38046  24117536.7284   24117555.1044   24117537.559
        44.0004         38.0004
 -13470006.17949 -10486626.08048  20080305.7294   20080312.8354   20080305.436
        54.0004         49.0004
 -23147339.04948 -18000866.95148  20400239.9804   20400246.3454   20400239.508
        53.0004         49.0004
  -1805340.49247  -1406887.06046  23691499.1284   23691508.2914   23691499.525
        44.0004         39.0004
  -4806937.90947  -3714013.43546  23693768.2314   23693782.9924   23693768.294
        44.0004         39.0004
  -8353954.69747  -6498266.69946  24116562.6344   24116574.9754   24116564.596
        43.0004         38.0004
 -21085008.83549 -16411206.58448  19983601.3404   19983609.0104   19983601.448
        54.0004         49.0004
  -1822750.62447  -1404403.19846  24026089.3794   24026096.8084   24026088.924
        42.0004         37.0004
 -12619478.90148  -9773338.39547  22547665.8894   22547675.0474   22547664.742
        49.0004         45.0004
 -20362141.96648 -15807990.06547  21397322.3194   21397329.6864   21397321.592
        51.0004         46.0004
 14  5 11  0 17 30.0000000  0 11G20G26G09G07G28G01G10G08G13G17G04
  -3914288.80347  -2989747.27746  23649449.1504   23649457.2804   23649450.079
        42.0004         37.0004
   -246624.25547   -177669.60046  24114570.4154   24114586.7214   24114570.310
        43.0004         37.0004
 -13494935.60449 -10506051.52348  20075561.5784   20075568.9344   20075561.590
        54.0004         49.0004
 -23105375.76948 -17968168.24948  20408225.0674   20408231.1464   20408224.801
        53.0004         49.0004
  -1852701.67647  -1443791.76346  23682485.9824   23682496.2624   23682486.283
        44.0004         39.0004
  -4708013.37647  -3636929.43646  23712593.7744   23712608.2504   23712593.338
        44.0004         39.0004
  -8408791.42147  -6540996.37146  24106128.3264   24106138.9084   24106128.868
        43.0004         38.0004
 -21111704.71249 -16432008.48648  19978520.6964   19978528.4114   19978521.311
        54.0004         49.0004
  -1748713.00047  -1346711.46746  24040178.0674   24040185.8384   24040177.567
        42.0004         37.0004
 -12578145.14948  -9741130.26647  22555530.9854   22555540.7164   22555530.419
        49.0004         45.0004
 -20436524.73648 -15865950.57547  21383167.3084   21383175.2594   21383166.864
        51.0004         46.0004
 14  5 11  0 18  0.0000000  0 11G20G26G09G07G28G01G10G08G13G17G04
  -3905151.54847  -2982627.31146  23651187.9214   23651198.3444   23651188.430
        42.0004         37.0004
   -261867.64047   -189547.31146  24111670.5634   24111687.8624   24111669.146
        42.0004         37.0004
 -13519266.88049 -10525010.88148  20070931.1284   20070938.5114   20070931.188
        54.0004         49.0004
 -23062844.80148 -17935027.19248  20416318.7394   20416324.6634   20416318.219
        53.0004         49.0004
  -1900269.35147  -1480857.37246  23673433.8984   23673444.5044   23673434.723
        43.0004         39.0004
  -4608877.53447  -3559680.77846  23731458.6614   23731472.4774   23731458.177
        44.0004         40.0004
  -8463845.84247  -6583895.70346  24095652.0324   24095663.5024   24095652.318
        43.0004         38.0004
 -21137771.26949 -16452320.01148  19973560.5884   19973568.2794   19973560.888
        54.0004         49.0004
  -1674852.34646  -1289157.62046  24054233.0134   24054241.9294   24054232.655
        41.0004         37.0004
 -12536737.13248  -9708864.26347  22563409.8854   22563420.1504   22563409.750
        49.0004         45.0004
 -20510522.08148 -15923610.74447  21369085.4924   21369094.2054   21369085.545
        51.0004         46.0004
 14  5 11  0 18 30.0000000  0 11G20G26G09G07G28G01G10G08G13G17G04
  -3895778.48047  -2975323.60246  23652971.1014   23652981.2284   23652971.975
        42.0004         37.0004
   -276767.79047   -201157.56346  24108833.0994   24108850.7634   24108834.182
        42.0004         38.0004
 -13543001.63749 -10543505.41448  20066414.3574   20066422.0614   20066414.604
        54.0004         49.0004
 -23019750.14148 -17901446.89748  20424518.8594   20424525.5054   20424518.590
        53.0004         48.0004
  -1948044.97347  -1518085.02246  23664343.3514   23664351.9404   23664343.160
        43.0004         38.0004
  -4509535.73847  -3482271.63946  23750362.2694   23750376.2184   23750361.869
        44.0004         40.0004
  -8519119.96647  -6626966.21846  24085132.7714   24085144.4934   24085133.927
        43.0004         38.0004
 -21163209.55549 -16472141.96948  19968719.9674   19968727.1864   19968720.367
        54.0004         49.0004
  -1601172.71846  -1231744.84946  24068255.2034   24068261.6054   24068253.370
        41.0004         36.0004
 -12495259.76048  -9676544.23047  22571302.8884   22571312.8974   22571302.794
        49.0004         44.0004
 -20584134.20848 -15980970.75347  21355078.2904   21355085.8214   21355077.646
        51.0004         46.0004
 14  5 11  0 19  0.0000000  0 11G20G26G09G07G28G01G10G08G13G17G04
  -3886167.40447  -2967834.41146  23654800.7334   23654810.6544   23654800.032
        42.0004         37.0004
   -291325.34947   -212500.85646  24106063.9424   24106080.4314   24106062.537
        42.0004         37.0004
 -13566138.29249 -10561533.89548  20062011.7654   20062019.1514   20062011.756
        54.0004         49.0004
 -22976092.90748 -17867428.23148  20432827.0504   20432833.1134   20432826.563
        53.0004         49.0004
  -1996026.50347  -1555473.12146  23655212.8984   23655222.0194   23655212.024
        43.0004         39.0004
  -4409989.96147  -3404703.55846  23769305.8934   23769319.8244   23769304.478
        44.0004         39.0004
  -8574612.29747  -6670206.76846  24074573.7704   24074584.9834   24074574.622
        43.0004         38.0004
 -21188017.56649 -16491472.81148  19963999.2324   19964006.5954   19963999.253
        54.0004         49.0004
  -1527675.13446  -1174473.92546  24082240.3824   24082247.1674   24082239.250
        41.0004         37.0004
 -12453714.94748  -9644171.63947  22579208.7644   22579218.3984   22579208.532
        49.0004         44.0004
 -20657357.98348 -16038028.14147  21341143.4534   21341151.5654   21341143.065
        51.0004         46.0004
 14  5 11  0 19 30.0000000  0 11G20G26G09G07G28G01G10G08G13G17G04
  -3876315.74247  -2960157.75546  23656674.9644   23656684.4294   23656675.219
        42.0004         37.0004
   -305541.09447   -223577.82046  24103357.9764   24103373.9404   24103357.945
        42.0004         37.0004
 -13588675.49549 -10579095.26948  20057723.5244   20057730.2584   20057722.971
        54.0004         49.0004
 -22931874.03648 -17832971.92748  20441241.4094   20441247.4224   20441241.006
        53.0004         49.0004
  -2044211.78847  -1593019.98946  23646042.2894   23646053.6534   23646043.039
        43.0004         39.0004
  -4310242.40747  -3326978.25046  23788286.3954   23788301.7894   23788285.732
        44.0004         39.0004
  -8630321.61847  -6713616.40146  24063971.1504   24063984.1724   24063973.233
        43.0004         38.0004
 -21212193.05149 -16510310.76948  19959398.5324   19959406.2904   19959398.957
        54.0004         49.0004
  -1454360.38346  -1117345.44446  24096190.9954   24096200.7014   24096190.644
        41.0004         36.0004
 -12412104.86448  -9611748.17747  22587128.1064   22587136.5484   22587126.658
        49.0004         44.0004
 -20730190.71448 -16094780.82147  21327284.4084   21327291.9264   21327283.588
        51.0004         46.0004
 14  5 11  0 20  0.0000000  0 11G20G26G09G07G28G01G10G08G13G17G04
  -3866226.33647  -2952295.85346  23658595.7174   23658605.0534   23658596.027
        42.0004         37.0004
   -319420.44147   -234392.63346  24100717.0054   24100734.5994   24100716.271
        42.0004         37.0004
 -13610616.44249 -10596192.03248  20053547.8004   20053554.9114   20053547.841
        54.0004         49.0004
 -22887098.99848 -17798082.24248  20449761.7194   20449768.0614   20449761.232
        53.0004         48.0004
  -2092603.50447  -1630727.71646  23636834.1764   23636844.5784   23636834.508
        44.0004         39.0004
  -4210299.73947  -3249100.90746  23807304.6414   23807319.2234   23807304.145
        44.0004         39.0004
  -8686251.03647  -6757197.53346  24053327.9454   24053340.2214   24053329.457
        43.0004         38.0004
 -21235738.85049 -16528658.06648  19954917.9274   19954925.4534   19954918.100
        54.0004         49.0004
  -1381234.39146  -1060364.08246  24110106.4704   24110115.1184   24110105.852
        41.0004         37.0004
 -12370436.24648  -9579279.10347  22595056.0114   22595067.3464   22595055.949
        49.0004         44.0004
 -20802633.34948 -16151229.52747  21313498.1734   21313506.6174   21313497.873
        51.0004         46.0004
 14  5 11  0 20 30.0000000  0 11G20G26G09G07G28G01G10G08G13G17G04
  -3855890.44246  -2944241.87546  23660561.8594   23660570.4774   23660562.211
        41.0004         37.0004
   -332957.64147   -244940.82946  24098139.7814   24098157.2854   24098141.042
        42.0004         38.0004
 -13631953.00349 -10612817.84348  20049487.6074   20049494.9304   20049487.655
        54.0004         49.0004
 -22841762.54248 -17762755.09348  20458388.9104   20458395.4414   20458388.552
        53.0004         48.0004
  -2141193.11347  -1668589.62546  23627587.5304   23627597.8544   23627587.541
        44.0004         39.0004
  -4110157.50047  -3171068.05646  23826361.6304   23826375.5184   23826360.546
        44.0004         39.0004
  -8742392.55847  -6800943.93546  24042644.0814   24042656.6284   24042646.552
        43.0004         38.0004
 -21258646.24449 -16546507.90448  19950558.7624   19950566.2134   19950559.065
        54.0004         49.0004
  -1308291.50146  -1003525.37746  24123986.8964   24123995.0074   24123987.167
        41.0004         37.0004
 -12328704.35148  -9546760.71947  22602997.9114   22603007.3924   22602996.991
        49.0004         44.0004
 -20874677.17848 -16207367.47647  21299788.9134   21299796.7304   21299788.695
        51.0004         46.0004
 14  5 11  0 21  0.0000000  0 12G20G26G09G07G28G02G01G10G08G13G17G04
  -3845312.54246  -2935999.32546  23662573.6794   23662585.2164   23662575.189
        41.0004         37.0004
   -346160.00747   -255228.13446  24095628.2744   24095644.7184   24095627.098
        42.0004         37.0004
 -13652690.84949 -10628977.12448  20045541.2864   20045548.2384   20045541.207
        54.0004         49.0004
 -22795872.34448 -17726996.45648  20467121.3614   20467127.3314   20467121.107
        53.0004         48.0004
  -2189985.33447  -1706609.41446  23618302.5224   23618311.9254   23618302.802
        44.0004         39.0004
  -1782240.77348  -1328911.91746  24066518.5464   24066529.3874   24066518.657
        51.0004         38.0004
  -4009824.44547  -3092886.52446  23845453.9424   23845467.1944   23845453.577
        44.0004         39.0004
  -8798751.35547  -6844859.64146  24031920.5144   24031930.2574   24031921.499
        42.0004         38.0004
 -21280920.08049 -16563864.06348  19946319.9144   19946327.8734   19946320.254
        54.0004         49.0004
  -1235539.30946   -946835.26746  24137830.4314   24137840.2114   24137830.795
        41.0004         36.0004
 -12286917.61148  -9514199.60147  22610950.2974   22610958.6674   22610949.173
        49.0004         44.0004
 -20946325.61048 -16263197.32747  21286154.3094   21286162.3424   21286154.495
        51.0004         46.0004
 14  5 11  0 21 30.0000000  0 12G20G26G09G07G28G02G01G10G08G13G17G04
  -3834488.01446  -2927564.60246  23664635.3914   23664644.8744   23664634.654
        41.0004         37.0004
   -359025.78746   -265253.14646  24093178.1174   24093195.7254   24093179.567
        41.0004         37.0004
 -13672825.43849 -10644666.33348  20041709.5414   20041716.5504   20041709.671
        54.0004         49.0004
 -22749426.23448 -17690804.64248  20475959.6684   20475965.9564   20475959.293
        53.0004         48.0004
  -2238975.10147  -1744783.12146  23608979.7194   23608991.3124   23608980.591
        44.0004         39.0004
  -1875859.94147  -1401861.59346  24048703.9274   24048713.2484   24048702.840
        46.0004         38.0004
  -3909299.89347  -3014555.76046  23864584.3434   23864596.6934   23864583.134
        44.0004         39.0004
  -8855323.11947  -6888941.31646  24021154.1864   24021165.9894   24021154.665
        42.0004         38.0004
 -21302555.65449 -16580722.87348  19942202.9754   19942210.4064   19942203.297
        54.0004         49.0004
  -1162975.88946   -890292.25646  24151639.8084   24151648.2944   24151639.284
        41.0004         36.0004
 -12245074.99948  -9481594.93847  22618911.6004   22618922.2634   22618911.486
        49.0004         44.0004
 -21017572.86748 -16318714.57547  21272597.1774   21272604.1064   21272596.481
        51.0004         47.0004
 14  5 11  0 22  0.0000000  0 12G20G26G09G07G28G02G01G10G08G13G17G04
  -3823416.50446  -2918937.41546  23666742.1784   23666751.5114   23666741.749
        41.0004         37.0004
   -371557.62246   -275017.96046  24090793.2374   24090808.6954   24090793.496
        41.0004         37.0004
 -13692357.49949 -10659886.03648  20037992.7754   20037999.8864   20037992.824
        54.0004         49.0004
 -22702427.82948 -17654182.46848  20484903.3974   20484909.8484   20484902.756
        53.0004         48.0004
  -2288162.53547  -1783110.84446  23599619.2884   23599629.9784   23599619.659
        44.0004         39.0004
  -1969319.40347  -1474686.83046  24030918.3484   24030928.8804   24030918.577
        44.0004         38.0004
  -3808587.93247  -2936078.97146  23883749.0594   23883762.9274   23883748.015
        43.0004         39.0004
  -8912108.22547  -6933189.22346  24010348.3984   24010360.1444   24010349.059
        42.0004         38.0004
 -21323553.24049 -16597084.54748  19938206.9954   19938214.3224   19938207.358
        54.0004         49.0004
  -1090603.99446   -833898.48946  24165412.0374   24165419.0954   24165411.406
        41.0004         36.0004
 -12203180.60348  -9448949.92747  22626883.8094   22626894.1054   22626883.444
        49.0004         44.0004
 -21088417.85648 -16373918.36647  21259115.2324   21259122.6154   21259115.139
        51.0004         47.0004
 14  5 11  0 22 30.0000000  0 12G20G26G09G07G28G02G01G10G08G13G17G04
  -3812095.89246  -2910116.13846  23668895.2864   23668905.9894   23668895.077
        41.0004         36.0004
   -383756.18946   -284523.06346  24088472.9394   24088489.9774   24088472.792
        41.0004         37.0004
 -13711285.59049 -10674635.11748  20034390.9004   20034398.1504   20034390.703
        54.0004         49.0004
 -22654877.89748 -17617130.53548  20493951.7364   20493957.7564   20493951.398
        53.0004         48.0004
  -2337545.18347  -1821590.68146  23590223.2504   23590232.4874   23590223.058
        44.0004         39.0004
  -2062616.34647  -1547385.41146  24013164.0924   24013174.0734   24013165.078
        43.0004         38.0004
  -3707690.41047  -2857457.56546  23902948.5754   23902963.0954   23902948.359
        43.0004         39.0004
  -8969105.10747  -6977602.15746  23999501.6834   23999512.4484   23999502.913
        42.0004         38.0004
 -21343910.27249 -16612947.09148  19934333.5464   19934340.6104   19934333.785
        54.0004         50.0004
  -1018424.41446   -777654.55846  24179147.6094   24179154.6434   24179147.075
        41.0004         36.0004
 -12161235.83348  -9416265.65847  22634865.2944   22634875.1764   22634865.438
        49.0004         44.0004
 -21158857.69248 -16428806.45547  21245710.1184   21245718.8414   21245710.770
        51.0004         46.0004
 14  5 11  0 23  0.0000000  0 12G20G26G09G07G28G02G01G10G08G13G17G04
  -3800524.04346  -2901099.07746  23671097.5754   23671105.6174   23671097.018
        41.0004         36.0004
   -395622.32646   -293769.16146  24086214.6744   24086229.8324   24086215.026
        41.0004         37.0004
 -13729608.39249 -10688912.54148  20030903.8994   20030911.0794   20030903.903
        54.0004         49.0004
 -22606777.43748 -17579649.61848  20503104.9544   20503110.9754   20503104.670
        53.0004         48.0004
  -2387121.21047  -1860221.19546  23580787.7414   23580799.0594   23580788.614
        44.0004         39.0004
  -2155747.69247  -1619954.96646  23995441.2134   23995449.7084   23995442.829
        43.0004         38.0004
  -3606609.41247  -2778693.19246  23922184.9314   23922198.9064   23922183.641
        44.0004         39.0004
  -9026312.35847  -7022179.00446  23988617.9284   23988627.7444   23988616.698
        43.0004         38.0004
 -21363625.21749 -16628309.30148  19930581.6704   19930589.1304   19930582.050
        54.0004         49.0004
   -946438.09346   -721561.24246  24192842.2954   24192852.3814   24192844.460
        41.0004         36.0004
 -12119242.85248  -9383543.83147  22642856.6744   22642866.6924   22642856.014
        49.0004         44.0004
 -21228889.43848 -16483376.54647  21232384.2884   21232391.2014   21232383.971
        51.0004         47.0004
 14  5 11  0 23 30.0000000  0 12G20G26G09G07G28G02G01G10G08G13G17G04
  -3788700.70446  -2891886.04146  23673346.4944   23673356.9824   23673347.352
        41.0004         36.0004
   -407158.82946   -302758.36946  24084019.4034   24084035.3694   24084019.298
        41.0004         37.0004
 -13747326.50249 -10702718.78348  20027532.6394   20027539.4624   20027532.289
        54.0004         49.0004
 -22558129.86048 -17541742.37948  20512362.3304   20512368.2484   20512361.886
        53.0004         48.0004
  -2436890.36847  -1899002.20246  23571317.5034   23571327.0034   23571317.614
        44.0004         39.0004
  -2248712.55947  -1692394.80846  23977750.3224   23977760.9314   23977751.596
        42.0004         38.0004
  -3505349.06947  -2699789.07546  23941452.3944   23941467.5624   23941452.444
        44.0004         39.0004
  -9083730.33647  -7066920.05146  23977688.7014   23977699.7164   23977690.337
        43.0004         38.0004
 -21382698.08049 -16643171.19648  19926952.0734   19926959.3214   19926952.566
        54.0004         49.0004
   -874647.46946   -665620.38846  24206505.0924   24206512.6664   24206506.235
        41.0004         36.0004
 -12077205.38548  -9350787.33847  22650857.0414   22650865.7074   22650855.741
        49.0004         44.0004
 -21298511.79548 -16537627.63947  21219135.5014   21219143.5604   21219135.162
        51.0004         47.0004
 14  5 11  0 24  0.0000000  0 12G20G26G09G07G28G02G01G10G08G13G17G04
  -3776622.84746  -2882474.67446  23675645.6744   23675657.4964   23675646.254
        41.0004         36.0004
   -418365.45946   -311490.55046  24081887.0874   24081902.2274   24081885.433
        41.0004         36.0004
 -13764437.75849 -10716052.13948  20024275.9334   20024283.4524   20024276.294
        54.0004         49.0004
 -22508935.10448 -17503408.75948  20521723.8254   20521729.9334   20521723.409
        53.0004         48.0004
  -2486849.62947  -1937931.32846  23561810.3254   23561820.0704   23561810.496
        44.0004         39.0004
  -2341506.91747  -1764701.78146  23960092.4204   23960101.3024   23960092.737
        43.0004         38.0004
  -3403910.34647  -2620745.96446  23960756.6904   23960770.0274   23960755.939
        44.0004         39.0004
  -9141356.31247  -7111823.17546  23966723.5534   23966734.8874   23966724.265
        43.0004         38.0004
 -21401125.99949 -16657530.53948  19923445.5484   19923452.5364   19923445.843
        54.0004         49.0004
   -803052.71946   -609832.18446  24220130.8124   24220137.4954   24220129.055
        41.0004         36.0004
 -12035124.16248  -9317996.74447  22658864.5334   22658874.8674   22658863.618
        49.0004         44.0004
 -21367721.15048 -16591556.91647  21205965.9904   21205973.3974   21205965.286
        51.0004         47.0004
 14  5 11  0 24 30.0000000  0 12G20G26G09G07G28G02G01G10G08G13G17G04
  -3764289.81046  -2872864.47346  23677992.7914   23678002.0004   23677992.860
        41.0004         36.0004
   -429244.57146   -319967.51846  24079816.3354   24079831.9614   24079816.717
        41.0004         37.0004
 -13780942.44349 -10728912.85348  20021135.3144   20021142.5824   20021135.267
        54.0004         49.0004
 -22459195.56748 -17464650.64448  20531188.8854   20531194.8554   20531188.454
        53.0004         48.0004
  -2536997.89747  -1977007.72746  23552267.3754   23552277.3424   23552266.934
        44.0004         39.0004
  -2434129.41147  -1836874.84046  23942466.8814   23942476.2124   23942466.852
        43.0004         38.0004
  -3302296.77547  -2541566.60546  23980092.6374   23980107.4234   23980092.655
        44.0004         39.0004
  -9199190.07847  -7156888.21146  23955716.2764   23955728.2444   23955718.466
        43.0004         38.0004
 -21418908.64149 -16671387.06548  19920061.2814   19920068.6224   19920061.748
        54.0004         49.0004
   -731655.86946   -554198.16946  24233718.8634   24233724.3254   24233716.294
        41.0004         36.0004
 -11993002.26948  -9285174.46447  22666879.9344   22666889.6344   22666879.405
        49.0004         44.0004
 -21436515.97548 -16645163.17747  21192874.2014   21192881.9034   21192873.609
        51.0004         47.0004
 14  5 11  0 25  0.0000000  0 12G20G26G09G07G28G02G01G10G08G13G17G04
  -3751701.23546  -2863055.14846  23680389.4604   23680397.6834   23680388.814
        41.0004         36.0004
   -439798.58746   -328191.19246  24077806.5424   24077824.4304   24077806.000
        41.0004         37.0004
 -13796840.91649 -10741301.19048  20018109.9474   20018116.8184   20018110.114
        54.0004         50.0004
 -22408914.33748 -17425470.42848  20540757.0334   20540763.0024   20540756.601
        53.0004         48.0004
  -2587335.01247  -2016231.28346  23542687.7064   23542698.1304   23542688.149
        44.0004         39.0004
  -2526578.48747  -1908912.75846  23924873.5534   23924883.0064   23924874.691
        43.0004         38.0004
  -3200512.04947  -2462253.86646  23999461.8194   23999476.6864   23999461.532
        44.0004         39.0004
  -9257231.98547  -7202115.43946  23944672.9964   23944683.4994   23944673.110
        43.0004         38.0004
 -21436045.85549 -16684740.66648  19916800.2974   19916807.2194   19916800.635
        54.0004         49.0004
   -660459.62646   -498720.48046  24247264.0364   24247272.6444   24247264.075
        40.0004         36.0004
 -11950843.50448  -9252323.44047  22674900.8894   22674912.2404   22674901.375
        49.0004         44.0004
 -21504894.96948 -16698445.41047  21179862.2024   21179869.8214   21179861.513
        51.0004         47.0004
 14  5 11  0 25 30.0000000  0 12G20G26G09G07G28G02G01G10G08G13G17G04
  -3738854.90546  -2853044.97946  23682830.5034   23682843.0464   23682832.496
        41.0004         36.0004
   -450028.47846   -336162.29146  24075859.5664   24075877.7284   24075860.941
        41.0004         36.0004
 -13812132.04149 -10753216.27048  20015199.9254   20015206.8994   20015199.892
        54.0004         50.0004
 -22358092.71148 -17385869.12048  20550428.1194   20550433.9334   20550427.310
        53.0004         48.0004
  -2637858.60547  -2055600.15646  23533074.3734   23533084.0314   23533074.522
        44.0004         40.0004
  -2618851.43347  -1980813.43046  23907314.9464   23907323.9874   23907315.312
        43.0004         38.0004
  -3098558.14547  -2382809.30746  24018863.4294   24018877.7004   24018862.850
        44.0004         39.0004
  -9315480.15047  -7247503.40346  23933588.9774   23933599.1684   23933588.635
        43.0004         39.0004
 -21452536.05049 -16697590.09648  19913662.4574   19913669.3684   19913662.644
        54.0004         49.0004
   -589464.30246   -443399.33045  24260773.8144   24260780.7144   24260774.144
        40.0004         35.0004
 -11908649.48548  -9219444.95147  22682931.2014   22682941.7104   22682930.161
        49.0004         44.0004
 -21572855.17748 -16751401.32347  21166929.5034   21166937.6484   21166929.301
        51.0004         47.0004
 14  5 11  0 26  0.0000000  0 12G20G26G09G07G28G02G01G10G08G13G17G04
  -3725748.05746  -2842831.80446  23685326.2624   23685337.0184   23685326.230
        41.0004         36.0004
   -459934.27746   -343880.84546  24073974.8674   24073992.0764   24073974.345
        41.0004         37.0004
 -13826814.06649 -10764656.72648  20012406.1894   20012413.0564   20012406.265
        54.0004         50.0004
 -22306730.61048 -17345846.66248  20560201.8574   20560207.5604   20560201.615
        53.0004         48.0004
  -2688565.73947  -2095112.03146  23523425.2604   23523435.3484   23523425.295
        44.0004         40.0004
  -2710944.44647  -2052573.90746  23889788.4394   23889798.9264   23889789.577
        42.0004         38.0004
  -2996436.39947  -2303233.95346  24038296.3734   24038310.9174   24038295.898
        44.0004         39.0004
  -9373932.09547  -7293050.15346  23922464.8604   23922474.8644   23922465.463
        43.0004         39.0004
 -21468376.80549 -16709933.47448  19910648.0464   19910654.7584   19910648.186
        54.0004         49.0004
   -518669.92646   -388234.78946  24274246.9874   24274253.9764   24274245.461
        40.0004         36.0004
 -11866421.41448  -9186539.93547  22690966.4584   22690976.7104   22690966.753
        49.0004         44.0004
 -21640392.98648 -16804028.09647  21154077.6564   21154085.2024   21154077.131
        51.0004         47.0004
 14  5 11  0 26 30.0000000  0 12G20G26G09G07G28G02G01G10G08G13G17G04
  -3712379.85246  -2832414.98846  23687870.7404   23687881.5264   23687870.092
        41.0004         36.0004
   -469518.33746   -351348.67246  24072153.1094   24072167.7694   24072151.699
        41.0004         37.0004
 -13840887.09949 -10775622.64148  20009728.0294   20009734.8464   20009727.857
        54.0004         50.0004
 -22254831.34148 -17305405.63648  20570077.8814   20570084.0914   20570077.227
        53.0004         48.0004
  -2739455.37447  -2134766.11246  23513740.3594   23513750.4404   23513740.564
        44.0004         40.0004
  -2802855.97947  -2124192.97546  23872299.7934   23872307.9414   23872299.269
        42.0004         38.0004
  -2894150.26847  -2223530.50546  24057761.4064   24057775.1214   24057760.922
        44.0004         39.0004
  -9432587.56247  -7338755.47946  23911303.5994   23911313.0824   23911303.813
        43.0004         39.0004
 -21483567.88049 -16721770.60248  19907756.8824   19907764.0154   19907757.173
        54.0004         49.0004
   -448078.72946   -333228.56146  24287677.1744   24287687.0544   24287679.126
        40.0004         36.0004
 -11824162.14348  -9153610.59647  22699008.5774   22699018.5414   22699008.332
        49.0004         44.0004
 -21707506.75448 -16856324.44947  21141306.0544   21141312.8344   21141305.797
        51.0004         47.0004
 14  5 11  0 27  0.0000000  0 12G20G26G09G07G28G02G01G10G08G13G17G04
  -3698749.21046  -2821793.64346  23690464.6914   23690473.4214   23690464.720
        41.0004         36.0004
   -478782.22646   -358567.03746  24070386.8044   24070404.3104   24070387.579
        41.0004         37.0004
 -13854350.78549 -10786113.74548  20007165.9404   20007172.5894   20007165.794
        54.0004         50.0004
 -22202396.46648 -17264547.25048  20580055.8984   20580061.8384   20580055.607
        53.0004         48.0004
  -2790526.30047  -2174561.46346  23504021.7274   23504031.2354   23504022.264
        45.0004         40.0004
  -2894583.77047  -2195668.85846  23854845.1674   23854853.2234   23854844.055
        43.0004         38.0004
  -2791702.40147  -2143701.02946  24077257.0304   24077270.3654   24077255.664
        44.0004         39.0004
  -9491445.77147  -7384618.78046  23900102.3584   23900112.8024   23900102.970
        44.0004         39.0004
 -21498108.03849 -16733100.51848  19904990.1474   19904996.8374   19904990.379
        54.0004         49.0004
   -377691.79746   -278381.50246  24301075.0314   24301082.3144   24301072.390
        40.0004         36.0004
 -11781874.29548  -9120659.00147  22707055.7184   22707064.8294   22707055.189
        49.0004         44.0004
 -21774194.25248 -16908288.64647  21128616.1484   21128622.8504   21128615.649
        52.0004         47.0004
 14  5 11  0 27 30.0000000  0 12G20G26G09G07G28G02G01G10G08G13G17G04
  -3684855.57846  -2810967.37846  23693105.3114   23693117.6934   23693107.374
        41.0004         36.0004
   -487728.44146   -365537.85746  24068686.1924   24068701.4654   24068685.210
        41.0004         37.0004
 -13867205.75249 -10796130.52448  20004719.4154   20004726.5934   20004719.708
        54.0004         49.0004
 -22149428.75148 -17223273.66548  20590135.4644   20590141.1944   20590134.894
        53.0004         48.0004
  -2841777.54547  -2214497.32446  23494268.7934   23494277.9844   23494269.246
        45.0004         40.0004
  -2986126.60647  -2267000.63046  23837424.0884   23837431.9694   23837424.527
        43.0004         38.0004
  -2689096.45847  -2063748.37946  24096781.6564   24096796.3324   24096780.923
        44.0004         39.0004
  -9550506.63147  -7430640.00146  23888862.7864   23888873.8814   23888863.962
        44.0004         39.0004
 -21511997.47549 -16743923.38648  19902347.0134   19902353.9914   19902347.189
        54.0004         49.0004
   -307511.88846   -223695.76546  24314428.0614   24314435.6344   24314427.827
        40.0004         36.0004
 -11739561.14848  -9087687.67947  22715107.6414   22715117.5054   22715107.100
        49.0004         44.0004
 -21840454.49848 -16959919.91747  21116006.9944   21116014.5804   21116006.677
        52.0004         47.0004
 14  5 11  0 28  0.0000000  0 12G20G26G09G07G28G02G01G10G08G13G17G04
  -3670696.07346  -2799933.96146  23695803.6364   23695814.2304   23695803.087
        41.0004         36.0004
   -496357.22347   -372261.34246  24067043.6274   24067059.3714   24067044.369
        42.0004         37.0004
 -13879449.97749 -10805671.39548  20002389.2674   20002396.1974   20002389.322
        54.0004         49.0004
 -22095929.20248 -17181585.66848  20600316.1374   20600322.3844   20600315.834
        53.0004         48.0004
  -2893206.41247  -2254571.60146  23484482.2114   23484491.7494   23484482.322
        45.0004         40.0004
  -3077480.77947  -2338185.40046  23820039.5534   23820046.9404   23820040.114
        43.0004         38.0004
  -2586333.85547  -1983673.65346  24116336.6584   24116351.3234   24116336.090
        44.0004         39.0004
  -9609767.46647  -7476817.05346  23877586.9754   23877597.2664   23877587.312
        44.0004         39.0004
 -21525234.21549 -16754237.65648  19899828.1804   19899834.8824   19899828.306
        54.0004         49.0004
   -237538.69846   -169171.11346  24327742.3104   24327750.3014   24327742.356
        40.0004         36.0004
 -11697223.98648  -9054697.65147  22723164.1384   22723174.4324   22723163.559
        49.0004         44.0004
 -21906284.04948 -17011215.57647  21103480.1814   21103487.5914   21103479.365
        52.0004         47.0004
 14  5 11  0 28 30.0000000  0 12G20G26G09G07G28G02G01G10G08G13G17G04
  -3656269.26746  -2788692.25546  23698548.7404   23698557.8384   23698547.946
        41.0004         36.0004
   -504670.16847   -378738.69946  24065461.0774   24065477.4744   24065461.694
        42.0004         37.0004
 -13891083.19149 -10814736.15848  20000175.7304   20000182.4074   20000175.759
        54.0004         49.0004
 -22041899.66048 -17139484.69048  20610597.4784   20610603.1004   20610596.895
        53.0004         48.0004
  -2944811.06047  -2294782.84746  23474662.1534   23474671.8064   23474662.053
        45.0004         40.0004
  -3168643.90247  -2409221.30946  23802690.7884   23802699.1064   23802692.142
        43.0004         38.0004
  -2483417.17647  -1903478.86046  24135921.4814   24135935.0014   24135920.460
        44.0004         39.0004
  -9669227.38847  -7523149.23046  23866271.9624   23866280.9684   23866272.392
        44.0004         39.0004
 -21537816.68549 -16764042.10548  19897433.5424   19897440.7404   19897434.007
        54.0004         49.0004
   -167773.61946   -114808.61046  24341019.2904   24341029.8494   24341018.628
        40.0004         36.0004
 -11654864.85048  -9021690.50647  22731225.1574   22731234.1504   22731224.264
        49.0004         44.0004
 -21971680.38848 -17062173.66747  21091035.2074   21091042.6444   21091034.938
        52.0004         47.0004
 14  5 11  0 29  0.0000000  0 12G20G26G09G07G28G02G01G10G08G13G17G04
  -3641575.01746  -2777242.15246  23701343.0584   23701353.2664   23701344.083
        41.0004         36.0004
   -512669.67047   -384971.81546  24063938.9444   24063954.6514   24063939.195
        42.0004         37.0004
 -13902106.03949 -10823325.31148  19998078.2934   19998085.1064   19998078.217
        54.0004         49.0004
 -21987343.09048 -17096973.03648  20620979.0184   20620984.8404   20620978.581
        53.0004         48.0004
  -2996590.93647  -2335130.63146  23464809.0304   23464817.8644   23464808.885
        45.0004         40.0004
  -3259614.60547  -2480107.26846  23785379.6714   23785388.1154   23785379.905
        43.0004         38.0004
  -2380350.02747  -1823166.83346  24155534.6474   24155548.5574   24155533.407
        44.0004         39.0004
  -9728886.21347  -7569636.39246  23854919.7234   23854928.7884   23854919.915
        44.0004         39.0004
 -21549745.18349 -16773336.97248  19895163.3184   19895170.3864   19895163.601
        54.0004         49.0004
    -98218.78646    -60609.93846  24354253.5014   24354262.1174   24354254.971
        40.0004         36.0004
 -11612487.16948  -8988668.89347  22739289.0354   22739298.3374   22739288.499
        49.0004         44.0004
 -22036642.24648 -17112793.20547  21078673.2814   21078680.7884   21078672.869
        52.0004         47.0004
 14  5 11  0 29 30.0000000  0 12G20G26G09G07G28G02G01G10G08G13G17G04
  -3626610.04646  -2765581.07846  23704189.1334   23704202.1984   23704191.550
        40.0004         36.0004
   -520355.76847   -390960.72746  24062476.1404   24062493.6444   24062475.961
        42.0004         37.0004
 -13912516.46149 -10831437.25248  19996096.9284   19996103.8374   19996096.871
        54.0004         50.0004
 -21932259.77148 -17054050.92648  20631461.0724   20631467.1944   20631460.500
        53.0004         48.0004
  -3048542.39447  -2375612.12546  23454923.4764   23454932.3094   23454922.779
        45.0004         40.0004
  -3350388.97747  -2550840.24946  23768105.9634   23768114.9574   23768106.598
        43.0004         38.0004
  -2277133.43847  -1742738.34246  24175175.5074   24175188.9844   24175174.919
        44.0004         39.0004
  -9788741.00647  -7616276.26746  23843528.6554   23843538.8124   23843529.541
        44.0004         39.0004
 -21561017.40349 -16782120.45448  19893018.4644   19893025.4264   19893018.808
        54.0004         49.0004
    -28873.75846     -6574.77046  24367451.9974   24367460.0574   24367450.881
        40.0004         36.0004
 -11570091.59048  -8955633.34347  22747356.3734   22747366.7704   22747356.195
        49.0004         44.0004
 -22101165.84248 -17163071.24347  21066395.0794   21066401.8884   21066394.507
        52.0004         47.0004
 14  5 11  0 30  0.0000000  0 12G20G26G09G07G28G02G01G10G08G13G17G04
  -3611375.60646  -2753710.05645  23707091.0434   23707103.4684   23707091.361
        40.0004         35.0004
   -527732.53047   -396708.58046  24061073.0684   24061088.1274   24061072.267
        42.0004         37.0004
 -13922316.70249 -10839073.72548  19994232.1184   19994238.9534   19994232.178
        54.0004         50.0004
 -21876654.22148 -17010721.88748  20642042.1864   20642048.1664   20642041.889
        53.0004         48.0004
  -3100666.39447  -2416228.06946  23445004.2164   23445013.3764   23445003.782
        45.0004         41.0004
  -3440967.34847  -2621420.50146  23750868.4584   23750876.5284   23750870.076
        43.0004         38.0004
  -2173772.56147  -1662197.42046  24194844.6254   24194858.9434   24194843.145
        43.0004         38.0004
  -9848793.17347  -7663069.95246  23832101.4384   23832110.8044   23832101.484
        44.0004         39.0004
 -21571634.75449 -16790393.64248  19890997.8324   19891005.2184   19890998.347
        54.0004         49.0004
     40257.72246     47294.03246  24380604.4834   24380612.0164   24380605.940
        40.0004         36.0004
 -11527682.91948  -8922587.59947  22755426.2004   22755436.4714   22755426.030
        49.0004         44.0004
 -22165251.61448 -17213008.11847  21054199.9924   21054206.7354   21054199.391
        52.0004         47.0004
 14  5 11  0 30 30.0000000  0 12G20G26G09G07G28G02G01G10G08G13G17G04
  -3595867.09546  -2741625.43846  23710042.6614   23710052.3204   23710042.209
        40.0004         36.0004
   -534798.46947   -402214.25146  24059727.2164   24059743.4334   24059726.943
        42.0004         37.0004
 -13931503.43849 -10846232.14248  19992483.5654   19992490.4564   19992483.523
        54.0004         49.0004
 -21820525.28148 -16966985.00548  20652723.0614   20652729.4934   20652723.121
        53.0004         48.0004
  -3152958.12947  -2456974.71146  23435051.2524   23435062.0514   23435052.879
        45.0004         41.0004
  -3531344.11947  -2691843.65446  23733671.7134   23733678.2804   23733670.787
        43.0004         38.0004
  -2070266.91547  -1581543.68846  24214540.7214   24214555.5044   24214539.782
        43.0004         38.0004
  -9909038.63347  -7710014.25746  23820637.3074   23820645.7934   23820637.575
        44.0004         39.0004
 -21581593.38549 -16798153.54748  19889102.9954   19889109.8694   19889103.062
        54.0004         49.0004
    109177.64546    100997.94046  24393720.7784   24393728.2874   24393720.806
        40.0004         36.0004
 -11485260.60348  -8889531.20647  22763499.3844   22763509.7664   22763498.818
        49.0004         44.0004
 -22228893.94148 -17262599.45347  21042088.8954   21042096.0014   21042088.647
        52.0004         47.0004
 14  5 11  0 31  0.0000000  0 12G20G26G09G07G28G02G01G10G08G13G17G04
  -3580084.81346  -2729327.53145  23713046.2454   23713054.6144   23713045.115
        40.0004         35.0004
   -541556.68447   -407480.11346  24058440.4444   24058456.5804   24058440.835
        42.0004         37.0004
 -13940078.12949 -10852913.64448  19990852.0114   19990858.6564   19990851.975
        54.0004         50.0004
 -21763876.44048 -16922843.00348  20663503.2334   20663509.0354   20663502.565
        53.0004         48.0004
  -3205417.40647  -2497851.91446  23425069.2644   23425079.1434   23425070.185
        45.0004         41.0004
  -3621518.64847  -2762109.23446  23716510.4334   23716518.7234   23716511.185
        43.0004         38.0004
  -1966620.74247  -1500780.44046  24234263.1754   24234277.0944   24234263.134
        43.0004         38.0004
  -9969477.68147  -7757109.41246  23809134.4824   23809145.1554   23809135.305
        44.0004         39.0004
 -21590894.01049 -16805400.71648  19887332.6854   19887339.7234   19887332.989
        54.0004         49.0004
    177882.70446    154534.46746  24406795.0444   24406801.5644   24406794.999
        40.0004         36.0004
 -11442828.20148  -8856466.95947  22771573.5094   22771583.4104   22771573.337
        49.0004         44.0004
 -22292092.47048 -17311844.96647  21030062.5444   21030069.5154   21030062.050
        52.0004         47.0004
 14  5 11  0 31 30.0000000  0 12G20G26G09G07G28G02G01G10G08G13G17G04
  -3564029.06446  -2716816.49445  23716100.3514   23716108.9184   23716101.140
        40.0004         35.0004
   -548010.40547   -412508.73546  24057212.4424   24057228.8754   24057212.177
        42.0004         37.0004
 -13948041.73049 -10859118.96648  19989336.3504   19989343.5094   19989336.496
        54.0004         49.0004
 -21706711.47748 -16878298.83948  20674381.3964   20674387.3654   20674381.197
        53.0004         48.0004
  -3258043.97147  -2538859.48446  23415056.2514   23415064.5844   23415055.672
        45.0004         41.0004
  -3711490.10847  -2832216.56946  23699390.2724   23699397.6164   23699390.123
        43.0004         38.0004
  -1862838.10047  -1419910.84846  24254011.9644   24254026.6014   24254012.335
        43.0004         38.0004
 -10030110.44547  -7804355.51246  23797595.6444   23797606.7354   23797597.402
        44.0004         39.0004
 -21599537.45749 -16812135.80448  19885688.1744   19885695.3514   19885688.521
        54.0004         49.0004
    246370.75846    207901.86646  24419827.3174   24419835.3624   24419827.191
        40.0004         36.0004
 -11400389.98048  -8823398.18247  22779650.2924   22779659.0774   22779649.097
        49.0004         44.0004
 -22354846.91848 -17360744.44247  21018120.4054   21018127.4674   21018120.533
        52.0004         47.0004
 14  5 11  0 32  0.0000000  0 12G20G26G09G07G28G02G01G10G08G13G17G04
  -3547695.16446  -2704088.72646  23719208.4884   23719216.8434   23719209.140
        40.0004         36.0004
   -554158.38147   -417299.10546  24056041.8304   24056057.9814   24056042.812
        42.0004         37.0004
 -13955391.41249 -10864845.92148  19987937.6314   19987944.3094   19987937.716
        54.0004         49.0004
 -21649029.68948 -16833351.95048  20685357.7444   20685363.6804   20685357.119
        53.0004         48.0004
  -3310832.82247  -2579993.51746  23405008.5424   23405017.8314   23405009.920
        45.0004         41.0004
  -3801253.09047  -2902161.46146  23682308.7794   23682315.4534   23682308.591
        43.0004         38.0004
  -1758918.83647  -1338934.79346  24273789.1974   24273802.6624   24273787.425
        42.0004         38.0004
 -10090933.25647  -7851749.69246  23786022.3534   23786031.9584   23786023.191
        44.0004         39.0004
 -21607520.19949 -16818356.05548  19884168.7384   19884175.9564   19884169.196
        54.0004         49.0004
    314643.61246    261101.57646  24432821.0704   24432827.2204   24432819.819
        40.0004         36.0004
 -11357944.93348  -8790324.08647  22787725.3584   22787735.8904   22787726.164
        49.0004         44.0004
 -22417151.83048 -17409293.63047  21006264.7124   21006271.6004   21006263.848
        52.0004         47.0004
 14  5 11  0 32 30.0000000  0 12G20G26G09G07G28G02G01G10G08G13G17G04
  -3531082.83546  -2691143.99746  23722368.5484   23722379.6214   23722370.668
        40.0004         36.0004
   -560003.14447   -421853.20246  24054929.9214   24054945.3994   24054929.902
        42.0004         38.0004
 -13962127.86849 -10870095.02748  19986655.9654   19986662.7114   19986655.917
        54.0004         50.0004
 -21590833.95048 -16788004.58148  20696432.1124   20696438.0544   20696431.857
        53.0004         48.0004
  -3363783.65747  -2621253.76246  23394932.6504   23394942.8994   23394933.615
        45.0004         40.0004
  -3890806.63947  -2971943.15546  23665267.3064   23665274.4344   23665267.062
        43.0004         38.0004
  -1654866.45647  -1257855.02246  24293588.4634   24293604.0184   24293588.087
        42.0004         37.0004
 -10151945.32547  -7899291.35446  23774411.3784   23774421.5434   23774412.818
        44.0004         39.0004
 -21614842.42349 -16824061.61848  19882775.3924   19882782.4624   19882775.881
        54.0004         49.0004
    382698.98246    314131.83946  24445770.2694   24445780.2944   24445769.124
        40.0004         36.0004
 -11315496.27848  -8757247.18447  22795803.5604   22795814.0694   22795803.666
        49.0004         44.0004
 -22479005.93248 -17457491.53447  20994493.9424   20994500.8754   20994493.374
        52.0004         47.0004
 14  5 11  0 33  0.0000000  0 12G20G26G09G07G28G02G01G10G08G13G17G04
  -3514192.57446  -2677982.70945  23725581.1234   23725591.0184   23725583.916
        40.0004         35.0004
   -565547.89647   -426173.51846  24053876.1294   24053889.8964   24053875.440
        42.0004         38.0004
 -13968252.53849 -10874867.42748  19985490.3074   19985496.6874   19985490.249
        54.0004         50.0004
 -21532127.90448 -16742259.56548  20707603.1244   20707608.8794   20707602.563
        53.0004         48.0004
  -3416896.10047  -2662639.93546  23384825.8694   23384835.7014   23384826.393
        45.0004         40.0004
  -3980149.70147  -3041560.83246  23648265.0344   23648272.9684   23648265.523
        43.0004         39.0004
  -1550685.14147  -1176674.78646  24313413.7694   24313429.2884   24313413.313
        42.0004         37.0004
 -10213147.29647  -7946980.98646  23762766.3974   23762774.5324   23762765.697
        44.0004         39.0004
 -21621505.22749 -16829253.34948  19881507.5194   19881514.7574   19881507.577
        54.0004         49.0004
    450534.14046    366990.50545  24458680.0374   24458686.8584   24458677.858
        40.0004         35.0004
 -11273047.82548  -8724170.43047  22803883.1684   22803891.4754   22803881.840
        49.0004         44.0004
 -22540408.99648 -17505337.98547  20982809.1654   20982816.3174   20982808.419
        52.0004         47.0004
 14  5 11  0 33 30.0000000  0 12G20G26G09G07G28G02G01G10G08G13G17G04
  -3497021.50846  -2664602.61946  23728850.8574   23728863.2924   23728851.910
        40.0004         36.0004
   -570793.13047   -430260.43746  24052878.0484   24052892.1564   24052876.321
        43.0004         38.0004
 -13973764.25649 -10879162.20048  19984441.7964   19984448.3924   19984441.714
        54.0004         50.0004
 -21472912.24048 -16696117.44748  20718871.7274   20718877.2684   20718871.454
        53.0004         48.0004
  -3470166.90247  -2704149.52246  23374689.7514   23374697.7974   23374689.597
        45.0004         40.0004
  -4069278.61947  -3111011.66246  23631304.6084   23631312.5864   23631304.894
        43.0004         39.0004
  -1446376.33947  -1095395.18746  24333263.8434   24333278.2594   24333262.763
        42.0004         37.0004
 -10274536.59647  -7994816.60346  23751083.2144   23751093.2554   23751083.650
        44.0004         39.0004
 -21627506.73749 -16833929.78548  19880365.4214   19880372.4504   19880365.926
        54.0004         49.0004
    518149.03746    419677.52046  24471544.6164   24471554.1154   24471544.661
        40.0004         36.0004
 -11230600.94248  -8691094.89247  22811959.6884   22811969.2884   22811958.735
        49.0004         44.0004
 -22601357.51448 -17552830.24747  20971211.2314   20971217.9164   20971210.690
        52.0004         47.0004
 14  5 11  0 34  0.0000000  0 12G20G26G09G07G28G02G01G10G08G13G17G04
  -3479568.64546  -2651002.94446  23732173.1764   23732183.0894   23732172.255
        40.0004         36.0004
   -575740.63047   -434115.36046  24051936.5074   24051951.1134   24051935.099
        43.0004         38.0004
 -13978662.86849 -10882979.23048  19983509.0804   19983515.7434   19983509.308
        54.0004         50.0004
 -21413189.53348 -16649580.22448  20730236.0964   20730242.3244   20730236.009
        53.0004         48.0004
  -3523594.36447  -2745781.14946  23364522.2204   23364531.8414   23364522.278
        45.0004         40.0004
  -4158191.32247  -3180294.00246  23614384.7194   23614392.2994   23614385.028
        44.0004         39.0004
  -1341942.72646  -1014018.33246  24353137.8794   24353150.7584   24353135.738
        41.0004         37.0004
 -10336111.95447  -8042797.19246  23739365.2654   23739374.4094   23739365.986
        44.0004         39.0004
 -21632846.47249 -16838090.55448  19879349.4714   19879356.4334   19879349.826
        54.0004         49.0004
    585542.83346    472192.24945  24484369.1304   24484376.3344   24484369.144
        40.0004         35.0004
 -11188157.76248  -8658022.25147  22820036.2374   22820045.7124   22820035.401
        49.0004         44.0004
 -22661849.62348 -17599966.86547  20959700.1054   20959707.1674   20959699.197
        52.0004         47.0004
 14  5 11  0 34 30.0000000  0 12G20G26G09G07G28G02G01G10G08G13G17G04
  -3461832.17146  -2637182.27546  23735546.5764   23735557.6374   23735548.382
        40.0004         36.0004
   -580391.58247   -437739.21946  24051050.3354   24051066.1014   24051049.823
        42.0004         38.0004
 -13982947.68149 -10886317.97348  19982693.4904   19982700.4004   19982693.710
        54.0004         50.0004
 -21352961.47048 -16602649.22848  20741697.6084   20741703.4844   20741697.188
        52.0004         48.0004
  -3577176.33047  -2787533.18046  23354325.3384   23354334.5964   23354325.687
        45.0004         40.0004
  -4246885.16947  -3249405.82546  23597506.1744   23597514.4184   23597506.250
        44.0004         39.0004
  -1237386.44146   -932545.90846  24373033.8514   24373047.2014   24373032.431
        41.0004         37.0004
 -10397871.63447  -8090921.38946  23727612.8534   23727623.0564   23727613.294
        44.0004         39.0004
 -21637523.35949 -16841734.82048  19878459.5014   19878466.3064   19878459.721
        54.0004         49.0004
    652714.75746    524534.11145  24497152.5474   24497160.3744   24497151.776
        40.0004         35.0004
 -11145720.16948  -8624953.94447  22828111.5234   22828121.6954   22828110.942
        49.0004         44.0004
 -22721882.66048 -17646745.76747  20948275.7074   20948282.5434   20948275.180
        52.0004         47.0004
 14  5 11  0 35  0.0000000  0 12G20G26G09G07G28G02G01G10G08G13G17G04
  -3443811.21546  -2623139.91646  23738976.9514   23738986.4254   23738977.141
        40.0004         36.0004
   -584748.05047   -441133.56046  24050220.9244   24050235.4454   24050220.938
        43.0004         38.0004
 -13986619.10049 -10889178.74848  19981995.2424   19982001.6084   19981995.273
        54.0004         50.0004
 -21292230.86648 -16555326.63048  20753254.2554   20753259.8724   20753253.972
        52.0004         48.0004
  -3630911.27647  -2829404.42346  23344100.7324   23344108.5224   23344100.342
        45.0004         40.0004
  -4335358.05947  -3318345.46346  23580670.0124   23580677.5794   23580670.515
        44.0004         39.0004
  -1132710.53046   -850980.24046  24392952.2864   24392965.8404   24392951.629
        41.0004         36.0004
 -10459815.01847  -8139188.75946  23715825.6654   23715834.8464   23715826.238
        44.0004         39.0004
 -21641537.17649 -16844862.40348  19877695.3654   19877702.5204   19877695.679
        54.0004         49.0004
    719663.26446    576701.86445  24509891.4204   24509899.5414   24509891.309
        40.0004         35.0004
 -11103290.80648  -8591892.06447  22836186.1034   22836195.6354   22836185.399
        49.0004         44.0004
 -22781455.18448 -17693165.81947  20936939.4874   20936946.6374   20936938.911
        52.0004         47.0004
 14  5 11  0 35 30.0000000  0 12G20G26G09G07G28G02G01G10G08G13G17G04
  -3425504.51646  -2608874.90846  23742459.3984   23742469.6144   23742460.689
        40.0004         36.0004
   -588811.73547   -444299.80946  24049448.1104   24049462.4744   24049447.273
        42.0004         38.0004
 -13989677.33549 -10891561.70948  19981412.9804   19981420.0974   19981413.137
        54.0004         50.0004
 -21230999.69948 -16507613.98848  20764905.9524   20764911.7794   20764905.582
        52.0004         48.0004
  -3684797.06447  -2871393.19946  23333846.2004   23333855.0304   23333846.207
        45.0004         40.0004
  -4423608.03247  -3387111.41146  23563876.8404   23563883.5194   23563877.516
        44.0004         39.0004
  -1027917.37546   -769323.24546  24412892.4594   24412906.8374   24412892.262
        41.0004         36.0004
 -10521940.37947  -8187597.93246  23704003.1424   23704012.5494   23704004.090
        44.0004         39.0004
 -21644887.41149 -16847472.91348  19877058.0024   19877064.8524   19877058.130
        54.0004         49.0004
    786387.33246    628694.71845  24522588.0104   24522596.7144   24522589.498
        40.0004         35.0004
 -11060871.77348  -8558838.23847  22844257.7554   22844267.4234   22844257.156
        49.0004         44.0004
 -22840564.81848 -17739225.18247  20925690.9864   20925697.9334   20925690.885
        52.0004         47.0004
 14  5 11  0 36  0.0000000  0 12G20G26G09G07G28G02G01G10G08G13G17G04
  -3406911.68646  -2594386.93646  23745997.0314   23746010.1294   23745999.191
        40.0004         36.0004
   -592585.14347   -447239.84446  24048729.0014   24048744.4734   24048728.974
        42.0004         38.0004
 -13992123.24749 -10893467.54748  19980947.1564   19980954.1624   19980947.276
        54.0004         49.0004
 -21169270.98948 -16459513.65448  20776652.2914   20776658.1104   20776652.010
        52.0004         48.0004
  -3738832.93947  -2913498.92146  23323562.8514   23323571.4464   23323563.516
        45.0004         40.0004
  -4511633.42247  -3455702.34246  23547125.3314   23547132.7364   23547125.657
        43.0004         39.0004
   -923010.74146   -687577.82146  24432854.7874   24432871.1244   24432855.126
        41.0004         36.0004
 -10584247.47347  -8236148.70046  23692146.5454   23692155.5874   23692147.229
        44.0004         39.0004
 -21647574.62649 -16849566.78548  19876546.5744   19876553.4084   19876546.953
        54.0004         49.0004
    852885.09546    680511.23645  24535242.7714   24535250.3244   24535243.421
        40.0004         35.0004
 -11018466.24348  -8525794.93747  22852327.3594   22852337.2304   22852326.908
        49.0004         44.0004
 -22899210.64448 -17784923.14047  20914531.0334   20914537.9644   20914530.176
        52.0004         47.0004
 14  5 11  0 36 30.0000000  0 12G20G26G09G07G28G02G01G10G08G13G17G04
  -3388028.16546  -2579672.46345  23749591.7174   23749602.2124   23749591.787
        40.0004         35.0004
   -596067.23647   -449952.88346  24048066.1034   24048081.0724   24048066.312
        42.0004         38.0004
 -13993953.98549 -10894894.02548  19980599.2494   19980605.6764   19980599.232
        54.0004         50.0004
 -21107044.21448 -16411025.21248  20788493.5804   20788499.3174   20788493.481
        52.0004         48.0004
  -3793014.02147  -2955717.80046  23313252.1294   23313260.6584   23313253.105
        45.0004         40.0004
  -4599428.90747  -3524114.14746  23530419.5344   23530426.2704   23530418.797
        44.0004         39.0004
   -817990.23646   -605743.67246  24452842.6594   24452855.7794   24452840.792
        41.0004         37.0004
 -10646732.10747  -8284837.81346  23680255.3684   23680265.8404   23680256.362
        44.0004         39.0004
 -21649595.42749 -16851141.37148  19876162.0414   19876168.6714   19876162.431
        54.0004         49.0004
    919158.60946    732152.98745  24547854.1074   24547863.3564   24547854.168
        40.0004         35.0004
 -10976073.48548  -8492761.56647  22860394.7364   22860403.8714   22860393.572
        48.0004         44.0004
 -22957387.83448 -17830255.93147  20903460.4724   20903467.3664   20903459.962
        52.0004         47.0004
 14  5 11  0 37  0.0000000  0 12G20G26G09G07G28G02G01G10G08G13G17G04
  -3368855.96046  -2564733.05945  23753241.1894   23753249.2564   23753240.885
        40.0004         35.0004
   -599262.67247   -452442.54946  24047458.1414   24047472.2694   24047457.418
        42.0004         38.0004
 -13995172.54549 -10895843.48148  19980367.1934   19980373.8194   19980367.180
        54.0004         50.0004
 -21044324.42648 -16362152.60648  20800429.0514   20800434.1334   20800428.640
        52.0004         48.0004
  -3847341.44247  -2998050.70546  23302914.6974   23302922.9474   23302914.801
        45.0004         40.0004
  -4686995.39547  -3592347.51046  23513754.5634   23513762.4914   23513755.838
        44.0004         39.0004
   -712861.47946   -523825.17446  24472846.0304   24472861.7024   24472845.776
        41.0004         36.0004
 -10709395.77747  -8333666.44146  23668331.0004   23668340.3944   23668332.219
        44.0004         39.0004
 -21650952.57349 -16852198.82348  19875903.6564   19875910.2204   19875903.927
        54.0004         49.0004
    985203.48546    783616.60845  24560422.1304   24560428.0064   24560422.166
        40.0004         35.0004
 -10933698.67148  -8459742.18947  22868457.7914   22868467.1464   22868457.312
        48.0004         44.0004
 -23015097.25148 -17875224.21847  20892477.9204   20892485.2564   20892477.965
        52.0004         47.0004
 14  5 11  0 37 30.0000000  0 12G20G26G09G07G28G02G01G10G08G13G17G04
  -3349395.21446  -2549568.78045  23756941.0884   23756951.7384   23756943.646
        40.0004         35.0004
   -602174.47947   -454711.20446  24046903.3344   24046917.2884   24046903.012
        42.0004         38.0004
 -13995780.23049 -10896316.93448  19980251.5344   19980258.3914   19980251.607
        54.0004         50.0004
 -20981115.13748 -16312898.57048  20812457.6664   20812463.1204   20812456.919
        52.0004         48.0004
  -3901814.27247  -3040496.91446  23292548.1344   23292557.0214   23292548.819
        45.0004         40.0004
  -4774331.64847  -3660401.46046  23497135.8324   23497142.9064   23497136.447
        44.0004         39.0004
   -607628.15546   -441825.20146  24492872.9054   24492885.9224   24492870.758
        41.0004         37.0004
 -10772238.43947  -8382634.54246  23656372.3524   23656381.5874   23656373.343
        44.0004         39.0004
 -21651646.83049 -16852739.74048  19875771.5414   19875777.8884   19875771.499
        54.0004         49.0004
   1051017.71446    834900.48345  24572944.8014   24572953.1974   24572946.524
        40.0004         35.0004
 -10891345.25248  -8426739.48047  22876516.7094   22876526.6764   22876516.824
        48.0004         44.0004
 -23072338.13648 -17919827.42447  20881585.4884   20881592.5094   20881585.053
        52.0004         47.0004
 14  5 11  0 38  0.0000000  0 12G20G26G09G07G28G02G01G10G08G13G17G04
  -3329641.22546  -2534176.01446  23760701.2454   23760710.8604   23760703.414
        40.0004         36.0004
   -604800.99547   -456757.55746  24046403.4444   24046418.2724   24046402.929
        42.0004         38.0004
 -13995774.37249 -10896312.29748  19980253.0844   19980259.3464   19980252.729
        54.0004         50.0004
 -20917415.38248 -16263262.35648  20824579.0864   20824584.9334   20824578.513
        52.0004         48.0004
  -3956427.61847  -3083052.63746  23282157.0154   23282165.4894   23282156.038
        45.0004         40.0004
  -4861432.07947  -3728271.68846  23480560.4454   23480567.8284   23480560.512
        44.0004         39.0004
   -502289.67746   -359743.27146  24512915.4424   24512931.5824   24512915.979
        41.0004         37.0004
 -10835255.24147  -8431738.36046  23644381.1214   23644389.8454   23644381.108
        44.0004         40.0004
 -21651674.46349 -16852761.21348  19875766.0964   19875772.8494   19875766.456
        54.0004         49.0004
   1116603.71846    886006.52745  24585426.4064   24585435.2494   24585427.781
        39.0004         35.0004
 -10849012.14548  -8393752.61047  22884573.4164   22884582.9314   22884572.859
        48.0004         44.0004
 -23129105.38748 -17964061.55647  20870783.5864   20870790.7324   20870782.877
        52.0004         47.0004
 14  5 11  0 38 30.0000000  0 12G20G26G09G07G28G02G01G10G08G13G17G04
  -3309593.74246  -2518554.56846  23764516.4294   23764528.4174   23764518.126
        40.0004         36.0004
   -607144.88547   -458583.69246  24045957.6154   24045971.8314   24045957.176
        42.0004         38.0004
 -13995155.48849 -10895829.98048  19980370.3674   19980376.8594   19980370.326
        54.0004         50.0004
 -20853228.32848 -16213246.43148  20836793.5094   20836799.3244   20836793.013
        52.0004         48.0004
  -4011179.98447  -3125716.67646  23271736.3654   23271745.8164   23271736.749
        45.0004         41.0004
  -4948295.35847  -3795957.09446  23464030.5354   23464037.2274   23464031.338
        44.0004         40.0004
   -396849.39047   -277582.04046  24532981.5654   24532997.1154   24532981.237
        42.0004         37.0004
 -10898445.50847  -8480977.33646  23632355.7464   23632366.6224   23632355.964
        44.0004         40.0004
 -21651036.20149 -16852263.80248  19875887.4804   19875894.5184   19875887.758
        54.0004         49.0004
   1181959.68146    936933.29845  24597861.1154   24597866.6984   24597863.868
        39.0004         35.0004
 -10806702.15448  -8360783.75847  22892624.1144   22892633.8244   22892623.931
        48.0004         44.0004
 -23185397.70648 -18007925.61848  20860071.2224   20860078.3614   20860070.724
        52.0004         48.0004
 14  5 11  0 39  0.0000000  0 12G20G26G09G07G28G02G01G10G08G13G17G04
  -3289253.97746  -2502705.38046  23768385.2044   23768395.3504   23768388.500
        40.0004         36.0004
   -609210.50847   -460192.98346  24045564.7044   24045577.9724   24045563.736
        43.0004         38.0004
 -13993926.43949 -10894872.21348  19980604.1624   19980610.5674   19980603.996
        54.0004         50.0004
 -20788558.82448 -16162854.57848  20849099.6244   20849105.5774   20849099.306
        52.0004         48.0004
  -4066072.11747  -3168489.62746  23261290.4064   23261299.7954   23261291.282
        45.0004         40.0004
  -5034921.77347  -3863457.94446  23447546.4784   23447553.1824   23447547.347
        44.0004         40.0004
   -291312.41446   -195345.45346  24553064.7644   24553079.1564   24553064.452
        41.0004         37.0004
 -10961810.56747  -8530352.51846  23620297.7684   23620306.9704   23620298.825
        44.0004         39.0004
 -21649734.19349 -16851249.18948  19876135.3594   19876141.6754   19876135.528
        54.0004         49.0004
   1247081.98046    987677.96545  24610256.9734   24610263.3394   24610254.020
        39.0004         35.0004
 -10764420.34448  -8327836.85347  22900669.4324   22900680.0944   22900669.605
        48.0004         44.0004
 -23241215.84048 -18051420.19047  20849449.2344   20849455.8404   20849449.099
        52.0004         47.0004
 14  5 11  0 39 30.0000000  0 12G20G26G09G07G28G02G01G10G08G13G17G04
  -3268617.06046  -2486624.64646  23772313.9874   23772323.2784   23772314.869
        40.0004         36.0004
   -610995.95547   -461583.95046  24045224.5404   24045238.6134   24045223.471
        43.0004         38.0004
 -13992083.85949 -10893436.37048  19980954.7084   19980961.3904   19980954.909
        54.0004         50.0004
 -20723405.51048 -16112085.71647  20861497.7904   20861503.3414   20861497.265
        52.0004         47.0004
  -4121098.56147  -3211367.23046  23250820.4924   23250829.1784   23250819.544
        45.0004         41.0004
  -5121305.26747  -3930769.50946  23431108.2604   23431114.3514   23431108.691
        44.0004         40.0004
   -185677.74347   -113032.74846  24573166.4344   24573180.4974   24573165.266
        42.0004         37.0004
 -11025345.32947  -8579859.92746  23608206.9774   23608216.0914   23608207.661
        44.0004         39.0004
 -21647764.67649 -16849714.43848  19876510.0284   19876516.2894   19876510.374
        54.0004         49.0004
   1311973.47046   1038242.84845  24622603.5694   24622612.0134   24622602.955
        39.0004         35.0004
 -10722164.90348  -8294910.49647  22908711.7194   22908720.7914   22908710.465
        48.0004         44.0004
 -23296554.11748 -18094540.84647  20838918.4624   20838925.3944   20838917.455
        52.0004         47.0004
 14  5 11  0 40  0.0000000  0 12G20G26G09G07G28G02G01G10G08G13G17G04
  -3247684.04646  -2470313.19745  23776297.1394   23776306.8934   23776297.522
        40.0004         35.0004
   -612505.43947   -462759.88746  24044937.0004   24044950.8404   24044936.375
        43.0004         38.0004
 -13989630.42349 -10891524.53548  19981421.5454   19981427.9774   19981421.558
        54.0004         50.0004
 -20657773.24848 -16060943.66047  20873987.1084   20873992.8984   20873986.675
        52.0004         47.0004
  -4176259.45047  -3254349.58946  23240322.3954   23240330.7244   23240322.541
        45.0004         41.0004
  -5207446.05547  -3997891.95646  23414715.3274   23414723.2404   23414715.022
        44.0004         40.0004
    -79950.34047    -30647.81546  24593284.7194   24593301.1524   24593284.869
        42.0004         37.0004
 -11089050.51447  -8629500.13646  23596085.1794   23596093.8014   23596085.499
        44.0004         39.0004
 -21645129.70349 -16847661.15348  19877011.5604   19877017.5894   19877011.529
        54.0004         49.0004
   1376630.95246   1088625.35845  24634906.0324   24634917.3294   24634906.231
        39.0004         34.0004
 -10679940.29348  -8262008.17447  22916746.2274   22916755.7864   22916745.648
        48.0004         43.0004
 -23351413.19848 -18137288.10047  20828478.9294   20828486.2364   20828479.388
        52.0004         47.0004
 14  5 11  0 40 30.0000000  0 12G20G26G09G07G28G02G01G10G08G13G17G04
  -3226450.59046  -2453767.61445  23780339.9264   23780348.5874   23780339.267
        40.0004         35.0004
   -613737.30347   -463719.47746  24044701.8494   24044715.1174   24044701.698
        43.0004         38.0004
 -13986562.89249 -10889134.18948  19982004.9154   19982011.7244   19982005.072
        54.0004         50.0004
 -20591660.84348 -16009427.46347  20886567.7314   20886573.6004   20886567.311
        52.0004         47.0004
  -4231549.45347  -3297432.56546  23229800.5084   23229810.1154   23229801.407
        45.0004         41.0004
  -5293338.31047  -4064820.73946  23398370.3934   23398377.2414   23398371.257
        44.0004         40.0004
     25870.75946     51810.14246  24613422.2124   24613437.2024   24613422.513
        41.0004         37.0004
 -11152921.43547  -8679269.49246  23583930.8104   23583938.8644   23583931.385
        44.0004         39.0004
 -21641825.91749 -16845086.71648  19877639.5654   19877646.3954   19877640.234
        54.0004         49.0004
 -11162303.42146  -8681972.77145  24647169.6404   24647174.4614   24647167.480
        39.0004         34.0004
 -10637745.60848  -8229129.16947  22924774.9044   22924785.7134   22924774.996
        48.0004         44.0004
 -23405787.40848 -18179657.54547  20818131.9054   20818138.7404   20818131.584
        52.0004         47.0004
 14  5 11  0 41  0.0000000  0 12G20G26G09G07G28G02G01G10G08G13G17G04
  -3204922.16846  -2436992.21545  23784435.3334   23784444.3274   23784436.238
        40.0004         35.0004
   -614699.96647   -464469.32046  24044517.6444   24044532.4814   24044517.548
        43.0004         38.0004
 -13982888.37649 -10886270.86748  19982704.4674   19982711.0584   19982704.512
        54.0004         50.0004
 -20525077.54948 -15957544.33547  20899238.0784   20899243.4984   20899237.863
        52.0004         47.0004
  -4286972.90147  -3340619.51546  23219254.7064   23219263.6154   23219254.402
        45.0004         41.0004
  -5378986.56147  -4131559.37546  23382071.8384   23382079.2724   23382073.099
        44.0004         40.0004
    131776.29146    134333.87846  24633576.4294   24633592.8294   24633575.345
        41.0004         37.0004
 -11216963.61447  -8729172.29646  23571743.4014   23571751.0874   23571744.147
        44.0004         40.0004
 -21637859.64349 -16841996.05948  19878394.9124   19878401.5214   19878395.243
        54.0004         49.0004
 -11098117.16046  -8631957.40545  24659381.4574   24659392.3794   24659381.605
        39.0004         34.0004
 -10595589.40248  -8196280.13247  22932797.2484   22932806.8894   22932796.824
        48.0004         43.0004
 -23459681.96948 -18221653.21747  20807876.0654   20807882.2784   20807875.451
        52.0004         47.0004
 14  5 11  0 41 30.0000000  0 12G20G26G09G07G28G02G01G10G08G13G17G04
  -3183088.49746  -2419978.90545  23788588.9854   23788599.0674   23788590.632
        40.0004         35.0004
   -615386.10147   -465003.66946  24044386.5064   24044402.4184   24044387.008
        42.0004         38.0004
 -13978598.00449 -10882927.65148  19983520.7734   19983527.3024   19983520.704
        54.0004         50.0004
 -20458016.50148 -15905288.94247  20911999.7444   20912005.3914   20911999.070
        52.0004         47.0004
  -4342518.97547  -3383902.03746  23208683.8744   23208692.7784   23208684.415
        45.0004         40.0004
  -5464379.42347  -4198099.01946  23365821.5584   23365828.3804   23365822.421
        44.0004         40.0004
    237772.94546    216928.63346  24653746.4894   24653761.0704   24653745.814
        41.0004         37.0004
 -11281166.09547  -8779200.01546  23559525.8214   23559534.7124   23559526.706
        44.0004         40.0004
 -21633221.75349 -16838382.05648  19879277.1594   19879284.0494   19879277.266
        54.0004         49.0004
 -11034161.62646  -8582121.86145  24671551.8764   24671560.2414   24671551.534
        39.0004         35.0004
 -10553464.68548  -8163455.64047  22940813.6324   22940822.5654   22940813.270
        48.0004         44.0004
 -23513085.71848 -18263266.45748  20797713.6894   20797720.5864   20797714.097
        52.0004         48.0004
 14  5 11  0 42  0.0000000  0 12G20G26G09G07G28G02G01G10G08G13G17G04
  -3160957.10046  -2402733.63745  23792803.6784   23792811.0794   23792802.021
        40.0004         35.0004
   -615806.54547   -465330.99346  24044307.2034   24044322.0024   24044307.377
        43.0004         38.0004
 -13973701.08049 -10879111.80048  19984452.6624   19984459.2454   19984452.583
        54.0004         50.0004
 -20390489.04448 -15852670.10947  20924849.4474   20924854.9784   20924849.126
        52.0004         47.0004
  -4398194.34247  -3427285.30146  23198089.6714   23198097.5734   23198089.788
        45.0004         40.0004
  -5549523.14747  -4264444.53146  23349618.8364   23349626.1594   23349619.487
        44.0004         40.0004
    343849.22346    299585.45946  24673931.5724   24673946.6174   24673931.375
        41.0004         37.0004
 -11345535.93247  -8829358.14146  23547276.5504   23547284.9424   23547277.092
        44.0004         40.0004
 -21627920.93249 -16834251.48948  19880286.1574   19880292.5024   19880286.537
        54.0004         49.0004
 -10970446.95546  -8532473.98045  24683678.5014   24683682.3464   24683676.512
        39.0004         35.0004
 -10511382.27248  -8130664.12547  22948821.7964   22948830.5434   22948821.210
        48.0004         44.0004
 -23566005.66448 -18304502.70548  20787643.5394   20787650.2924   20787642.839
        52.0004         48.0004
 14  5 11  0 42 30.0000000  0 12G20G26G09G07G28G02G01G10G08G13G17G04
  -3138525.43446  -2385254.40145  23797070.5524   23797082.2424   23797071.291
        40.0004         35.0004
   -615961.32747   -465451.30046  24044278.1514   24044291.0934   24044277.674
        43.0004         38.0004
 -13968196.36349 -10874822.34948  19985500.2004   19985506.5784   19985500.381
        54.0004         50.0004
 -20322495.83948 -15799688.35047  20937788.4714   20937794.1894   20937787.984
        52.0004         47.0004
  -4453995.19547  -3470766.34346  23187471.3584   23187479.3334   23187470.838
        45.0004         41.0004
  -5634414.18847  -4330593.15746  23333465.9474   23333472.1474   23333465.276
        44.0004         40.0004
    450004.23446    382303.60346  24694133.7354   24694149.2674   24694132.484
        41.0004         36.0004
 -11410070.32447  -8879644.47246  23534995.4964   23535004.7314   23534996.304
        44.0004         40.0004
 -21621955.49849 -16829603.04248  19881421.2624   19881427.7664   19881421.517
        54.0004         49.0004
 -10906971.97846  -8483012.86845  24695757.2354   24695763.2294   24695755.330
        39.0004         35.0004
 -10469342.62848  -8097905.93547  22956820.9894   22956830.3314   22956821.047
        48.0004         44.0004
 -23618438.49148 -18345359.37848  20777665.7184   20777672.8294   20777665.291
        52.0004         48.0004
 14  5 11  0 43  0.0000000  0 12G20G26G09G07G28G02G01G10G08G13G17G04
  -3115788.17846  -2367537.04045  23801396.6354   23801403.9504   23801396.598
        39.0004         35.0004
   -615848.45747   -465363.07446  24044298.3194   24044312.7744   24044298.031
        43.0004         38.0004
 -13962080.48549 -10870056.66648  19986663.6034   19986670.1664   19986663.553
        54.0004         50.0004
 -20254035.35948 -15746342.48147  20950815.6204   20950821.3644   20950815.325
        52.0004         47.0004
  -4509915.73447  -3514340.64346  23176829.6534   23176838.5204   23176829.569
        46.0004         41.0004
  -5719046.29147  -4396539.99846  23317359.9254   23317367.0844   23317360.371
        45.0004         40.0004
    556239.34646    465084.14445  24714348.0904   24714364.4064   24714348.095
        40.0004         35.0004
 -11474763.45347  -8930054.51946  23522685.1794   23522693.5044   23522684.971
        44.0004         40.0004
 -21615321.44449 -16824433.59048  19882683.3234   19882690.1464   19882683.624
        54.0004         49.0004
 -10843733.76246  -8433736.23645  24707789.2704   24707794.1014   24707789.478
        39.0004         34.0004
 -10427344.06348  -8065179.74747  22964813.7234   22964823.3564   22964813.237
        48.0004         44.0004
 -23670378.31848 -18385831.90648  20767781.4154   20767788.5804   20767781.584
        52.0004         48.0004
 14  5 11  0 43 30.0000000  0 12G20G26G09G07G28G02G01G10G08G13G17G04
  -3092746.85046  -2349582.73845  23805781.1914   23805792.1304   23805782.193
        40.0004         35.0004
   -615471.84847   -465069.32946  24044369.6124   24044384.1714   24044370.499
        43.0004         38.0004
 -13955355.89049 -10864816.66048  19987943.5504   19987949.6194   19987943.569
        54.0004         50.0004
 -20185112.32148 -15692636.17547  20963931.6674   20963936.8504   20963931.036
        52.0004         47.0004
  -4565955.81547  -3558008.10546  23166164.6114   23166173.2134   23166165.250
        46.0004         41.0004
  -5803419.12847  -4462284.83246  23301303.6514   23301311.2914   23301304.140
        45.0004         40.0004
    662549.91446    547923.47645  24734578.5154   24734594.9094   24734578.666
        40.0004         35.0004
 -11539616.16347  -8980588.91546  23510343.7404   23510352.1124   23510344.332
        45.0004         40.0004
 -21608021.20449 -16818745.03348  19884072.6174   19884079.1834   19884072.833
        54.0004         49.0004
 -10780735.29146  -8384646.43045  24719778.1714   24719787.6314   24719777.433
        39.0004         34.0004
 -10385390.43148  -8032488.56247  22972796.8154   22972806.7424   22972796.632
        48.0004         44.0004
 -23721825.60548 -18425920.62648  20757991.4724   20757998.0764   20757991.014
        52.0004         48.0004
 14  5 11  0 44  0.0000000  0 12G20G26G09G07G28G02G01G10G08G13G17G04
  -3069400.62246  -2331390.85845  23810222.9274   23810234.6434   23810224.432
        40.0004         35.0004
   -614834.00947   -464572.01346  24044491.5084   24044506.2364   24044491.318
        43.0004         38.0004
 -13948023.76049 -10859103.24348  19989338.6754   19989344.9864   19989338.671
        54.0004         50.0004
 -20115729.79748 -15638571.83447  20977134.3204   20977139.9524   20977133.745
        52.0004         47.0004
  -4622113.90747  -3601767.51147  23155478.8034   23155486.7744   23155478.840
        46.0004         42.0004
  -5887531.51947  -4527826.71246  23285297.6694   23285305.1394   23285298.903
        45.0004         40.0004
    768932.86846    630819.22345  24754822.1654   24754835.2574   24754822.209
        39.0004         35.0004
 -11604627.45347  -9031246.87346  23497971.5304   23497981.0384   23497972.765
        45.0004         40.0004
 -21600055.66049 -16812538.05748  19885588.2314   19885594.8954   19885588.580
        54.0004         49.0004
 -10717977.97046  -8335744.52545  24731719.6994   24731724.2914   24731719.387
        39.0004         34.0004
 -10343484.82448  -7999834.79547  22980771.3104   22980780.2524   22980770.692
        48.0004         43.0004
 -23772779.08548 -18465624.56048  20748295.4044   20748301.8484   20748295.108
        52.0004         48.0004
 14  5 11  0 44 30.0000000  0 12G20G26G09G07G28G02G01G10G08G13G17G04
  -3045747.39046  -2312959.74445  23814723.6934   23814734.4714   23814725.183
        40.0004         35.0004
   -613936.09847   -463872.04046  24044662.7454   24044675.1944   24044662.533
        43.0004         38.0004
 -13940083.78849 -10852916.19448  19990849.5314   19990855.7454   19990849.328
        54.0004         50.0004
 -20045889.47448 -15584150.76547  20990424.6414   20990430.2684   20990423.938
        52.0004         47.0004
  -4678386.80747  -3645616.38747  23144769.8144   23144777.6914   23144770.068
        46.0004         42.0004
  -5971380.12947  -4593163.05846  23269342.4344   23269348.8344   23269342.450
        45.0004         40.0004
    875386.38046    713769.95645  24775079.0134   24775092.8214   24775079.594
        39.0004         35.0004
 -11669794.94047  -9082026.54446  23485571.7374   23485579.1724   23485571.877
        45.0004         40.0004
 -21591423.94049 -16805811.98448  19887231.1004   19887237.1564   19887231.431
        54.0004         49.0004
 -10655461.71846  -8287030.44845  24743614.9124   24743622.0084   24743615.508
        39.0004         35.0004
 -10301628.26048  -7967219.25847  22988735.9764   22988745.1364   22988735.942
        48.0004         43.0004
 -23823236.39348 -18504941.87648  20738693.3904   20738700.3924   20738693.479
        52.0004         48.0004
 14  5 11  0 45  0.0000000  0 12G20G26G09G07G28G02G01G10G08G13G17G04
  -3021786.94946  -2294289.29245  23819284.1634   23819294.7574   23819285.626
        40.0004         35.0004
   -612780.49447   -462971.27546  24044881.9374   24044895.2934   24044881.805
        43.0004         38.0004
 -13931537.11949 -10846256.39048  19992475.8034   19992482.4314   19992475.986
        54.0004         50.0004
 -19975594.58548 -15529375.48447  21003801.2634   21003806.7144   21003800.757
        52.0004         47.0004
  -4734773.59947  -3689554.00847  23134041.1854   23134047.8904   23134040.350
        46.0004         42.0004
  -6054963.50547  -4658292.73546  23253436.7534   23253443.2024   23253437.143
        45.0004         41.0004
    981907.40846    796773.29345  24795348.1704   24795362.9334   24795349.860
        39.0004         34.0004
 -11735117.66547  -9132927.18046  23473140.6354   23473148.2334   23473141.323
        45.0004         40.0004
 -21582126.63749 -16798567.27848  19889000.2594   19889006.5084   19889000.520
        54.0004         49.0004
 -10593187.85146  -8238505.28645  24755466.2204   24755475.2474   24755466.254
        39.0004         35.0004
 -10259823.41248  -7934644.02547  22996692.2694   22996700.4874   22996691.294
        48.0004         43.0004
 -23873196.24448 -18543871.55148  20729186.4484   20729193.6814   20729185.633
        52.0004         48.0004
 14  5 11  0 45 30.0000000  0 12G20G26G09G07G28G02G01G10G08G13G17G04
  -2997517.95046  -2275378.35645  23823904.5584   23823910.9054   23823903.212
        40.0004         35.0004
   -611368.76547   -461870.93146  24045150.4674   24045164.3234   24045150.270
        43.0004         38.0004
 -13922384.12949 -10839124.13348  19994217.4174   19994223.9234   19994217.497
        54.0004         50.0004
 -19904847.08848 -15474247.52447  21017263.7794   21017269.0034   21017263.307
        52.0004         47.0004
  -4791271.67447  -3733578.33547  23123287.7014   23123297.8594   23123288.859
        47.0004         42.0004
  -6138278.87447  -4723213.56846  23237581.7134   23237587.5854   23237582.685
        45.0004         41.0004
 -19391966.32646 -15078972.57845  24815636.1474   24815649.0674   24815632.544
        39.0004         34.0004
 -11800593.72547  -9183947.29646  23460680.6184   23460688.4974   23460681.645
        45.0004         40.0004
 -21572163.65049 -16790803.85948  19890895.9664   19890902.6404   19890896.145
        54.0004         49.0004
 -10531157.14346  -8190169.58045  24767269.5484   24767280.1614   24767270.343
        40.0004         35.0004
 -10218072.07748  -7902110.48447  23004636.1824   23004645.3994   23004636.308
        48.0004         43.0004
 -23922656.91148 -18582412.25448  20719774.4644   20719781.1914   20719774.761
        52.0004         48.0004
 14  5 11  0 46  0.0000000  0 12G20G26G09G07G28G02G01G10G08G13G17G04
  -2972940.61146  -2256227.18345  23828580.4064   23828587.4364   23828580.637
        40.0004         35.0004
   -609703.90447   -460573.35746  24045467.3754   24045479.8684   24045466.693
        43.0004         38.0004
 -13912626.41649 -10831520.66148  19996074.3144   19996080.4604   19996074.515
        54.0004         50.0004
 -19833650.73948 -15418769.79047  21030811.9134   21030817.8324   21030811.718
        52.0004         47.0004
  -4847879.65447  -3777688.30247  23112516.3504   23112524.6284   23112516.870
        47.0004         42.0004
  -6221325.02247  -4787924.63646  23221778.7944   23221783.8744   23221778.468
        45.0004         41.0004
 -19285318.36446 -14995870.33745  24835930.3594   24835942.5874   24835926.971
        39.0004         34.0004
 -11866222.49747  -9235086.41746  23448191.1964   23448200.1184   23448193.022
        45.0004         40.0004
 -21561536.12849 -16782522.62248  19892918.2404   19892925.0084   19892918.561
        54.0004         49.0004
 -10469371.05246  -8142024.48645  24779027.9914   24779035.5474   24779027.229
        40.0004         35.0004
 -10176377.16548  -7869620.89347  23012568.9674   23012580.8004   23012569.904
        48.0004         43.0004
 -23971617.60448 -18620563.37848  20710457.5384   20710463.6774   20710456.866
        52.0004         48.0004
 14  5 11  0 46 30.0000000  0 12G20G26G09G07G28G02G01G10G08G13G17G04
  -2948052.36346  -2236833.73945  23833318.1744   23833327.7994   23833316.193
        40.0004         35.0004
   -607786.58247   -459079.03746  24045831.5564   24045843.9484   24045831.663
        43.0004         38.0004
 -13902263.37449 -10823445.50548  19998046.4984   19998052.5314   19998046.284
        54.0004         50.0004
 -19762006.67748 -15362943.20347  21044445.5504   21044451.0734   21044445.279
        52.0004         47.0004
  -4904594.09947  -3821881.23347  23101724.6414   23101731.9764   23101723.780
        46.0004         42.0004
  -6304098.87947  -4852423.52546  23206027.1314   23206032.7454   23206027.389
        45.0004         41.0004
 -19178609.91246 -14912720.98645  24856234.1224   24856245.7974   24856232.761
        38.0004         34.0004
 -11932000.97547  -9286342.19246  23435674.6774   23435683.8434   23435675.045
        45.0004         40.0004
 -21550243.37549 -16773723.02248  19895066.6524   19895073.7074   19895067.042
        54.0004         49.0004
 -10407829.17446  -8094069.70445  24790737.0194   24790747.3684   24790737.834
        40.0004         35.0004
 -10134739.61848  -7837176.02347  23020493.3014   23020504.3654   23020493.875
        48.0004         43.0004
 -24020075.35048 -18658322.58848  20701236.3624   20701242.4114   20701236.088
        52.0004         48.0004
 14  5 11  0 47  0.0000000  0 12G20G26G09G07G28G02G01G10G08G13G17G04
  -2922850.85946  -2217196.23545  23838111.5674   23838121.0144   23838111.584
        39.0004         35.0004
   -605617.47047   -457388.53846  24046243.5564   24046256.4394   24046244.036
        43.0004         38.0004
 -13891294.43549 -10814898.22548  20000133.4444   20000139.9754   20000133.699
        54.0004         50.0004
 -19689916.35748 -15306768.88947  21058164.1024   21058169.4634   21058163.430
        52.0004         47.0004
  -4961411.81647  -3866154.62446  23090911.6344   23090920.3214   23090911.548
        46.0004         41.0004
  -6386597.02247  -4916707.57746  23190329.0224   23190333.9944   23190328.953
        45.0004         41.0004
 -19071842.35946 -14829525.57845  24876550.3974   24876566.8854   24876550.624
        38.0004         34.0004
 -11997926.50247  -9337712.54946  23423129.1124   23423137.2514   23423129.765
        45.0004         40.0004
 -21538284.30749 -16764404.22348  19897342.6654   19897349.7174   19897343.045
        54.0004         49.0004
 -10346531.02746  -8046304.81445  24802406.8514   24802410.8004   24802402.809
        40.0004         35.0004
 -10093160.12848  -7804776.39147  23028406.7784   23028415.7714   23028405.861
        48.0004         43.0004
 -24068027.30248 -18695687.67248  20692111.5224   20692118.2474   20692111.256
        52.0004         48.0004
 14  5 11  0 47 30.0000000  0 12G20G26G09G07G28G02G01G10G08G13G17G04
  -2897338.70946  -2197316.62145  23842965.5254   23842975.9384   23842967.027
        40.0004         35.0004
   -603202.00447   -455506.07246  24046704.1244   24046715.6854   24046703.188
        42.0004         38.0004
 -13879723.71149 -10805882.01848  20002335.3604   20002341.3114   20002335.419
        54.0004         50.0004
 -19617385.75148 -15250251.47947  21071966.4834   21071971.1464   21071965.435
        52.0004         47.0004
  -5018334.20747  -3910509.57046  23080079.4184   23080087.4794   23080079.441
        46.0004         41.0004
  -6468820.57047  -4980777.64846  23174682.0894   23174687.2974   23174681.676
        46.0004         41.0004
 -18965021.50646 -14746288.60145  24896878.0334   24896895.3564   24896877.476
        38.0004         34.0004
 -12064000.74147  -9389198.78446  23410555.3774   23410564.2824   23410556.081
        45.0004         40.0004
 -21525662.58749 -16754569.06348  19899744.5264   19899750.9664   19899744.969
        54.0004         49.0004
 -10285480.74346  -7998733.08945  24814021.3064   24814028.7164   24814020.862
        40.0004         35.0004
 -10051644.11848  -7772426.22147  23036306.5814   23036316.1334   23036305.954
        48.0004         43.0004
 -24115475.36548 -18732660.11348  20683081.7524   20683089.0094   20683081.354
        52.0004         48.0004
 14  5 11  0 48  0.0000000  0 12G20G26G09G07G28G02G01G10G08G13G17G04
  -2871511.76446  -2177191.74045  23847882.1704   23847893.0334   23847881.694
        40.0004         35.0004
   -600538.79147   -453430.56946  24047209.8054   24047222.6714   24047210.364
        42.0004         38.0004
 -13867548.50849 -10796394.79348  20004652.1714   20004658.5324   20004652.110
        54.0004         50.0004
 -19544414.36948 -15193390.62047  21085852.2334   21085857.4124   21085851.737
        52.0004         47.0004
  -5075355.57647  -3954941.65046  23069229.1504   23069235.5504   23069228.925
        46.0004         41.0004
  -6550763.81447  -5044629.31746  23159088.9304   23159094.1604   23159088.318
        46.0004         41.0004
                 -14663009.67055                  24917229.6305   24917215.545
                        33.0004
 -12130218.86747  -9440797.14346  23397954.5884   23397963.3474   23397955.012
        45.0004         41.0004
 -21512375.60349 -16744215.51948  19902272.7284   19902279.5324   19902273.145
        54.0004         49.0004
 -10224675.88646  -7951352.60445  24825590.4594   24825596.4584   24825591.691
        39.0004         35.0004
 -10010190.04347  -7740124.30847  23044194.2724   23044204.6614   23044194.613
        47.0004         43.0004
 -24162414.63348 -18769236.09148  20674149.4904   20674156.3524   20674149.463
        52.0004         48.0004
 14  5 11  0 48 30.0000000  0 12G20G26G09G07G28G02G01G10G08G13G17G04
  -2845368.43946  -2156820.33245  23852855.0344   23852867.2144   23852856.807
        40.0004         35.0004
   -597628.83447   -451162.78146  24047763.9654   24047775.6974   24047763.807
        42.0004         38.0004
 -13854768.81749 -10786436.53948  20007084.1534   20007090.0944   20007083.895
        54.0004         50.0004
 -19471003.64248 -15136187.41347  21099821.4714   21099826.9144   21099820.908
        52.0004         47.0004
  -5132472.53747  -3999448.22546  23058359.9654   23058366.9294   23058359.285
        46.0004         41.0004
  -6632423.58647  -5108260.09746  23143547.8424   23143554.3784   23143548.626
        46.0004         41.0004
 -18751219.41656 -14579689.74455  24937565.0875   24937577.1705   24937563.505
        38.0004         33.0004
 -12196578.34347  -9492505.65046  23385326.7214   23385334.6854   23385327.147
        45.0004         41.0004
 -21498422.56849 -16733342.98148  19904928.3434   19904934.6034   19904928.366
        54.0004         49.0004
 -10164116.13546  -7904163.08745  24837115.8024   24837122.9064   24837115.771
        40.0004         35.0004
  -9968799.46047  -7707871.87847  23052071.3494   23052080.1494   23052070.620
        47.0004         43.0004
 -24208842.72248 -18805413.75248  20665314.7344   20665321.0714   20665314.293
        53.0004         48.0004
 14  5 11  0 49  0.0000000  0 12G20G26G09G07G28G02G01G10G08G13G17G04
  -2818913.75746  -2136206.30645  23857890.2064   23857899.2294   23857889.707
        39.0004         35.0004
   -594480.74147   -448709.42846  24048361.9154   24048375.2174   24048362.038
        42.0004         38.0004
 -13841392.15749 -10776013.11548  20009629.7294   20009635.9134   20009629.584
        54.0004         50.0004
 -19397162.71748 -15078648.97547  21113872.3894   21113878.1994   21113872.094
        51.0004         47.0004
  -5189689.71147  -4044032.88246  23047471.7284   23047480.1954   23047471.883
        46.0004         41.0004
  -6713804.94947  -5171673.94246  23128061.9664   23128067.9634   23128062.339
        46.0004         41.0004
                 -14496336.11055                  24957936.7125   24957918.931
                        32.0004
 -12263083.91247  -9544327.98646  23372670.7594   23372679.2644   23372671.255
        45.0004         40.0004
 -21483810.68949 -16721957.05548  19907708.5644   19907715.1184   19907709.042
        54.0004         49.0004
 -10103808.73646  -7857170.23245  24848592.3374   24848599.0614   24848591.652
        39.0004         34.0004
  -9927480.87948  -7675675.55647  23059934.6264   23059943.8554   23059933.543
        48.0004         43.0004
 -24254764.66148 -18841197.00748  20656575.6834   20656582.8374   20656575.722
        53.0004         48.0004
 14  5 11  0 49 30.0000000  0 11G20G26G09G07G28G02G10G08G13G17G04
  -2792141.10746  -2115344.50045  23862986.8804   23862995.6924   23862985.510
        39.0004         35.0004
   -591090.87447   -446067.70146  24049006.1634   24049020.9114   24049007.385
        42.0004         38.0004
 -13827413.81749 -10765120.84648  20012289.5524   20012295.9484   20012289.625
        54.0004         50.0004
 -19322888.67248 -15020773.05447  21128006.7674   21128011.7604   21128006.081
        51.0004         47.0004
  -5246999.46147  -4088689.69046  23036564.1464   23036573.0184   23036565.881
        45.0004         41.0004
  -6794899.50747  -5234864.31046  23112629.7294   23112636.6364   23112630.544
        46.0004         41.0004
 -12329728.23547  -9596258.44746  23359988.1064   23359996.4534   23359988.597
        45.0004         40.0004
 -21468534.75449 -16710053.68648  19910615.3194   19910621.9444   19910615.803
        54.0004         49.0004
 -10043748.45846  -7810369.97145  24860019.1914   24860030.4254   24860020.239
        39.0004         34.0004
  -9886230.43148  -7643532.31047  23067783.7934   23067793.7784   23067783.173
        48.0004         43.0004
 -24300173.28248 -18876580.27148  20647935.1144   20647941.9524   20647934.857
        53.0004         48.0004
 14  5 11  0 50  0.0000000  0 11G20G26G09G07G28G02G10G08G13G17G04
  -2765052.32746  -2094236.37345  23868138.1994   23868149.1264   23868140.515
        39.0004         34.0004
   -587463.52047   -443240.90846  24049697.9584   24049709.4214   24049698.308
        42.0004         38.0004
 -13812837.00249 -10753762.23248  20015063.1934   20015069.3834   20015063.208
        54.0004         50.0004
 -19248186.64048 -14962563.62647  21142221.8914   21142226.9344   21142221.675
        51.0004         47.0004
  -5304401.61647  -4133418.50946  23025642.5304   23025649.8644   23025642.493
        45.0004         41.0004
  -6875707.63747  -5297831.49446  23097251.8794   23097258.3824   23097252.235
        46.0004         41.0004
 -12396512.16047  -9648297.67946  23347280.5504   23347288.6984   23347280.939
        45.0004         40.0004
 -21452597.58349 -16697635.06948  19913648.1544   19913654.8564   19913648.609
        54.0004         49.0004
  -9983938.74446  -7763764.91345  24871400.6394   24871410.6214   24871401.752
        39.0004         34.0004
  -9845052.70448  -7611445.74147  23075620.0014   23075629.3264   23075618.985
        48.0004         43.0004
 -24345069.54548 -18911564.30748  20639391.6944   20639397.8684   20639391.125
        53.0004         48.0004
 14  5 11  0 50 30.0000000  0 11G20G26G09G07G28G02G10G08G13G17G04
  -2737647.20046  -2072881.71545  23873355.4084   23873363.4724   23873354.468
        39.0004         34.0004
   -583601.57647   -440231.32046  24050431.7764   24050444.7254   24050431.627
        42.0004         38.0004
 -13797663.12349 -10741938.37648  20017950.7034   20017956.8584   20017950.866
        54.0004         50.0004
 -19173060.08548 -14904023.42647  21156517.7784   21156523.4544   21156517.214
        51.0004         47.0004
  -5361894.71647  -4178218.18846  23014700.9024   23014709.2854   23014701.663
        45.0004         41.0004
  -6956228.10647  -5360574.52446  23081930.1864   23081935.8104   23081930.601
        46.0004         41.0004
 -12463434.53747  -9700444.80246  23334544.6394   23334553.5974   23334546.175
        45.0004         41.0004
 -21436000.49849 -16684702.22448  19916806.9074   19916812.8294   19916806.859
        54.0004         49.0004
  -9924380.98246  -7717356.19445  24882736.1484   24882744.9244   24882735.117
        39.0004         35.0004
  -9803949.70148  -7579417.40547  23083440.7874   23083450.8154   23083440.650
        48.0004         43.0004
 -24389452.61248 -18946148.44448  20630945.6664   20630952.2774   20630945.356
        53.0004         48.0004
 14  5 11  0 51  0.0000000  0 11G20G26G09G07G28G02G10G08G13G17G04
  -2709921.64946  -2051277.38645  23878631.7564   23878638.3764   23878631.364
        39.0004         34.0004
   -579503.64847   -437037.84146  24051213.1704   24051224.9724   24051212.019
        42.0004         38.0004
 -13781890.12949 -10729647.68248  20020952.5054   20020958.3734   20020952.295
        54.0004         50.0004
 -19097508.50648 -14845152.01747  21170895.0784   21170900.1254   21170894.509
        51.0004         47.0004
  -5419473.43047  -4223084.58046  23003744.3384   23003753.2364   23003744.892
        45.0004         41.0004
  -7036455.72647  -5423089.36546  23066663.1634   23066669.0944   23066663.758
        46.0004         41.0004
 -12530490.40447  -9752695.94546  23321784.3684   23321792.4414   23321785.032
        45.0004         40.0004
 -21418740.98949 -16671253.21148  19920090.9334   19920097.5464   19920091.053
        54.0004         49.0004
  -9865072.36746  -7671141.61045  24894021.0494   24894027.4564   24894021.428
        39.0004         34.0004
  -9762921.00048  -7547446.96647  23091248.2804   23091257.2434   23091248.360
        48.0004         43.0004
 -24433317.85048 -18980329.08148  20622598.3604   20622605.0324   20622597.982
        53.0004         48.0004
 14  5 11  0 51 30.0000000  0 11G20G26G09G07G28G02G10G08G13G17G04
  -2681878.08246  -2029425.26945  23883967.1254   23883978.7454   23883967.122
        39.0004         34.0004
   -575175.15747   -433664.71546  24052036.0584   24052047.2104   24052034.779
        42.0004         38.0004
 -13765522.34849 -10716893.51448  20024066.8874   20024073.0184   20024067.002
        54.0004         50.0004
 -19021537.92148 -14785954.10747  21185351.8764   21185356.8724   21185351.337
        51.0004         47.0004
  -5477138.83847  -4268018.52346  22992769.6354   22992778.0584   22992770.881
        45.0004         41.0004
  -7116391.56447  -5485376.84146  23051451.6484   23051457.3654   23051451.506
        46.0004         41.0004
 -12597681.59347  -9805052.54946  23308998.8074   23309005.5624   23308998.328
        45.0004         40.0004
 -21400822.78149 -16657290.92848  19923500.5324   19923506.8324   19923500.483
        54.0004         49.0004
  -9806016.87746  -7625124.25045  24905260.4434   24905265.2564   24905259.275
        39.0004         34.0004
  -9721971.76948  -7515538.44647  23099040.3624   23099050.4344   23099040.659
        48.0004         43.0004
 -24476667.31748 -19014107.82548  20614349.0664   20614355.4644   20614348.650
        53.0004         48.0004
 14  5 11  0 52  0.0000000  0 11G20G26G09G07G28G02G10G08G13G17G04
  -2653512.49446  -2007322.24545  23889367.1994   23889375.9904   23889366.268
        39.0004         34.0004
   -570614.68147   -430110.81346  24052902.2774   24052915.6554   24052902.981
        42.0004         38.0004
 -13748557.27549 -10703673.92448  20027295.0184   20027301.2814   20027294.953
        54.0004         50.0004
 -18945147.55648 -14726429.09147  21199888.6714   21199893.8064   21199887.768
        51.0004         47.0004
  -5534884.97747  -4313015.38746  22981780.9884   22981790.1224   22981782.334
        45.0004         41.0004
  -7196029.95847  -5547432.54346  23036296.8194   23036302.3484   23036296.749
        46.0004         41.0004
 -12665002.98047  -9857510.59446  23296186.9694   23296194.7404   23296187.601
        45.0004         40.0004
 -21382243.01948 -16642813.14448  19927036.1084   19927042.4694   19927036.585
        53.0004         49.0004
  -9747211.76846  -7579301.99945  24916448.8684   24916455.1554   24916449.373
        39.0004         35.0004
  -9681100.17448  -7483690.42147  23106818.5124   23106827.4014   23106818.104
        48.0004         43.0004
 -24519495.89148 -19047480.67248  20606199.5704   20606205.3514   20606198.867
        53.0004         48.0004
 14  5 11  0 52 30.0000000  0 11G20G26G09G07G28G02G10G08G13G17G04
  -2624826.05046  -1984969.16845  23894824.4184   23894831.6384   23894823.808
        39.0004         35.0004
   -565826.37647   -426379.39046  24053813.6474   24053825.3444   24053812.810
        43.0004         38.0004
 -13730997.88649 -10689991.23948  20030636.7174   20030642.6414   20030636.805
        54.0004         50.0004
 -18868342.23448 -14666580.74247  21214503.6564   21214508.7184   21214503.371
        51.0004         47.0004
  -5592711.86447  -4358075.17846  22970778.2524   22970785.2114   22970778.258
        45.0004         41.0004
  -7275371.08847  -5609256.61046  23021199.0464   23021204.2274   23021198.543
        46.0004         41.0004
 -12732454.69847  -9910070.21746  23283352.5054   23283359.5554   23283352.107
        45.0004         41.0004
 -21363004.63049 -16627822.14648  19930696.9824   19930703.5944   19930697.230
        54.0004         49.0004
  -9688659.67946  -7533676.88245  24927592.0314   24927597.1924   24927590.387
        39.0004         35.0004
  -9640310.11148  -7451905.94847  23114579.8124   23114591.2194   23114580.113
        48.0004         43.0004
 -24561804.52548 -19080448.38048  20598148.3024   20598154.2404   20598147.916
        53.0004         48.0004
 14  5 11  0 53  0.0000000  0 11G20G26G09G07G28G02G10G08G13G17G04
  -2595818.09846  -1962365.56745  23900343.1664   23900354.8624   23900344.612
        39.0004         35.0004
   -560812.84047   -422472.45246  24054767.2884   24054779.9954   24054767.603
        43.0004         38.0004
 -13712845.69549 -10675846.62548  20034090.8984   20034096.9294   20034090.780
        54.0004         50.0004
 -18791125.12248 -14606411.50347  21229197.5904   21229202.9634   21229196.990
        51.0004         47.0004
  -5650617.52447  -4403196.33746  22959759.0024   22959767.4664   22959758.842
        46.0004         41.0004
  -7354413.37347  -5670847.82046  23006156.9024   23006162.3384   23006156.850
        46.0004         41.0004
 -12800035.51147  -9962730.42146  23270490.6284   23270498.6364   23270491.630
        45.0004         41.0004
 -21343108.77249 -16612318.83448  19934483.1384   19934489.3194   19934483.255
        54.0004         49.0004
  -9630361.71446  -7488249.81045  24938687.0004   24938693.5014   24938685.000
        39.0004         34.0004
  -9599603.69948  -7420186.63747  23122326.3324   23122336.8154   23122326.117
        48.0004         43.0004
 -24603592.31548 -19113010.22948  20590195.7814   20590202.5374   20590195.191
        53.0004         48.0004
 14  5 11  0 53 30.0000000  0 11G20G26G09G07G28G02G10G08G13G17G04
  -2566486.53746  -1939509.84345  23905925.2304   23905936.7584   23905925.612
        40.0004         35.0004
   -555574.55147   -418390.36846  24055764.3274   24055776.4284   24055764.136
        43.0004         38.0004
 -13694100.51449 -10661239.94848  20037658.0524   20037663.8124   20037657.887
        54.0004         50.0004
 -18713497.75448 -14545922.59147  21243969.5774   21243974.6894   21243969.286
        51.0004         47.0004
  -5708598.20247  -4448375.95946  22948726.5294   22948734.0814   22948725.651
        46.0004         41.0004
  -7433152.94747  -5732203.15646  22991172.8844   22991179.5744   22991173.193
        46.0004         41.0004
 -12867742.08447 -10015488.62046  23257607.7444   23257613.4734   23257607.876
        45.0004         41.0004
 -21322554.74049 -16596302.66648  19938394.4864   19938400.4984   19938394.623
        54.0004         49.0004
  -9572316.95746  -7443020.00545  24949733.1524   24949737.2054   24949730.398
        39.0004         34.0004
  -9558982.41448  -7388533.65147  23130056.9944   23130066.8984   23130056.159
        48.0004         43.0004
 -24644856.41848 -19145164.01548  20582343.6884   20582350.0314   20582343.792
        53.0004         48.0004
 14  5 11  0 54  0.0000000  0 11G20G26G09G07G28G02G10G08G13G17G04
  -2536834.24046  -1916404.18045  23911568.7384   23911577.1434   23911568.321
        39.0004         35.0004
   -550117.36347   -414137.72246  24056803.8614   24056813.7914   24056802.858
        43.0004         38.0004
 -13674767.04549 -10646174.85948  20041337.0394   20041342.8744   20041337.031
        54.0004         50.0004
 -18635466.47448 -14485118.93347  21258818.6164   21258823.7584   21258817.746
        51.0004         47.0004
  -5766655.53947  -4493615.30646  22937677.2574   22937684.0444   22937677.590
        46.0004         41.0004
  -7511591.81847  -5793324.16446  22976246.4554   22976252.2764   22976247.128
        46.0004         41.0004
 -12935576.01647 -10068346.06046  23244698.5634   23244706.4734   23244699.244
        45.0004         41.0004
 -21301347.02349 -16579777.12848  19942429.8554   19942436.4104   19942430.344
        54.0004         49.0004
  -9514529.88046  -7397990.97045  24960725.6434   24960733.0684   24960726.709
        39.0004         35.0004
  -9518451.55248  -7356951.12547  23137769.4864   23137778.5784   23137768.864
        48.0004         43.0004
 -24685599.25348 -19176911.63248  20574590.4054   20574597.0764   20574590.092
        53.0004         48.0004
 14  5 11  0 54 30.0000000  0 11G20G26G09G07G28G02G10G08G13G17G04
  -2506854.91346  -1893043.66745  23917273.0414   23917281.6874   23917273.918
        40.0004         35.0004
   -544437.64747   -409711.69146  24057883.5594   24057895.6924   24057882.998
        43.0004         38.0004
 -13654840.79349 -10630647.86048  20045128.5444   20045134.7604   20045128.610
        54.0004         50.0004
 -18557028.48948 -14423998.35847  21273744.6724   21273750.3374   21273743.883
        51.0004         46.0004
  -5824781.47347  -4538908.12646  22926617.1614   22926624.6114   22926616.300
        46.0004         41.0004
  -7589722.20547  -5854204.80346  22961378.4104   22961384.3964   22961378.420
        46.0004         41.0004
 -13003530.37947 -10121297.33846  23231766.9974   23231774.6964   23231767.697
        45.0004         41.0004
 -21279480.77749 -16562738.45048  19946591.1094   19946597.3814   19946591.375
        54.0004         49.0004
  -9456995.46446  -7353158.83345  24971673.5274   24971680.7684   24971674.576
        39.0004         34.0004
  -9478006.97247  -7325435.84947  23145464.8344   23145474.7644   23145464.802
        47.0004         43.0004
 -24725814.14648 -19208247.85448  20566937.8834   20566943.9274   20566937.589
        53.0004         48.0004
 14  5 11  0 55  0.0000000  0 11G20G26G09G07G28G02G10G08G13G17G04
  -2476550.54846  -1869429.87445  23923040.2754   23923048.1894   23923041.253
        39.0004         35.0004
   -538540.06247   -405115.87146  24059005.6174   24059016.0324   24059005.187
        42.0004         38.0004
 -13634325.52049 -10614661.88448  20049032.7644   20049038.7484   20049032.605
        54.0004         50.0004
 -18478189.21248 -14362565.09747  21288746.7274   21288751.8734   21288746.687
        51.0004         46.0004
  -5882976.27247  -4584254.60847  22915542.5214   22915550.4984   22915542.431
        46.0004         42.0004
  -7667544.82247  -5914845.62147  22946569.6754   22946574.5564   22946569.699
        46.0004         42.0004
 -13071605.89147 -10174343.02146  23218813.1624   23218820.1964   23218813.980
        45.0004         41.0004
 -21256959.80849 -16545189.60048  19950876.6074   19950882.8694   19950876.951
        54.0004         49.0004
  -9399716.52846  -7308525.76245  24982572.9694   24982581.9904   24982575.062
        39.0004         34.0004
  -9437653.36547  -7293991.45447  23153142.9464   23153155.0914   23153143.974
        47.0004         43.0004
 -24765502.24148 -19239173.59548  20559385.7524   20559392.0624   20559385.216
        53.0004         48.0004
 14  5 11  0 55 30.0000000  0 11G20G26G09G07G28G02G10G08G13G17G04
  -2445920.21146  -1845562.11345  23928868.9784   23928879.8894   23928868.442
        39.0004         34.0004
   -532426.61947   -400351.86946  24060168.1204   24060180.1634   24060167.916
        42.0004         38.0004
 -13613222.21249 -10598217.70048  20053047.9964   20053054.5034   20053048.163
        54.0004         50.0004
 -18398951.06048 -14300821.02047  21303825.6654   21303830.7084   21303824.872
        51.0004         46.0004
  -5941237.39647  -4629652.78047  22904455.2554   22904463.4774   22904455.589
        46.0004         42.0004
  -7745057.32047  -5975244.78847  22931819.6714   22931824.4964   22931820.388
        46.0004         42.0004
 -13139800.51747 -10227481.52346  23205834.9564   23205842.7114   23205835.806
        45.0004         41.0004
 -21233784.60149 -16527130.95148  19955286.8534   19955293.0654   19955286.898
        54.0004         49.0004
  -9342693.60146  -7264092.16645  24993426.3864   24993433.8624   24993426.548
        39.0004         34.0004
  -9397392.38847  -7262619.23847  23160806.6014   23160815.0814   23160805.443
        47.0004         43.0004
 -24804662.05048 -19269687.68048  20551933.5994   20551940.0124   20551932.759
        53.0004         48.0004
 14  5 11  0 56  0.0000000  0 11G20G26G09G07G28G02G10G08G13G17G04
  -2414965.67846  -1821441.71745  23934758.1014   23934770.8464   23934759.996
        39.0004         34.0004
   -526102.07147   -395423.34446  24061370.3964   24061382.3814   24061370.828
        42.0004         37.0004
 -13591534.85649 -10581318.41448  20057175.2224   20057181.0184   20057175.359
        54.0004         50.0004
 -18319319.45548 -14238770.35547  21318978.3704   21318984.1084   21318978.423
        51.0004         46.0004
  -5999565.09647  -4675102.83047  22893355.6574   22893364.8174   22893356.112
        46.0004         42.0004
  -7822260.35147  -6035402.81047  22917128.3464   22917134.1074   22917127.787
        46.0004         42.0004
 -13208115.05747 -10280713.47746  23192836.1134   23192842.2484   23192836.344
        45.0004         41.0004
 -21209958.85449 -16508565.39048  19959820.4444   19959826.7214   19959820.872
        54.0004         49.0004
  -9285929.93646  -7219860.62245  25004229.5144   25004234.5094   25004227.632
        39.0004         35.0004
  -9357228.46947  -7231322.64447  23168448.8144   23168458.3014   23168448.420
        47.0004         43.0004
 -24843295.18048 -19299791.36548  20544582.0514   20544588.1794   20544581.829
        53.0004         48.0004
 14  5 11  0 56 30.0000000  0 11G20G26G09G07G28G02G10G08G13G17G04
  -2383681.27046  -1797064.26245  23940712.3484   23940721.1354   23940712.372
        39.0004         34.0004
   -519563.52447   -390328.07746  24062615.8054   24062626.3604   24062615.627
        42.0004         37.0004
 -13569259.76249 -10563961.15048  20061414.1224   20061419.8824   20061413.885
        54.0004         50.0004
 -18239292.30548 -14176411.47147  21334206.8834   21334212.0944   21334207.075
        51.0004         46.0004
  -6057952.21247  -4720599.18547  22882244.4414   22882251.7594   22882245.383
        46.0004         42.0004
  -7899146.91447  -6095314.24547  22902496.0384   22902501.4374   22902497.394
        47.0004         42.0004
 -13276542.73647 -10334033.57346  23179813.5904   23179822.0294   23179815.070
        45.0004         41.0004
 -21185478.45249 -16489489.70648  19964479.1774   19964485.0654   19964479.261
        54.0004         49.0004
  -9229420.93546  -7175827.50245  25014980.0654   25014989.1554   25014980.336
        39.0004         34.0004
  -9317158.51047  -7200099.26347  23176074.1594   23176083.7674   23176073.126
        47.0004         43.0004
 -24881395.79148 -19329480.10448  20537331.4524   20537337.6924   20537331.146
        53.0004         48.0004
 14  5 11  0 57  0.0000000  0 11G20G26G09G07G28G02G10G08G13G17G04
 -21257106.72846 -16503629.59145  23946726.7364   23946737.3964   23946727.631
        39.0004         34.0004
   -512813.43647   -385067.98746  24063899.1764   24063911.3724   24063899.594
        42.0004         37.0004
 -13546398.46349 -10546147.11048  20065764.6384   20065770.2484   20065764.493
        54.0004         50.0004
 -18158873.09448 -14113747.09047  21349511.0604   21349515.8004   21349510.459
        51.0004         46.0004
  -6116396.47147  -4766140.06447  22871123.3724   22871131.2664   22871123.567
        46.0004         42.0004
  -7975715.28247  -6154977.74047  22887926.2484   22887931.1594   22887926.226
        47.0004         42.0004
 -13345081.92947 -10387440.57946  23166771.6244   23166779.8804   23166772.414
        45.0004         41.0004
 -21160344.71349 -16469904.92548  19969261.6494   19969267.7834   19969261.909
        54.0004         49.0004
  -9173167.25946  -7131993.32545  25025685.8994   25025690.5444   25025685.207
        39.0004         34.0004
  -9277184.77847  -7168950.86847  23183680.3554   23183690.6864   23183679.895
        47.0004         43.0004
 -24918962.64048 -19358752.92148  20530182.4854   20530189.2164   20530182.295
        53.0004         48.0004
 14  5 11  0 57 30.0000000  0 11G20G26G09G07G28G02G10G08G13G17G04
 -21225169.26646 -16478743.28345  23952806.1104   23952815.6014   23952806.484
        39.0004         35.0004
   -505861.87647   -379650.88446  24065222.4864   24065233.5054   24065222.639
        42.0004         38.0004
 -13522960.24149 -10527883.51348  20070224.6074   20070230.6344   20070224.413
        54.0004         50.0004
 -18078072.47048 -14050785.49647  21364887.3454   21364891.6884   21364886.172
        51.0004         46.0004
  -6174903.54647  -4811729.88647  22859989.5994   22859997.9594   22859990.096
        46.0004         42.0004
  -8051971.68947  -6214398.14647  22873415.5014   22873420.2284   22873414.936
        47.0004         42.0004
 -13413738.88747 -10440939.32646  23153707.2284   23153713.7114   23153706.959
        45.0004         41.0004
 -21134566.70248 -16449818.11948  19974166.5354   19974173.2744   19974166.955
        53.0004         49.0004
  -9117177.80946  -7088365.02845  25036339.0774   25036343.7114   25036338.965
        39.0004         35.0004
  -9237316.99947  -7137885.03247  23191267.6114   23191276.7314   23191266.805
        47.0004         43.0004
 -24956002.48648 -19387615.09348  20523134.2704   20523140.4604   20523134.086
        53.0004         48.0004
 14  5 11  0 58  0.0000000  0 11G20G26G09G07G28G02G10G08G13G17G04
 -21192902.29046 -16453600.23245  23958945.5044   23958957.3794   23958946.324
        39.0004         34.0004
   -498705.07847   -374073.89746  24066583.9364   24066595.3634   24066584.097
        43.0004         38.0004
 -13498940.58749 -10509166.85348  20074795.4434   20074801.6294   20074795.154
        54.0004         50.0004
 -17996887.38048 -13987524.31547  21380336.4164   21380340.6134   21380334.874
        51.0004         46.0004
  -6233465.31147  -4857362.33147  22848845.3774   22848853.2654   22848845.687
        46.0004         42.0004
  -8127908.09047  -6273569.20047  22858965.3714   22858969.7794   22858964.893
        47.0004         42.0004
 -13482505.74547 -10494523.73646  23140620.1614   23140626.9044   23140620.883
        45.0004         41.0004
 -21108139.58548 -16429225.51948  19979195.9954   19979202.0664   19979196.075
        53.0004         49.0004
  -9061447.04746  -7044938.32445  25046947.3274   25046953.3114   25046943.878
        39.0004         34.0004
  -9197551.27147  -7106898.71747  23198833.8474   23198843.6294   23198834.202
        47.0004         42.0004
 -24992508.56648 -19416061.34348  20516187.2734   20516193.4004   20516187.059
        53.0004         48.0004
 14  5 11  0 58 30.0000000  0 11G20G26G09G07G28G02G10G08G13G17G04
 -21160305.64446 -16428200.26645  23965150.1254   23965157.9334   23965150.250
        39.0004         34.0004
   -491345.41447   -368338.79946  24067985.2924   24067995.2524   24067984.205
        43.0004         38.0004
 -13474341.29349 -10489998.52748  20079476.2364   20079482.3794   20079476.182
        54.0004         50.0004
 -17915321.01548 -13923966.04347  21395857.2644   21395862.4584   21395856.726
        51.0004         46.0004
  -6292079.49647  -4903035.61747  22837692.4294   22837700.2384   22837691.867
        46.0004         42.0004
  -8203523.00647  -6332489.74747  22844576.3984   22844581.0624   22844576.018
        47.0004         42.0004
 -13551380.93747 -10548192.55146  23127514.4954   23127521.0834   23127513.768
        46.0004         41.0004
 -21081064.78748 -16408128.22448  19984348.1004   19984354.0144   19984348.263
        53.0004         49.0004
  -9005975.58046  -7001713.65845  25057497.9404   25057503.6994   25057499.550
        39.0004         34.0004
  -9157889.41647  -7075993.33847  23206381.2274   23206391.9594   23206381.085
        47.0004         42.0004
 -25028480.18448 -19444091.13148  20509342.1394   20509348.2484   20509341.613
        53.0004         48.0004
 14  5 11  0 59  0.0000000  0 11G20G26G09G07G28G02G10G08G13G17G04
 -21127375.44046 -16402540.33745  23971415.0654   23971428.8244   23971415.848
        38.0004         34.0004
   -483781.77247   -362444.77046  24069422.9374   24069435.2134   24069423.226
        42.0004         38.0004
 -13449160.17749 -10470376.83448  20084268.0704   20084273.8244   20084267.876
        54.0004         50.0004
 -17833372.80448 -13860110.22447  21411451.1774   21411456.2474   21411450.783
        51.0004         46.0004
  -6350740.30147  -4948745.25547  22826528.3954   22826536.3274   22826528.910
        47.0004         42.0004
  -8278810.91247  -6391155.48447  22830248.4004   22830253.3124   22830248.231
        47.0004         42.0004
 -13620358.77647 -10601941.35846  23114387.1934   23114394.3044   23114388.317
        46.0004         41.0004
 -21053340.08048 -16386524.51548  19989623.7794   19989629.9614   19989624.299
        53.0004         49.0004
  -8950760.53046  -6958688.80045  25068007.7864   25068014.0024   25068006.376
        38.0004         34.0004
  -9118330.20247  -7045167.94547  23213909.2534   23213919.0174   23213909.265
        47.0004         42.0004
 -25063912.70148 -19471700.84148  20502599.5844   20502605.7304   20502599.388
        53.0004         48.0004
 14  5 11  0 59 30.0000000  0 11G20G26G09G07G28G02G10G08G13G17G04
 -21094117.02746 -16376624.76045  23977744.2434   23977754.3354   23977745.387
        39.0004         34.0004
   -476022.51347   -356398.31146  24070899.4994   24070910.2394   24070899.557
        43.0004         38.0004
 -13423404.98949 -10450307.81448  20089169.1994   20089174.9944   20089169.116
        54.0004         50.0004
 -17751051.89148 -13795963.99147  21427116.7544   21427121.9404   21427115.924
        51.0004         46.0004
  -6409451.58347  -4994494.20947  22815356.1474   22815363.9684   22815356.742
        47.0004         42.0004
  -8353776.28247  -6449569.89447  22815981.9414   22815988.0314   22815981.994
        47.0004         42.0004
 -13689444.14647 -10655773.95946  23101241.0594   23101248.0844   23101241.570
        46.0004         41.0004
 -21024972.91148 -16364420.18448  19995021.8364   19995028.1394   19995022.175
        53.0004         49.0004
                  -6915868.81145                  25078466.7584   25078464.061
                        33.0004
  -9078881.68147  -7014428.80447  23221416.3604   23221426.0364   23221415.930
        47.0004         42.0004
 -25098811.50648 -19498894.66648  20495958.5574   20495964.5504   20495958.071
        53.0004         48.0004
 14  5 11  1  0  0.0000000  0 11G20G26G09G07G28G02G10G08G13G17G04
 -21060524.36646 -16350448.68445  23984134.5254   23984145.9634   23984136.853
        38.0004         34.0004
   -468063.92847   -350196.51846  24072414.1784   24072425.5014   24072413.750
        43.0004         38.0004
 -13397071.38949 -10429788.07848  20094180.0554   20094185.8164   20094180.163
        54.0004         50.0004
 -17668355.44048 -13731525.12947  21442852.9354   21442858.5064   21442852.324
        51.0004         46.0004
  -6468205.25047  -5040276.19547  22804175.5894   22804183.4214   22804176.123
        47.0004         42.0004
  -8428411.39547  -6507726.95647  22801780.8304   22801785.4344   22801780.869
        47.0004         42.0004
 -13758629.23347 -10709684.26946  23088075.0584   23088081.7234   23088075.960
        46.0004         41.0004
 -20995958.57848 -16341811.56748  20000543.4254   20000549.3244   20000543.246
        53.0004         49.0004
  -8841114.10646  -6873249.69245  25088872.4054   25088878.5824   25088871.649
        38.0004         34.0004
  -9039539.57447  -6983772.58047  23228902.9544   23228912.1024   23228902.383
        47.0004         42.0004
 -25133169.77848 -19525667.29848  20489420.3624   20489426.4014   20489419.886
        53.0004         48.0004
 14  5 11  1  0 30.0000000  0 11G20G26G09G07G28G02G10G08G13G17G04
 -21026602.24346 -16324015.89345  23990593.1514   23990601.7294   23990592.432
        38.0004         34.0004
   -459913.81947   -343845.47746  24073965.1804   24073975.3464   24073964.869
        43.0004         38.0004
 -13370166.61649 -10408823.27648  20099300.1024   20099305.4834   20099300.013
        54.0004         50.0004
 -17585291.96048 -13666800.27247  21458659.2054   21458665.0724   21458658.854
        51.0004         46.0004
  -6527004.30147  -5086093.55647  22792986.7354   22792993.9024   22792987.182
        47.0004         42.0004
  -8502719.71947  -6565629.37247  22787639.1404   22787644.4704   22787639.564
        47.0004         42.0004
 -13827917.52547 -10763674.99346  23074889.6204   23074896.7884   23074890.574
        46.0004         41.0004
 -20966304.04048 -16318704.08748  20006186.2974   20006192.3644   20006186.395
        53.0004         49.0004
  -8786683.43746  -6830835.97845  25099229.1094   25099236.3754   25099229.509
        38.0004         34.0004
  -9000311.41147  -6953205.15347  23236367.2044   23236377.2544   23236367.283
        47.0004         42.0004
 -25166991.95848 -19552022.20548  20482984.4124   20482990.2634   20482984.107
        53.0004         48.0004
 14  5 11  1  1  0.0000000  0 11G20G26G09G07G28G02G10G08G13G17G04
 -20992345.94346 -16297322.68645  23997108.8504   23997119.3564   23997110.196
        38.0004         34.0004
   -451570.11147   -337343.60246  24075552.5124   24075563.7334   24075551.635
        42.0004         38.0004
 -13342687.84349 -10387411.19548  20104528.8684   20104534.8074   20104529.077
        54.0004         50.0004
 -17501860.12548 -13601788.37147  21474535.3484   21474540.6454   21474535.226
        51.0004         46.0004
  -6585842.14347  -5131941.13547  22781789.9934   22781798.4084   22781790.352
        47.0004         42.0004
  -8576695.17947  -6623272.42147  22773560.3854   22773566.6484   22773562.126
        47.0004         42.0004
 -13897303.08847 -10817741.50746  23061686.1214   23061694.3784   23061686.827
        46.0004         41.0004
 -20936006.27948 -16295095.39148  20011951.3284   20011958.0104   20011951.854
        53.0004         49.0004
  -8732512.72046  -6788624.86445  25109538.1294   25109541.1434   25109538.382
        38.0004         34.0004
  -8961194.76647  -6922724.60647  23243811.2484   23243820.6454   23243810.902
        47.0004         42.0004
 -25200273.08948 -19577955.51148  20476650.6364   20476656.9844   20476650.171
        53.0004         48.0004
 14  5 11  1  1 30.0000000  0 11G20G26G09G07G28G02G10G08G13G17G04
 -20957758.21746 -16270371.23145  24003694.5874   24003703.9944   24003693.953
        38.0004         34.0004
   -443038.17847   -330695.06046  24077176.3234   24077187.2734   24077175.440
        43.0004         38.0004
 -13314639.72449 -10365555.47848  20109866.6094   20109872.0464   20109866.457
        54.0004         50.0004
 -17418066.07148 -13536494.23647  21490481.5304   21490485.9474   21490480.675
        51.0004         46.0004
  -6644719.32347  -5177819.37647  22770586.5814   22770594.4344   22770586.550
        47.0004         42.0004
  -8650339.37147  -6680657.34147  22759547.6634   22759552.6684   22759548.702
        47.0004         42.0004
 -13966786.81647 -10871884.52746  23048464.6544   23048470.4144   23048465.010
        46.0004         41.0004
 -20905069.90148 -16270989.07148  20017838.2804   20017844.2554   20017838.698
        53.0004         49.0004
  -8678605.54046  -6746619.09645  25119796.4294   25119802.1724   25119795.556
        38.0004         34.0004
  -8922194.42847  -6892334.69747  23251233.8584   23251241.6364   23251232.632
        47.0004         42.0004
 -25233015.33648 -19603468.90248  20470420.3414   20470426.4394   20470420.084
        53.0004         48.0004
 14  5 11  1  2  0.0000000  0 11G20G26G09G07G28G02G10G08G13G17G04
 -20922836.40346 -16243159.47645  24010335.2614   24010346.8674   24010338.039
        38.0004         34.0004
   -434317.89747   -323899.78046  24078834.5494   24078846.4324   24078833.862
        42.0004         38.0004
 -13286021.67549 -10343255.65748  20115312.2194   20115317.4904   20115312.065
        54.0004         50.0004
 -17333910.39648 -13470918.30847  21506495.6784   21506500.4174   21506495.035
        51.0004         46.0004
  -6703631.15247  -5223724.61347  22759376.0294   22759382.0424   22759375.750
        47.0004         42.0004
  -8723647.73347  -6737780.58847  22745598.1494   22745602.8164   22745598.022
        47.0004         42.0004
 -14036364.58547 -10926100.82546  23035223.7724   23035230.1374   23035224.074
        46.0004         41.0004
 -20873494.14248 -16246384.53948  20023846.7484   20023853.3984   20023847.473
        53.0004         49.0004
  -8624960.13646  -6704817.33245  25130005.8884   25130010.0144   25130004.875
        38.0004         34.0004
  -8883309.73347  -6862034.90347  23258631.9614   23258642.9484   23258632.160
        47.0004         42.0004
 -25265215.44548 -19628559.86348  20464292.6704   20464298.6394   20464292.473
        53.0004         48.0004
 14  5 11  1  2 30.0000000  0 10G26G09G07G28G02G10G08G13G17G04
   -425404.14147   -316953.72046  24080531.1554   24080541.3464   24080531.358
        43.0004         38.0004
 -13256827.72749 -10320507.08248  20120867.7174   20120873.5674   20120867.622
        54.0004         50.0004
 -17249388.84148 -13405057.28647  21522579.8424   21522583.9824   21522578.747
        51.0004         46.0004
  -6762568.26247  -5269649.55747  22748160.4644   22748168.7944   22748160.775
        47.0004         42.0004
  -8796611.07247  -6794634.98247  22731713.0414   22731717.7714   22731713.411
        47.0004         42.0004
 -14106027.18047 -10980383.23646  23021967.4654   23021974.1354   23021967.673
        46.0004         41.0004
 -20841272.54148 -16221276.75148  20029978.2874   20029984.8444   20029978.943
        53.0004         49.0004
  -8571569.51446  -6663214.09145  25140161.6274   25140173.5954   25140163.810
        38.0004         34.0004
  -8844535.33147  -6831821.05747  23266011.6214   23266020.4624   23266011.033
        47.0004         43.0004
 -25296865.49748 -19653222.19948  20458269.8854   20458275.5984   20458269.430
        53.0004         48.0004
 14  5 11  1  3  0.0000000  0 10G26G09G07G28G02G10G08G13G17G04
   -416315.17347   -309871.12246  24082259.8964   24082270.7174   24082259.720
        43.0004         38.0004
 -13227075.67249 -10297323.62248  20126528.8854   20126534.9494   20126528.853
        54.0004         50.0004
 -17164520.26748 -13338925.85647  21538729.1574   21538734.4984   21538728.493
        51.0004         46.0004
  -6821543.79847  -5315604.43547  22736937.2624   22736945.6414   22736937.933
        47.0004         42.0004
  -8869244.08047  -6851231.97147  22717892.0624   22717896.1144   22717892.442
        47.0004         42.0004
 -14175788.78647 -11034742.78446  23008691.9684   23008699.6714   23008692.232
        46.0004         41.0004
 -20808422.59748 -16195679.34348  20036229.7894   20036236.0544   20036230.135
        53.0004         49.0004
  -8518449.99046  -6621822.10745  25150277.8034   25150277.2994   25150271.901
        38.0004         33.0004
  -8805889.07847  -6801707.06447  23273365.1054   23273374.6524   23273364.627
        47.0004         43.0004
 -25327980.54748 -19677467.65248  20452348.7234   20452354.9784   20452348.301
        53.0004         48.0004
 14  5 11  1  3 30.0000000  0 10G26G09G07G28G02G10G08G13G17G04
   -407044.37047   -302646.84146  24084023.5194   24084034.7424   24084024.079
        42.0004         38.0004
 -13196758.42249 -10273699.75048  20132298.2184   20132304.2664   20132298.342
        54.0004         50.0004
 -17079298.97448 -13272519.58147  21554946.1594   21554951.6594   21554945.380
        50.0004         46.0004
  -6880546.54047  -5361580.52747  22725708.5134   22725716.9994   22725709.556
        47.0004         42.0004
  -8941535.68047  -6907562.93147  22704134.8054   22704140.3744   22704134.959
        47.0004         42.0004
 -14245638.39047 -11089170.91447  22995400.3184   22995406.0474   22995400.781
        46.0004         42.0004
 -20774937.15748 -16169586.74448  20042602.0024   20042608.0694   20042601.996
        53.0004         49.0004
  -8465592.99646  -6580634.71345  25160331.0644   25160339.0094   25160331.529
        38.0004         33.0004
  -8767363.67247  -6771687.23147  23280696.5614   23280705.8064   23280695.519
        47.0004         42.0004
 -25358550.78148 -19701288.58048  20446531.4584   20446537.7964   20446531.120
        53.0004         49.0004
 14  5 11  1  4  0.0000000  0 10G26G09G07G28G02G10G08G13G17G04
   -397593.46347   -295282.20446  24085821.3664   24085833.2324   24085822.844
        43.0004         38.0004
 -13165877.06249 -10249636.30948  20138174.6514   20138180.5484   20138174.783
        54.0004         50.0004
 -16993727.54448 -13205840.47347  21571229.2084   21571234.5424   21571229.246
        50.0004         46.0004
  -6939573.55547  -5407575.53247  22714478.2124   22714485.5064   22714477.502
        47.0004         42.0004
  -9013483.78747  -6963626.24347  22690443.8754   22690448.4274   22690443.562
        47.0004         42.0004
 -14315573.69447 -11143665.81447  22982091.5774   22982098.3294   22982092.128
        46.0004         42.0004
 -20740817.21848 -16142999.73748  20049094.4864   20049100.4004   20049094.814
        53.0004         49.0004
  -8412998.56646  -6539651.87545  25170339.3894   25170346.1144   25170338.861
        38.0004         34.0004
  -8728960.40147  -6741762.58047  23288003.9684   23288013.6544   23288003.369
        47.0004         42.0004
 -25388575.18148 -19724684.18848  20440818.3704   20440824.3164   20440818.053
        53.0004         49.0004
 14  5 11  1  4 30.0000000  0 10G26G09G07G28G02G10G08G13G17G04
   -387967.20247   -287780.93546  24087654.8214   24087665.0244   24087653.741
        43.0004         38.0004
 -13134435.85049 -10225136.62348  20144158.0384   20144163.5594   20144157.742
        54.0004         50.0004
 -16907811.25248 -13138892.64047  21587578.3114   21587583.6194   21587578.429
        50.0004         46.0004
  -6998624.76147  -5453589.39447  22703239.3094   22703246.6084   22703240.427
        47.0004         42.0004
  -9085089.02847  -7019422.37247  22676817.8704   22676821.6904   22676817.624
        47.0004         42.0004
 -14385594.93247 -11198227.67947  22968767.2014   22968774.8564   22968767.419
        46.0004         42.0004
 -20706066.62648 -16115921.30948  20055707.1304   20055713.3254   20055707.574
        53.0004         49.0004
  -8360669.48546  -6498875.83445  25180298.7224   25180301.5144   25180296.146
        37.0004         33.0004
  -8690683.73447  -6711936.58647  23295287.7714   23295297.3324   23295287.130
        47.0004         42.0004
 -25418055.31848 -19747655.68848  20435208.1254   20435214.0094   20435207.363
        53.0004         49.0004
 14  5 11  1  5  0.0000000  0 10G26G09G07G28G02G10G08G13G17G04
   -378165.78647   -280143.19246  24089518.2674   24089529.4104   24089519.203
        43.0004         38.0004
 -13102434.38549 -10200200.37348  20150247.3524   20150253.2114   20150247.491
        54.0004         50.0004
 -16821551.00948 -13071676.79247  21603993.9624   21603998.7894   21603993.632
        50.0004         46.0004
  -7057695.72747  -5499618.65147  22691999.5114   22692006.4634   22691999.204
        47.0004         43.0004
  -9156347.74047  -7074948.48447  22663256.9994   22663261.6834   22663257.534
        47.0004         42.0004
 -14455698.14047 -11252853.41647  22955427.7164   22955432.8474   22955427.220
        47.0004         42.0004
 -20670684.88948 -16088351.08048  20062440.0114   20062446.0824   20062440.658
        53.0004         49.0004
  -9884023.92046  -7685905.09645  25190203.8334   25190207.8804   25190204.095
        37.0004         32.0004
  -8652533.06747  -6682208.76547  23302547.5854   23302556.7574   23302547.019
        47.0004         42.0004
 -25446988.62948 -19770201.08848  20429702.1534   20429708.5974   20429702.073
        53.0004         49.0004
 14  5 11  1  5 30.0000000  0 10G26G09G07G28G02G10G08G13G17G04
   -368193.42247   -272372.24346  24091416.2024   24091428.0784   24091416.553
        43.0004         38.0004
 -13069876.28049 -10174830.38148  20156442.8954   20156448.7124   20156442.867
        54.0004         50.0004
 -16734952.05648 -13004196.99047  21620472.9244   21620476.9864   21620472.212
        50.0004         46.0004
  -7116785.87047  -5545662.84547  22680754.8654   22680761.5684   22680754.605
        47.0004         42.0004
  -9227260.00947  -7130204.63247  22649762.3144   22649767.3404   22649763.596
        47.0004         43.0004
 -14525883.31947 -11307543.02947  22942070.5484   22942077.4914   22942071.711
        47.0004         42.0004
 -20634675.84348 -16060292.03648  20069292.2124   20069298.5914   20069292.820
        53.0004         49.0004
  -9832224.11446  -7645541.44845  25200062.6344   25200069.1444   25200061.471
        37.0004         33.0004
  -8614512.05547  -6652581.96647  23309782.5604   23309792.5104   23309782.536
        47.0004         42.0004
 -25475376.10648 -19792321.16948  20424300.4614   20424306.7754   20424299.947
        53.0004         49.0004
 14  5 11  1  6  0.0000000  0 10G26G09G07G28G02G10G08G13G17G04
   -358048.54847   -264466.86346  24093346.5264   24093356.6734   24093346.398
        43.0004         38.0004
 -13036759.69249 -10149025.21048  20162744.9104   20162750.4504   20162744.801
        54.0004         50.0004
 -16648013.44548 -12936452.54347  21637016.5224   21637021.2834   21637016.252
        50.0004         46.0004
  -7175888.93147  -5591717.11747  22669506.8624   22669514.6184   22669507.835
        47.0004         42.0004
  -9297820.08047  -7185186.36147  22636335.2574   22636338.1624   22636335.843
        47.0004         43.0004
 -14596144.40547 -11362291.80247  22928700.9164   22928708.1614   22928701.112
        47.0004         42.0004
 -20598037.14948 -16031742.35948  20076264.4104   20076270.6474   20076264.678
        53.0004         49.0004
  -9780686.74746  -7605382.30745  25209869.3854   25209873.0664   25209868.192
        37.0004         33.0004
  -8576618.71047  -6623054.66447  23316993.9024   23317002.5584   23316993.265
        47.0004         42.0004
 -25503213.57148 -19814012.66248  20419002.7114   20419009.0524   20419002.863
        53.0004         49.0004
 14  5 11  1  6 30.0000000  0 10G26G09G07G28G02G10G08G13G17G04
   -347737.66047   -256432.13146  24095310.2994   24095318.1664   24095308.606
        42.0004         38.0004
 -13003090.82249 -10122789.68848  20169151.9574   20169157.4084   20169151.895
        54.0004         50.0004
 -16560742.39848 -12868449.05947  21653623.7854   21653628.3274   21653624.072
        50.0004         46.0004
  -7235006.42247  -5637782.61747  22658258.8584   22658265.7264   22658257.867
        47.0004         42.0004
  -9368030.69347  -7239895.76747  22622974.3424   22622979.8124   22622975.507
        47.0004         43.0004
 -14666483.68147 -11417101.47847  22915315.1444   22915321.3104   22915315.289
        47.0004         42.0004
 -20560774.46648 -16002706.45448  20083355.5864   20083361.3794   20083355.931
        53.0004         49.0004
  -9729416.32746  -7565431.22545  25219623.7034   25219627.6384   25219624.620
        38.0004         33.0004
  -8538858.98947  -6593631.47647  23324178.8714   23324187.3794   23324178.515
        47.0004         42.0004
 -25530504.29048 -19835278.13148  20413809.2734   20413815.5694   20413809.366
        53.0004         49.0004
 14  5 11  1  7  0.0000000  0 10G26G09G07G28G02G10G08G13G17G04
   -337259.68447   -248267.20946  24097302.5874   24097312.3874   24097302.317
        42.0004         38.0004
 -12968868.02549 -10096122.53348  20175664.0404   20175670.1354   20175664.172
        54.0004         50.0004
 -16473138.64248 -12800186.32547  21670294.6994   21670299.1954   21670293.629
        50.0004         45.0004
  -7294132.71647  -5683854.99447  22647007.2334   22647014.4434   22647006.441
        47.0004         42.0004
  -9437886.67447  -7294328.85147  22609681.7734   22609686.3624   22609682.133
        47.0004         43.0004
 -14736895.75447 -11471967.90647  22901915.9994   22901922.5594   22901916.511
        47.0004         42.0004
 -20522886.37748 -15973183.21848  20090565.2734   20090571.0914   20090565.467
        53.0004         49.0004
                  -7525685.72345                  25229339.3454   25229331.547
                        33.0004
  -8501231.29647  -6564311.16247  23331338.1964   23331347.5944   23331338.499
        47.0004         42.0004
 -25557244.68648 -19856114.77248  20408721.1984   20408727.4014   20408720.760
        53.0004         49.0004
 14  5 11  1  7 30.0000000  0 10G26G09G07G28G02G10G08G13G17G04
   -326619.24447   -239975.69046  24099327.0434   24099336.0214   24099327.035
        43.0004         38.0004
 -12934095.51449 -10069027.02748  20182280.8454   20182287.3734   20182281.096
        54.0004         50.0004
 -16385207.56848 -12731668.53847  21687027.2514   21687031.1524   21687026.739
        50.0004         45.0004
  -7353267.73447  -5729934.17447  22635752.4704   22635759.8734   22635753.613
        47.0004         42.0004
  -9507388.89147  -7348486.27047  22596455.7624   22596460.2574   22596456.114
        47.0004         43.0004
 -14807381.18347 -11526891.49647  22888502.5064   22888509.3924   22888503.326
        47.0004         42.0004
 -20484377.02448 -15943175.88448  20097893.1924   20097899.4654   20097893.805
        53.0004         49.0004
  -9627669.92746  -7486148.04545  25238986.9834   25238989.2554   25238986.545
        38.0004         33.0004
  -8463739.43847  -6535096.70447  23338473.7664   23338483.4364   23338473.027
        47.0004         42.0004
 -25583436.26148 -19876523.76648  20403737.1554   20403743.2254   20403736.969
        53.0004         49.0004
 14  5 11  1  8  0.0000000  0 10G26G09G07G28G02G10G08G13G17G04
   -315817.96447   -231558.83146  24101382.8334   24101392.5744   24101381.777
        42.0004         38.0004
 -12898774.45549 -10041504.08148  20189002.2004   20189008.2004   20189002.225
        54.0004         50.0004
 -16296951.65148 -12662897.61847  21703821.7124   21703825.4084   21703821.083
        50.0004         45.0004
  -7412408.07947  -5776017.49347  22624499.1184   22624506.8354   22624499.200
        47.0004         42.0004
  -9576534.51047  -7402365.84247  22583297.9854   22583301.9264   22583297.818
        47.0004         43.0004
 -14877937.16647 -11581870.06147  22875076.7544   22875082.3564   22875077.025
        47.0004         42.0004
 -20445247.24048 -15912685.09848  20105339.4884   20105345.2834   20105339.616
        53.0004         49.0004
  -9577196.00046  -7446817.55945  25248589.5364   25248595.8654   25248591.532
        38.0004         33.0004
  -8426384.26447  -6505988.76547  23345582.2874   23345590.2634   23345581.696
        46.0004         42.0004
 -25609078.02148 -19896504.33148  20398857.7574   20398863.9464   20398857.063
        53.0004         49.0004
 14  5 11  1  8 30.0000000  0 10G26G09G07G28G02G10G08G13G17G04
   -304855.47447   -223016.36446  24103468.5794   24103478.7414   24103468.075
        42.0004         37.0004
 -12862904.41549 -10013553.35548  20195828.3984   20195833.8344   20195828.219
        54.0004         50.0004
 -16208371.44048 -12593874.01247  21720677.6014   21720682.3104   21720676.853
        50.0004         45.0004
  -7471548.79647  -5822101.12747  22613246.0354   22613251.4614   22613245.188
        47.0004         42.0004
  -9645319.64147  -7455964.48947  22570207.2924   22570211.5274   22570208.272
        47.0004         43.0004
 -14948558.75047 -11636899.74947  22861636.6234   22861643.3644   22861638.422
        47.0004         42.0004
 -20405496.35348 -15881710.33648  20112903.7474   20112909.4654   20112903.732
        53.0004         49.0004
  -9526986.05146  -7407692.79745  25258146.2354   25258152.1984   25258145.138
        38.0004         33.0004
  -8389165.15947  -6476986.84947  23352664.4694   23352674.0534   23352664.106
        46.0004         42.0004
 -25634166.70848 -19916053.92748  20394083.4784   20394089.6634   20394083.071
        53.0004         49.0004
 14  5 11  1  9  0.0000000  0 10G26G09G07G28G02G10G08G13G17G04
   -293737.93347   -214353.10746  24105583.5814   24105593.3014   24105583.472
        42.0004         38.0004
 -12826491.05449  -9985179.26248  20202757.4764   20202763.1374   20202757.191
        54.0004         50.0004
 -16119473.74548 -12524603.00547  21737594.3594   21737599.8094   21737593.573
        50.0004         45.0004
  -7530690.83447  -5868185.78147  22601990.8274   22601997.9324   22601991.156
        47.0004         42.0004
  -9713746.34648  -7509283.86647  22557187.2174   22557191.9054   22557186.052
        48.0004         43.0004
 -15019247.97047 -11691982.14347  22848185.5644   22848192.8704   22848185.944
        46.0004         42.0004
 -20365129.77748 -15850255.81748  20120585.0474   20120590.8714   20120585.625
        53.0004         49.0004
                  -7368776.94945                  25267653.0244   25267649.350
                        33.0004
  -8352087.50247  -6448095.13947  23359720.2384   23359728.8664   23359719.827
        47.0004         42.0004
 -25658705.60648 -19935175.12648  20389413.8224   20389419.9254   20389413.183
        53.0004         49.0004
 14  5 11  1  9 30.0000000  0 10G26G09G07G28G02G10G08G13G17G04
   -282464.89147   -205568.66646  24107728.9924   24107738.8094   24107729.061
        42.0004         38.0004
 -12789533.79649  -9956381.36148  20209790.2644   20209795.9194   20209790.214
        54.0004         50.0004
 -16030259.15248 -12455085.07447  21754570.8954   21754576.1804   21754570.800
        50.0004         45.0004
  -7589829.10547  -5914267.50147  22590736.0204   22590743.5224   22590737.153
        47.0004         42.0004
  -9781810.82648  -7562320.97447  22544234.5444   22544239.4394   22544235.246
        48.0004         43.0004
 -15089999.68347 -11747113.23947  22834722.9014   22834728.0054   22834722.282
        46.0004         42.0004
 -20324146.96248 -15818321.11548  20128383.9524   20128389.9924   20128384.062
        53.0004         49.0004
  -9427367.83846  -7330068.01145  25277099.8104   25277109.7964   25277101.907
        38.0004         33.0004
  -8315150.07447  -6419312.72547  23366749.0384   23366758.5484   23366748.647
        47.0004         42.0004
 -25682691.47448 -19953865.38748  20384849.4184   20384855.0074   20384849.137
        53.0004         49.0004
 14  5 11  1 10  0.0000000  0 10G26G09G07G28G02G10G08G13G17G04
   -271040.13147   -196665.99946  24109901.3664   24109911.9914   24109901.980
        42.0004         38.0004
 -12752035.92849  -9927162.20048  20216925.4184   20216931.6414   20216925.478
        54.0004         50.0004
 -15940731.79348 -12385323.42447  21771607.1404   21771612.3784   21771606.748
        50.0004         45.0004
  -7648962.49847  -5960345.42047  22579483.7284   22579490.7354   22579484.330
        47.0004         42.0004
  -9849512.19848  -7615075.14847  22531352.1834   22531354.5994   22531351.325
        48.0004         43.0004
 -15160813.38747 -11802292.63947  22821246.1474   22821253.3564   22821246.817
        46.0004         42.0004
 -20282551.16548 -15785908.76148  20136299.3004   20136305.6704   20136299.534
        53.0004         49.0004
  -9377958.19446  -7291566.95745  25286506.2304   25286513.3574   25286505.656
        37.0004         33.0004
  -8278356.01747  -6390642.03947  23373751.1754   23373760.3804   23373750.724
        47.0004         42.0004
 -25706125.53648 -19972125.67748  20380389.8114   20380396.1704   20380389.574
        53.0004         49.0004
 14  5 11  1 10 30.0000000  0 10G26G09G07G28G02G10G08G13G17G04
   -259465.92347   -187646.87446  24112104.3704   24112115.4984   24112104.808
        43.0004         38.0004
 -12713999.42849  -9897523.32748  20224163.5094   20224169.2864   20224163.869
        54.0004         50.0004
 -15850895.01348 -12315320.68347  21788702.9654   21788707.7304   21788702.488
        50.0004         45.0004
  -7708088.39647  -6006417.49147  22568232.9094   22568239.8994   22568232.995
        47.0004         42.0004
  -9916848.88548  -7667545.16447  22518537.5244   22518541.9004   22518537.726
        48.0004         43.0004
 -15231687.25547 -11857518.92747  22807759.1524   22807765.9764   22807759.994
        46.0004         42.0004
 -20240344.29248 -15753020.25448  20144330.8464   20144336.8054   20144331.251
        53.0004         49.0004
  -9328816.13956  -7253274.34655  25295858.7205   25295865.1605   25295856.242
        37.0004         33.0004
  -8241707.18247  -6362084.49747  23380725.0954   23380734.8194   23380724.428
        47.0004         42.0004
 -25729007.36648 -19989955.65148  20376035.7034   20376041.3974   20376035.197
        53.0004         49.0004
 14  5 11  1 11  0.0000000  0 10G26G09G07G28G02G10G08G13G17G04
   -247742.55347   -178511.51046  24114335.5814   24114344.5634   24114334.716
        43.0004         38.0004
 -12675424.35349  -9867464.78948  20231504.5474   20231509.8424   20231504.189
        54.0004         50.0004
 -15760749.74548 -12245077.55847  21805856.5264   21805862.3514   21805856.192
        50.0004         45.0004
  -7767201.98047  -6052479.97147  22556983.3794   22556989.8414   22556984.117
        47.0004         43.0004
  -9983817.48548  -7719728.34247  22505793.7494   22505797.9264   22505794.219
        48.0004         43.0004
 -15302616.75347 -11912788.56447  22794261.3534   22794269.2824   22794262.677
        46.0004         42.0004
 -20197526.22948 -15719655.49148  20152479.0294   20152484.9534   20152479.036
        53.0004         49.0004
  -9279939.63746  -7215188.70445  25305156.2724   25305161.8774   25305156.824
        38.0004         33.0004
  -8205202.90047  -6333639.59347  23387671.1354   23387681.1084   23387671.034
        47.0004         42.0004
 -25751334.31648 -20007353.25248  20371787.1914   20371793.1614   20371786.776
        53.0004         49.0004
 14  5 11  1 11 30.0000000  0 10G26G09G07G28G02G10G08G13G17G04
   -235873.89847   -169262.94646  24116594.0954   24116603.8334   24116593.222
        42.0004         38.0004
 -12636314.70349  -9836989.70248  20238946.8224   20238952.1434   20238946.632
        54.0004         50.0004
 -15670300.76948 -12174597.77947  21823069.1674   21823073.8554   21823068.415
        50.0004         45.0004
  -7826302.68447  -6098532.42047  22545737.7214   22545744.8144   22545737.243
        47.0004         43.0004
 -10050418.07048  -7771624.77147  22493119.1074   22493123.8504   22493119.949
        48.0004         43.0004
 -15373601.33647 -11968101.12847  22780753.5534   22780759.7094   22780754.528
        46.0004         42.0004
 -20154100.47448 -15685817.20648  20160742.6414   20160748.7064   20160742.881
        53.0004         48.0004
                  -7177311.18545                  25314408.6764   25314407.126
                        33.0004
  -8168846.46247  -6305309.88747  23394590.0614   23394599.3064   23394589.468
        47.0004         42.0004
 -25773107.73348 -20024319.53048  20367643.7114   20367649.7164   20367642.953
        53.0004         49.0004
 14  5 11  1 12  0.0000000  0 10G26G09G07G28G02G10G08G13G17G04
   -223862.85647   -159903.44046  24118879.5864   24118889.6934   24118879.026
        42.0004         38.0004
 -12596672.59549  -9806099.71248  20246490.3764   20246495.9734   20246490.370
        54.0004         50.0004
 -15579551.53948 -12103884.04347  21840337.4094   21840342.9464   21840337.214
        50.0004         45.0004
  -7885388.21347  -6144573.04447  22534493.0424   22534500.9424   22534494.164
        47.0004         43.0004
 -10116649.33548  -7823233.41447  22480517.1714   22480521.1014   22480516.583
        48.0004         43.0004
 -15444639.33147 -12023455.32047  22767235.8734   22767241.9164   22767236.346
        47.0004         42.0004
 -20110069.46848 -15651507.29648  20169121.2624   20169127.4574   20169121.601
        53.0004         48.0004
  -9182988.91846  -7139642.53345  25323607.7074   25323611.1434   25323605.922
        38.0004         33.0004
  -8132639.86947  -6277096.95047  23401479.1824   23401489.0694   23401479.305
        47.0004         42.0004
 -25794327.82848 -20040854.64248  20363605.8394   20363611.6044   20363605.400
        53.0004         49.0004
 14  5 11  1 12 30.0000000  0 10G26G09G07G28G02G10G08G13G17G04
   -211709.32247   -150432.91246  24121191.2644   24121201.9404   24121191.894
        42.0004         38.0004
 -12556497.77649  -9774794.62248  20254134.9904   20254140.7884   20254135.130
        54.0004         49.0004
 -15488503.06548 -12032937.13447  21857663.5074   21857669.3864   21857663.291
        50.0004         45.0004
  -7944453.64047  -6190598.00347  22523253.7754   22523260.8564   22523253.991
        47.0004         43.0004
 -10182507.48448  -7874551.32247  22467983.6954   22467987.9144   22467984.461
        48.0004         44.0004
 -15515726.65147 -12078847.93847  22753708.1824   22753714.1004   22753709.039
        47.0004         42.0004
 -20065432.77348 -15616725.42148  20177615.3714   20177621.4834   20177615.758
        53.0004         49.0004
  -9134913.30346  -7102180.96545  25332753.7374   25332760.2744   25332754.042
        37.0004         33.0004
  -8096582.15547  -6249000.02547  23408341.9664   23408350.8284   23408340.781
        47.0004         42.0004
 -25814991.90048 -20056956.49548  20359673.2124   20359679.4954   20359672.728
        53.0004         49.0004
 14  5 11  1 13  0.0000000  0 10G26G09G07G28G02G10G08G13G17G04
   -199419.58247   -140856.24546  24123529.3254   24123539.5494   24123529.931
        42.0004         38.0004
 -12515796.48349  -9743079.28848  20261880.4944   20261885.8134   20261880.340
        54.0004         49.0004
 -15397162.12548 -11961762.35447  21875045.8334   21875049.3554   21875044.875
        50.0004         45.0004
  -8003500.17448  -6236608.24547  22512018.1214   22512024.4674   22512017.838
        48.0004         43.0004
 -10247994.79148  -7925580.26447  22455522.0434   22455526.1694   22455522.657
        48.0004         44.0004
 -15586864.75447 -12134280.13747  22740170.7334   22740177.1994   22740171.921
        47.0004         42.0004
 -20020196.58948 -15581476.40248  20186223.2254   20186229.5524   20186223.954
        53.0004         48.0004
  -9087107.59846  -7064929.72045  25341850.3034   25341855.3474   25341851.389
        37.0004         33.0004
  -8060678.80747  -6221023.38747  23415173.2044   23415183.1124   23415173.214
        47.0004         42.0004
 -25835103.55648 -20072627.89448  20355846.1714   20355851.9454   20355845.915
        53.0004         49.0004
 14  5 11  1 13 30.0000000  0 10G26G09G07G28G02G10G08G13G17G04
   -186990.66147   -131171.13846  24125895.2904   24125904.6884   24125894.535
        42.0004         38.0004
 -12474565.39149  -9710951.12648  20269726.5014   20269731.8954   20269726.393
        54.0004         49.0004
 -15305526.78948 -11890358.15147  21892482.6164   21892487.7214   21892482.466
        50.0004         45.0004
  -8062519.92148  -6282597.62347  22500786.6004   22500793.7844   22500786.543
        48.0004         43.0004
 -10313104.49348  -7976314.96247  22443131.4054   22443135.2434   22443132.102
        48.0004         44.0004
 -15658046.23947 -12189746.14147  22726626.7924   22726631.7154   22726626.606
        47.0004         42.0004
 -19974357.73948 -15545757.77448  20194946.1794   20194952.6144   20194946.421
        53.0004         48.0004
  -9039566.53146  -7027884.69045  25350899.2854   25350903.9724   25350898.849
        38.0004         33.0004
  -8024926.47547  -6193164.43147  23421978.0994   23421986.0944   23421976.860
        47.0004         42.0004
 -25854657.20748 -20087864.48548  20352125.4104   20352131.3034   20352125.135
        53.0004         49.0004
 14  5 11  1 14  0.0000000  0 10G26G09G07G28G02G10G08G13G17G04
   -174428.50447   -121382.22246  24128286.8714   24128294.8714   24128286.341
        42.0004         38.0004
 -12432810.61349  -9678414.89348  20277672.0084   20277677.7804   20277672.066
        54.0004         49.0004
 -15213603.79148 -11818729.80347  21909975.4584   21909979.3274   21909974.606
        50.0004         45.0004
  -8121513.98448  -6328566.97847  22489560.6114   22489567.4374   22489560.846
        48.0004         43.0004
 -10377838.83748  -8026757.18347  22430811.8714   22430817.1274   22430813.393
        48.0004         43.0004
 -15729272.29447 -12245246.87247  22713071.2454   22713078.0864   22713072.262
        47.0004         43.0004
 -19927921.98348 -15509574.02548  20203783.1084   20203788.5864   20203783.146
        53.0004         48.0004
  -8992294.07846  -6991048.96345  25359896.2454   25359902.9594   25359894.045
        38.0004         34.0004
  -7989329.85447  -6165426.80447  23428750.6234   23428759.2594   23428750.351
        47.0004         42.0004
 -25873656.52448 -20102669.13148  20348509.8524   20348515.5264   20348509.292
        53.0004         49.0004
 14  5 11  1 14 30.0000000  0 10G26G09G07G28G02G10G08G13G17G04
   -161733.33247   -111489.64746  24130701.5874   24130709.4504   24130700.946
        42.0004         38.0004
 -12390532.18149  -9645470.62248  20285717.7874   20285722.9154   20285717.509
        54.0004         50.0004
 -15121393.94248 -11746877.93847  21927522.8844   21927526.1984   21927521.708
        50.0004         45.0004
  -8180477.58248  -6374512.59747  22478339.4844   22478346.7354   22478340.308
        48.0004         43.0004
 -10442194.14748  -8076904.04547  22418566.0704   22418570.3444   22418567.034
        48.0004         43.0004
 -15800538.71547 -12300779.06747  22699509.7864   22699515.7944   22699510.565
        47.0004         42.0004
 -19880888.94448 -15472924.85748  20212732.7174   20212738.7144   20212732.868
        53.0004         48.0004
  -8945288.07646  -6954420.87745  25368838.6994   25368843.2564   25368838.067
        38.0004         34.0004
  -7953888.87347  -6137810.45247  23435494.8884   23435503.8594   23435494.616
        46.0004         42.0004
 -25892098.82848 -20117039.73948  20345000.2534   20345006.1664   20344999.885
        53.0004         49.0004
 14  5 11  1 15  0.0000000  0 10G26G09G07G28G02G10G08G13G17G04
   -148908.46147   -101496.01146  24133141.4574   24133151.4694   24133142.016
        42.0004         38.0004
 -12347733.38749  -9612120.87648  20293861.3604   20293866.9924   20293861.458
        54.0004         49.0004
 -15028901.44348 -11674805.81947  21945123.5194   21945127.3184   21945122.526
        49.0004         45.0004
  -8239409.21448  -6420433.31747  22467125.7874   22467132.7264   22467125.689
        48.0004         43.0004
 -10506169.87248  -8126755.12947  22406392.0274   22406396.2544   22406393.202
        48.0004         44.0004
 -15871844.52347 -12356341.94147  22685941.1434   22685947.8064   22685941.620
        47.0004         42.0004
 -19833262.16948 -15435813.04748  20221795.8504   20221801.9604   20221796.023
        53.0004         48.0004
  -8898549.74646  -6918001.37445  25377731.7154   25377738.4044   25377732.285
        38.0004         33.0004
  -7918605.73447  -6110317.08547  23442209.1154   23442217.6384   23442208.948
        47.0004         42.0004
 -25909985.42048 -20130977.32348  20341596.6434   20341602.6184   20341596.168
        53.0004         49.0004
 14  5 11  1 15 30.0000000  0 10G26G09G07G28G02G10G08G13G17G04
   -135957.80047    -91404.36946  24135604.4924   24135613.4974   24135604.888
        42.0004         38.0004
 -12304417.93249  -9578368.54048  20302104.2634   20302109.7174   20302104.144
        54.0004         49.0004
 -14936131.27048 -11602517.32647  21962776.8284   21962780.7194   21962776.336
        49.0004         45.0004
  -8298307.56648  -6466328.09547  22455917.0644   22455923.7864   22455917.745
        48.0004         43.0004
 -10569766.14948  -8176310.54647  22394290.8964   22394293.5184   22394290.484
        48.0004         44.0004
 -15943189.02147 -12411934.97147  22672365.2504   22672370.4594   22672364.984
        47.0004         42.0004
 -19785045.14448 -15398241.30348  20230971.0744   20230977.2704   20230971.503
        53.0004         48.0004
  -8852080.76146  -6881791.74945  25386572.3374   25386582.7804   25386574.947
        38.0004         33.0004
  -7883483.26447  -6082948.92847  23448892.8864   23448902.5064   23448892.708
        47.0004         42.0004
 -25927317.23948 -20144482.61948  20338298.2844   20338304.3144   20338298.161
        53.0004         49.0004
 14  5 11  1 16  0.0000000  0  9G26G09G07G28G02G10G08G17G04
   -122880.73747    -81214.22946  24138092.5694   24138103.3814   24138093.522
        42.0004         37.0004
 -12260585.23149  -9544213.15448  20310445.2914   20310450.9064   20310445.283
        54.0004         49.0004
 -14843083.13348 -11530012.23347  21980483.7934   21980486.8294   21980482.749
        49.0004         45.0004
  -8357167.03448  -6512192.58347  22444716.6274   22444724.4464   22444717.376
        48.0004         43.0004
 -10632978.71848  -8225566.97147  22382260.9764   22382264.2514   22382261.129
        48.0004         44.0004
 -16014566.85347 -12467553.97747  22658781.7644   22658787.9614   22658782.413
        47.0004         42.0004
 -19736237.36148 -15360209.24048  20240258.7994   20240264.6614   20240259.150
        53.0004         48.0004
  -7848520.58347  -6055705.29247  23455545.5114   23455555.8254   23455545.552
        46.0004         42.0004
 -25944091.51448 -20157553.46848  20335106.1164   20335112.6064   20335105.616
        53.0004         49.0004
 14  5 11  1 16 30.0000000  0 10G26G09G07G28G02G10G08G13G17G04
   -109681.17747    -70928.63846  24140605.4594   24140614.2244   24140605.062
        42.0004         38.0004
 -12216239.14649  -9509657.72448  20318884.2894   20318889.7404   20318884.026
        54.0004         49.0004
 -14749762.08448 -11457294.46547  21998241.8204   21998245.4514   21998241.138
        49.0004         44.0004
  -8415986.66948  -6558026.03447  22433524.7344   22433530.1694   22433524.042
        48.0004         43.0004
 -10695807.58848  -8274524.38847  22370305.1794   22370308.9914   22370306.141
        48.0004         44.0004
 -16085977.51047 -12523198.56747  22645193.1604   22645198.8494   22645193.523
        47.0004         43.0004
 -19686842.56748 -15321719.75648  20249658.6894   20249664.3834   20249659.054
        53.0004         48.0004
                                                                  25404107.903

  -7813720.44547  -6028588.31247  23462168.4434   23462178.2104   23462167.597
        46.0004         42.0004
 -25960309.76648 -20170191.05748  20332020.4504   20332026.2124   20332020.000
        53.0004         49.0004
 14  5 11  1 17  0.0000000  0  9G26G09G07G28G02G10G08G17G04
    -96360.64847    -60548.80046  24143140.8684   24143148.6334   24143140.555
        42.0004         38.0004
 -12171380.82449  -9474703.15148  20327420.1094   20327425.8354   20327420.442
        54.0004         49.0004
 -14656170.07948 -11384365.56347  22016050.9494   22016055.7344   22016050.945
        49.0004         45.0004
  -8474762.91448  -6603825.67147  22422338.9794   22422347.3824   22422339.151
        48.0004         43.0004
 -10758250.41848  -8323181.00847  22358422.6054   22358426.0474   22358422.266
        48.0004         43.0004
 -16157417.65647 -12578866.13647  22631597.6984   22631605.4034   22631598.454
        47.0004         43.0004
 -19636862.20348 -15282773.99148  20259169.5424   20259175.3214   20259169.619
        53.0004         48.0004
  -7779083.43947  -6001598.44847  23468759.9794   23468769.1074   23468759.226
        46.0004         42.0004
 -25975970.75548 -20182394.41748  20329039.9404   20329045.9004   20329039.363
        53.0004         49.0004
 14  5 11  1 17 30.0000000  0  9G26G09G07G28G02G10G08G17G04
    -82921.35447    -50076.42446  24145696.2764   24145706.0544   24145696.835
        42.0004         38.0004
 -12126012.84649  -9439351.43948  20336053.9274   20336059.1954   20336053.653
        54.0004         50.0004
 -14562310.53748 -11311228.15747  22033913.0174   22033916.1644   22033911.812
        49.0004         45.0004
  -8533492.98948  -6649589.32947  22411162.6394   22411170.1664   22411163.305
        48.0004         43.0004
 -10820305.93548  -8371535.81547  22346613.6314   22346616.2894   22346614.317
        48.0004         44.0004
 -16228884.93047 -12634554.85647  22617998.9684   22618005.5464   22617999.395
        47.0004         43.0004
 -19586298.37348 -15243373.56948  20268791.2014   20268797.1574   20268791.733
        53.0004         48.0004
  -7744610.82547  -5974736.67347  23475319.9194   23475328.2434   23475319.364
        46.0004         42.0004
 -25991074.69848 -20194163.70748  20326165.5294   20326171.8724   20326165.382
        53.0004         49.0004
 14  5 11  1 18  0.0000000  0  9G26G09G07G28G02G10G08G17G04
    -69366.62047    -39514.11246  24148277.5574   24148285.8804   24148276.944
        43.0004         38.0004
 -12080138.46649  -9403605.13148  20344783.2534   20344788.6224   20344783.281
        54.0004         49.0004
 -14468187.32648 -11237885.32247  22051823.3074   22051827.1074   22051822.429
        49.0004         44.0004
  -8592175.15648  -6695315.66547  22399996.1874   22400003.9954   22399996.161
        48.0004         43.0004
 -10881973.29448  -8419588.16747  22334879.2454   22334882.9284   22334879.190
        48.0004         44.0004
 -16300378.08447 -12690263.74447  22604393.6614   22604400.0304   22604394.490
        47.0004         43.0004
 -19535154.15248 -15203520.89848  20278524.0534   20278529.5314   20278524.168
        53.0004         48.0004
  -7710304.87147  -5948004.76847  23481847.1434   23481856.6684   23481846.993
        47.0004         42.0004
 -26005622.26948 -20205499.46248  20323397.7924   20323403.3364   20323397.235
        53.0004         49.0004
 14  5 11  1 18 30.0000000  0  9G26G09G07G28G02G10G08G17G04
    -55698.43747    -28863.41346  24150877.8754   24150885.6274   24150877.282
        43.0004         38.0004
 -12033759.55449  -9367465.67748  20353608.8284   20353613.8584   20353608.682
        54.0004         49.0004
 -14373803.28348 -11164339.23547  22069784.0164   22069787.7794   22069783.147
        49.0004         44.0004
  -8650806.37348  -6741002.29147  22388838.4764   22388846.2614   22388839.265
        48.0004         43.0004
 -10943251.03148  -8467336.91047  22323218.0374   22323221.5184   22323218.150
        48.0004         44.0004
 -16371894.37147 -12745990.66347  22590784.2124   22590790.7914   22590784.718
        47.0004         43.0004
 -19483431.58548 -15163217.55848  20288366.6604   20288372.1134   20288366.441
        53.0004         48.0004
  -7676166.82147  -5921403.70147  23488342.9954   23488352.9444   23488343.282
        47.0004         42.0004
 -26019613.25048 -20216401.50848  20320734.7364   20320740.7494   20320734.344
        53.0004         49.0004
 14  5 11  1 19  0.0000000  0  9G26G09G07G28G02G10G08G17G04
    -41917.05647    -18124.48746  24153499.7704   24153509.1484   24153499.867
        43.0004         38.0004
 -11986876.58649  -9330933.46248  20362530.0134   20362535.5344   20362530.202
        54.0004         49.0004
 -14279159.54848 -11090590.78747  22087794.3224   22087798.3134   22087793.302
        49.0004         44.0004
  -8709381.96648  -6786645.58847  22377692.9284   22377698.4984   22377693.050
        48.0004         43.0004
 -11004136.13048  -8514779.69047  22311631.4914   22311634.6184   22311632.412
        49.0004         44.0004
 -16443429.73947 -12801732.46747  22577171.5644   22577177.8134   22577172.360
        47.0004         43.0004
 -19431131.29448 -15122464.05148  20298318.7304   20298324.4444   20298318.875
        53.0004         48.0004
  -7642196.46847  -5894933.31347  23494807.9604   23494817.6094   23494807.365
        47.0004         42.0004
 -26033045.63649 -20226868.28748  20318179.0964   20318184.8104   20318178.810
        54.0004         49.0004
 14  5 11  1 19 30.0000000  0  9G26G09G07G28G02G10G08G17G04
    -28028.73747     -7302.23746  24156142.3864   24156152.0254   24156142.338
        43.0004         38.0004
 -11939495.99949  -9294013.48748  20371546.3074   20371552.0114   20371546.296
        54.0004         49.0004
 -14184263.11848 -11016645.43647  22105851.2684   22105855.9164   22105850.925
        49.0004         44.0004
  -8767902.93948  -6832246.33347  22366557.1464   22366562.1884   22366557.064
        48.0004         44.0004
 -11064630.63248  -8561918.10247  22300119.8084   22300122.4654   22300119.908
        49.0004         44.0004
 -16514985.51848 -12857490.16447  22563555.1694   22563560.5394   22563556.355
        48.0004         43.0004
 -19378259.26048 -15081265.04148  20308380.2634   20308385.5454   20308380.168
        53.0004         48.0004
  -7608398.82047  -5868597.50447  23501240.1944   23501247.9794   23501239.006
        47.0004         42.0004
 -26045923.29949 -20236902.82548  20315728.4234   20315734.4224   20315728.101
        54.0004         49.0004
 14  5 11  1 20  0.0000000  0  9G26G09G07G28G02G10G08G17G04
    -14030.82547      3605.40046  24158806.1024   24158816.3474   24158806.459
        43.0004         39.0004
 -11891615.07349  -9256703.65148  20380657.7004   20380663.5654   20380657.671
        54.0004         49.0004
 -14089112.33248 -10942501.87447  22123958.0254   22123962.6234   22123958.136
        49.0004         44.0004
  -8826361.77148  -6877798.66347  22355431.9544   22355439.7054   22355432.378
        48.0004         44.0004
 -11124728.33048  -8608747.30547  22288683.2534   22288686.3194   22288684.338
        49.0004         44.0004
 -16586554.56548 -12913258.19847  22549937.0894   22549941.5304   22549936.546
        48.0004         43.0004
 -19324812.90148 -15039618.50948  20318550.4834   20318556.0214   20318550.503
        53.0004         48.0004
  -7574770.09947  -5842393.33147  23507638.1604   23507647.8434   23507639.045
        47.0004         42.0004
 -26058241.48449 -20246501.40248  20313384.5184   20313390.2394   20313383.703
        54.0004         49.0004
 14  5 11  1 20 30.0000000  0  9G26G09G07G28G02G10G08G17G04
        71.41247     14594.35346  24161489.8114   24161497.0004   24161489.295
        43.0004         38.0004
 -11843239.11649  -9219008.07248  20389863.7424   20389869.0464   20389863.594
        54.0004         49.0004
 -13993712.97448 -10868164.65347  22142112.2624   22142117.2814   22142111.894
        49.0004         44.0004
  -8884758.78548  -6923302.81347  22344319.9564   22344326.1264   22344319.492
        48.0004         43.0004
 -11184430.65748  -8655268.42647  22277323.4174   22277325.2104   22277322.376
        49.0004         44.0004
 -16658137.52147 -12969037.06047  22536314.8224   22536321.0264   22536314.308
        47.0004         43.0004
 -19270797.49548 -14997528.57048  20328829.1214   20328834.7074   20328829.387
        53.0004         48.0004
  -7541314.80147  -5816324.28847  23514005.9914   23514014.3374   23514005.587
        47.0004         42.0004
 -26070003.19448 -20255666.36248  20311146.1414   20311152.0804   20311145.695
        53.0004         49.0004
 14  5 11  1 21  0.0000000  0  9G26G09G07G28G02G10G08G17G04
     14273.30947     25660.93446  24164192.2644   24164201.1154   24164192.356
        43.0004         38.0004
 -11794372.82849  -9180930.41248  20399162.2484   20399167.8684   20399162.183
        54.0004         49.0004
 -13898070.75648 -10793638.18447  22160311.5604   22160315.9404   22160311.755
        48.0004         44.0004
  -8943093.18148  -6968758.16547  22333218.9804   22333225.5964   22333218.889
        48.0004         44.0004
 -11243738.70148  -8701482.29347  22266036.7894   22266040.1904   22266036.873
        49.0004         44.0004
 -16729734.29347 -13024826.67747  22522688.7834   22522695.8734   22522689.792
        47.0004         43.0004
 -19216217.99748 -14954999.06748  20339215.0414   20339220.9494   20339215.251
        53.0004         48.0004
  -7508036.42847  -5790393.11247  23520338.2334   23520347.9144   23520337.601
        46.0004         42.0004
 -26081210.77848 -20264399.53348  20309013.2804   20309019.2304   20309013.232
        53.0004         49.0004
 14  5 11  1 21 30.0000000  0  9G26G09G07G28G02G10G08G17G04
     28578.66747     36808.14846  24166914.1294   24166922.4654   24166914.263
        43.0004         38.0004
 -11745012.61249  -9142467.87648  20408555.3284   20408560.5844   20408555.596
        54.0004         49.0004
 -13802182.40748 -10718919.91047  22178558.9494   22178563.1184   22178558.523
        48.0004         44.0004
  -9001356.09648  -7014157.83947  22322131.9764   22322138.3124   22322132.163
        48.0004         44.0004
 -11302644.92948  -8747383.02347  22254826.4344   22254829.8454   22254827.158
        49.0004         44.0004
 -16801336.18747 -13080620.27047  22509064.0714   22509070.2164   22509064.767
        47.0004         43.0004
 -19161070.60448 -14912027.05148  20349709.0454   20349715.0744   20349709.648
        53.0004         48.0004
  -7474930.14647  -5764596.04347  23526638.1284   23526647.1634   23526637.913
        46.0004         42.0004
 -26091858.22348 -20272696.24248  20306987.5734   20306993.1094   20306986.635
        53.0004         49.0004
 14  5 11  1 22  0.0000000  0  9G26G09G07G28G02G10G08G17G04
     42980.65047     48030.65146  24169654.1804   24169663.2284   24169654.799
        43.0004         38.0004
 -11695165.45449  -9103625.89548  20418040.8614   20418046.4404   20418040.554
        54.0004         49.0004
 -13706055.84048 -10644016.04847  22196851.6084   22196855.6384   22196851.331
        48.0004         44.0004
  -9059549.49548  -7059503.34647  22311057.5324   22311065.1914   22311058.392
        48.0004         44.0004
 -11361152.89148  -8792973.34947  22243692.3384   22243696.2824   22243693.183
        49.0004         44.0004
 -16872945.10347 -13136419.34347  22495437.6954   22495442.8964   22495437.223
        47.0004         43.0004
 -19105362.69948 -14868618.25648  20360310.0514   20360315.5974   20360310.377
        53.0004         48.0004
  -7442002.26347  -5738937.98146  23532904.7034   23532912.7754   23532903.878
        46.0004         41.0004
 -26101950.42048 -20280560.28548  20305066.5954   20305072.8064   20305066.261
        53.0004         49.0004
 14  5 11  1 22 30.0000000  0  9G26G09G07G28G02G10G08G17G04
     57478.09047     59327.51546  24172414.1634   24172422.2104   24172413.004
        43.0004         38.0004
 -11644832.83349  -9064405.63648  20427618.9914   20427624.3524   20427618.591
        54.0004         49.0004
 -13609692.80448 -10568927.93347  22215189.5074   22215191.2544   22215188.178
        48.0004         44.0004
  -9117669.24848  -7104791.45247  22299998.2534   22300005.1524   22299998.619
        49.0004         44.0004
 -11419259.85148  -8838251.09547  22232634.8514   22232638.5484   22232635.425
        49.0004         45.0004
 -16944557.97847 -13192221.50247  22481809.6544   22481816.5484   22481809.988
        47.0004         43.0004
 -19049095.43648 -14824773.59548  20371017.4474   20371023.1624   20371017.547
        52.0004         48.0004
  -7409252.56947  -5713418.77346  23539136.4324   23539145.4924   23539135.651
        46.0004         41.0004
 -26111486.40748 -20287990.92448  20303252.2084   20303258.4314   20303251.852
        53.0004         49.0004
 14  5 11  1 23  0.0000000  0  9G26G09G07G28G02G10G08G17G04
     72069.40747     70697.54246  24175189.9794   24175197.9484   24175189.544
        43.0004         38.0004
 -11594016.46849  -9024808.43548  20437288.8424   20437294.1364   20437288.849
        54.0004         49.0004
 -13513096.04548 -10493657.69047  22233570.3034   22233574.5014   22233569.809
        48.0004         44.0004
  -9175712.12048  -7150019.66947  22288953.0974   22288960.4104   22288953.281
        49.0004         44.0004
 -11476964.23148  -8883215.10947  22221653.6914   22221657.1054   22221654.357
        49.0004         44.0004
 -17016171.63648 -13248024.27947  22468182.4944   22468189.0264   22468182.600
        48.0004         43.0004
 -18992270.36648 -14780494.28348  20381830.8054   20381836.3924   20381831.267
        52.0004         48.0004
  -7376681.72047  -5688038.92346  23545334.3954   23545342.9674   23545333.681
        46.0004         41.0004
 -26120465.55848 -20294987.66548  20301543.4734   20301549.2574   20301542.855
        53.0004         49.0004
 14  5 11  1 23 30.0000000  0  9G26G09G07G28G02G10G08G17G04
     86751.01847     82137.92146  24177983.4714   24177992.4764   24177983.425
        43.0004         38.0004
 -11542720.12949  -8984837.24348  20447049.9944   20447055.5834   20447049.883
        54.0004         49.0004
 -13416269.58648 -10418208.47947  22251996.4444   22251999.4604   22251995.822
        48.0004         43.0004
  -9233676.51048  -7195186.72247  22277922.0454   22277929.3174   22277922.621
        49.0004         44.0004
 -11534265.64148  -8927865.14947  22210749.3494   22210752.9424   22210749.564
        49.0004         45.0004
 -17087784.89148 -13303826.76147  22454554.0504   22454560.7924   22454554.952
        48.0004         43.0004
 -18934891.42548 -14735783.38548  20392749.8474   20392755.3244   20392749.983
        52.0004         48.0004
  -7344292.12247  -5662800.31346  23551498.0804   23551506.4084   23551497.282
        46.0004         41.0004
 -26128889.40248 -20301551.69648  20299940.2514   20299946.7604   20299939.856
        53.0004         49.0004
 14  5 11  1 24  0.0000000  0  9G26G09G07G28G02G10G08G17G04
    101521.30347     93647.39046  24180794.6174   24180802.5254   24180793.774
        43.0004         38.0004
 -11490945.38649  -8944493.26748  20456902.6194   20456907.6704   20456902.539
        54.0004         49.0004
 -13319215.90448 -10342582.21147  22270464.8474   22270467.3094   22270464.076
        48.0004         43.0004
  -9291558.71848  -7240289.74147  22266907.5924   22266915.7234   22266908.239
        49.0004         44.0004
 -11591162.73848  -8972200.39547  22199922.4364   22199925.1084   22199922.647
        49.0004         44.0004
 -17159394.65448 -13359626.54247  22440927.4154   22440933.2764   22440927.695
        48.0004         43.0004
 -18876960.63948 -14690642.49948  20403773.4664   20403779.0464   20403773.698
        52.0004         48.0004
  -7312084.26847  -5637703.32546  23557625.4244   23557635.8014   23557626.304
        46.0004         41.0004
 -26136757.54648 -20307682.72648  20298443.3324   20298448.9424   20298442.742
        53.0004         49.0004
 14  5 11  1 24 30.0000000  0  9G26G09G07G28G02G10G08G17G04
    116378.63147    105224.67346  24183621.8014   24183629.8174   24183621.554
        43.0004         38.0004
 -11438694.51849  -8903778.27948  20466845.1544   20466850.6984   20466845.322
        54.0004         49.0004
 -13221937.44848 -10266780.79047  22288976.3444   22288979.5894   22288975.638
        48.0004         43.0004
  -9349355.48348  -7285326.17847  22255910.4824   22255917.3954   22255910.185
        49.0004         44.0004
 -11647653.27548  -9016218.76247  22189172.0704   22189175.2884   22189172.848
        49.0004         45.0004
 -17230997.66748 -13415421.07647  22427302.8834   22427307.5454   22427302.859
        48.0004         43.0004
 -18818479.90048 -14645073.08348  20414902.2794   20414907.9274   20414902.403
        52.0004         48.0004
  -7280059.00547  -5612748.61647  23563721.0484   23563730.6334   23563720.297
        46.0004         42.0004
 -26144069.61848 -20313380.44448  20297051.7784   20297057.6834   20297051.297
        53.0004         49.0004
 14  5 11  1 25  0.0000000  0  9G26G09G07G28G02G10G08G17G04
    131319.94847    116867.41246  24186464.4244   24186473.7364   24186463.738
        43.0004         38.0004
 -11385970.44749  -8862694.55348  20476878.4464   20476884.3224   20476878.308
        54.0004         49.0004
 -13124438.15248 -10190807.27547  22307529.3734   22307532.7914   22307529.153
        48.0004         44.0004
  -9407064.72648  -7330294.42647  22244927.8224   22244935.3134   22244928.106
        49.0004         44.0004
 -11703736.87348  -9059920.08047  22178499.2334   22178503.3464   22178500.222
        49.0004         45.0004
 -17302592.10548 -13471208.93547  22413677.6244   22413685.0184   22413678.178
        48.0004         43.0004
 -18759452.34348 -14599077.57548  20426134.4494   20426140.6764   20426134.635
        52.0004         48.0004
  -7248218.22847  -5587937.65947  23569780.0134   23569789.8744   23569779.443
        46.0004         42.0004
 -26150826.65448 -20318645.67248  20295765.9424   20295772.0414   20295765.459
        53.0004         49.0004
 14  5 11  1 25 30.0000000  0  9G26G09G07G28G02G10G08G17G04
    146344.10947    128574.68346  24189322.8294   24189331.6834   24189323.204
        43.0004         38.0004
 -11332774.68149  -8821243.27448  20487000.9964   20487006.6404   20487001.097
        54.0004         49.0004
 -13026719.68848 -10114662.98147  22326125.4204   22326129.3004   22326124.044
        48.0004         43.0004
  -9464682.32848  -7375191.26147  22233962.6694   22233970.5594   22233963.780
        48.0004         44.0004
 -11759410.86948  -9103302.27347  22167905.1974   22167909.5264   22167905.509
        49.0004         45.0004
 -17374174.22248 -13526987.19847  22400056.5384   22400062.2334   22400057.181
        48.0004         43.0004
 -18699879.32048 -14552657.02848  20437470.6564   20437476.8464   20437471.477
        52.0004         48.0004
  -7216561.92547  -5563270.46547  23575804.6814   23575813.3664   23575804.276
        46.0004         42.0004
 -26157027.86348 -20323477.78348  20294585.6574   20294592.0004   20294585.394
        53.0004         49.0004
 14  5 11  1 26  0.0000000  0  9G26G09G07G28G02G10G08G17G04
    161445.95347    140342.45546  24192196.7194   24192204.9104   24192196.046
        42.0004         38.0004
 -11279112.91449  -8779428.88548  20497212.8614   20497218.2874   20497212.660
        54.0004         49.0004
 -12928788.05048 -10038352.56247  22344760.5404   22344764.7764   22344759.971
        48.0004         44.0004
  -9522208.17048  -7420016.59747  22223017.2474   22223023.8504   22223017.296
        48.0004         44.0004
 -11814676.52848  -9146365.92747  22157388.4784   22157391.1654   22157388.442
        49.0004         45.0004
 -17445744.77448 -13582756.44247  22386436.7414   22386442.7344   22386437.241
        48.0004         43.0004
 -18639766.29148 -14505815.68748  20448910.1144   20448915.7864   20448910.224
        52.0004         48.0004
  -7185094.32947  -5538750.30146  23581791.5604   23581801.3734   23581791.572
        46.0004         41.0004
 -26162676.40148 -20327879.25448  20293510.7224   20293516.9244   20293510.602
        53.0004         49.0004
 14  5 11  1 26 30.0000000  0  9G26G09G07G28G02G10G08G17G04
    176627.14047    152172.05846  24195084.5664   24195094.1134   24195085.102
        42.0004         37.0004
 -11224983.75949  -8737250.29348  20507512.9104   20507518.6604   20507513.306
        54.0004         49.0004
 -12830642.67448  -9961875.58047  22363436.5294   22363440.1674   22363436.036
        48.0004         43.0004
  -9579635.96848  -7464765.53047  22212089.1124   22212095.5554   22212088.997
        48.0004         44.0004
 -11869530.00548  -9189108.76847  22146950.0614   22146952.4314   22146950.194
        49.0004         45.0004
 -17517297.03148 -13638511.41047  22372821.3634   22372827.3344   22372821.526
        48.0004         43.0004
 -18579112.13748 -14458552.69048  20460452.4644   20460457.6724   20460452.840
        52.0004         48.0004
  -7153812.10147  -5514374.58746  23587745.4664   23587753.2784   23587744.463
        46.0004         41.0004
 -26167768.87548 -20331847.42448  20292541.7704   20292547.6604   20292541.446
        53.0004         49.0004
 14  5 11  1 27  0.0000000  0  9G26G09G07G28G02G10G08G17G04
    191882.55547    164059.51846  24197986.6504   24197995.3074   24197988.487
        42.0004         38.0004
 -11170392.64749  -8694711.73848  20517901.4334   20517906.7314   20517901.526
        54.0004         49.0004
 -12732289.39648  -9885236.60247  22382152.0464   22382156.7894   22382152.193
        48.0004         43.0004
  -9636965.10948  -7509437.58147  22201178.8614   22201186.5584   22201179.343
        48.0004         44.0004
 -11923971.61548  -9231530.35547  22136589.8314   22136593.0664   22136589.861
        49.0004         45.0004
 -17588831.55248 -13694252.56847  22359208.6684   22359214.1414   22359208.823
        48.0004         43.0004
 -18517922.56648 -14410872.47348  20472095.8644   20472101.4264   20472096.301
        52.0004         48.0004
  -7122719.73347  -5490146.81147  23593661.1344   23593670.6874   23593660.933
        46.0004         42.0004
 -26172308.34948 -20335384.69148  20291678.3214   20291684.2084   20291677.785
        53.0004         49.0004
 14  5 11  1 27 30.0000000  0  9G26G09G07G28G02G10G08G17G04
    207210.98347    176003.82546  24200905.5904   24200912.4044   24200905.133
        42.0004         38.0004
 -11115340.57149  -8651813.98548  20528377.2794   20528382.8114   20528377.308
        54.0004         49.0004
 -12633729.96348  -9808436.97147  22400907.4704   22400911.7534   22400907.242
        48.0004         43.0004
  -9694191.75148  -7554029.75947  22190289.0994   22190296.8294   22190289.479
        48.0004         44.0004
 -11978000.35948  -9273630.46147  22126308.0234   22126311.3484   22126308.529
        49.0004         45.0004
 -17660344.57348 -13749976.93747  22345599.7624   22345604.8224   22345600.764
        48.0004         43.0004
 -18456198.92048 -14362776.09848  20483841.6944   20483847.5374   20483842.170
        52.0004         48.0004
  -7091817.29747  -5466067.02447  23599542.4074   23599552.1724   23599542.172
        46.0004         42.0004
 -26176293.95549 -20338490.37348  20290919.8224   20290925.7434   20290919.085
        54.0004         49.0004
 14  5 11  1 28  0.0000000  0  9G26G09G07G28G02G10G08G17G04
    222610.38947    188003.44246  24203836.0504   24203845.4764   24203835.831
        43.0004         38.0004
 -11059830.48349  -8608559.34348  20538940.8284   20538946.2254   20538940.517
        54.0004         49.0004
 -12534967.60348  -9731479.21047  22419702.0434   22419706.1224   22419700.711
        48.0004         43.0004
  -9751312.84648  -7598539.70247  22179418.8444   22179425.8874   22179419.410
        48.0004         44.0004
 -12031614.09648  -9315407.11947  22116105.1744   22116108.1624   22116105.967
        50.0004         46.0004
 -17731833.29348 -13805682.37047  22331994.9894   22332002.0614   22331996.099
        48.0004         43.0004
 -18393943.69748 -14314265.51548  20495688.5664   20495694.0294   20495688.786
        52.0004         48.0004
  -7061105.74147  -5442135.97847  23605386.7244   23605396.1494   23605385.873
        46.0004         42.0004
 -26179726.32049 -20341164.95848  20290266.3504   20290272.7274   20290266.141
        54.0004         49.0004
 14  5 11  1 28 30.0000000  0  9G26G09G07G28G02G10G08G17G04
    238076.24247    200054.83946  24206779.8034   24206786.7074   24206778.285
        43.0004         38.0004
 -11003867.27749  -8564951.62048  20549590.1254   20549595.3604   20549589.968
        54.0004         49.0004
 -12436007.36448  -9654367.26647  22438533.1334   22438536.7324   22438532.748
        48.0004         43.0004
  -9808327.89048  -7642967.00747  22168570.2694   22168576.5634   22168570.584
        48.0004         44.0004
 -12084814.36148  -9356861.63447  22105982.5854   22105984.5504   22105982.195
        50.0004         44.0004
 -17803297.46948 -13861368.68647  22318396.1254   22318402.2954   22318397.353
        48.0004         43.0004
 -18331161.88248 -14265344.60948  20507635.3524   20507641.4414   20507635.546
        52.0004         48.0004
  -7030588.13647  -5418356.06146  23611192.7884   23611203.5094   23611193.163
        46.0004         41.0004
 -26182608.05849 -20343410.49148  20289718.2604   20289724.4614   20289717.999
        54.0004         49.0004
 14  5 11  1 29  0.0000000  0  9G26G09G07G28G02G10G08G17G04
    253610.24447    212159.36746  24209734.6164   24209743.5824   24209733.854
        43.0004         38.0004
 -10947449.47148  -8520989.66648  20560325.5804   20560331.5184   20560325.732
        53.0004         49.0004
 -12336848.36448  -9577100.43747  22457402.3314   22457406.7024   22457401.622
        48.0004         43.0004
  -9865230.08148  -7687306.37447  22157741.5394   22157749.2104   22157741.783
        48.0004         44.0004
 -12137595.63848  -9397989.55847  22095937.4924   22095939.5274   22095937.704
        50.0004         45.0004
 -17874730.66748 -13917030.87947  22304804.2034   22304808.9614   22304804.027
        48.0004         43.0004
 -18267852.27148 -14216012.43248  20519683.1534   20519688.7304   20519683.373
        52.0004         48.0004
  -7000261.99547  -5394725.36046  23616965.0304   23616974.3274   23616964.078
        46.0004         41.0004
 -26184935.60649 -20345224.19048  20289274.9804   20289281.3514   20289274.726
        54.0004         49.0004
 14  5 11  1 29 30.0000000  0  9G26G09G07G28G02G10G08G17G04
    269206.59447    224312.48946  24212702.4494   24212711.0424   24212702.031
        43.0004         38.0004
 -10890583.22448  -8476678.28248  20571147.2724   20571152.3454   20571147.187
        53.0004         49.0004
 -12237497.46448  -9499684.08847  22476308.0494   22476312.7534   22476308.023
        48.0004         43.0004
  -9922019.94048  -7731558.20647  22146934.6244   22146942.9584   22146935.221
        48.0004         44.0004
 -12189960.95148  -9438793.65947  22085972.6254   22085974.7914   22085972.904
        49.0004         45.0004
 -17946133.78348 -13972669.64647  22291215.8544   22291222.7064   22291216.115
        48.0004         44.0004
 -18204020.93648 -14166273.72048  20531829.5854   20531835.5114   20531829.633
        52.0004         48.0004
  -6970131.56947  -5371247.15046  23622698.7394   23622707.5514   23622697.737
        46.0004         41.0004
 -26186713.19749 -20346609.34748  20288936.8394   20288942.9454   20288936.969
        54.0004         49.0004
 14  5 11  1 30  0.0000000  0  9G26G09G07G28G02G10G08G17G04
    284865.28247    236514.16546  24215682.5204   24215690.8984   24215681.749
        43.0004         38.0004
 -10833268.97848  -8432017.80848  20582053.7554   20582059.1764   20582053.855
        53.0004         49.0004
 -12137954.95248  -9422118.40947  22495250.8514   22495254.1154   22495250.243
        48.0004         43.0004
  -9978692.29548  -7775718.47747  22136150.9134   22136157.2554   22136151.007
        48.0004         44.0004
 -12241907.40648  -9479271.34847  22076087.0434   22076089.6124   22076087.860
        49.0004         44.0004
 -18017501.80848 -14028281.07047  22277635.1614   22277641.6044   22277635.141
        48.0004         44.0004
 -18139668.50748 -14116128.95848  20544075.9044   20544080.9424   20544075.727
        52.0004         48.0004
  -6940195.80647  -5347920.60546  23628395.0074   23628404.1894   23628394.445
        46.0004         41.0004
 -26187938.92948 -20347564.49548  20288703.9354   20288709.6604   20288703.471
        53.0004         49.0004
 14  5 11  1 30 30.0000000  0  9G26G09G07G28G02G10G08G17G04
    300583.06247    248761.88146  24218672.8384   24218681.4974   24218672.755
        43.0004         38.0004
 -10775510.54648  -8387011.21448  20593044.8154   20593050.1284   20593044.788
        53.0004         49.0004
 -12038225.38347  -9344406.98547  22514229.0114   22514232.7784   22514227.547
        47.0004         43.0004
 -10035245.15748  -7819785.64947  22125388.6924   22125397.4984   22125389.272
        49.0004         44.0004
 -12293433.86448  -9519421.71047  22066282.8164   22066285.5954   22066282.904
        49.0004         45.0004
 -18088833.24048 -14083863.98747  22264060.5154   22264067.5154   22264061.331
        48.0004         44.0004
 -18074798.88748 -14065581.18048  20556419.7084   20556425.3704   20556419.900
        52.0004         48.0004
  -6910456.64547  -5324747.27346  23634055.0764   23634063.2674   23634053.704
        46.0004         41.0004
 -26188614.45548 -20348090.90348  20288575.2584   20288581.2384   20288574.922
        53.0004         49.0004
 14  5 11  1 31  0.0000000  0  9G26G09G07G28G02G10G08G17G04
    316356.64347    261053.06446  24221674.9284   24221682.8414   24221675.495
        43.0004         38.0004
 -10717311.67849  -8341661.41948  20604119.7494   20604125.1564   20604119.719
        54.0004         49.0004
 -11938312.67847  -9266552.85447  22533240.3144   22533244.9014   22533240.422
        47.0004         42.0004
 -10091676.67048  -7863758.24247  22114650.8404   22114657.6654   22114650.483
        49.0004         44.0004
 -12344540.79948  -9559245.25947  22056556.7514   22056560.0874   22056556.995
        49.0004         45.0004
 -18160126.45348 -14139417.13947  22250494.7664   22250500.6084   22250494.768
        48.0004         44.0004
 -18009415.71648 -14014633.24048  20568861.8874   20568867.9034   20568862.128
        52.0004         48.0004
  -6880916.56947  -5301729.06846  23639675.2584   23639684.7944   23639674.788
        46.0004         41.0004
 -26188741.50148 -20348189.93348  20288551.0514   20288557.1654   20288550.855
        53.0004         49.0004
 14  5 11  1 31 30.0000000  0  9G26G09G07G28G02G10G08G17G04
    332185.19547    273387.10946  24224686.8614   24224695.4764   24224686.453
        43.0004         38.0004
 -10658673.42849  -8295969.24748  20615278.4734   20615283.2434   20615278.256
        54.0004         49.0004
 -11838218.77247  -9188557.53447  22552287.7474   22552291.7064   22552287.879
        47.0004         43.0004
 -10147982.65548  -7907633.02147  22103935.9414   22103942.3224   22103935.977
        49.0004         44.0004
 -12395226.25648  -9598740.71347  22046912.0844   22046914.9884   22046912.761
        50.0004         45.0004
 -18231377.24748 -14194937.22547  22236935.5424   22236942.2164   22236936.508
        48.0004         44.0004
 -17943520.51248 -13963286.29347  20581401.1264   20581406.3794   20581401.120
        52.0004         47.0004
  -6851574.89547  -5278865.47046  23645258.6394   23645268.0704   23645258.647
        46.0004         41.0004
 -26188319.12648 -20347860.83148  20288631.2184   20288637.4384   20288630.695
        53.0004         49.0004
 14  5 11  1 32  0.0000000  0  9G26G09G07G28G02G10G08G17G04
    348066.73947    285762.48646  24227709.1964   24227716.9134   24227709.515
        43.0004         38.0004
 -10599598.73749  -8249936.99448  20626519.4554   20626524.8804   20626519.766
        54.0004         49.0004
 -11737945.78947  -9110422.67447  22571369.0324   22571373.1684   22571368.834
        47.0004         43.0004
 -10204159.72348  -7951407.35747  22093246.0224   22093252.7594   22093245.955
        49.0004         44.0004
 -12445488.17448  -9637905.91847  22037347.2554   22037349.0084   22037347.762
        49.0004         44.0004
 -18302583.18448 -14250422.34947  22223385.3534   22223391.4274   22223386.018
        48.0004         44.0004
 -17877115.95248 -13911542.44348  20594037.4644   20594043.6364   20594037.882
        52.0004         48.0004
  -6822432.54547  -5256157.17947  23650804.6934   23650814.0904   23650804.418
        46.0004         42.0004
 -26187347.81548 -20347103.99748  20288816.5714   20288822.6314   20288816.209
        53.0004         49.0004
 14  5 11  1 32 30.0000000  0  9G26G09G07G28G02G10G08G17G04
    363998.90647    298177.30446  24230740.5524   24230748.5784   24230739.780
        43.0004         39.0004
 -10540090.20549  -8203566.68148  20637843.7944   20637849.1064   20637843.707
        54.0004         49.0004
 -11637497.09347  -9032150.88547  22590483.7294   22590488.0674   22590483.249
        47.0004         43.0004
 -10260205.37348  -7995079.26847  22082580.0604   22082588.0724   22082580.686
        49.0004         44.0004
 -12495326.27348  -9676741.11947  22027863.6694   22027866.4374   22027864.173
        50.0004         44.0004
 -18373741.39048 -14305870.26847  22209844.4564   22209850.1654   22209845.710
        49.0004         44.0004
 -17810204.87848 -13859403.89947  20606770.1834   20606776.0024   20606770.585
        52.0004         47.0004
  -6793490.59747  -5233605.05146  23656312.7444   23656321.7154   23656312.427
        46.0004         41.0004
 -26185828.33248 -20345920.02848  20289105.5674   20289111.4384   20289104.950
        53.0004         49.0004
 14  5 11  1 33  0.0000000  0  9G26G09G07G28G02G10G08G17G04
    379978.86147    310629.30146  24233780.5294   24233789.8444   24233781.233
        43.0004         38.0004
 -10480150.87749  -8156860.69448  20649250.1684   20649255.2664   20649249.885
        54.0004         49.0004
 -11536876.36047  -8953745.05247  22609630.9834   22609635.9454   22609630.874
        47.0004         42.0004
 -10316117.09848  -8038646.83547  22071940.7854   22071947.9344   22071941.069
        49.0004         44.0004
 -12544738.79948  -9715244.27847  22018460.9494   22018464.2864   22018461.036
        50.0004         47.0004
 -18444849.71348 -14361279.30747  22196313.3244   22196319.4254   22196314.096
        49.0004         44.0004
 -17742790.68348 -13806873.32547  20619598.5444   20619603.9244   20619598.927
        52.0004         47.0004
  -6764750.32747  -5211210.06546  23661781.5214   23661790.4304   23661780.783
        46.0004         41.0004
 -26183761.75948 -20344309.75148  20289498.5534   20289504.6814   20289498.321
        53.0004         49.0004
 14  5 11  1 33 30.0000000  0  9G26G09G07G28G02G10G08G17G04
    396002.05047    323115.02546  24236830.7734   24236837.0884   24236829.648
        43.0004         38.0004
 -10419786.12348  -8109823.19948  20660736.9334   20660742.4824   20660736.862
        53.0004         49.0004
 -11436089.25647  -8875209.58847  22628811.6134   22628815.3284   22628809.793
        47.0004         42.0004
 -10371894.12948  -8082109.45147  22061327.3284   22061332.7374   22061327.237
        49.0004         44.0004
 -12593727.98648  -9753417.57247  22009138.2864   22009142.3144   22009139.214
        50.0004         45.0004
 -18515908.04248 -14416649.37447  22182791.1134   22182796.9944   22182791.848
        49.0004         44.0004
 -17674878.76548 -13753954.93247  20632521.8084   20632527.7574   20632522.072
        52.0004         47.0004
  -6736215.33647  -5188975.03646  23667211.6594   23667219.9444   23667211.141
        46.0004         41.0004
 -26181151.33048 -20342275.70548  20289995.7894   20290001.8054   20289995.397
        53.0004         49.0004
 14  5 11  1 34  0.0000000  0  9G26G09G07G28G02G10G08G17G04
    412071.96247    335637.14446  24239887.0334   24239895.1254   24239888.661
        43.0004         38.0004
 -10358992.70248  -8062451.67448  20672305.5974   20672310.8904   20672305.331
        53.0004         49.0004
 -11335132.59847  -8796541.97947  22648022.0954   22648024.3714   22648021.315
        47.0004         42.0004
 -10427527.37048  -8125460.01147  22050740.1864   22050747.2804   22050740.357
        49.0004         44.0004
 -12642287.98648  -9791256.64547  21999897.6894   21999900.4584   21999898.199
        50.0004         45.0004
 -18586907.86048 -14471973.84847  22169280.4734   22169286.0994   22169281.003
        49.0004         44.0004
 -17606465.97848 -13700646.25947  20645540.7004   20645545.6914   20645540.885
        52.0004         47.0004
  -6707880.48547  -5166895.96746  23672604.1134   23672611.7484   23672603.253
        45.0004         41.0004
 -26177991.99348 -20339813.94048  20290596.8394   20290602.8184   20290596.423
        53.0004         49.0004
 14  5 11  1 34 30.0000000  0  9G26G09G07G28G02G10G08G17G04
    428181.42947    348190.05646  24242953.6174   24242961.7164   24242953.354
        43.0004         38.0004
 -10297778.53949  -8014752.30448  20683954.2474   20683959.3764   20683954.151
        54.0004         49.0004
 -11234014.40947  -8717748.53147  22667264.1294   22667267.9284   22667263.360
        47.0004         42.0004
 -10483019.45848  -8168700.58147  22040179.8774   22040187.4104   22040180.688
        49.0004         44.0004
 -12690421.94448  -9828763.78647  21990738.1764   21990741.7864   21990738.286
        50.0004         45.0004
 -18657851.63248 -14527254.65447  22155780.7794   22155786.0524   22155781.129
        49.0004         44.0004
 -17537560.21548 -13646953.44347  20658652.5924   20658658.0384   20658652.736
        52.0004         47.0004
  -6679752.08747  -5144977.76646  23677956.5974   23677965.2234   23677955.654
        46.0004         41.0004
 -26174289.55348 -20336928.97448  20291301.8744   20291307.7614   20291301.121
        53.0004         49.0004
 14  5 11  1 35  0.0000000  0  9G26G09G07G28G02G10G08G17G04
    444328.82147    360772.55246  24246026.7124   24246033.9534   24246025.540
        43.0004         38.0004
 -10236145.89049  -7966726.83748  20695682.3274   20695687.7344   20695682.487
        54.0004         49.0004
 -11132737.39547  -8638831.31447  22686535.7374   22686539.5924   22686536.610
        47.0004         42.0004
 -10538366.76048  -8211828.33247  22029648.4514   22029654.9554   22029648.433
        49.0004         44.0004
 -12738128.42748  -9865937.72747  21981660.1934   21981663.1564   21981660.856
        50.0004         45.0004
 -18728735.85848 -14582489.07547  22142291.8954   22142297.4484   22142291.661
        49.0004         44.0004
 -17468163.80748 -13592878.30047  20671858.0814   20671863.7894   20671858.668
        52.0004         47.0004
  -6651830.34347  -5123220.59946  23683269.3904   23683279.5764   23683269.023
        46.0004         41.0004
 -26170044.04048 -20333620.83648  20292109.0694   20292115.8614   20292108.767
        53.0004         49.0004
 14  5 11  1 35 30.0000000  0  9G26G09G07G28G02G10G08G17G04
    460514.50747    373384.81946  24249107.7234   24249114.0924   24249106.400
        43.0004         38.0004
 -10174094.85848  -7918375.36748  20707490.3374   20707495.6034   20707490.471
        53.0004         49.0004
 -11031301.79947  -8559790.54247  22705839.5714   22705843.4234   22705839.013
        47.0004         42.0004
 -10593563.58248  -8254838.82147  22019144.8314   22019151.2234   22019144.644
        49.0004         44.0004
 -12785404.27048  -9902776.16247  21972663.9304   21972666.7524   21972664.157
        50.0004         45.0004
 -18799554.97348 -14637672.78447  22128814.8634   22128820.3274   22128815.588
        49.0004         44.0004
 -17398277.02548 -13538421.03947  20685157.0424   20685162.9164   20685157.525
        52.0004         47.0004
  -6624113.54547  -5101623.13446  23688544.1294   23688552.9604   23688543.519
        45.0004         41.0004
 -26165253.75448 -20329888.19648  20293020.8984   20293026.9624   20293020.709
        53.0004         49.0004
 14  5 11  1 36  0.0000000  0  9G26G09G07G28G02G10G08G17G04
    476733.12847    386022.81046  24252191.3874   24252202.1724   24252191.490
        42.0004         38.0004
 -10111631.53248  -7869702.63348  20719376.6254   20719382.1794   20719376.658
        53.0004         49.0004
 -10929713.75947  -8480630.99046  22725170.4784   22725175.2934   22725169.471
        47.0004         41.0004
 -10648610.15748  -8297732.23547  22008669.3664   22008677.1624   22008669.620
        49.0004         44.0004
 -12832251.33148  -9939280.31047  21963749.2564   21963752.6284   21963749.541
        50.0004         45.0004
 -18870309.65848 -14692806.28147  22115349.7674   22115356.2544   22115351.054
        49.0004         44.0004
 -17327906.34748 -13483586.72247  20698548.3404   20698554.3634   20698548.628
        52.0004         47.0004
  -6596605.98047  -5080188.70646  23693778.5664   23693789.0774   23693777.631
        45.0004         40.0004
 -26159922.73348 -20325734.21048  20294035.1874   20294041.6114   20294035.065
        53.0004         49.0004
 14  5 11  1 36 30.0000000  0 10G26G09G07G28G02G05G10G08G17G04
    492982.59047    398684.87746  24255284.8784   24255294.5904   24255284.609
        42.0004         38.0004
 -10048758.42648  -7820710.58448  20731341.3194   20731345.9894   20731341.168
        53.0004         49.0004
 -10827976.05747  -8401354.80547  22744529.5634   22744534.0244   22744529.984
        47.0004         42.0004
 -10703503.40348  -8340506.18047  21998224.0284   21998230.4774   21998223.934
        49.0004         44.0004
 -12878669.24348  -9975450.18647  21954917.7164   21954919.1684   21954916.920
        50.0004         44.0004
   -677560.23247   -477780.36746  25336816.4774   25336821.5714   25336815.344
        47.0004         36.0004
 -18940997.36048 -14747887.58347  22101899.4114   22101905.1494   22101899.596
        49.0004         44.0004
 -17257054.49948 -13428377.46747  20712031.0774   20712036.5524   20712031.301
        52.0004         47.0004
  -6569307.95747  -5058917.55446  23698972.1214   23698982.5404   23698972.298
        45.0004         41.0004
 -26154051.75348 -20321159.47748  20295152.4824   20295158.5064   20295152.445
        53.0004         49.0004
 14  5 11  1 37  0.0000000  0 10G26G09G07G28G02G05G10G08G17G04
    509263.74747    411371.63346  24258381.1724   24258390.2694   24258382.121
        42.0004         38.0004
  -9985475.34948  -7771399.07848  20743383.4584   20743388.8184   20743383.168
        53.0004         49.0004
 -10726088.71547  -8321962.02547  22763918.9984   22763923.2584   22763919.004
        47.0004         42.0004
 -10758237.13648  -8383155.82047  21987808.4244   21987815.0374   21987808.596
        49.0004         45.0004
 -12924653.63248 -10011282.30147  21946166.2054   21946168.0234   21946166.533
        50.0004         45.0004
   -760093.46047   -542092.04045  25321110.9024   25321114.8774   25321108.844
        43.0004         35.0004
 -19011612.14048 -14802912.06547  22088461.3064   22088467.4754   22088462.210
        49.0004         44.0004
 -17185721.34548 -13372793.16447  20725605.0634   20725611.0784   20725605.715
        52.0004         47.0004
  -6542217.80347  -5037808.37046  23704128.3184   23704136.9364   23704127.648
        45.0004         41.0004
 -26147638.36948 -20316162.09048  20296373.0424   20296379.0104   20296372.869
        53.0004         49.0004
 14  5 11  1 37 30.0000000  0 10G26G09G07G28G02G05G10G08G17G04
    525572.47447    424079.81846  24261486.0384   24261494.3544   24261486.151
        43.0004         38.0004
  -9921787.08348  -7721771.84148  20755502.8384   20755508.4914   20755503.038
        53.0004         49.0004
 -10624056.73647  -8242456.56947  22783335.0694   22783339.0534   22783334.774
        47.0004         42.0004
 -10812810.20548  -8425680.26047  21977423.1624   21977430.3294   21977423.339
        49.0004         45.0004
 -12970205.58148 -10046777.39747  21937497.8734   21937500.5074   21937498.051
        50.0004         46.0004
   -842832.32946   -606563.73146  25305365.8534   25305372.2284   25305364.821
        41.0004         36.0004
 -19082152.99448 -14857878.93747  22075038.0374   22075043.6594   22075038.918
        49.0004         44.0004
 -17113911.61448 -13316837.51847  20739269.9364   20739275.4724   20739270.446
        52.0004         47.0004
  -6515337.93147  -5016863.03846  23709243.5454   23709252.0894   23709243.188
        46.0004         41.0004
 -26140685.44448 -20310744.28348  20297696.2834   20297702.4514   20297695.831
        53.0004         49.0004
 14  5 11  1 38  0.0000000  0 10G26G09G07G28G02G05G10G08G17G04
    541907.63947    436808.65446  24264594.3484   24264602.0394   24264593.773
        43.0004         38.0004
  -9857695.47348  -7671830.30348  20767698.8264   20767704.3134   20767698.659
        53.0004         49.0004
 -10521881.96647  -8162839.77546  22802778.3034   22802781.1944   22802777.754
        47.0004         41.0004
 -10867218.82948  -8468076.56447  21967069.4614   21967076.4244   21967069.859
        49.0004         45.0004
 -13015323.50248 -10081934.36247  21928912.2434   21928914.7984   21928912.457
        50.0004         46.0004
   -925775.17346   -671194.59145  25289582.8754   25289588.8314   25289582.351
        40.0004         34.0004
 -19152616.38848 -14912785.45147  22061628.8834   22061635.7354   22061629.893
        49.0004         44.0004
 -17041627.29248 -13260512.06447  20753025.3784   20753030.8444   20753025.753
        52.0004         47.0004
  -6488668.27347  -4996081.50946  23714317.8804   23714327.9354   23714317.474
        46.0004         41.0004
 -26133193.04848 -20304906.11348  20299122.3514   20299128.3134   20299121.860
        53.0004         49.0004
 14  5 11  1 38 30.0000000  0 10G26G09G07G28G02G05G10G08G17G04
    558264.41947    449554.28546  24267706.1334   24267714.8604   24267706.643
        43.0004         38.0004
  -9793205.90848  -7621578.66848  20779970.9434   20779976.1874   20779971.054
        53.0004         48.0004
 -10419569.87747  -8083116.11347  22822248.3874   22822252.5174   22822246.748
        47.0004         42.0004
 -10921462.45948  -8510344.30747  21956747.1084   21956754.5394   21956747.708
        49.0004         45.0004
 -13060008.40848 -10116753.68347  21920408.8004   21920411.9124   21920409.077
        50.0004         46.0004
  -1008922.56646   -735984.59246  25273761.4124   25273765.5614   25273759.868
        40.0004         36.0004
 -19223001.76948 -14967631.19347  22048234.0174   22048240.9284   22048235.944
        49.0004         44.0004
 -16968874.06048 -13203821.22347  20766869.7854   20766875.2954   20766870.154
        51.0004         47.0004
  -6462211.92547  -4975466.20046  23719352.8304   23719362.7864   23719352.341
        46.0004         41.0004
 -26125164.63248 -20298650.26248  20300649.9834   20300656.1784   20300649.461
        53.0004         49.0004
 14  5 11  1 39  0.0000000  0 10G26G09G07G28G02G05G10G08G17G04
    574644.16147    462317.80346  24270824.3274   24270831.9354   24270823.819
        43.0004         38.0004
  -9728317.71948  -7571016.40748  20792318.7964   20792324.1034   20792318.707
        53.0004         49.0004
 -10317119.84447  -8003284.86646  22841742.7414   22841746.3144   22841742.460
        47.0004         41.0004
 -10975534.71048  -8552478.50447  21946457.4334   21946465.1774   21946458.127
        49.0004         45.0004
 -13104257.03248 -10151233.32347  21911988.4834   21911990.9614   21911989.024
        50.0004         44.0004
  -1092270.85046   -800931.39646  25257902.4324   25257907.5554   25257899.924
        41.0004         36.0004
 -19293303.09048 -15022411.43047  22034857.7114   22034862.4944   22034858.207
        49.0004         44.0004
 -16895651.23848 -13146764.45847  20780803.5684   20780809.0864   20780803.885
        51.0004         47.0004
  -6435966.65847  -4955015.37646  23724345.9484   23724356.1844   23724346.800
        46.0004         41.0004
 -26116597.64949 -20291974.74948  20302280.5594   20302286.2544   20302280.001
        54.0004         49.0004
 14  5 11  1 39 30.0000000  0 10G26G09G07G28G02G05G10G08G17G04
    591040.79447    475094.50946  24273944.4364   24273951.7834   24273943.497
        42.0004         38.0004
  -9663037.74048  -7520148.86548  20804741.0474   20804746.6124   20804741.140
        53.0004         49.0004
 -10214538.76047  -7923351.54447  22861263.8764   22861267.5604   22861262.887
        47.0004         43.0004
 -11029436.30548  -8594479.72847  21936200.4714   21936207.4344   21936200.787
        49.0004         45.0004
 -13148071.70648 -10185374.57547  21903650.8814   21903653.7314   21903651.245
        50.0004         46.0004
  -1175822.15046                  25241999.9234                   25242001.098
        40.0004
 -19363521.40348 -15077127.00247  22021495.6304   22021502.3054   22021496.206
        49.0004         44.0004
 -16821966.07448 -13089347.43147  20794825.4414   20794831.3134   20794825.817
        51.0004         47.0004
  -6409937.16047  -4934732.68646  23729300.2284   23729308.7354   23729300.022
        46.0004         41.0004
 -26107497.12549 -20284883.48948  20304011.8704   20304018.2964   20304011.642
        54.0004         49.0004
 14  5 11  1 40  0.0000000  0 10G26G09G07G28G02G05G10G08G17G04
    607454.98947    487884.95146  24277066.9304   24277075.2754   24277067.301
        43.0004         38.0004
  -9597366.19548  -7468976.21448  20817237.8694   20817243.4874   20817237.808
        53.0004         48.0004
 -10111826.94847  -7843316.39747  22880809.0034   22880813.3294   22880808.591
        47.0004         42.0004
 -11083161.72348  -8636343.66247  21925977.6244   21925983.9244   21925977.506
        49.0004         45.0004
 -13191450.04848 -10219176.02647  21895396.4064   21895399.1234   21895396.866
        50.0004         46.0004
  -1259571.90356   -931296.17245  25226060.9365   25226065.6574   25226064.260
        39.0004         34.0004
 -19433651.32548 -15131773.69447  22008149.6894   22008156.2144   22008150.517
        49.0004         44.0004
 -16747818.64548 -13031570.19447  20808935.9624   20808940.8324   20808935.771
        51.0004         47.0004
  -6384120.86347  -4914616.11246  23734212.6964   23734222.6904   23734212.459
        46.0004         41.0004
 -26097861.29349 -20277375.10248  20305845.4944   20305851.8154   20305845.527
        54.0004         49.0004
 14  5 11  1 40 30.0000000  0 10G26G09G07G28G02G05G10G08G17G04
    623882.00047    500685.33946  24280193.8274   24280200.3204   24280193.153
        43.0004         38.0004
  -9531308.36348  -7417502.54848  20829808.3504   20829813.7474   20829808.329
        53.0004         48.0004
 -10008989.92147  -7763183.68846  22900377.6394   22900381.3834   22900377.548
        46.0004         40.0004
 -11136710.18048  -8678069.71647  21915787.6594   21915793.5294   21915787.400
        50.0004         45.0004
 -13234392.85148 -10252637.98847  21887224.7294   21887227.5434   21887225.044
        50.0004         47.0004
  -1343520.56346   -996710.24146  25210088.4214   25210093.4044   25210088.782
        41.0004         37.0004
 -19503692.36848 -15186351.12247  21994821.6814   21994828.0424   21994822.697
        49.0004         44.0004
 -16673214.58248 -12973437.14347  20823131.5384   20823137.5684   20823132.268
        51.0004         47.0004
  -6358521.49047  -4894668.56946  23739084.4394   23739093.6464   23739083.875
        46.0004         41.0004
 -26087693.44949 -20269452.16648  20307780.6344   20307786.7524   20307780.438
        54.0004         49.0004
 14  5 11  1 41  0.0000000  0 10G26G09G07G28G02G05G10G08G17G04
    640322.59547    513496.33546  24283321.1064   24283329.0684   24283321.629
        43.0004         38.0004
  -9464864.26948  -7365727.89148  20842452.5554   20842457.4484   20842452.187
        53.0004         48.0004
  -9906027.36647  -7682953.09546  22919970.5474   22919975.6994   22919971.168
        47.0004         41.0004
 -11190075.71648  -8719653.23047  21905632.3154   21905638.7504   21905632.186
        50.0004         45.0004
 -13276896.87948 -10285758.11647  21879136.6024   21879139.8604   21879137.055
        50.0004         46.0004
  -1427664.51446  -1062276.75946  25194076.3874   25194080.8804   25194076.071
        41.0004         37.0004
 -19573638.64248 -15240854.69647  21981511.3314   21981517.5824   21981511.721
        49.0004         44.0004
 -16598154.06848 -12914948.41347  20837415.2654   20837420.7044   20837415.620
        51.0004         47.0004
  -6333136.48947  -4874888.07647  23743916.0404   23743924.3374   23743915.196
        46.0004         42.0004
 -26076991.81149 -20261113.28648  20309817.2924   20309823.3414   20309816.788
        54.0004         49.0004
 14  5 11  1 41 30.0000000  0 10G26G09G07G28G02G05G10G08G17G04
    656772.30947    526314.42146  24286451.6914   24286459.7154   24286451.578
        43.0004         38.0004
  -9398038.96248  -7313656.18848  20855168.5974   20855173.8684   20855168.407
        53.0004         48.0004
  -9802944.71847  -7602628.95746  22939587.0324   22939591.9854   22939587.088
        46.0004         41.0004
 -11243257.79848  -8761093.79247  21895511.9124   21895518.3604   21895511.994
        50.0004         45.0004
 -13318964.03048 -10318537.98847  21871131.7854   21871134.4744   21871132.140
        50.0004         46.0004
  -1512005.50046  -1127996.90646  25178028.7884   25178031.4674   25178026.118
        41.0004         36.0004
 -19643489.71248 -15295284.08147  21968218.8454   21968225.4694   21968219.771
        49.0004         44.0004
 -16522642.51848 -12856108.23347  20851784.9154   20851790.6064   20851784.971
        51.0004         47.0004
  -6307969.54147  -4855277.50046  23748704.1794   23748714.5484   23748704.251
        46.0004         41.0004
 -26065760.03949 -20252361.30948  20311954.5184   20311960.7314   20311954.200
        54.0004         49.0004
 14  5 11  1 42  0.0000000  0 10G26G09G07G28G02G05G10G08G17G04
    673229.76547    539138.52746  24289584.3924   24289589.6514   24289583.874
        43.0004         38.0004
  -9330834.31648  -7261288.90348  20867957.1474   20867962.6924   20867957.237
        53.0004         48.0004
  -9699743.72747  -7522212.54246  22959225.8254   22959230.0244   22959225.269
        46.0004         41.0004
 -11296252.41048  -8802388.27547  21885427.5044   21885433.5754   21885427.539
        49.0004         45.0004
 -13360591.79648 -10350975.30447  21863210.8964   21863213.0734   21863210.753
        50.0004         44.0004
  -1596540.25246  -1193867.89346  25161940.2044   25161945.5794   25161939.843
        41.0004         36.0004
 -19713241.87548 -15349636.40047  21954945.6424   21954951.3994   21954946.235
        49.0004         44.0004
 -16446682.28348 -12796918.42547  20866239.2654   20866245.2474   20866239.835
        51.0004         46.0004
  -6283020.33447  -4835836.58146  23753451.6514   23753461.2034   23753451.477
        46.0004         41.0004
 -26053997.94349 -20243196.09948  20314192.8134   20314199.1484   20314192.506
        54.0004         49.0004
 14  5 11  1 42 30.0000000  0 10G26G09G07G28G02G05G10G08G17G04
    689694.74647    551968.49946  24292716.7374   24292724.4024   24292716.029
        43.0004         38.0004
  -9263251.59748  -7208627.03448  20880817.8154   20880822.9144   20880817.680
        53.0004         48.0004
  -9596425.98047  -7441705.18147  22978886.4474   22978891.5144   22978885.938
        46.0004         42.0004
 -11349054.76248  -8843532.95447  21875378.4954   21875385.4984   21875379.410
        49.0004         45.0004
 -13401778.07848 -10383068.46747  21855372.4524   21855376.1034   21855372.933
        50.0004         45.0004
  -1681266.04747  -1259888.32046  25145819.4624   25145822.6754   25145817.005
        42.0004         37.0004
 -19782890.43448 -15403907.99447  21941692.7374   21941698.0404   21941692.454
        49.0004         44.0004
 -16370274.43448 -12737379.83047  20880778.8934   20880784.9994   20880779.527
        51.0004         46.0004
  -6258287.46347  -4816564.25846  23758159.0394   23758168.0194   23758158.127
        46.0004         41.0004
 -26041705.02849 -20233617.25648  20316532.2024   20316538.3804   20316531.862
        54.0004         49.0004
 14  5 11  1 43  0.0000000  0 10G26G09G07G28G02G05G10G08G17G04
    706158.76847    564797.70546  24295850.7054   24295856.5204   24295850.136
        43.0004         38.0004
  -9195300.08848  -7155677.79648  20893748.6054   20893753.5724   20893748.550
        53.0004         48.0004
  -9493000.45047  -7361113.79147  22998567.9324   22998572.0384   22998567.141
        47.0004         43.0004
 -11401668.05448  -8884530.31347  21865366.4894   21865373.8444   21865367.183
        49.0004         45.0004
 -13442529.02648 -10414822.54447  21847617.8214   21847621.4674   21847618.339
        50.0004         46.0004
  -1766188.31646  -1326061.65646  25129657.5044   25129664.7294   25129656.909
        41.0004         37.0004
 -19852439.02148 -15458101.68047  21928457.3474   21928463.3584   21928457.997
        49.0004         45.0004
 -16293428.45248 -12677499.83947  20895402.9954   20895407.9244   20895403.134
        51.0004         46.0004
  -6233778.00247  -4797466.00746  23762822.7094   23762831.8154   23762822.273
        46.0004         41.0004
 -26028888.84149 -20223630.66948  20318970.9664   20318977.3384   20318970.673
        54.0004         49.0004
 14  5 11  1 43 30.0000000  0 10G26G09G07G28G02G05G10G08G17G04
    722626.81847    577630.08446  24298982.2694   24298993.0234   24298982.194
        42.0004         38.0004
  -9126975.42848  -7102437.79748  20906750.4834   20906755.2904   20906750.317
        53.0004         48.0004
  -9389462.93047  -7280435.19046  23018269.0474   23018274.2404   23018269.868
        47.0004         41.0004
 -11454082.14748  -8925372.45147  21855393.9474   21855399.5194   21855393.412
        49.0004         45.0004
 -13482836.35148 -10446230.75147  21839948.1684   21839950.9934   21839947.864
        50.0004         45.0004
  -1851297.04046  -1392380.19945  25113459.8944   25113467.0214   25113460.778
        40.0004         35.0004
 -19921877.68248 -15512209.70947  21915244.0534   21915250.1634   21915244.571
        49.0004         45.0004
 -16216140.33948 -12617275.33947  20910110.8764   20910115.8144   20910110.716
        51.0004         46.0004
  -6209485.67147  -4778536.94746  23767445.2904   23767454.6904   23767444.826
        46.0004         41.0004
 -26015543.41349 -20213231.69048  20321510.6814   20321516.6114   20321510.331
        54.0004         49.0004
 14  5 11  1 44  0.0000000  0 10G26G09G07G28G02G05G10G08G17G04
    739093.98447    590461.79646  24302115.9524   24302123.3474   24302116.873
        42.0004         38.0004
  -9058283.57848  -7048911.68048  20919821.7184   20919826.9874   20919822.060
        53.0004         48.0004
  -9285819.07747  -7199673.75946  23037993.4944   23037997.3444   23037992.848
        45.0004         41.0004
 -11506297.28348  -8966059.55347  21845456.7974   21845464.8304   21845457.088
        49.0004         45.0004
 -13522703.35448 -10477296.14947  21832361.3574   21832364.0404   21832361.987
        50.0004         46.0004
  -1936594.45246  -1458845.75145  25097228.7374   25097235.5094   25097228.938
        40.0004         35.0004
 -19991206.19548 -15566231.91947  21902050.9104   21902056.1144   21902051.377
        49.0004         45.0004
 -16138415.94748 -12556710.87847  20924900.5974   20924906.2854   20924900.870
        51.0004         46.0004
  -6185414.03447  -4759779.84846  23772025.4034   23772036.3154   23772025.446
        46.0004         41.0004
 -26001672.61949 -20202423.32748  20324150.1604   20324156.7394   20324149.801
        54.0004         49.0004
 14  5 11  1 44 30.0000000  0  9G26G09G07G28G02G10G08G17G04
    755556.42347    603289.76146  24305248.9264   24305256.7414   24305249.078
        42.0004         37.0004
  -8989229.05548  -6995102.96648  20932962.5184   20932968.3414   20932962.328
        53.0004         48.0004
  -9182073.67447  -7118833.10747  23057735.5434   23057738.4874   23057734.100
        46.0004         42.0004
 -11558311.55648  -9006590.14747  21835558.7704   21835565.6844   21835559.234
        49.0004         45.0004
 -13562131.66648 -10508020.18447  21824858.8434   21824862.6404   21824859.128
        50.0004         46.0004
 -20060423.33348 -15620167.36247  21888880.3144   21888885.0394   21888880.314
        49.0004         45.0004
 -16060260.00948 -12495810.15547  20939773.3694   20939778.9514   20939773.698
        51.0004         46.0004
  -6161564.93447  -4741196.15946  23776564.4714   23776574.1334   23776563.394
        46.0004         41.0004
 -25987279.37849 -20191207.87148  20326889.5314   20326895.3364   20326888.914
        54.0004         49.0004
 14  5 11  1 45  0.0000000  0 10G26G09G07G28G02G05G10G08G17G04
    772013.13447    616113.28446  24308378.3904   24308387.4704   24308380.168
        42.0004         37.0004
  -8919813.62148  -6941013.02648  20946171.6204   20946177.0694   20946171.697
        53.0004         48.0004
  -9078228.18147  -7037914.56646  23077495.8374   23077499.5524   23077495.572
        45.0004         40.0004
 -11610120.84548  -9046961.00747  21825699.0904   21825706.3014   21825700.104
        49.0004         45.0004
 -13601117.33348 -10538399.00247  21817440.5534   21817444.2014   21817441.035
        50.0004         46.0004
   -256979.76848   -186055.84445  25064659.2864   25064662.9554   25064659.503
        49.0004         35.0004
 -20129525.40648 -15674013.14447  21875729.7764   21875735.1834   21875730.765
        50.0004         45.0004
 -15981674.67748 -12434574.83147  20954727.7894   20954733.2234   20954727.876
        51.0004         46.0004
  -6137938.01047  -4722785.59946  23781058.8324   23781070.6634   23781059.656
        45.0004         41.0004
 -25972363.92149 -20179585.49348  20329727.6254   20329733.7784   20329727.182
        54.0004         49.0004
 14  5 11  1 45 30.0000000  0 10G26G09G07G28G02G05G10G08G17G04
    788463.93247    628932.26646  24311511.0324   24311518.5804   24311511.246
        42.0004         38.0004
  -8850038.45548  -6886642.75948  20959449.4244   20959454.6484   20959449.523
        53.0004         48.0004
  -8974283.83547  -6956918.98847  23097276.3324   23097278.9344   23097275.714
        46.0004         42.0004
 -11661720.44448  -9087168.47647  21815880.4614   21815887.3084   21815880.910
        49.0004         45.0004
 -13639658.75248 -10568431.67247  21810106.2684   21810110.3574   21810107.257
        50.0004         46.0004
   -342833.38647   -252954.33146  25048321.2504   25048328.2024   25048321.937
        44.0004         37.0004
 -20198507.64348 -15727765.55347  21862603.0274   21862608.7344   21862603.360
        50.0004         45.0004
 -15902661.44748 -12373006.08147  20969763.8024   20969769.0174   20969763.757
        51.0004         46.0004
  -6114532.72347  -4704547.75346  23785513.4404   23785523.2284   23785513.703
        45.0004         41.0004
 -25956925.63049 -20167555.71548  20332665.6954   20332672.1864   20332665.134
        54.0004         49.0004
 14  5 11  1 46  0.0000000  0 10G26G09G07G28G02G05G10G08G17G04
    804904.71247    641743.46746  24314639.6094   24314646.8994   24314639.629
        42.0004         38.0004
  -8779908.26148  -6831995.84148  20972794.8094   20972800.4754   20972794.680
        53.0004         48.0004
  -8870244.89847  -6875849.66746  23117074.4634   23117077.2714   23117073.438
        46.0004         41.0004
 -11713109.17048  -9127211.62847  21806102.6154   21806108.7694   21806102.313
        50.0004         45.0004
 -13677757.14248 -10598118.93847  21802857.3394   21802860.1924   21802857.651
        50.0004         46.0004
   -428870.17047   -319995.58746  25031948.2884   25031954.7354   25031949.014
        42.0004         37.0004
 -20267369.02048 -15781423.78047  21849498.7874   21849504.9684   21849499.557
        50.0004         45.0004
 -15823225.21848 -12311107.70847  20984879.7554   20984885.0554   20984879.831
        51.0004         46.0004
  -6091350.94447  -4686484.05246  23789925.7704   23789935.7984   23789925.127
        46.0004         41.0004
 -25940967.63249 -20155120.97248  20335702.0214   20335708.2934   20335701.716
        54.0004         49.0004
 14  5 11  1 46 30.0000000  0 10G26G09G07G28G02G05G10G08G17G04
    821332.38647    654544.35446  24317765.6574   24317772.7574   24317765.285
        43.0004         38.0004
  -8709427.05848  -6777075.41248  20986206.9914   20986212.2284   20986206.980
        53.0004         48.0004
  -8766115.54747  -6794709.91346  23136889.8994   23136892.6694   23136888.858
        46.0004         41.0004
 -11764284.77648  -9167088.71347  21796363.5054   21796370.0454   21796363.582
        50.0004         45.0004
 -13715412.96848 -10627461.23347  21795691.7574   21795694.7794   21795691.967
        50.0004         46.0004
   -515088.74547   -387178.16846  25015541.5884   25015546.2894   25015541.458
        42.0004         38.0004
 -20336107.53948 -15834986.26847  21836418.4534   21836423.7914   21836419.216
        50.0004         45.0004
 -15743370.11248 -12248882.93647  21000075.1604   21000081.0364   21000075.624
        51.0004         46.0004
  -6068394.23147  -4668595.73046  23794294.4344   23794304.5664   23794293.788
        46.0004         41.0004
 -25924492.11249 -20142282.95848  20338837.8124   20338843.7144   20338837.030
        54.0004         49.0004
 14  5 11  1 47  0.0000000  0 10G26G09G07G28G02G05G10G08G17G04
    837745.54747    667333.90946  24320888.5344   24320895.4334   24320888.428
        43.0004         38.0004
  -8638597.00948  -6721883.15548  20999685.4704   20999690.7704   20999685.662
        53.0004         48.0004
  -8661897.89347  -6713501.35146  23156721.5714   23156723.5004   23156720.979
        46.0004         41.0004
 -11815243.40948  -9206796.71947  21786666.6154   21786673.2734   21786666.306
        50.0004         45.0004
 -13752625.44448 -10656457.96547  21788609.5604   21788613.2734   21788610.548
        50.0004         45.0004
   -601487.99946   -454501.58346  24999099.4674   24999103.5914   24999099.749
        41.0004         36.0004
 -20404719.36948 -15888450.02647  21823362.5124   21823367.9664   21823362.806
        50.0004         45.0004
 -15663098.49848 -12186333.62247  21015350.8064   21015356.1534   21015351.057
        51.0004         46.0004
  -6045662.53047  -4650882.75046  23798620.1094   23798629.0574   23798619.508
        46.0004         41.0004
 -25907499.98549 -20129042.39448  20342070.8114   20342077.4484   20342070.232
        54.0004         49.0004
 14  5 11  1 47 30.0000000  0 10G26G09G07G28G02G05G10G08G17G04
    854143.80447    680111.86046  24324010.0774   24324016.7604   24324010.156
        43.0004         38.0004
  -8567419.75048  -6666420.34348  21013230.3744   21013235.3194   21013230.182
        53.0004         48.0004
  -8557593.44047  -6632225.13146  23176570.1334   23176574.1224   23176569.046
        46.0004         41.0004
 -11865980.95348  -9246332.46147  21777011.6994   21777018.0694   21777011.779
        50.0004         45.0004
 -13789392.47748 -10685107.52147  21781613.6114   21781617.1744   21781613.890
        50.0004         46.0004
   -688064.63346   -521963.71746  24982625.2884   24982630.4694   24982623.500
        41.0004         37.0004
 -20473200.13548 -15941811.66047  21810331.2304   21810336.8744   21810330.923
        50.0004         45.0004
 -15582412.21348 -12123461.18947  21030704.4604   21030710.2014   21030705.006
        51.0004         46.0004
  -6023154.98647  -4633344.42846  23802902.4774   23802913.4564   23802902.050
        45.0004         41.0004
 -25889990.82148 -20115398.94648  20345402.9174   20345408.9994   20345402.539
        53.0004         49.0004
 14  5 11  1 48  0.0000000  0 10G26G09G07G28G02G05G10G08G17G04
    870523.70347    692875.58246  24327125.7904   24327133.7094   24327125.591
        43.0004         38.0004
  -8495899.39748  -6610690.19548  21026840.2124   21026845.5624   21026840.185
        53.0004         48.0004
  -8453206.22447  -6550884.42046  23196433.6004   23196437.8644   23196433.447
        45.0004         40.0004
 -11916495.31848  -9285694.28447  21767399.1074   21767405.4664   21767398.842
        50.0004         45.0004
 -13825714.43348 -10713410.04247  21774702.4654   21774705.2214   21774701.841
        51.0004         45.0004
   -774818.28647   -589563.81746  24966116.4464   24966122.8884   24966115.457
        42.0004         37.0004
 -20541548.37348 -15995070.02647  21797323.9304   21797329.2754   21797324.800
        50.0004         45.0004
 -15501315.80048 -12060269.17747  21046137.1104   21046142.6204   21046137.232
        51.0004         46.0004
  -6000873.29547  -4615982.09346  23807142.1694   23807152.8874   23807141.594
        45.0004         40.0004
 -25871967.23648 -20101354.64948  20348832.6044   20348839.0674   20348832.151
        53.0004         49.0004
 14  5 11  1 48 30.0000000  0 10G26G09G07G28G02G05G10G08G17G04
    886882.57147    705622.83746  24330240.1614   24330245.2764   24330239.167
        42.0004         37.0004
  -8424039.37448  -6554695.35948  21040514.3104   21040519.8194   21040514.430
        53.0004         48.0004
  -8348739.23347  -6469481.60347  23216313.4124   23216317.3804   23216313.044
        46.0004         42.0004
 -11966784.01648  -9324880.26547  21757829.0954   21757835.6984   21757829.208
        50.0004         45.0004
 -13861592.07648 -10741366.47847  21767874.0514   21767877.0904   21767874.477
        51.0004         44.0004
  -2437167.92447  -1884901.18446  24949575.3334   24949579.8594   24949572.800
        42.0004         38.0004
 -20609761.62348 -16048223.22047  21784343.6544   21784349.2554   21784344.405
        50.0004         45.0004
 -15419812.73448 -11996760.28247  21061646.5194   21061651.7294   21061646.702
        51.0004         46.0004
  -5978818.77247  -4598796.77646  23811339.0554   23811349.7034   23811339.459
        45.0004         41.0004
 -25853431.26748 -20086911.09448  20352359.6714   20352366.1104   20352359.530
        53.0004         49.0004
 14  5 11  1 49  0.0000000  0 10G26G09G07G28G02G05G10G08G17G04
    903217.78747    718351.67246  24333348.0234   24333354.7744   24333347.702
        42.0004         38.0004
  -8351843.46548  -6498438.81848  21054252.4774   21054258.6044   21054252.696
        53.0004         48.0004
  -8244196.02447  -6388019.37746  23236207.5774   23236211.1634   23236206.886
        46.0004         41.0004
 -12016844.55148  -9363888.44747  21748303.1544   21748309.4664   21748303.249
        50.0004         45.0004
 -13897025.65348 -10768976.94047  21761131.1944   21761134.5454   21761131.504
        51.0004         46.0004
  -2524272.32047  -1952774.53646  24932998.8544   24933003.2084   24932997.895
        42.0004         38.0004
 -20677837.61348 -16101269.45647  21771389.2584   21771394.7774   21771390.145
        50.0004         45.0004
 -15337906.94948 -11932937.59747  21077232.3774   21077238.0504   21077232.959
        51.0004         46.0004
  -5956992.42247  -4581789.26046  23815492.6824   23815503.2304   23815492.674
        46.0004         41.0004
 -25834384.90948 -20072069.83448  20355984.2364   20355990.6894   20355983.792
        53.0004         49.0004
 14  5 11  1 49 30.0000000  0 10G26G09G07G28G02G05G10G08G17G04
    919528.84047    731061.68046  24336450.8274   24336457.7274   24336450.609
        43.0004         38.0004
  -8279313.12548  -6441921.69748  21068055.1374   21068060.4194   21068054.841
        52.0004         48.0004
  -8139578.10247  -6306498.95146  23256114.7204   23256117.8604   23256115.139
        46.0004         41.0004
 -12066672.54648  -9402715.43547  21738820.6634   21738827.9914   21738820.949
        50.0004         45.0004
 -13932013.22948 -10796239.96747  21754473.8424   21754476.8224   21754473.763
        51.0004         46.0004
  -2611547.72846  -2020781.09146  24916392.7174   24916393.5064   24916389.241
        40.0004         36.0004
 -20745771.93048 -16154205.28847  21758461.9604   21758467.7764   21758462.406
        50.0004         45.0004
 -15255600.22248 -11868802.48247  21092894.9124   21092899.9644   21092894.994
        51.0004         46.0004
  -5935393.17447  -4564958.70146  23819603.3344   23819613.6334   23819603.219
        46.0004         41.0004
 -25814828.04648 -20056830.78148  20359705.6954   20359712.4004   20359705.524
        53.0004         49.0004
 14  5 11  1 50  0.0000000  0 10G26G09G07G28G02G05G10G08G17G04
    935812.51647    743750.39046  24339549.7804   24339555.3924   24339550.204
        43.0004         38.0004
  -8206452.47548  -6385147.20148  21081919.5664   21081924.8214   21081919.737
        52.0004         48.0004
  -8034889.44747  -6224923.39146  23276036.4324   23276040.9594   23276036.604
        45.0004         40.0004
 -12116266.25348  -9441359.85447  21729383.2584   21729390.2094   21729383.360
        50.0004         45.0004
 -13966555.91348 -10823156.54247  21747900.2874   21747903.4524   21747900.805
        51.0004         46.0004
  -2698994.72046  -2088921.07146  24899749.9144   24899751.8334   24899748.282
        40.0004         36.0004
 -20813562.64048 -16207029.23047  21745561.7484   21745567.5984   21745562.344
        50.0004         45.0004
 -15172896.85548 -11804358.30647  21108633.4284   21108638.9384   21108633.173
        51.0004         46.0004
  -5914022.95647  -4548306.59446  23823670.0664   23823680.2544   23823669.632
        46.0004         41.0004
 -25794763.33948 -20041196.01548  20363524.1554   20363530.5864   20363523.898
        53.0004         49.0004
 14  5 11  1 50 30.0000000  0 10G26G09G07G28G02G05G10G08G17G04
    952068.45347    756417.47746  24342643.4764   24342649.6054   24342643.660
        43.0004         39.0004
  -8133262.76748  -6328116.29348  21095847.4234   21095852.8164   21095847.442
        52.0004         48.0004
  -7930130.85747  -6143293.33146  23295972.3364   23295975.9924   23295971.384
        45.0004         41.0004
 -12165620.54648  -9479817.73347  21719991.3304   21719997.9114   21719991.813
        50.0004         45.0004
 -14000651.20848 -10849724.56747  21741412.7584   21741414.9304   21741412.820
        51.0004         45.0004
  -2786609.09047  -2157191.77146  24883076.2524   24883080.5234   24883076.378
        42.0004         37.0004
 -20881205.13748 -16259737.68747  21732689.1344   21732695.0734   21732690.427
        50.0004         45.0004
 -15089798.57548 -11739606.41147  21124446.0964   21124451.1994   21124446.448
        51.0004         46.0004
  -5892880.05847  -4531831.61946  23827693.3574   23827703.9764   23827692.765
        46.0004         41.0004
 -25774190.42948 -20025165.24948  20367438.6534   20367445.4314   20367438.743
        53.0004         49.0004
 14  5 11  1 51  0.0000000  0 10G26G09G07G28G02G05G10G08G17G04
    968292.14147    769059.42846  24345730.9864   24345737.2854   24345730.221
        43.0004         38.0004
  -8059749.44048  -6270833.21048  21109836.1744   21109842.0834   21109836.247
        52.0004         48.0004
  -7825307.86847  -6061613.13746  23315919.9364   23315923.3874   23315918.564
        44.0004         39.0004
 -12214735.08348  -9518088.76247  21710645.6384   21710652.8124   21710645.679
        50.0004         45.0004
 -14034300.67848 -10875944.99747  21735009.2764   21735012.5824   21735009.594
        51.0004         45.0004
  -2874392.66747  -2225594.43046  24866372.5494   24866376.5614   24866371.892
        42.0004         37.0004
 -20948698.81848 -16312330.20047  21719846.2324   21719852.5604   21719846.835
        50.0004         45.0004
 -15006311.17948 -11674551.31347  21140333.0224   21140338.5734   21140333.546
        51.0004         46.0004
  -5871967.56747  -4515536.16746  23831673.6814   23831682.5444   23831672.954
        45.0004         41.0004
 -25753113.38348 -20008741.64848  20371450.1254   20371456.5904   20371449.625
        53.0004         49.0004
 14  5 11  1 51 30.0000000  0 10G26G09G07G28G02G05G10G08G17G04
    984481.18747    781674.36446  24348811.5674   24348817.6394   24348810.954
        43.0004         38.0004
  -7985915.83848  -6213300.54948  21123886.4274   21123891.9724   21123886.336
        52.0004         48.0004
  -7720423.22847  -5979884.80646  23335878.3104   23335881.2624   23335877.597
        45.0004         41.0004
 -12263606.97048  -9556170.73047  21701345.0814   21701352.2844   21701345.774
        50.0004         45.0004
 -14067504.17148 -10901817.55047  21728690.2904   21728693.9294   21728690.830
        51.0004         47.0004
  -2962343.67547  -2294127.66146  24849635.1224   24849640.8654   24849635.498
        42.0004         38.0004
 -21016041.02748 -16364804.67047  21707032.1174   21707037.0814   21707032.044
        50.0004         45.0004
 -14922438.15248 -11609195.71747  21156293.8714   21156299.4964   21156293.879
        50.0004         46.0004
  -5851286.22547  -4499420.83846  23835607.8304   23835617.5654   23835608.018
        45.0004         41.0004
 -25731534.00448 -19991926.62248  20375556.3714   20375562.6574   20375556.138
        53.0004         49.0004
 14  5 11  1 52  0.0000000  0 10G26G09G07G28G02G05G10G08G17G04
   1000631.42947    794259.04146  24351883.0914   24351892.3824   24351883.569
        42.0004         38.0004
  -7911766.78348  -6155522.08348  21137996.7914   21138002.0444   21137997.048
        52.0004         48.0004
  -7615482.05447  -5898112.48746  23355848.8964   23355850.9074   23355847.615
        45.0004         40.0004
 -12312235.24448  -9594062.86047  21692092.2174   21692099.3994   21692091.770
        50.0004         45.0004
 -14100264.68948 -10927345.24647  21722456.3724   21722459.3244   21722456.398
        51.0004         47.0004
  -3050462.53046  -2362791.68545  24832867.7124   24832872.0344   24832867.432
        40.0004         35.0004
 -21083231.03748 -16417160.55947  21694244.8184   21694251.1964   21694246.008
        50.0004         45.0004
 -14838184.57848 -11543543.59547  21172326.9034   21172332.0604   21172326.936
        50.0004         46.0004
  -5830838.41547  -4483487.46546  23839499.2764   23839509.3074   23839499.141
        45.0004         41.0004
 -25709455.81948 -19974722.92048  20379757.6184   20379764.5334   20379757.519
        53.0004         49.0004
 14  5 11  1 52 30.0000000  0 10G26G09G07G28G02G05G10G08G17G04
   1016749.64047    806818.81446  24354952.4894   24354957.2284   24354950.816
        42.0004         37.0004
  -7837296.76648  -6097493.51648  21152167.8044   21152173.8354   21152168.080
        52.0004         48.0004
  -7510478.50547  -5816291.59546  23375828.2594   23375832.8904   23375828.700
        45.0004         41.0004
 -12360608.19448  -9631756.04547  21682887.0294   21682893.8804   21682887.562
        50.0004         45.0004
 -14132572.99148 -10952520.66548  21716308.4974   21716311.6774   21716309.263
        51.0004         48.0004
  -3138737.91247  -2431577.32446  24816068.1594   24816072.1704   24816068.420
        42.0004         38.0004
 -21150257.00348 -16469388.60247  21681490.6894   21681496.4274   21681491.502
        50.0004         45.0004
 -14753545.20148 -11477590.83847  21188433.3064   21188438.8074   21188433.116
        50.0004         46.0004
  -5810616.24047  -4467729.91946  23843348.1134   23843357.8614   23843347.816
        46.0004         41.0004
 -25686871.95448 -19957125.18148  20384055.6324   20384061.7644   20384055.144
        53.0004         49.0004
 14  5 11  1 53  0.0000000  0 10G26G09G07G28G02G05G10G08G17G04
   1032826.91147    819346.68446  24358010.0094   24358016.2774   24358010.558
        42.0004         38.0004
  -7762515.68348  -6039222.56048  21166398.1014   21166403.0654   21166398.378
        52.0004         48.0004
  -7405421.73547  -5734429.13346  23395820.8314   23395823.8874   23395819.976
        45.0004         41.0004
 -12408729.81648  -9669253.37847  21673729.7144   21673736.2754   21673729.376
        50.0004         45.0004
 -14164435.18648 -10977348.31547  21710245.3084   21710249.0144   21710245.044
        51.0004         45.0004
  -3227175.72946  -2500489.54446  24799237.9724   24799243.2554   24799239.333
        41.0004         37.0004
 -21217123.12048 -16521492.08047  21668766.7474   21668773.1104   21668767.602
        50.0004         45.0004
 -14668530.21248 -11411345.38547  21204610.2734   21204616.0164   21204610.965
        50.0004         46.0004
  -5790627.14147  -4452153.98346  23847151.3904   23847161.1924   23847150.932
        46.0004         41.0004
 -25663790.58348 -19939139.77748  20388447.8044   20388454.2934   20388447.290
        53.0004         49.0004
 14  5 11  1 53 30.0000000  0 10G26G09G07G28G02G05G10G08G17G04
   1048862.28647    831841.91646  24361062.2084   24361069.6434   24361061.650
        43.0004         38.0004
  -7687425.44448  -5980710.71548  21180687.3884   21180693.1594   21180687.431
        52.0004         48.0004
  -7300313.63747  -5652526.71646  23415823.4324   23415826.9884   23415821.426
        45.0004         40.0004
 -12456595.98548  -9706551.67147  21664621.3844   21664627.6024   21664621.158
        50.0004         46.0004
 -14195850.15248 -11001827.44147  21704267.0594   21704270.5204   21704267.551
        51.0004         46.0004
  -3315773.65947  -2569526.63346  24782379.5014   24782383.3464   24782379.361
        42.0004         38.0004
 -21283825.04148 -16573467.60947  21656074.4004   21656079.6044   21656074.527
        50.0004         45.0004
 -14583141.62548 -11344808.81447  21220858.9854   21220865.4914   21220859.661
        50.0004         46.0004
  -5770870.12347  -4436758.89046  23850911.7354   23850920.2994   23850911.165
        46.0004         41.0004
 -25640212.46348 -19920767.29048  20392934.6154   20392941.5394   20392934.278
        53.0004         49.0004
 14  5 11  1 54  0.0000000  0 10G26G09G07G28G02G05G10G08G17G04
   1064855.94847    844304.60846  24364104.8364   24364111.3924   24364105.135
        43.0004         38.0004
  -7612026.99848  -5921958.70648  21195036.1914   21195040.8904   21195035.396
        52.0004         48.0004
  -7195154.72147  -5570584.70346  23435832.8534   23435837.4284   23435832.609
        44.0004         40.0004
 -12504201.27448  -9743646.66847  21655561.4044   21655568.1164   21655562.128
        50.0004         45.0004
 -14226815.04248 -11025955.58447  21698374.7574   21698377.9474   21698374.975
        51.0004         46.0004
  -3404527.54047  -2638685.64546  24765489.7484   24765493.5274   24765489.481
        42.0004         38.0004
 -21350357.54848 -16625311.11847  21643413.2014   21643419.7304   21643414.001
        50.0004         45.0004
 -14497380.56448 -11277982.01247  21237178.9514   21237184.8994   21237179.360
        50.0004         46.0004
  -5751343.29747  -4421543.17346  23854627.2164   23854636.0204   23854626.631
        46.0004         41.0004
 -25616136.67948 -19902007.01848  20397516.1164   20397522.9084   20397515.777
        53.0004         49.0004
 14  5 11  1 54 30.0000000  0 10G26G09G07G28G02G05G10G08G17G04
   1080800.86647    856729.29846  24367138.9084   24367147.4994   24367139.923
        43.0004         38.0004
  -7536328.26748  -5862972.70848  21209440.4394   21209446.0324   21209440.590
        52.0004         48.0004
  -7089952.82147  -5488609.20246  23455852.0234   23455856.6204   23455851.894
        45.0004         40.0004
 -12551547.97148  -9780540.17547  21646552.2214   21646559.2984   21646552.448
        50.0004         46.0004
 -14257335.34148 -11049737.41048  21692566.1994   21692569.5854   21692566.251
        51.0004         48.0004
  -3493440.86346  -2707968.78646  24748573.4844   24748573.2524   24748570.003
        41.0004         36.0004
 -21416722.85148 -16677024.33547  21630784.3044   21630790.2184   21630784.732
        50.0004         46.0004
 -14411255.43248 -11210871.50447  21253568.0874   21253573.9904   21253568.840
        50.0004         46.0004
  -5732051.83047  -4406510.84546  23858297.6684   23858306.8824   23858297.590
        46.0004         41.0004
 -25591570.15648 -19882864.35748  20402190.8334   20402197.3844   20402190.619
        53.0004         49.0004
 14  5 11  1 55  0.0000000  0 10G26G09G07G28G02G05G10G08G17G04
   1096699.70847    869118.10946  24370165.1624   24370172.1744   24370164.908
        43.0004         39.0004
  -7460327.64048  -5803751.46048  21223902.5224   21223908.1094   21223902.800
        52.0004         48.0004
  -6984705.91147  -5406598.63846  23475879.8514   23475883.8994   23475879.899
        45.0004         40.0004
 -12598627.94248  -9817225.83847  21637593.2574   21637600.3364   21637592.940
        50.0004         45.0004
 -14287405.93848 -11073168.90347  21686844.5284   21686846.7904   21686844.476
        51.0004         46.0004
  -3582506.11446  -2777370.14446  24731620.7524   24731626.1744   24731621.422
        41.0004         36.0004
 -21482913.41048 -16728601.38747  21618188.5104   21618194.6184   21618188.921
        50.0004         46.0004
 -14324764.89848 -11143476.27147  21270026.3714   21270032.6314   21270027.248
        50.0004         45.0004
  -5712992.12547  -4391659.10546  23861924.5624   23861934.7524   23861924.064
        46.0004         41.0004
 -25566509.79148 -19863336.88748  20406960.1074   20406966.7254   20406959.673
        53.0004         49.0004
 14  5 11  1 55 30.0000000  0 10G26G09G07G28G02G05G10G08G17G04
   1112548.29847    881467.76146  24373180.7244   24373187.4274   24373180.906
        43.0004         38.0004
  -7384030.27848  -5744298.99748  21238421.8314   21238427.4284   21238421.942
        52.0004         48.0004
  -6879419.06947  -5324556.95446  23495915.1194   23495919.3144   23495915.026
        44.0004         39.0004
 -12645440.76248  -9853703.32847  21628685.0994   21628691.1614   21628685.192
        50.0004         46.0004
 -14317029.22748 -11096251.84747  21681206.7884   21681209.9194   21681207.390
        51.0004         47.0004
  -3671724.07647  -2846890.18246  24714643.6154   24714646.6944   24714643.396
        42.0004         37.0004
 -21548928.11948 -16780041.41347  21605626.0054   21605632.4624   21605627.021
        50.0004         46.0004
 -14237914.38048 -11075800.52547  21286554.0374   21286560.0904   21286554.022
        50.0004         45.0004
  -5694166.32547  -4376989.63446  23865507.6694   23865516.6514   23865506.856
        45.0004         41.0004
 -25540959.46148 -19843427.62148  20411822.2524   20411828.8964   20411821.628
        53.0004         49.0004
 14  5 11  1 56  0.0000000  0 10G26G09G07G28G02G05G10G08G17G04
   1128343.62047    893775.97246  24376186.3464   24376193.0064   24376185.884
        43.0004         38.0004
  -7307440.58748  -5684618.74147  21252996.4864   21253002.0684   21252996.347
        52.0004         47.0004
  -6774096.01147  -5242487.03446  23515958.7424   23515963.3084   23515957.233
        44.0004         39.0004
 -12691984.19648  -9889970.90947  21619828.3314   21619834.7444   21619828.269
        50.0004         46.0004
 -14346205.81548 -11118986.64847  21675654.0124   21675657.7624   21675654.589
        51.0004         47.0004
  -3761094.99847  -2916529.89046  24697637.0204   24697641.4404   24697635.616
        42.0004         37.0004
 -21614765.27448 -16831343.09147  21593098.1024   21593103.9344   21593098.953
        50.0004         46.0004
 -14150708.12348 -11007847.57247  21303148.9744   21303154.7494   21303149.482
        50.0004         45.0004
  -5675575.92247  -4362503.58146  23869045.3374   23869054.8384   23869044.503
        45.0004         41.0004
 -25514922.06048 -19823138.81648  20416776.8814   20416783.6624   20416776.555
        53.0004         49.0004
 14  5 11  1 56 30.0000000  0 10G26G09G07G28G02G05G10G08G17G04
   1144086.06147    906042.95146  24379181.9624   24379188.6444   24379182.750
        43.0004         39.0004
  -7230559.07948  -5624711.09247  21267626.0164   21267631.8754   21267626.281
        52.0004         47.0004
  -6668736.71547  -5160388.86546  23536006.6744   23536010.6544   23536006.320
        45.0004         41.0004
 -12738253.11748  -9926024.58047  21611023.2824   21611030.3954   21611023.377
        50.0004         46.0004
 -14374933.04548 -11141371.19648  21670187.3994   21670190.3944   21670188.060
        51.0004         48.0004
  -3850614.43146  -2986285.36446  24680602.1134   24680607.0224   24680601.149
        41.0004         37.0004
 -21680419.40748 -16882502.17347  21580605.1924   21580610.5184   21580605.170
        50.0004         46.0004
 -14063147.11348 -10939618.20047  21319811.5994   21319816.8274   21319811.654
        50.0004         45.0004
  -5657218.53247  -4348199.09746  23872538.2774   23872547.4884   23872538.093
        45.0004         41.0004
 -25488396.87648 -19802469.88348  20421824.5004   20421831.1794   20421823.963
        53.0004         49.0004
 14  5 11  1 57  0.0000000  0 10G26G09G07G28G02G05G10G08G17G04
   1159770.69947    918264.90546  24382166.2814   24382173.3304   24382165.717
        43.0004         38.0004
  -7153391.55548  -5564580.57747  21282310.8624   21282316.2454   21282310.897
        52.0004         47.0004
  -6563347.13547  -5078267.11446  23556061.8964   23556066.1694   23556061.708
        45.0004         41.0004
 -12784247.23548  -9961864.11547  21602270.9444   21602277.0964   21602270.772
        50.0004         46.0004
 -14403213.88748 -11163407.80947  21664805.5744   21664808.5114   21664805.694
        51.0004         47.0004
  -3940282.83347  -3056156.88246  24663538.3624   24663543.0534   24663538.373
        42.0004         38.0004
 -21745890.44148 -16933518.57547  21568146.3504   21568151.3004   21568146.674
        50.0004         46.0004
 -13975237.65248 -10871117.30447  21336540.2494   21336545.0544   21336539.785
        50.0004         45.0004
  -5639097.66847  -4334078.93446  23875985.7274   23875996.3704   23875985.255
        45.0004         40.0004
 -25461388.11248 -19781424.02148  20426964.2264   20426970.6034   20426963.704
        53.0004         49.0004
 14  5 11  1 57 30.0000000  0 10G26G09G07G28G02G05G10G08G17G04
   1175397.67447    930441.87246  24385139.6954   24385146.7734   24385140.259
        43.0004         38.0004
  -7075939.14048  -5504228.06947  21297049.3574   21297055.2644   21297049.311
        52.0004         47.0004
  -6457927.73147  -4996122.15346  23576122.6524   23576126.5234   23576122.016
        44.0004         39.0004
 -12829961.50948  -9997485.59147  21593571.1054   21593578.9914   21593571.389
        50.0004         46.0004
 -14431046.94948 -11185095.94847  21659509.5224   21659511.8004   21659510.102
        51.0004         47.0004
  -4030096.05246  -3126141.16846  24646446.2594   24646450.1714   24646446.897
        41.0004         36.0004
 -21811173.18448 -16984388.25647  21555722.9114   21555728.9824   21555723.389
        50.0004         46.0004
 -13886980.94748 -10802345.84447  21353334.3194   21353340.2674   21353334.833
        50.0004         45.0004
  -5621211.70947  -4320141.80146  23879389.8684   23879399.7874   23879389.670
        45.0004         40.0004
 -25433895.76348 -19760001.33248  20432195.8304   20432202.3024   20432195.167
        53.0004         49.0004
 14  5 11  1 58  0.0000000  0 10G26G09G07G28G02G05G10G08G17G04
   1190964.88247    942572.22446  24388101.9324   24388110.5144   24388102.581
        43.0004         39.0004
  -6998204.82248  -5443655.89447  21311842.3324   21311847.8504   21311842.279
        52.0004         47.0004
  -6352481.22747  -4913956.08546  23596188.5284   23596193.2664   23596188.016
        44.0004         39.0004
 -12875392.90848 -10032886.64747  21584926.7304   21584933.0824   21584926.595
        50.0004         46.0004
 -14458431.06248 -11206434.05647  21654298.0384   21654301.1034   21654298.383
        51.0004         47.0004
  -4120051.61046  -3196235.39546  24629329.4604   24629333.4914   24629328.430
        41.0004         37.0004
 -21876264.68848 -17035108.93447  21543336.7004   21543342.7594   21543337.107
        50.0004         46.0004
 -13798380.42248 -10733306.46747  21370193.8794   21370200.1314   21370195.064
        50.0004         45.0004
  -5603560.79547  -4306387.84446  23882748.5674   23882759.0004   23882749.140
        45.0004         40.0004
 -25405921.11948 -19738202.59748  20437518.8684   20437525.5244   20437518.372
        53.0004         49.0004
 14  5 11  1 58 30.0000000  0 10G26G09G07G28G02G05G10G08G17G04
   1206468.51147    954652.99446  24391052.8054   24391059.8874   24391053.192
        43.0004         38.0004
  -6920193.36748  -5382867.77447  21326686.6594   21326692.8494   21326687.221
        52.0004         47.0004
  -6247012.12747  -4831772.37246  23616258.4964   23616262.7684   23616258.366
        43.0004         39.0004
 -12920540.56448 -10068066.60647  21576334.7964   21576341.1174   21576334.960
        50.0004         46.0004
 -14485368.93348 -11227424.49647  21649172.0224   21649174.7104   21649172.522
        51.0004         46.0004
  -4210152.07746  -3266443.07446  24612182.6654   24612186.5354   24612182.809
        41.0004         37.0004
 -21941163.98448 -17085679.86147  21530986.8574   21530992.4774   21530987.125
        50.0004         46.0004
 -13709441.24348 -10664003.20947  21387119.3804   21387125.1134   21387119.319
        50.0004         45.0004
  -5586147.00747  -4292818.66346  23886061.9964   23886070.7954   23886062.060
        45.0004         40.0004
 -25377469.32448 -19716032.40048  20442932.8184   20442939.9564   20442932.373
        53.0004         48.0004
 14  5 11  1 59  0.0000000  0 11G26G09G07G28G02G05G10G08G30G17G04
   1221909.45047    966684.96546  24393991.4724   24393996.9474   24393991.409
        43.0004         39.0004
  -6841905.29148  -5321864.09947  21341584.9014   21341590.5834   21341584.802
        52.0004         47.0004
  -6141520.38047  -4749571.03746  23636334.1304   23636337.1314   23636332.836
        44.0004         40.0004
 -12965398.38548 -10103020.72947  21567799.1234   21567805.5944   21567799.252
        50.0004         46.0004
 -14511857.45548 -11248064.85947  21644131.3134   21644134.2524   21644131.458
        51.0004         46.0004
  -4300391.84047  -3336759.60946  24595011.0684   24595016.1284   24595010.609
        42.0004         38.0004
 -22005865.12048 -17136096.38847  21518674.4424   21518680.3144   21518674.659
        50.0004         46.0004
 -13620163.92848 -10594436.48047  21404108.8634   21404113.9714   21404108.084
        50.0004         45.0004
   -992196.05448   -784429.08447  21602994.7434   21603001.7034   21602994.511
        52.0004         47.0004
  -5568967.89647  -4279432.33246  23889332.0904   23889341.0494   23889331.839
        45.0004         40.0004
 -25348538.20448 -19693488.62748  20448438.4794   20448445.1394   20448437.869
        53.0004         49.0004
 14  5 11  1 59 30.0000000  0 11G26G09G07G28G02G05G10G08G30G17G04
   1237282.97247    978664.41346  24396917.2104   24396922.6264   24396916.645
        43.0004         38.0004
  -6763346.34348  -5260649.35147  21356534.3584   21356539.6734   21356534.375
        52.0004         47.0004
  -6036011.27347  -4667356.14846  23656411.9794   23656414.7334   23656410.482
        45.0004         41.0004
 -13009966.43348 -10137749.04547  21559317.9794   21559324.5234   21559317.728
        50.0004         46.0004
 -14537900.19748 -11268358.16947  21639176.1284   21639178.3724   21639176.179
        51.0004         47.0004
  -4390771.47347  -3407185.26346  24577812.3534   24577816.0674   24577811.429
        42.0004         38.0004
 -22070368.06648 -17186358.46547  21506400.2354   21506406.7694   21506400.339
        50.0004         46.0004
 -13530554.91148 -10524611.27347  21421159.7934   21421165.0304   21421160.289
        49.0004         45.0004
   -912862.86848   -722611.02247  21618091.3084   21618097.7454   21618091.173
        51.0004         47.0004
  -5552026.35747  -4266231.12846  23892555.9024   23892564.8224   23892555.706
        45.0004         40.0004
 -25319131.93848 -19670574.06548  20454033.4514   20454040.1324   20454033.110
        53.0004         49.0004
 14  5 11  2  0  0.0000000  0 11G26G09G07G28G02G05G10G08G30G17G04
   1252586.34847    990589.27246  24399828.9894   24399834.9334   24399828.300
        43.0004         39.0004
  -6684520.43448  -5199226.58247  21371534.6904   21371539.6704   21371534.321
        52.0004         47.0004
  -5930488.40947  -4585130.53446  23676491.7244   23676494.8374   23676491.079
        44.0004         40.0004
 -13054242.55248 -10172249.88947  21550891.8934   21550898.3814   21550892.217
        50.0004         46.0004
 -14563497.46548 -11288304.36547  21634305.0134   21634307.5914   21634305.425
        51.0004         45.0004
  -4481290.49647  -3477719.62446  24560585.6024   24560590.7114   24560586.459
        42.0004         37.0004
 -22134670.52348 -17236464.28547  21494163.0334   21494169.7024   21494163.848
        50.0004         46.0004
 -13440618.40748 -10454530.89247  21438274.6464   21438279.4054   21438274.423
        49.0004         45.0004
   -833258.58448   -660581.71547  21633240.0934   21633246.9414   21633239.476
        51.0004         46.0004
  -5535323.61447  -4253216.00146  23895733.7334   23895743.5364   23895733.759
        44.0004         40.0004
 -25289255.05148 -19647293.30448  20459719.3314   20459726.1244   20459718.849
        53.0004         49.0004
 14  5 11  2  0 30.0000000  0 11G26G09G07G28G02G05G10G08G30G17G04
   1267821.94547   1002461.33046  24402727.8884   24402734.4014   24402727.088
        43.0004         38.0004
  -6605426.41848  -5137594.88847  21386585.6034   21386590.1164   21386585.537
        52.0004         47.0004
  -5824950.18547  -4502892.99146  23696574.4924   23696577.6994   23696574.705
        44.0004         40.0004
 -13098219.34448 -10206517.49147  21542523.3354   21542530.3224   21542523.846
        50.0004         46.0004
 -14588644.21548 -11307899.27648  21629519.7774   21629522.3284   21629519.852
        51.0004         48.0004
  -4571942.80147  -3548357.83446  24543336.0644   24543340.5354   24543335.398
        42.0004         36.0004
 -22198765.28448 -17286408.26947  21481965.9264   21481972.4204   21481967.277
        51.0004         46.0004
 -13350353.22648 -10384194.43347  21455451.8974   21455456.8684   21455452.035
        49.0004         45.0004
   -753381.74748   -598340.03547  21648439.4114   21648446.4904   21648439.171
        51.0004         46.0004
  -5518855.96847  -4240384.04646  23898868.6154   23898877.2554   23898867.388
        44.0004         40.0004
 -25258903.68048 -19623642.58247  20465494.4814   20465501.3914   20465494.029
        53.0004         47.0004
 14  5 11  2  1  0.0000000  0 11G26G09G07G28G02G05G10G08G30G17G04
   1282982.55447   1014275.02046  24405611.9024   24405619.4214   24405611.687
        43.0004         38.0004
  -6526072.36348  -5075760.57247  21401686.4034   21401691.7214   21401686.251
        52.0004         47.0004
  -5719404.34947  -4420649.49046  23716658.7284   23716663.3724   23716658.363
        44.0004         39.0004
 -13141899.05948 -10240553.59947  21534211.9394   21534218.2824   21534211.844
        50.0004         46.0004
 -14613346.28148 -11327147.76047  21624819.3084   21624821.8774   21624819.496
        51.0004         47.0004
  -4662730.78047  -3619101.60146  24526059.8294   24526064.5744   24526058.772
        42.0004         38.0004
 -22262654.45148 -17336192.06647  21469808.7084   21469815.3464   21469809.409
        51.0004         46.0004
 -13259767.76048 -10313608.37947  21472689.0314   21472695.0984   21472689.127
        49.0004         45.0004
   -673240.39348   -535892.22547  21663689.8854   21663696.9914   21663689.840
        51.0004         46.0004
  -5502628.25047  -4227739.06246  23901956.6604   23901964.7114   23901955.780
        44.0004         39.0004
 -25228083.52548 -19599625.63448  20471358.4824   20471364.5934   20471358.087
        53.0004         49.0004
 14  5 11  2  1 30.0000000  0 11G26G09G07G28G02G05G10G08G30G17G04
   1298069.58347   1026031.33746  24408483.0394   24408488.9864   24408482.736
        42.0004         38.0004
  -6446457.92148  -5013723.34847  21416835.9154   21416841.7404   21416836.201
        52.0004         47.0004
  -5613849.96447  -4338399.37046  23736745.1114   23736749.3404   23736745.028
        44.0004         39.0004
 -13185275.11048 -10274353.09047  21525957.4664   21525964.2244   21525957.492
        50.0004         46.0004
 -14637600.60548 -11346047.57447  21620204.1924   21620206.4324   21620204.498
        51.0004         46.0004
  -4753649.65447  -3689947.44846  24508757.8834   24508763.0134   24508757.081
        42.0004         38.0004
 -22326331.50748 -17385810.58347  21457691.6654   21457696.8304   21457692.217
        51.0004         46.0004
 -13168862.16748 -10242772.87247  21489987.9814   21489993.1634   21489988.299
        49.0004         45.0004
   -592833.84348   -473237.77747  21678991.0564   21678998.1234   21678990.432
        51.0004         46.0004
  -5486637.06847  -4215278.38746  23904997.8114   23905006.9544   23904998.039
        44.0004         39.0004
 -25196794.50948 -19575243.20648  20477311.3934   20477317.2164   20477310.996
        53.0004         48.0004
 14  5 11  2  2  0.0000000  0 11G26G09G07G28G02G05G10G08G30G17G04
   1313081.61447   1037729.05546  24411339.6854   24411345.6394   24411339.708
        42.0004         37.0004
  -6366585.75148  -4951485.29747  21432035.2094   21432040.8484   21432035.302
        52.0004         47.0004
  -5508289.11547  -4256144.17446  23756832.1304   23756837.8494   23756833.132
        43.0004         38.0004
 -13228344.24348 -10307913.42447  21517761.0234   21517768.8334   21517761.423
        50.0004         46.0004
 -14661406.39948 -11364597.66647  21615674.2244   21615677.3134   21615673.820
        51.0004         47.0004
  -4844697.19347  -3760893.81446  24491432.3994   24491436.2514   24491432.130
        43.0004         38.0004
 -22389792.74948 -17435260.92447  21445615.4974   21445621.0514   21445616.062
        51.0004         46.0004
 -13077639.19648 -10171690.04247  21507346.8144   21507352.8644   21507348.018
        49.0004         45.0004
   -512164.25148   -410378.37247  21694341.6944   21694349.0514   21694341.454
        51.0004         46.0004
  -5470882.39347  -4203002.01246  23907997.1454   23908006.8484   23907996.809
        44.0004         39.0004
 -25165040.31048 -19550499.19448  20483353.9554   20483359.6334   20483353.472
        53.0004         48.0004
 14  5 11  2  2 30.0000000  0 11G26G09G07G28G02G05G10G08G30G17G04
   1328012.15346   1049363.33746  24414180.7734   24414187.1424   24414180.457
        41.0004         37.0004
  -6286463.88548  -4889052.67347  21447282.0154   21447287.2064   21447282.172
        52.0004         47.0004
  -5402729.77147  -4173890.16046  23776920.8804   23776923.9444   23776920.366
        43.0004         39.0004
 -13271108.94448 -10341236.53747  21509623.7754   21509630.2704   21509623.860
        50.0004         46.0004
 -14684768.54848 -11382801.86947  21611228.3044   21611231.1214   21611228.482
        51.0004         47.0004
  -4935876.34547  -3831942.77546  24474083.0284   24474086.0054   24474081.694
        42.0004         38.0004
 -22453040.46648 -17484544.90447  21433580.0834   21433586.1844   21433580.794
        51.0004         46.0004
 -12986107.33948 -10100366.50547  21524765.3414   21524770.7024   21524765.605
        49.0004         45.0004
   -431239.60048   -347320.22147  21709741.3834   21709748.2594   21709741.284
        51.0004         46.0004
  -5455369.65947  -4190914.18146  23910949.2054   23910958.6424   23910948.304
        44.0004         40.0004
 -25132825.77348 -19525396.34148  20489483.7544   20489488.8514   20489483.223
        53.0004         48.0004
 14  5 11  2  3  0.0000000  0 11G26G09G07G28G02G05G10G08G30G17G04
   1342865.55546   1060937.65046  24417007.7954   24417012.8224   24417006.851
        41.0004         37.0004
  -6206088.86748  -4826422.78747  21462576.9724   21462582.2984   21462577.210
        52.0004         47.0004
  -5297167.73647  -4091634.05346  23797008.6794   23797011.5994   23797008.188
        44.0004         40.0004
 -13313559.12748 -10374314.56947  21501545.9164   21501551.9334   21501545.926
        50.0004         46.0004
 -14707681.73448 -11400656.52148  21606867.8974   21606871.3044   21606868.449
        51.0004         48.0004
  -5027177.98147  -3903086.65646  24456706.6714   24456712.5574   24456707.327
        42.0004         38.0004
 -22516065.14848 -17533655.08647  21421586.2454   21421592.6304   21421587.417
        51.0004         46.0004
 -12894263.47848 -10028799.86447  21542242.4614   21542247.8724   21542242.841
        49.0004         45.0004
   -350056.29748   -284060.53847  21725189.8914   21725196.8864   21725189.785
        51.0004         46.0004
  -5440092.10747  -4179009.59346  23913855.6274   23913865.1724   23913855.257
        44.0004         40.0004
 -25100147.97148 -19499933.23848  20495702.0994   20495707.2624   20495701.715
        53.0004         49.0004
 14  5 11  2  3 30.0000000  0 11G26G09G07G28G02G05G10G08G30G17G04
   1357636.46047   1072447.58846  24419818.3334   24419824.5884   24419818.813
        42.0004         38.0004
  -6125466.91648  -4763600.48947  21477918.7884   21477924.0774   21477918.809
        52.0004         47.0004
  -5191608.94247  -4009380.48146  23817095.7104   23817098.4384   23817095.165
        43.0004         38.0004
 -13355695.25648 -10407147.89547  21493527.0544   21493534.1174   21493527.755
        51.0004         46.0004
 -14730149.18348 -11418164.03247  21602593.5574   21602595.5414   21602592.830
        51.0004         46.0004
  -5118603.35347  -3974326.99946  24439311.3114   24439314.1084   24439310.416
        43.0004         38.0004
 -22578866.75848 -17582591.46447  21409635.8934   21409641.4614   21409637.007
        51.0004         46.0004
 -12802114.00148  -9956995.09347  21559778.0624   21559783.5764   21559778.284
        49.0004         45.0004
   -268620.26648   -220603.92847  21740686.6644   21740693.9104   21740686.726
        51.0004         46.0004
  -5425053.58047  -4167291.26946  23916717.7084   23916727.5044   23916717.760
        44.0004         40.0004
 -25067010.46948 -19474111.69347  20502007.7614   20502013.5414   20502007.114
        53.0004         47.0004
 14  5 11  2  4  0.0000000  0 11G26G09G07G28G02G05G10G08G30G17G04
   1372322.77046   1083891.52146  24422613.3194   24422616.8674   24422612.053
        41.0004         37.0004
  -6044601.58048  -4700588.53947  21493307.2164   21493311.6404   21493307.177
        52.0004         47.0004
  -5086056.12547  -3927131.57046  23837181.1064   23837185.4754   23837181.209
        43.0004         38.0004
 -13397514.77248 -10439734.49847  21485569.7864   21485576.1624   21485569.501
        51.0004         46.0004
 -14752170.60648 -11435323.66147  21598402.1824   21598405.1284   21598402.934
        51.0004         45.0004
  -5210151.34547  -4045662.68446  24421889.4504   24421893.9844   24421888.990
        43.0004         40.0004
 -22641442.78748 -17631352.05547  21397728.3884   21397733.7404   21397728.818
        51.0004         46.0004
 -12709662.81948  -9884955.22247  21577370.6944   21577376.6234   21577370.916
        49.0004         44.0004
   -186934.76848   -156952.92447  21756230.7144   21756238.0704   21756231.174
        51.0004         46.0004
  -5410254.46947  -4155759.48846  23919534.7724   23919544.0924   23919533.615
        44.0004         40.0004
 -25033416.76648 -19447935.10348  20508400.2714   20508406.3374   20508400.188
        53.0004         48.0004
 14  5 11  2  4 30.0000000  0 11G26G09G07G28G02G05G10G08G30G17G04
   1386923.97846   1095269.29546  24425390.6284   24425397.0354   24425390.328
        41.0004         37.0004
  -5963494.68248  -4637388.34947  21508741.2804   21508746.1814   21508741.195
        52.0004         47.0004
  -4980510.59347  -3844888.34846  23857266.3194   23857269.8774   23857265.972
        43.0004         39.0004
 -13439013.56948 -10472071.19447  21477672.3664   21477678.6284   21477672.780
        51.0004         46.0004
 -14773745.75948 -11452135.70648  21594297.4164   21594300.2384   21594297.725
        51.0004         48.0004
  -5301819.14447  -4117091.81446  24404444.5814   24404449.6414   24404444.654
        43.0004         39.0004
 -22703789.03448 -17679933.60147  21385863.8514   21385870.1394   21385864.701
        51.0004         46.0004
 -12616912.11548  -9812681.95347  21595020.5084   21595026.9024   21595021.093
        49.0004         45.0004
   -105001.41148    -93108.77247  21771822.2174   21771829.1014   21771822.257
        51.0004         46.0004
  -5395693.45947  -4144413.24446  23922305.3654   23922314.7224   23922304.695
        44.0004         40.0004
 -24999366.38148 -19421402.36548  20514880.3404   20514886.2184   20514880.169
        53.0004         49.0004
 14  5 11  2  5  0.0000000  0 11G26G09G07G28G02G05G10G08G30G17G04
   1401435.54847   1106577.15846  24428152.2554   24428158.2194   24428151.669
        42.0004         38.0004
  -5882151.65648  -4574004.16447  21524219.9094   21524225.2044   21524220.171
        51.0004         47.0004
  -4874977.48247  -3762654.79046  23877348.5934   23877353.8254   23877347.829
        43.0004         38.0004
 -13480191.18948 -10504157.62447  21469836.4214   21469843.4004   21469836.545
        51.0004         46.0004
 -14794876.56448 -11468601.31947  21590275.9754   21590279.6354   21590275.867
        51.0004         47.0004
  -5393606.94047  -4188614.51646  24386978.2814   24386982.5334   24386977.375
        44.0004         40.0004
 -22765904.83148 -17728335.57347  21374044.0694   21374049.5844   21374044.723
        51.0004         46.0004
 -12523867.74648  -9740179.86247  21612726.2564   21612732.3894   21612726.898
        49.0004         44.0004
    -22825.42948    -29075.56747  21787460.2784   21787467.4074   21787459.759
        51.0004         46.0004
  -5381373.10147  -4133254.51546  23925030.8124   23925039.9084   23925029.380
        44.0004         40.0004
 -24964864.19548 -19394517.56248  20521445.8304   20521451.2894   20521445.205
        53.0004         49.0004
 14  5 11  2  5 30.0000000  0 11G26G09G07G28G02G05G10G08G30G17G04
   1415856.26347   1117814.08046  24430896.0994   24430902.8524   24430897.053
        42.0004         38.0004
  -5800574.63548  -4510437.64347  21539743.9404   21539748.9864   21539743.628
        51.0004         47.0004
  -4769458.39747  -3680432.15446  23897429.2834   23897432.0564   23897427.177
        43.0004         38.0004
 -13521043.83748 -10535990.83347  21462062.2354   21462069.6494   21462062.691
        51.0004         46.0004
 -14815563.01048 -11484720.74447  21586340.0184   21586343.0724   21586340.027
        51.0004         46.0004
  -5485512.08747  -4260228.74146  24369489.2864   24369492.1804   24369488.332
        43.0004         38.0004
 -22827786.37848 -17776555.02247  21362268.0704   21362274.1114   21362268.622
        51.0004         46.0004
 -12430531.96648  -9667450.69747  21630488.1744   21630492.7434   21630487.947
        49.0004         45.0004
     59591.25848     35145.19047  21803143.9274   21803150.2304   21803143.453
        51.0004         46.0004
  -5367292.52347  -4122282.63346  23927709.9634   23927718.6164   23927708.873
        44.0004         40.0004
 -24929911.48748 -19367281.74848  20528097.0034   20528103.2114   20528096.862
        53.0004         48.0004
 14  5 11  2  6  0.0000000  0 11G26G09G07G28G02G05G10G08G30G17G04
   1430187.00247   1128980.93646  24433623.0554   24433630.0344   24433623.006
        42.0004         38.0004
  -5718764.52948  -4446689.49647  21555311.7404   21555317.6224   21555311.616
        51.0004         47.0004
  -4663953.67247  -3598220.72546  23917506.1424   23917508.4904   23917504.743
        43.0004         39.0004
 -13561566.49348 -10567566.90347  21454351.7374   21454357.8184   21454351.319
        51.0004         46.0004
 -14835803.06048 -11500492.28547  21582488.2234   21582491.4314   21582488.237
        51.0004         46.0004
  -5577530.25347  -4331930.85846  24351979.0664   24351982.1714   24351977.931
        43.0004         39.0004
 -22889428.39548 -17824587.81847  21350538.0684   21350544.8394   21350538.664
        51.0004         46.0004
 -12336905.94148  -9594495.38047  21648304.5394   21648309.2284   21648304.301
        49.0004         45.0004
    142248.00148     99553.00247  21818872.0484   21818879.7774   21818872.087
        51.0004         46.0004
  -5353449.77647  -4111496.08246  23930343.5284   23930352.7014   23930343.760
        44.0004         40.0004
 -24894507.20248 -19339693.59447  20534833.7254   20534839.4804   20534833.314
        53.0004         47.0004
 14  5 11  2  6 30.0000000  0 11G26G09G07G28G02G05G10G08G30G17G04
   1444422.74947   1140074.04146  24436331.7804   24436338.2954   24436331.839
        42.0004         38.0004
  -5636727.58548  -4382764.59147  21570922.7684   21570927.9364   21570922.809
        51.0004         47.0004
  -4558469.05947  -3516024.96346  23937578.0694   23937581.5074   23937577.563
        43.0004         38.0004
 -13601759.33548 -10598885.97347  21446702.8944   21446709.2604   21446703.134
        51.0004         46.0004
 -14855599.84948 -11515918.35747  21578721.1764   21578724.6604   21578721.344
        51.0004         47.0004
  -5669662.48547  -4403721.89446  24334445.7324   24334450.8934   24334444.955
        44.0004         39.0004
 -22950831.10448 -17872434.14947  21338853.6354   21338859.7474   21338854.346
        51.0004         46.0004
 -12242996.47748  -9521319.20847  21666174.5934   21666179.7244   21666174.783
        49.0004         44.0004
    225138.81848    164143.21947  21834646.0094   21834653.7494   21834646.126
        51.0004         46.0004
  -5339848.22047  -4100897.47646  23932932.1614   23932941.2454   23932931.694
        44.0004         40.0004
 -24858656.82548 -19311757.48347  20541655.4994   20541661.2814   20541655.297
        53.0004         47.0004
 14  5 11  2  7  0.0000000  0 11G26G09G07G28G02G05G10G08G30G17G04
   1458561.23247   1151090.97046  24439023.4094   24439027.5914   24439023.477
        42.0004         37.0004
  -5554466.42348  -4318664.97047  21586576.5554   21586581.6554   21586576.314
        51.0004         47.0004
  -4453006.71147  -3433846.55246  23957647.2754   23957651.9024   23957646.759
        43.0004         38.0004
 -13641619.22648 -10629945.60447  21439117.9134   21439124.4244   21439118.095
        51.0004         46.0004
 -14874954.05548 -11530999.60547  21575038.3434   21575041.0094   21575038.283
        51.0004         46.0004
  -5761906.70947  -4475600.27246  24316891.5754   24316896.0434   24316891.505
        44.0004         40.0004
 -23011990.96648 -17920091.24647  21327215.1694   21327220.8824   21327215.937
        51.0004         46.0004
 -12148806.54348  -9447924.48247  21684098.4204   21684104.6234   21684098.334
        49.0004         44.0004
    308261.14348    228913.82447  21850463.6574   21850471.3484   21850463.542
        50.0004         46.0004
  -5326487.48147  -4090486.50446  23935474.5684   23935483.4034   23935473.732
        44.0004         39.0004
 -24822364.18548 -19283477.44048  20548561.7304   20548567.0324   20548561.289
        53.0004         49.0004
 14  5 11  2  7 30.0000000  0 11G26G09G07G28G02G05G10G08G30G17G04
   1472603.23347   1162032.87246  24441693.8134   24441699.5784   24441694.146
        42.0004         37.0004
  -5471982.50348  -4254391.77647  21602272.8614   21602277.7664   21602272.789
        51.0004         46.0004
  -4347567.48947  -3351686.16446  23977711.6924   23977715.2294   23977711.074
        43.0004         39.0004
 -13681141.44148 -10660742.10847  21431596.5994   21431603.2624   21431597.097
        51.0004         46.0004
 -14893863.36048 -11545733.97547  21571439.6614   21571442.8494   21571440.137
        51.0004         45.0004
  -5854259.45647  -4547563.41446  24299318.2564   24299321.1154   24299317.237
        43.0004         38.0004
 -23072903.49948 -17967555.62347  21315624.0834   21315630.7484   21315624.723
        51.0004         46.0004
 -12054337.80948  -9374312.51747  21702075.7474   21702081.4974   21702075.149
        49.0004         44.0004
    391613.90048    293863.98147  21866325.4024   21866332.5904   21866324.905
        50.0004         46.0004
  -5313365.76347  -4080261.78546  23937971.0944   23937980.6604   23937970.627
        44.0004         40.0004
 -24785627.75848 -19254851.28848  20555552.0044   20555557.4574   20555551.915
        53.0004         49.0004
 14  5 11  2  8  0.0000000  0 11G26G09G07G28G02G05G10G08G30G17G04
   1486547.07447   1172898.37546  24444346.5064   24444353.5534   24444347.056
        42.0004         38.0004
  -5389278.08548  -4189946.75947  21618010.7154   21618016.6124   21618010.809
        51.0004         46.0004
  -4242153.03647  -3269545.05746  23997770.7834   23997774.3474   23997770.666
        43.0004         38.0004
 -13720322.53348 -10691272.80847  21424141.5194   21424148.2574   21424141.277
        51.0004         46.0004
 -14912328.25448 -11560122.01847  21567925.6984   21567928.7514   21567926.114
        51.0004         45.0004
  -5946716.85647  -4619607.99546  24281723.7954   24281726.7624   24281723.149
        43.0004         38.0004
 -23133565.00548 -18014824.39847  21304080.5464   21304086.7344   21304081.440
        51.0004         46.0004
 -11959592.99648  -9300485.42547  21720103.7014   21720110.7334   21720104.682
        49.0004         44.0004
    475194.96848    358992.05847  21882229.9014   21882237.7014   21882230.328
        50.0004         46.0004
  -5300482.44647  -4070222.82346  23940422.2374   23940432.8784   23940422.359
        44.0004         40.0004
 -24748449.77848 -19225881.17748  20562627.2324   20562632.4074   20562626.409
        53.0004         48.0004
 14  5 11  2  8 30.0000000  0 11G26G09G07G28G02G05G10G08G30G17G04
   1500385.95647   1183681.87546  24446983.1054   24446987.3194   24446982.320
        42.0004         37.0004
  -5306361.43748  -4125336.36847  21633789.7544   21633794.6274   21633789.359
        51.0004         46.0004
  -4136771.52847  -3187429.61846  24017824.3334   24017829.8404   24017824.424
        42.0004         38.0004
 -13759164.64048 -10721539.36947  21416749.8654   21416756.2574   21416749.728
        51.0004         46.0004
 -14930354.05448 -11574168.02547  21564495.9214   21564498.3644   21564496.257
        51.0004         46.0004
  -6039282.81647  -4691737.17346  24264109.4354   24264112.8454   24264108.743
        43.0004         39.0004
 -23193977.08548 -18061898.80847  21292585.0864   21292591.0664   21292585.347
        51.0004         47.0004
 -11864580.47848  -9226449.72447  21738183.2034   21738190.3184   21738184.803
        49.0004         44.0004
    558996.44848    424291.87347  21898177.0794   21898184.2514   21898177.025
        50.0004         46.0004
  -5287842.67047  -4060373.64246  23942828.4474   23942837.7274   23942827.415
        44.0004         40.0004
 -24710837.46648 -19196572.75048  20569784.2604   20569789.1404   20569783.569
        53.0004         48.0004
 14  5 11  2  9  0.0000000  0 11G26G09G07G28G02G05G10G08G30G17G04
   1514124.97947   1194387.72546  24449595.9484   24449600.3344   24449595.414
        43.0004         38.0004
  -5223228.80848  -4060557.67947  21649609.0104   21649614.3554   21649608.945
        51.0004         46.0004
  -4031417.80047  -3105335.83846  24037872.4494   24037876.1294   24037872.642
        43.0004         38.0004
 -13797658.08248 -10751534.23347  21409424.7524   21409430.7524   21409424.686
        51.0004         46.0004
 -14947933.80348 -11587866.34347  21561150.1574   21561153.2964   21561150.569
        51.0004         47.0004
  -6131948.38947  -4763943.98846  24246476.2274   24246478.9904   24246475.364
        43.0004         39.0004
 -23254130.08848 -18108771.33447  21281138.1614   21281144.4064   21281138.995
        51.0004         47.0004
 -11769296.82148  -9152202.74547  21756316.6474   21756322.0464   21756316.605
        49.0004         44.0004
    643022.20648    489766.44647  21914167.4314   21914174.1194   21914166.372
        50.0004         46.0004
  -5275439.82047  -4050709.07446  23945188.3504   23945198.3104   23945188.153
        44.0004         40.0004
 -24672785.93548 -19166922.02748  20577025.0394   20577029.8444   20577024.499
        53.0004         48.0004
 14  5 11  2  9 30.0000000  0 11G26G09G07G28G02G05G10G08G30G17G04
   1527756.01547   1205009.37946  24452190.1364   24452196.9694   24452189.518
        42.0004         37.0004
  -5139889.41548  -3995617.87847  21665467.8644   21665473.1764   21665467.855
        51.0004         46.0004
  -3926100.58947  -3023270.53946  24057913.9244   24057917.9344   24057914.123
        43.0004         38.0004
 -13835806.47548 -10781260.23547  21402165.0514   21402171.6894   21402165.211
        51.0004         46.0004
 -14965074.93548 -11601222.89047  21557888.5474   21557891.0164   21557888.639
        51.0004         47.0004
  -6224717.77347  -4836231.69746  24228822.5264   24228824.2064   24228821.087
        44.0004         39.0004
 -23314027.43148 -18155444.63947  21269739.7744   21269746.1674   21269740.883
        51.0004         47.0004
 -11673751.49348  -9077751.88047  21774497.6074   21774503.3264   21774498.878
        48.0004         44.0004
    727263.34148    555408.85147  21930197.5464   21930204.9414   21930197.539
        50.0004         46.0004
  -5263279.96447  -4041233.84746  23947501.6704   23947511.9934   23947502.219
        45.0004         40.0004
 -24634304.89948 -19136937.17648  20584347.5894   20584353.4754   20584347.265
        53.0004         49.0004
 14  5 11  2 10  0.0000000  0 11G26G09G07G28G02G05G10G08G30G17G04
   1541281.77646   1215549.11046  24454763.9464   24454770.3754   24454763.924
        41.0004         37.0004
  -5056342.11848  -3930516.07147  21681366.2214   21681371.7354   21681365.944
        51.0004         46.0004
  -3820818.37347  -2941232.49646  24077948.8934   24077952.1474   24077948.474
        43.0004         38.0004
 -13873602.65948 -10810711.78747  21394972.3024   21394978.7884   21394972.665
        51.0004         46.0004
 -14981773.57248 -11614234.75547  21554710.5144   21554713.6694   21554710.726
        52.0004         47.0004
  -6317584.51247  -4908595.24846  24211149.8074   24211153.2604   24211149.822
        44.0004         39.0004
 -23373661.82248 -18201913.04847  21258392.5064   21258398.2644   21258392.488
        51.0004         47.0004
 -11577944.05148  -9003096.75647  21792729.9314   21792735.9024   21792730.027
        48.0004         44.0004
    811721.12748    621220.07047  21946268.9234   21946276.4194   21946268.713
        50.0004         46.0004
  -5251358.42447  -4031944.33346  23949771.3914   23949780.0844   23949770.217
        45.0004         40.0004
 -24595391.20548 -19106615.38147  20591752.8984   20591758.7064   20591752.969
        53.0004         47.0004
 14  5 11  2 10 30.0000000  0 11G26G09G07G28G02G05G10G08G30G17G04
   1554698.33447   1226003.74746  24457316.4444   24457321.1994   24457316.386
        42.0004         38.0004
  -4972591.79048  -3865256.06247  21697303.1764   21697309.3414   21697303.527
        51.0004         46.0004
  -3715575.35947  -2859225.01346  24097974.7104   24097979.7424   24097975.598
        42.0004         38.0004
 -13911045.49248 -10839887.99247  21387846.9214   21387854.5114   21387847.695
        51.0004         46.0004
 -14998031.88048 -11626903.52747  21551616.8354   21551619.5064   21551617.016
        52.0004         47.0004
  -6410547.88447  -4981034.15546  24193460.1254   24193462.8754   24193459.603
        43.0004         39.0004
 -23433031.92248 -18248175.51347  21247094.5374   21247100.7154   21247095.274
        51.0004         47.0004
 -11481879.31748  -8928241.16747  21811010.8604   21811016.2044   21811010.546
        48.0004         44.0004
    896391.05448    687196.59547  21962381.8384   21962388.4174   21962381.379
        50.0004         46.0004
  -5239677.54047  -4022842.33646  23951993.2384   23952003.2844   23951992.970
        44.0004         40.0004
 -24556048.38948 -19075958.97048  20599240.1964   20599245.8994   20599239.924
        53.0004         49.0004
 14  5 11  2 11  0.0000000  0 11G26G09G07G28G02G05G10G08G30G17G04
   1568003.82847   1236371.77146  24459850.2814   24459851.8204   24459848.028
        42.0004         37.0004
  -4888641.67848  -3799840.37947  21713278.9774   21713283.9554   21713279.007
        51.0004         46.0004
  -3610374.11747  -2777250.03746  24117994.6434   24117999.9834   24117994.177
        42.0004         38.0004
 -13948132.45148 -10868786.89747  21380790.2684   21380796.9864   21380790.422
        51.0004         46.0004
 -15013850.36048 -11639229.54647  21548606.4794   21548609.3684   21548606.885
        51.0004         46.0004
  -6503606.53447  -5053547.24746  24175750.8104   24175753.8134   24175750.977
        44.0004         40.0004
 -23492134.98548 -18294229.89347  21235847.3084   21235853.9334   21235848.074
        51.0004         47.0004
 -11385560.86048  -8853187.85947  21829339.1194   21829345.2834   21829339.850
        48.0004         43.0004
    981270.10848    753336.07547  21978533.0414   21978540.6114   21978533.285
        50.0004         46.0004
  -5228237.09847  -4013927.69246  23954170.1364   23954179.8674   23954170.174
        45.0004         40.0004
 -24516279.79848 -19044971.13248  20606808.5724   20606813.8224   20606807.946
        53.0004         49.0004
 14  5 11  2 11 30.0000000  0 11G26G09G07G28G02G05G10G08G30G17G04
   1581197.36747   1246652.45946  24462358.7184   24462365.8874   24462358.837
        42.0004         37.0004
  -4804493.46248  -3734270.33147  21729291.8594   21729296.9914   21729291.607
        51.0004         46.0004
  -3505215.93547  -2695308.66146  24138006.4194   24138009.3254   24138005.097
        43.0004         38.0004
 -13984859.56348 -10897405.40247  21373800.9944   21373807.7884   21373801.532
        51.0004         46.0004
 -15029228.45548 -11651212.42847  21545680.6654   21545683.2464   21545680.362
        51.0004         45.0004
  -6596757.31847  -5126132.22046  24158025.3144   24158027.9414   24158024.295
        44.0004         40.0004
 -23550966.54848 -18340072.72047  21224652.1844   21224658.9924   21224653.122
        51.0004         47.0004
 -11288991.08348  -8777938.71747  21847716.6934   21847721.0874   21847715.988
        48.0004         43.0004
   1066356.60548    819637.20747  21994725.0604   21994731.3194   21994724.434
        50.0004         45.0004
  -5217036.21447  -4005199.72646  23956302.3794   23956311.3794   23956301.608
        45.0004         40.0004
 -24476086.27048 -19013652.35448  20614457.8904   20614463.6484   20614457.474
        53.0004         50.0004
 14  5 11  2 12  0.0000000  0 11G26G09G07G28G02G05G10G08G30G17G04
   1594275.60847   1256843.26146  24464847.5594   24464853.5194   24464847.728
        42.0004         38.0004
  -4720152.39648  -3668550.00947  21745341.3804   21745345.7524   21745341.098
        51.0004         46.0004
  -3400105.88647  -2613404.80446  24158008.2234   24158012.6174   24158007.316
        43.0004         38.0004
 -14021226.00948 -10925742.87347  21366880.8024   21366887.4834   21366881.244
        51.0004         46.0004
 -15044168.22348 -11662853.56247  21542836.9674   21542839.5584   21542837.185
        51.0004         46.0004
  -6689999.90347  -5198788.79346  24140281.2914   24140284.1674   24140281.414
        44.0004         39.0004
 -23609525.68748 -18385703.26847  21213508.9834   21213515.1224   21213509.481
        52.0004         47.0004
 -11192175.57148  -8702498.08747  21866138.3904   21866143.8384   21866139.099
        48.0004         43.0004
   1151645.65048    886096.17047  22010954.7794   22010961.7814   22010954.505
        50.0004         45.0004
  -5206076.84447  -3996659.95346  23958387.8794   23958396.4594   23958387.184
        45.0004         40.0004
 -24435469.91948 -18982003.16848  20622186.5424   20622192.7814   20622186.427
        53.0004         50.0004
 14  5 11  2 12 30.0000000  0 11G26G09G07G28G02G05G10G08G30G17G04
   1607237.35947   1266943.60746  24467314.1434   24467319.8964   24467314.526
        43.0004         39.0004
  -4635620.92048  -3602681.32647  21761426.8964   21761432.1004   21761427.007
        51.0004         46.0004
  -3295045.43747  -2531539.58946  24177999.9974   24178005.3884   24178000.347
        42.0004         38.0004
 -14057228.49448 -10953796.73347  21360029.6524   21360036.2374   21360029.826
        51.0004         46.0004
 -15058670.51048 -11674153.83147  21540077.2464   21540080.1474   21540077.402
        51.0004         46.0004
  -6783331.93747  -5271515.02046  24122520.5694   24122523.5254   24122520.318
        44.0004         40.0004
 -23667809.22348 -18431119.06147  21202418.0124   21202423.7424   21202418.608
        52.0004         47.0004
 -11095117.09248  -8626868.15047  21884609.0804   21884613.9544   21884609.420
        48.0004         44.0004
   1237134.80548    952711.05747  22027222.4094   22027229.6544   22027222.752
        50.0004         45.0004
  -5195358.01447  -3988307.61146  23960427.8114   23960437.1884   23960426.769
        45.0004         40.0004
 -24394434.84648 -18950027.92548  20629995.5864   20630000.9514   20629995.452
        53.0004         49.0004
 14  5 11  2 13  0.0000000  0 11G26G09G07G28G02G05G10G08G30G17G04
   1620081.95947   1276952.49746  24469758.6794   24469764.0454   24469757.393
        43.0004         38.0004
  -4550900.36648  -3536665.31247  21777548.6234   21777553.9874   21777548.657
        51.0004         46.0004
  -3190034.60847  -2449713.04446  24197981.7194   24197987.2504   24197982.651
        42.0004         38.0004
 -14092862.66248 -10981563.60147  21353248.5334   21353254.5754   21353249.076
        51.0004         46.0004
 -15072733.80848 -11685111.94347  21537401.3514   21537403.3674   21537401.116
        52.0004         47.0004
  -6876749.27647  -5344307.88046  24104744.6644   24104746.8184   24104743.674
        43.0004         38.0004
 -23725812.45548 -18476316.41947  21191380.7364   21191386.6184   21191381.148
        52.0004         47.0004
 -10997816.97648  -8551049.91447  21903125.3164   21903130.0714   21903124.710
        48.0004         43.0004
   1322823.02548   1019481.07047  22043528.9484   22043536.2854   22043528.812
        50.0004         45.0004
  -5184878.30447  -3980141.58946  23962421.8574   23962431.9964   23962420.995
        45.0004         41.0004
 -24352981.23748 -18917726.59948  20637883.8764   20637889.9204   20637883.609
        53.0004         48.0004
 14  5 11  2 13 30.0000000  0 11G26G09G07G28G02G05G10G08G30G17G04
   1632803.41447   1286865.44146  24472179.1854   24472183.8744   24472178.014
        42.0004         38.0004
  -4465998.66448  -3470508.13647  21793704.9514   21793710.1244   21793704.961
        51.0004         46.0004
  -3085081.17147  -2367931.22146  24217956.1904   24217958.7864   24217954.022
        42.0004         38.0004
 -14128130.32948 -11009044.87347  21346536.6724   21346543.9344   21346537.267
        51.0004         46.0004
 -15086363.72548 -11695732.48647  21534806.8504   21534809.5924   21534807.122
        52.0004         47.0004
  -6970254.23847  -5417168.87946  24086950.1114   24086954.0254   24086949.465
        43.0004         38.0004
 -23783536.84848 -18521296.49747  21180395.8284   21180401.6844   21180396.422
        52.0004         47.0004
 -10900283.32748  -8475049.70747  21921684.5624   21921690.9814   21921684.800
        48.0004         43.0004
   1408702.83848   1086400.36947  22059871.1024   22059878.1454   22059870.982
        50.0004         45.0004
  -5174642.30047  -3972165.46246  23964369.2554   23964378.7524   23964368.746
        45.0004         40.0004
 -24311115.81448 -18885104.21548  20645850.9784   20645856.6684   20645850.367
        53.0004         51.0004
 14  5 11  2 14  0.0000000  0 11G26G09G07G28G02G05G10G08G30G17G04
   1645406.11847   1296685.89046  24474578.0674   24474582.7244   24474577.534
        43.0004         39.0004
  -4380912.59748  -3404207.30547  21809896.4784   21809901.1494   21809896.314
        51.0004         46.0004
  -2980181.31747  -2286191.17746  24237917.2514   24237921.5004   24237915.789
        42.0004         38.0004
 -14163022.76348 -11036233.76147  21339897.6654   21339904.1674   21339898.209
        51.0004         46.0004
 -15099553.91948 -11706010.12847  21532296.5794   21532299.0504   21532296.740
        51.0004         47.0004
  -7063838.95347  -5490092.07146  24069142.1594   24069145.3864   24069141.164
        44.0004         40.0004
 -23840973.45748 -18566052.33347  21169466.2254   21169472.0384   21169466.830
        52.0004         47.0004
 -10802513.45348  -8398865.43947  21940289.7294   21940295.9604   21940290.228
        48.0004         44.0004
   1494777.54348   1153471.53447  22076250.7124   22076258.0054   22076250.500
        50.0004         45.0004
  -5164643.47747  -3964374.15446  23966273.0414   23966281.9554   23966272.029
        45.0004         40.0004
 -24268834.95448 -18852158.13447  20653896.1824   20653902.4424   20653896.198
        53.0004         47.0004
 14  5 11  2 14 30.0000000  0 11G26G09G07G28G02G05G10G08G30G17G04
   1657885.74947   1306410.22746  24476951.3084   24476957.7614   24476951.347
        43.0004         38.0004
  -4295647.47448  -3337766.94847  21826121.6914   21826126.8164   21826121.810
        51.0004         46.0004
  -2875339.39947  -2204496.27346  24257867.9734   24257872.2014   24257867.260
        42.0004         37.0004
 -14197539.31548 -11063129.74347  21333329.3494   21333335.8204   21333329.369
        51.0004         46.0004
 -15112308.13948 -11715948.25347  21529868.9754   21529872.0324   21529869.602
        51.0004         47.0004
  -7157502.65747  -5563076.72446  24051318.9644   24051322.5824   24051317.776
        45.0004         40.0004
 -23898121.32148 -18610583.16147  21158590.5894   21158597.3054   21158591.774
        52.0004         47.0004
 -10704512.82948  -8322501.34847  21958938.8784   21958944.4534   21958938.690
        48.0004         44.0004
   1581042.19948   1220690.71947  22092666.7464   22092673.3144   22092666.292
        50.0004         45.0004
  -5154883.76547  -3956769.15946  23968129.5334   23968139.5994   23968129.141
        45.0004         40.0004
 -24226142.68448 -18818891.23048  20662020.8674   20662026.2614   20662020.155
        53.0004         48.0004
