     2.11           OBSERVATION DATA    G (GPS)             RINEX VERSION / TYPE
teqc  2013Mar15     gpsops              20140521 00:23:23UTCPGM / RUN BY / DATE
Linux 2.4.21-27.ELsmp|Opteron|gcc -static|Linux x86_64|=+   COMMENT
BIT 2 OF LLI FLAGS DATA COLLECTED UNDER A/S CONDITION       COMMENT
GLPS                                                        MARKER NAME
42005M002                                                   MARKER NUMBER
GGN                 JPL                                     OBSERVER / AGENCY
ZR220013847         ASHTECH UZ-12       CQ00                REC # / TYPE / VERS
CR519992104         ASH701945B_M    SCIT                    ANT # / TYPE
   -33801.4662 -6377516.5323   -82154.3508                  APPROX POSITION XYZ
        0.0083        0.0000        0.0000                  ANTENNA: DELTA H/E/N
     1     1                                                WAVELENGTH FACT L1/2
     7    L1    L2    P1    P2    C1    S1    S2            # / TYPES OF OBSERV
    30.0000                                                 INTERVAL
                                                            COMMENT
This data is provided as a public service by NASA/JPL.      COMMENT
No warranty is expressed or implied regarding suitability   COMMENT
for use.  For further information, contact:                 COMMENT
Dave Stowers, NASA/JPL m/s 238-600                          COMMENT
4800 Oak Grove Drive, Pasadena CA 91109 USA                 COMMENT
                                                            COMMENT
Forced Modulo Decimation to 30 seconds                      COMMENT
 SNR is mapped to RINEX snr flag value [0-9]                COMMENT
  L1 & L2: min(max(int(snr_dBHz/6), 0), 9)                  COMMENT
pseudorange smoothing corrections not applied               COMMENT
  2014     5    20     0     0    0.0000000     GPS         TIME OF FIRST OBS
                                                            END OF HEADER
 14  5 20  0  0  0.0000000  0 12G20G26G10G09G07G13G02G08G01G17G04G28
  -4341355.49946  -3326950.64545  23721669.3684   23721679.4984   23721669.253
        40.0004         35.0004
   -891198.03447   -674845.10446  24054961.1864   24054975.0234   24054962.602
        42.0004         37.0004
 -12355923.50347  -9622118.43146  23683782.5264   23683793.3794   23683784.186
        44.0004         39.0004
 -13398684.08949 -10420679.40148  19977701.5374   19977707.8684   19977701.663
        54.0004         49.0004
 -20166585.37148 -15684544.30048  20804012.1034   20804017.2834   20804011.431
        52.0004         48.0004
  20160627.02046  15704072.22445  24576944.5464   24576953.7604   24576945.955
        40.0004         35.0004
  -4770644.99647  -3697424.74346  23487013.6804   23487021.8654   23487013.977
        44.0004         39.0004
 -25873311.49949 -20114989.49448  19882807.3104   19882813.6964   19882807.823
        54.0004         49.0004
  -1536829.65546  -1172423.85346  24467123.4494   24467138.3914   24467123.093
        40.0004         36.0004
 -11978022.46348  -9279692.79447  22870230.4024   22870238.9294   22870229.574
        49.0004         44.0004
 -23180133.94448 -18014999.83147  20907943.6324   20907950.6094   20907943.685
        52.0004         47.0004
  -6414506.49347  -4961683.74046  23307068.5874   23307078.6784   23307069.926
        44.0004         40.0004
 14  5 20  0  0 30.0000000  0 12G20G26G10G09G07G13G02G08G01G17G04G28
  -4322441.36046  -3312212.34845  23725267.1764   23725277.4324   23725267.764
        40.0004         35.0004
   -894347.54047   -677299.13446  24054361.9694   24054377.9954   24054362.010
        42.0004         38.0004
 -12418709.48147  -9671042.42146  23671836.2614   23671846.6444   23671836.589
        44.0004         39.0004
 -13399628.33749 -10421415.12948  19977521.9464   19977528.5874   19977521.951
        54.0004         49.0004
 -20103237.88348 -15635182.60347  20816066.6774   20816071.9954   20816066.000
        52.0004         47.0004
  20226523.22746  15755420.02445  24589484.9954   24589494.4744   24589485.593
        40.0004         35.0004
  -4857793.61747  -3765332.56846  23470429.3874   23470437.5214   23470429.804
        44.0004         39.0004
 -25871678.67849 -20113717.12748  19883118.0124   19883124.4594   19883118.420
        54.0004         49.0004
  -1431612.76846  -1090436.66846  24487145.2564   24487160.2514   24487145.443
        40.0004         36.0004
 -11935414.72248  -9246491.92747  22878337.9764   22878346.6224   22878337.782
        49.0004         44.0004
 -23237839.71248 -18059965.29847  20896962.8854   20896969.3954   20896962.115
        52.0004         47.0004
  -6468898.77547  -5004067.18746  23296719.2634   23296727.6724   23296719.423
        45.0004         40.0004
 14  5 20  0  1  0.0000000  0 12G20G26G10G09G07G13G02G08G01G17G04G28
  -4303237.64246  -3297248.38546  23728921.6804   23728933.5294   23728923.617
        40.0004         36.0004
   -897213.07347   -679531.90046  24053817.3114   24053830.5154   24053817.033
        42.0004         38.0004
 -12481673.52347  -9720105.17246  23659852.1164   23659863.8894   23659854.785
        44.0004         39.0004
 -13399960.77649 -10421674.12348  19977458.9954   19977464.7334   19977458.805
        54.0004         49.0004
 -20039402.86948 -15585441.01947  20828214.0064   20828219.3644   20828213.517
        52.0004         47.0004
  20292187.95546  15806587.42945  24601979.0774   24601987.8614   24601981.482
        40.0004         35.0004
  -4944706.96647  -3833057.07546  23453890.6474   23453897.7764   23453890.497
        44.0004         39.0004
 -25869381.85249 -20111927.35148  19883555.1264   19883562.0004   19883555.514
        54.0004         49.0004
  -1326292.43246  -1008368.88946  24507188.0024   24507202.0964   24507186.660
        41.0004         36.0004
 -11892831.32348  -9213310.01847  22886442.1904   22886450.2104   22886441.250
        48.0004         44.0004
 -23295076.16748 -18104565.06947  20886070.6224   20886077.8734   20886070.331
        52.0004         47.0004
  -6523434.87747  -5046562.70846  23286340.5684   23286350.0374   23286341.363
        45.0004         40.0004
 14  5 20  0  1 30.0000000  0 12G20G26G10G09G07G13G02G08G01G17G04G28
  -4283742.22746  -3282057.13045  23732630.7384   23732640.7964   23732631.810
        40.0004         35.0004
   -899795.82947   -681544.30946  24053326.7704   24053340.0454   24053326.389
        42.0004         38.0004
 -12544813.44447  -9769304.96746  23647838.1164   23647849.2934   23647838.679
        44.0004         39.0004
 -13399680.58649 -10421455.74448  19977512.2014   19977518.6584   19977512.236
        54.0004         50.0004
 -19975081.87248 -15535320.74147  20840453.7954   20840459.8284   20840453.212
        52.0004         47.0004
  20357620.90546  15857574.23345  24614433.4564   24614438.0894   24614431.788
        40.0004         35.0004
  -5031381.96347  -3900595.84646  23437396.6084   23437404.6594   23437397.768
        44.0004         39.0004
 -25866419.84449 -20109619.25148  19884118.7424   19884125.2324   19884118.983
        54.0004         49.0004
  -1220870.53746   -926221.95846  24527248.5854   24527262.0074   24527247.694
        41.0004         36.0004
 -11850273.30348  -9180147.88647  22894539.5044   22894547.9374   22894539.780
        49.0004         44.0004
 -23351840.71948 -18148797.11747  20875269.0224   20875275.8454   20875268.488
        52.0004         47.0004
  -6578111.70847  -5089167.88146  23275936.4774   23275945.0634   23275936.737
        45.0004         41.0004
 14  5 20  0  2  0.0000000  0 12G20G26G10G09G07G13G02G08G01G17G04G28
  -4263950.50646  -3266634.96945  23736399.1694   23736407.5924   23736399.401
        40.0004         35.0004
   -902094.52847   -683335.38946  24052887.7304   24052903.1574   24052887.998
        42.0004         38.0004
 -12608124.67047  -9818638.24246  23635791.0954   23635801.4374   23635790.414
        44.0004         39.0004
 -13398784.58749 -10420757.51348  19977682.5124   19977688.8234   19977682.642
        54.0004         50.0004
 -19910274.00448 -15484821.08747  20852786.1734   20852792.1324   20852785.693
        52.0004         47.0004
  20422824.48946  15908382.29945  24626841.0204   24626847.1134   24626838.833
        40.0004         35.0004
  -5117813.09447  -3967944.60246  23420949.0574   23420956.4814   23420949.005
        44.0004         40.0004
 -25862789.41149 -20106790.30348  19884809.5504   19884816.2474   19884809.820
        54.0004         49.0004
  -1115346.31546   -843995.29046  24547329.9164   24547343.5684   24547328.291
        41.0004         37.0004
 -11807739.22948  -9147004.41147  22902633.6644   22902641.6314   22902633.302
        49.0004         44.0004
 -23408128.29148 -18192657.50448  20864557.6224   20864565.0414   20864557.444
        52.0004         48.0004
  -6632924.60647  -5131879.08946  23265505.2904   23265513.1224   23265505.583
        45.0004         40.0004
 14  5 20  0  2 30.0000000  0 12G20G26G10G09G07G13G02G08G01G17G04G28
  -4243865.12246  -3250983.98045  23740219.5864   23740228.9774   23740220.494
        40.0004         35.0004
   -904114.18547   -684909.01546  24052504.0104   24052516.7424   24052504.211
        43.0004         38.0004
 -12671609.65847  -9868106.92546  23623710.2074   23623720.5994   23623709.853
        44.0004         39.0004
 -13397277.10649 -10419582.80448  19977969.4164   19977975.5314   19977969.208
        54.0004         50.0004
 -19844985.47948 -15433946.89447  20865209.8624   20865215.4724   20865209.584
        52.0004         47.0004
  20487793.79846  15959007.85845  24639202.9514   24639211.1574   24639202.238
        40.0004         35.0004
  -5204001.84447  -4035104.47946  23404548.2274   23404556.0734   23404547.629
        44.0004         39.0004
 -25858494.21249 -20103443.35948  19885626.9464   19885633.9144   19885627.271
        54.0004         49.0004
  -1009726.19246   -761693.89846  24567425.4804   24567441.6584   24567427.488
        41.0004         36.0004
 -11765235.28248  -9113884.41247  22910721.0914   22910731.3494   22910721.743
        49.0004         44.0004
 -23463940.47648 -18236147.45548  20853937.2844   20853943.6994   20853936.712
        52.0004         48.0004
  -6687875.15047  -5174697.53946  23255049.6314   23255057.4544   23255049.118
        45.0004         40.0004
 14  5 20  0  3  0.0000000  0 12G20G26G10G09G07G13G02G08G01G17G04G28
  -4223485.55746  -3235103.81345  23744097.4724   23744107.4314   23744099.233
        40.0004         35.0004
   -905857.01547   -686266.92946  24052173.0284   24052186.4614   24052171.963
        43.0004         38.0004
 -12735267.32747  -9917710.15646  23611595.9844   23611606.4014   23611596.434
        44.0004         39.0004
 -13395158.87349 -10417932.18348  19978372.2444   19978378.7294   19978372.160
        54.0004         50.0004
 -19779219.00348 -15382700.27147  20877724.9534   20877730.6584   20877724.480
        52.0004         47.0004
  20552527.50346  16009449.77145  24651521.2434   24651527.6824   24651520.816
        40.0004         35.0004
  -5289946.57847  -4102074.22446  23388192.6594   23388199.8294   23388193.343
        44.0004         40.0004
 -25853534.75749 -20099578.80848  19886571.0264   19886577.2504   19886571.038
        54.0004         49.0004
   -904013.28446   -679320.21446  24587544.7634   24587558.7974   24587544.126
        41.0004         37.0004
 -11722764.08048  -9080789.93047  22918803.0024   22918812.3034   22918802.956
        48.0004         43.0004
 -23519276.21448 -18279266.14048  20843406.5564   20843413.6334   20843405.894
        52.0004         48.0004
  -6742961.90247  -5217622.13346  23244565.7684   23244575.8394   23244565.902
        45.0004         40.0004
 14  5 20  0  3 30.0000000  0 12G20G26G10G09G07G13G02G08G01G17G04G28
  -4202807.22246  -3218990.80345  23748033.9484   23748043.2804   23748033.407
        40.0004         35.0004
   -907321.96547   -687408.31846  24051893.2964   24051906.1254   24051893.509
        43.0004         38.0004
 -12799093.12847  -9967444.40146  23599449.9754   23599461.0714   23599451.050
        44.0004         39.0004
 -13392426.93449 -10415803.35448  19978892.3544   19978898.3404   19978892.124
        54.0004         50.0004
 -19712973.75248 -15331080.57347  20890330.9284   20890336.5984   20890330.673
        52.0004         47.0004
  20617027.82746  16059709.86745  24663794.4994   24663802.1594   24663794.967
        40.0004         35.0004
  -5375642.00747  -4168849.70046  23371885.4754   23371893.3124   23371886.480
        44.0004         40.0004
 -25847907.80949 -20095194.13448  19887641.3584   19887648.0804   19887641.491
        54.0004         49.0004
   -798206.89546   -596873.67246  24607678.3344   24607692.4894   24607678.054
        41.0004         36.0004
 -11680324.56448  -9047720.13447  22926879.8734   22926888.8264   22926879.329
        48.0004         43.0004
 -23574130.20648 -18322009.44248  20832968.3104   20832975.1054   20832968.490
        52.0004         48.0004
  -6798179.61047  -5260648.74646  23234056.7014   23234067.1014   23234058.391
        45.0004         40.0004
 14  5 20  0  4  0.0000000  0 12G20G26G10G09G07G13G02G08G01G17G04G28
  -4181831.78346  -3202646.26745  23752026.3414   23752036.9844   23752025.175
        40.0004         35.0004
   -908514.64247   -688337.55546  24051667.4304   24051680.9104   24051666.659
        43.0004         38.0004
 -12863088.26147 -10017310.58846  23587271.6354   23587282.5474   23587273.358
        44.0004         39.0004
 -13389084.61549 -10413198.90048  19979528.1664   19979534.1924   19979528.012
        54.0004         49.0004
 -19646255.06048 -15279091.96447  20903027.4714   20903033.2704   20903027.033
        52.0004         47.0004
  20681291.16446  16109785.27645  24676023.8004   24676033.2614   24676023.396
        39.0004         35.0004
  -5461088.38147  -4235431.10746  23355625.3914   23355633.0194   23355625.366
        44.0004         40.0004
 -25841615.98849 -20090291.37948  19888838.3574   19888844.9664   19888838.977
        54.0004         49.0004
   -692312.39046   -514358.47846  24627829.9004   24627845.3374   24627829.261
        41.0004         36.0004
 -11637922.10548  -9014679.20747  22934948.7124   22934957.3614   22934948.316
        48.0004         44.0004
 -23628503.37248 -18364378.08148  20822621.6604   20822627.9214   20822620.669
        52.0004         48.0004
  -6853528.83547  -5303777.86146  23223525.3934   23223534.0044   23223525.590
        45.0004         40.0004
 14  5 20  0  4 30.0000000  0 12G20G26G10G09G07G13G02G08G01G17G04G28
  -4160551.16646  -3186063.94646  23756075.6364   23756084.9254   23756075.378
        40.0004         36.0004
   -909428.99947   -689049.90446  24051492.0114   24051503.8854   24051491.293
        42.0004         38.0004
 -12927244.15747 -10067302.05046  23575064.4524   23575073.8124   23575064.494
        44.0004         39.0004
 -13385124.95749 -10410113.40448  19980281.1964   19980287.8454   19980281.277
        54.0004         49.0004
 -19579058.25248 -15226730.79847  20915814.4544   20915819.6114   20915814.118
        52.0004         47.0004
  20745323.63246  16159680.80945  24688210.2824   24688216.5674   24688208.502
        39.0004         35.0004
  -5546276.30547  -4301811.13746  23339413.2794   23339421.8354   23339414.178
        44.0004         40.0004
 -25834652.20749 -20084865.01148  19890163.6304   19890170.4684   19890164.191
        54.0004         49.0004
   -586325.25846   -431771.10046  24647999.5594   24648012.9594   24647998.129
        41.0004         36.0004
 -11595550.91948  -8981662.65347  22943011.0634   22943019.6404   22943011.216
        48.0004         44.0004
 -23682386.99748 -18406365.24748  20812367.8434   20812374.1534   20812367.300
        52.0004         48.0004
  -6909000.41647  -5347002.29946  23212968.0024   23212978.0464   23212969.605
        45.0004         40.0004
 14  5 20  0  5  0.0000000  0 12G20G26G10G09G07G13G02G08G01G17G04G28
  -4138977.54546  -3169253.30646  23760181.4634   23760190.6604   23760180.267
        40.0004         36.0004
   -910080.08847   -689557.12646  24051369.2044   24051381.4064   24051368.585
        43.0004         38.0004
 -12991572.63647 -10117427.99446  23562821.9604   23562832.9134   23562823.175
        44.0004         39.0004
 -13380561.58049 -10406557.48548  19981150.0994   19981156.2624   19981150.128
        54.0004         50.0004
 -19511399.06048 -15174009.33347  20928689.0594   20928695.3444   20928688.885
        52.0004         47.0004
  20809111.21546  16209385.48745  24700347.5364   24700356.3124   24700347.239
        39.0004         35.0004
  -5631217.09747  -4367998.59746  23323250.5444   23323257.9164   23323250.386
        44.0004         40.0004
 -25827029.87249 -20078925.49048  19891614.0034   19891620.6124   19891614.502
        54.0004         49.0004
   -480261.40246   -349123.93746  24668180.8524   24668196.8334   24668181.429
        41.0004         36.0004
 -11553227.01548  -8948682.95947  22951065.2174   22951074.1964   22951065.105
        48.0004         43.0004
 -23735792.18648 -18447979.61448  20802205.1984   20802211.6564   20802205.021
        52.0004         48.0004
  -6964606.16047  -5390331.28846  23202388.0554   23202397.8554   23202388.172
        45.0004         40.0004
 14  5 20  0  5 30.0000000  0 12G20G26G10G09G07G13G02G08G01G17G04G28
  -4117101.17746  -3152206.77945  23764341.4764   23764353.7244   23764344.238
        40.0004         35.0004
   -910460.11347   -689853.12446  24051295.5474   24051308.8434   24051295.652
        43.0004         38.0004
 -13056063.94147 -10167680.80446  23550549.6294   23550559.0814   23550550.970
        44.0004         39.0004
 -13375386.39749 -10402524.82848  19982134.5684   19982140.9584   19982134.580
        54.0004         50.0004
 -19443271.44848 -15120922.86347  20941653.8084   20941659.3354   20941653.489
        52.0004         47.0004
  20872661.35546  16258905.18145  24712439.7054   24712447.5294   24712440.282
        39.0004         35.0004
  -5715899.95047  -4433985.05946  23307135.3214   23307143.3544   23307135.968
        44.0004         40.0004
 -25818740.48649 -20072466.19148  19893191.4124   19893198.5854   19893192.044
        54.0004         49.0004
   -374114.99746   -266412.43345  24688381.7734   24688394.9414   24688380.013
        40.0004         35.0004
 -11510943.89748  -8915735.03847  22959111.7944   22959120.0794   22959111.279
        48.0004         43.0004
 -23788708.97248 -18489213.40348  20792135.0794   20792142.0724   20792134.632
        52.0004         48.0004
  -7020335.25547  -5433756.39246  23191783.1574   23191791.1694   23191783.009
        45.0004         40.0004
 14  5 20  0  6  0.0000000  0 12G20G26G10G09G07G13G02G08G01G17G04G28
  -4094922.10946  -3134924.36245  23768563.3474   23768572.4274   23768563.784
        40.0004         35.0004
   -910573.61847   -689941.44846  24051274.5984   24051287.2594   24051273.679
        43.0004         38.0004
 -13120717.69747 -10218060.20846  23538246.2214   23538256.4354   23538247.154
        44.0004         39.0004
 -13369601.12949 -10398016.78648  19983235.4264   19983241.8364   19983235.306
        54.0004         49.0004
 -19374679.26648 -15067474.38947  20954706.3484   20954712.1344   20954705.829
        52.0004         47.0004
  20935972.33846  16308238.49545  24724485.6724   24724496.0914   24724487.697
        39.0004         34.0004
  -5800323.94847  -4499769.82746  23291070.3924   23291077.5004   23291070.420
        45.0004         40.0004
 -25809785.64449 -20065488.35248  19894896.0554   19894902.0614   19894896.284
        54.0004         49.0004
   -267889.67446   -183639.45345  24708594.9874   24708607.3714   24708594.510
        40.0004         35.0004
 -11468704.98548  -8882821.56147  22967149.8534   22967158.0464   22967148.774
        48.0004         43.0004
 -23841136.72348 -18530066.12448  20782158.3744   20782165.4144   20782158.218
        52.0004         48.0004
  -7076186.87647  -5477276.96446  23181155.7564   23181163.9524   23181155.061
        45.0004         41.0004
 14  5 20  0  6 30.0000000  0 12G20G26G10G09G07G13G02G08G01G17G04G28
  -4072439.91046  -3117405.74645  23772841.9404   23772852.0184   23772842.570
        40.0004         35.0004
   -910421.71347   -689822.95846  24051302.4694   24051316.3394   24051302.581
        43.0004         38.0004
 -13185532.68147 -10268565.23246  23525912.5994   23525921.9204   23525913.423
        44.0004         40.0004
 -13363206.67249 -10393034.04548  19984452.2234   19984458.6704   19984452.419
        54.0004         50.0004
 -19305624.90448 -15013665.78047  20967847.0044   20967852.6824   20967846.408
        52.0004         47.0004
  20999042.53546  16357384.18445  24736490.1304   24736498.3834   24736489.551
        39.0004         34.0004
  -5884487.05347  -4565351.29946  23275054.8854   23275062.1964   23275054.923
        45.0004         40.0004
 -25800165.74549 -20057992.28748  19896726.3104   19896732.5844   19896726.554
        54.0004         49.0004
   -161588.38946   -100807.27445  24728823.3774   24728837.0714   24728822.744
        40.0004         35.0004
 -11426512.78048  -8849944.46147  22975179.0504   22975186.0134   22975177.995
        48.0004         43.0004
 -23893074.04948 -18570536.69948  20772275.5054   20772281.7714   20772275.020
        52.0004         48.0004
  -7132159.30247  -5520891.66746  23170502.9134   23170511.6624   23170503.509
        46.0004         41.0004
 14  5 20  0  7  0.0000000  0 12G20G26G10G09G07G13G02G08G01G17G04G28
  -4049652.59446  -3099649.34845  23777178.2604   23777188.0834   23777178.191
        40.0004         35.0004
   -910007.36847   -689499.98146  24051380.7744   24051395.2534   24051381.478
        43.0004         38.0004
 -13250506.66347 -10319194.16246  23513548.6564   23513558.2604   23513549.268
        44.0004         40.0004
 -13356203.03649 -10387576.62348  19985784.7954   19985791.4214   19985784.724
        54.0004         50.0004
 -19236110.46248 -14959498.66347  20981075.0754   20981080.8724   20981074.493
        52.0004         47.0004
  21061871.65646  16406342.03645  24748445.4374   24748453.8974   24748445.487
        39.0004         35.0004
  -5968386.64947  -4630727.43946  23259088.4254   23259097.3804   23259088.871
        45.0004         40.0004
 -25789880.23349 -20049977.55848  19898683.4024   19898690.1684   19898683.993
        54.0004         49.0004
    -55213.10546    -17917.42945  24749064.8424   24749079.8944   24749064.835
        39.0004         35.0004
 -11384368.44548  -8817104.68047  22983198.1004   22983206.6124   22983198.016
        48.0004         43.0004
 -23944518.62648 -18610623.31248  20762485.8844   20762492.4904   20762484.905
        52.0004         48.0004
  -7188249.78147  -5564598.37246  23159830.1724   23159838.2964   23159830.003
        46.0004         41.0004
 14  5 20  0  7 30.0000000  0 12G20G26G10G09G07G13G02G08G01G17G04G28
  -4026559.08846  -3081654.38345  23781572.1614   23781580.5304   23781573.070
        40.0004         35.0004
   -909330.54647   -688972.45546  24051509.9854   24051524.4484   24051510.220
        43.0004         38.0004
 -13315638.18147 -10369945.84846  23501154.6724   23501163.1824   23501154.945
        44.0004         40.0004
 -13348590.39549 -10381644.65348  19987233.4604   19987239.9534   19987233.843
        54.0004         49.0004
 -19166138.33348 -14904974.90847  20994390.4674   20994395.8114   20994389.817
        52.0004         47.0004
  21124459.43646  16455111.83345  24760358.1244   24760364.8934   24760355.826
        39.0004         35.0004
  -6052020.25747  -4695896.31946  23243173.6234   23243181.2784   23243174.417
        45.0004         40.0004
 -25778929.43849 -20041444.43748  19900767.0604   19900774.0754   19900767.742
        54.0004         49.0004
     51233.89746     65028.30345  24769321.4784   24769337.0654   24769321.061
        39.0004         34.0004
 -11342273.94648  -8784303.73047  22991207.7924   22991216.1784   22991208.007
        48.0004         43.0004
 -23995468.36348 -18650324.33648  20752790.1774   20752796.4714   20752789.794
        52.0004         48.0004
  -7244456.12547  -5608395.36046  23149133.2724   23149140.4274   23149133.824
        46.0004         41.0004
 14  5 20  0  8  0.0000000  0 12G20G26G10G09G07G13G02G08G01G17G04G28
  -4003158.96946  -3063420.51045  23786023.3604   23786036.5914   23786025.596
        39.0004         35.0004
   -908395.57847   -688243.80046  24051687.8264   24051701.6744   24051687.586
        42.0004         38.0004
 -13380926.87047 -10420819.98846  23488729.6384   23488740.3674   23488731.149
        44.0004         40.0004
 -13340370.69549 -10375239.64548  19988797.6014   19988804.2574   19988797.748
        54.0004         50.0004
 -19095712.39148 -14850097.53447  21007791.7374   21007798.1164   21007791.468
        52.0004         47.0004
  21186803.60746  16503691.79845  24772220.0194   24772225.9024   24772218.650
        39.0004         35.0004
  -6135387.02347  -4760857.26446  23227309.7444   23227317.3704   23227310.213
        45.0004         40.0004
 -25767314.73949 -20032393.98348  19902977.3874   19902983.9894   19902977.901
        54.0004         49.0004
    157748.76546    148026.90745  24789589.2864   24789604.2234   24789590.330
        39.0004         33.0004
 -11300232.49448  -8751544.11747  22999208.3974   22999216.3924   22999208.329
        48.0004         43.0004
 -24045923.01348 -18689639.58348  20743189.0714   20743195.5604   20743188.420
        52.0004         48.0004
  -7300777.37547  -5652281.87646  23138415.6574   23138424.2594   23138415.742
        46.0004         41.0004
 14  5 20  0  8 30.0000000  0 12G20G26G10G09G07G13G02G08G01G17G04G28
  -3979453.14846  -3044948.43545  23790536.2544   23790544.0484   23790536.155
        39.0004         34.0004
   -907204.66247   -687315.70446  24051914.1044   24051927.7494   24051914.147
        42.0004         38.0004
 -13446372.06147 -10471816.09546  23476277.0914   23476285.6384   23476277.273
        44.0004         40.0004
 -13331545.77949 -10368363.04548  19990476.7484   19990483.2674   19990476.953
        54.0004         50.0004
 -19024836.37148 -14794869.45247  21021279.2994   21021285.2704   21021278.887
        52.0004         47.0004
  21248902.60346  16552080.71745  24784037.3514   24784042.5214   24784036.647
        40.0004         35.0004
  -6218485.19347  -4825608.92846  23211496.8564   23211503.5464   23211496.353
        45.0004         40.0004
 -25755037.77349 -20022827.47548  19905313.4664   19905320.1914   19905313.940
        54.0004         49.0004
    264327.84046    231075.55645  24809871.8744   24809887.9734   24809871.205
        39.0004         34.0004
 -11258247.51148  -8718828.49247  23007199.0024   23007206.6174   23007197.914
        48.0004         43.0004
 -24095882.02648 -18728568.60848  20733681.2824   20733688.4994   20733681.188
        53.0004         48.0004
  -7357212.71047  -5696257.30447  23127675.8484   23127684.8074   23127676.787
        46.0004         42.0004
 14  5 20  0  9  0.0000000  0 11G20G26G10G09G07G13G02G08G17G04G28
  -3955436.45846  -3026234.11645  23795106.8364   23795116.2854   23795106.515
        39.0004         34.0004
   -905757.21347   -686187.69246  24052191.4574   24052203.9394   24052190.525
        42.0004         38.0004
 -13511968.85747 -10522930.33346  23463793.4524   23463801.6814   23463794.518
        45.0004         40.0004
 -13322112.36849 -10361012.28948  19992272.0654   19992278.3774   19992272.111
        54.0004         50.0004
 -18953508.77948 -14739289.49447  21034852.5134   21034857.8584   21034851.956
        52.0004         47.0004
  21310758.95046  16600280.55545  24795808.7744   24795815.7944   24795806.647
        40.0004         35.0004
  -6301309.60647  -4890147.26046  23195735.1254   23195741.5634   23195735.408
        45.0004         41.0004
 -25742094.96349 -20012742.12848  19907776.3604   19907783.0824   19907776.773
        54.0004         49.0004
 -11216317.30548  -8686155.57247  23015176.9954   23015184.8554   23015176.770
        48.0004         43.0004
 -24145339.81548 -18767107.07948  20724270.2224   20724276.8854   20724270.576
        53.0004         48.0004
  -7413756.15147  -5740316.95947  23116916.0984   23116925.2614   23116916.963
        46.0004         42.0004
 14  5 20  0  9 30.0000000  0 12G20G26G10G09G07G13G02G08G01G17G04G28
  -3931109.66646  -3007278.14045  23799735.5764   23799743.8744   23799735.553
        39.0004         34.0004
   -904055.64947   -684861.68246  24052514.0614   24052526.6754   24052512.737
        42.0004         38.0004
 -13577717.20347 -10574162.65046  23451282.4554   23451291.0064   23451282.953
        45.0004         40.0004
 -13312072.76949 -10353189.18148  19994182.7214   19994188.8074   19994182.547
        54.0004         50.0004
 -18881734.23548 -14683361.26347  21048510.5654   21048516.2424   21048510.136
        52.0004         47.0004
  21372370.41146  16648289.58445  24807531.6184   24807538.6724   24807531.121
        39.0004         35.0004
  -6383859.98447  -4954472.05546  23180027.0394   23180033.7884   23180026.954
        45.0004         41.0004
 -25728488.31749 -20002139.50848  19910365.6304   19910372.3914   19910366.037
        54.0004         49.0004
 -13701102.38756 -10651077.82955  24850469.4945   24850485.4075   24850470.499
        38.0004         33.0004
 -11174445.50548  -8653528.17347  23023145.2214   23023153.7954   23023144.577
        48.0004         43.0004
 -24194296.74648 -18805255.27248  20714954.2594   20714960.6234   20714953.044
        52.0004         48.0004
  -7470407.58047  -5784460.77146  23106135.3554   23106144.0934   23106136.318
        46.0004         41.0004
 14  5 20  0 10  0.0000000  0 12G20G26G10G09G07G13G02G08G01G17G04G28
  -3906472.20346  -2988080.09745  23804425.2874   23804432.4324   23804424.671
        39.0004         35.0004
   -902103.33147   -683340.27346  24052883.9874   24052897.6464   24052885.540
        42.0004         38.0004
 -13643615.72947 -10625512.00346  23438742.3554   23438751.2014   23438742.663
        45.0004         40.0004
 -13301428.34849 -10344894.78348  19996208.5994   19996214.3784   19996208.281
        54.0004         50.0004
 -18809515.83748 -14627087.17247  21062253.3704   21062258.6194   21062253.023
        52.0004         47.0004
  21433735.64946  16696106.72945  24819208.3714   24819218.3684   24819208.209
        39.0004         35.0004
  -6466134.29447  -5018581.74646  23164370.2414   23164377.5334   23164370.507
        45.0004         41.0004
 -25714218.92749 -19991020.46348  19913081.3084   19913087.4654   19913081.505
        54.0004         49.0004
 -13594339.02656 -10567885.58855  24870784.4385   24870802.7875   24870786.163
        38.0004         33.0004
 -11132634.82948  -8620948.38247  23031100.6204   23031109.7074   23031100.784
        48.0004         43.0004
 -24242751.63548 -18843012.25348  20705732.9804   20705740.1454   20705733.300
        52.0004         48.0004
  -7527165.00647  -5828687.16946  23095335.4424   23095344.3204   23095335.682
        46.0004         41.0004
 14  5 20  0 10 30.0000000  0 12G20G26G10G09G07G13G02G08G01G17G04G28
  -3881521.36146  -2968637.86845  23809172.5434   23809183.0644   23809171.696
        39.0004         34.0004
   -899899.39747   -681622.82046  24053304.5974   24053316.3264   24053303.713
        42.0004         38.0004
 -13709661.48247 -10676976.07846  23426173.7004   23426182.3424   23426173.955
        45.0004         40.0004
 -13290178.05449 -10336128.27548  19998348.8054   19998355.2184   19998349.063
        54.0004         50.0004
 -18736854.26548 -14570467.74347  21076080.2494   21076086.2614   21076079.597
        52.0004         47.0004
  21494855.81546  16743732.94345  24830839.6934   24830847.4084   24830838.711
        39.0004         35.0004
  -6548128.70547  -5082473.32146  23148767.3054   23148774.4744   23148767.334
        45.0004         41.0004
 -25699285.52549 -19979384.01048  19915922.3844   19915929.3994   19915923.066
        54.0004         49.0004
 -13487518.35146 -10484648.69345  24891115.2994   24891131.7644   24891114.040
        38.0004         33.0004
 -11090885.41248  -8588416.31747  23039046.2264   23039054.2104   23039045.232
        48.0004         43.0004
 -24290701.01348 -18880375.34348  20696608.9564   20696615.4704   20696608.356
        52.0004         48.0004
  -7584024.53147  -5872993.12046  23084514.5854   23084522.1284   23084515.123
        46.0004         41.0004
 14  5 20  0 11  0.0000000  0 12G20G26G10G09G07G13G02G08G01G17G04G28
  -3856260.21746  -2948953.84645  23813980.9004   23813984.5424   23813979.646
        39.0004         34.0004
   -897450.25347   -679714.26946  24053770.0794   24053783.1024   24053770.953
        43.0004         38.0004
 -13775856.70047 -10728556.61346  23413577.0264   23413586.3854   23413577.573
        45.0004         40.0004
 -13278326.42449 -10326893.19848  20000604.3214   20000610.7064   20000604.227
        54.0004         50.0004
 -18663756.03648 -14513508.07447  21089990.7664   21089996.4924   21089990.149
        52.0004         47.0004
  21555726.00546  16791164.33145  24842423.4754   24842432.5764   24842421.726
        39.0004         34.0004
  -6629844.79447  -5146148.02546  23133216.3664   23133224.0584   23133216.522
        45.0004         41.0004
 -25683692.40049 -19967233.48748  19918890.0064   19918896.3934   19918890.369
        54.0004         49.0004
                 -10401372.15155                  24911467.9025   24911450.580
                        33.0004
 -11049203.23148  -8555936.64647  23046977.1014   23046986.0504   23046977.415
        48.0004         43.0004
 -24338147.31048 -18917346.41248  20687580.0744   20687586.0484   20687579.227
        52.0004         48.0004
  -7640987.86347  -5917379.97546  23073675.5534   23073684.3484   23073675.641
        46.0004         41.0004
 14  5 20  0 11 30.0000000  0 11G20G26G10G09G07G13G02G08G17G04G28
  -3830684.83646  -2929024.93345  23818845.1694   23818856.7074   23818846.119
        39.0004         34.0004
   -894755.06047   -677614.01946  24054282.7334   24054297.1604   24054282.802
        43.0004         38.0004
 -13842196.14347 -10780249.53046  23400953.0564   23400961.4324   23400953.411
        45.0004         40.0004
 -13265870.96649 -10317187.60048  20002974.4134   20002980.7164   20002974.288
        54.0004         50.0004
 -18590220.73848 -14456207.82447  21103983.3844   21103989.6174   21103983.188
        52.0004         47.0004
  21616348.73346  16838402.89445  24853959.6344   24853967.5534   24853958.294
        39.0004         34.0004
  -6711277.31747  -5209601.78046  23117720.5814   23117726.8214   23117720.884
        45.0004         41.0004
 -25667436.97249 -19954566.88348  19921983.2394   19921989.6914   19921983.730
        54.0004         49.0004
 -11007587.07348  -8523508.42547  23054896.9454   23054904.8734   23054896.845
        48.0004         43.0004
 -24385085.81348 -18953921.80548  20678647.9284   20678654.2274   20678647.525
        52.0004         48.0004
  -7698050.00647  -5961843.83646  23062816.3444   23062824.1274   23062816.720
        46.0004         41.0004
 14  5 20  0 12  0.0000000  0 11G20G26G10G09G07G13G02G08G17G04G28
 -16408154.28046 -12729650.45245  23823772.6114   23823782.7454   23823771.944
        39.0004         34.0004
   -891816.05947   -675323.77146  24054843.6254   24054855.1214   24054842.353
        43.0004         38.0004
 -13908679.14247 -10832054.31646  23388301.2074   23388310.4224   23388301.108
        45.0004         40.0004
 -13252813.40449 -10307012.83048  20005459.4394   20005465.3414   20005459.253
        54.0004         50.0004
 -18516251.28048 -14398569.26847  21118059.6314   21118065.5454   21118059.185
        52.0004         47.0004
  21676722.90046  16885447.76745  24865446.9664   24865459.5714   24865447.552
        39.0004         34.0004
  -6792424.52847  -5272833.21046  23102277.7974   23102284.4044   23102278.355
        45.0004         41.0004
 -25650520.54849 -19941385.22048  19925202.5524   19925208.9094   19925202.970
        54.0004         49.0004
 -10966039.69348  -8491133.79947  23062803.6804   23062812.0694   23062802.986
        48.0004         43.0004
 -24431515.42848 -18990100.66548  20669812.4274   20669819.4094   20669811.763
        52.0004         48.0004
  -7755209.14847  -6006383.28346  23051940.7544   23051946.1474   23051939.450
        46.0004         41.0004
 14  5 20  0 12 30.0000000  0 11G20G26G10G09G07G13G02G08G17G04G28
 -16381945.68046 -12709228.15645  23828759.5544   23828770.2884   23828760.134
        39.0004         35.0004
   -888633.28147   -672843.55646  24055447.1464   24055459.9664   24055447.209
        42.0004         38.0004
 -13975301.96747 -10883968.05046  23375622.9054   23375631.9404   23375624.119
        45.0004         41.0004
 -13239152.52849 -10296367.94548  20008058.6894   20008064.8624   20008058.585
        54.0004         50.0004
 -18441849.00048 -14340593.44847  21132218.0144   21132223.5714   21132217.141
        52.0004         47.0004
  21736849.73746  16932299.93145  24876889.2034   24876895.6514   24876888.213
        39.0004         34.0004
  -6873282.73947  -5335839.45246  23086891.5144   23086897.3564   23086891.513
        45.0004         41.0004
 -25632941.62249 -19927687.31848  19928547.8814   19928554.0914   19928547.614
        54.0004         49.0004
 -10924560.90048  -8458812.62047  23070695.7564   23070704.3874   23070695.576
        48.0004         43.0004
 -24477432.87048 -19025880.42348  20661074.5164   20661081.3084   20661074.321
        52.0004         48.0004
  -7812460.92447  -6050994.91046  23041044.6504   23041052.7794   23041045.313
        46.0004         41.0004
 14  5 20  0 13  0.0000000  0 11G20G26G10G09G07G13G02G08G17G04G28
 -16355425.00146 -12688562.67345  23833803.6314   23833813.3704   23833806.731
        39.0004         34.0004
   -885215.10247   -670179.91446  24056099.2554   24056111.8814   24056098.198
        42.0004         37.0004
 -14042069.35347 -10935994.43946  23362917.5254   23362926.5574   23362918.325
        45.0004         41.0004
 -13224895.43649 -10285258.47948  20010771.7124   20010777.6814   20010771.749
        54.0004         50.0004
 -18367022.61048 -14282287.16247  21146457.5004   21146462.7674   21146456.952
        51.0004         47.0004
  21796722.10146  16978953.81045  24888281.6224   24888291.4864   24888282.102
        39.0004         34.0004
  -6953856.13547  -5398623.75946  23071558.6384   23071565.8464   23071559.787
        46.0004         41.0004
 -25614706.95849 -19913478.45748  19932017.7214   19932023.9754   19932017.870
        54.0004         49.0004
 -10883159.09548  -8426551.42547  23078574.5734   23078583.5464   23078574.460
        48.0004         43.0004
 -24522842.80748 -19061264.72948  20652433.3914   20652439.8154   20652433.036
        53.0004         48.0004
  -7869809.61747  -6095682.05846  23030132.2584   23030139.5914   23030131.879
        46.0004         41.0004
 14  5 20  0 13 30.0000000  0 11G20G26G10G09G07G13G02G08G17G04G28
 -16328586.43246 -12667649.45245  23838914.3904   23838922.5254   23838913.767
        39.0004         34.0004
   -881558.83347   -667330.73746  24056794.2044   24056805.9694   24056794.299
        42.0004         38.0004
 -14108974.94947 -10988128.52146  23350185.6704   23350195.1514   23350186.639
        45.0004         41.0004
 -13210038.41749 -10273681.53748  20013598.9984   20013604.7204   20013598.714
        54.0004         50.0004
 -18291769.97648 -14223648.73047  21160777.1434   21160782.4844   21160776.480
        51.0004         47.0004
  21856344.15546  17025412.62045  24899626.8934   24899638.0744   24899628.657
        39.0004         35.0004
  -7034137.74447  -5461180.69046  23056281.2794   23056289.1834   23056282.234
        46.0004         41.0004
 -25595812.58849 -19898755.53848  19935613.0044   19935619.2994   19935613.195
        54.0004         49.0004
 -10841831.43448  -8394348.01147  23086438.5004   23086447.6594   23086438.612
        48.0004         43.0004
 -24567739.21748 -19096248.88148  20643889.9854   20643896.7634   20643889.280
        53.0004         48.0004
  -7927248.18147  -6140439.24246  23019201.6714   23019208.7624   23019201.359
        46.0004         41.0004
 14  5 20  0 14  0.0000000  0 11G20G26G10G09G07G13G02G08G17G04G28
 -16301429.87546 -12646488.50145  23844082.0254   23844090.6214   23844081.849
        39.0004         34.0004
   -877667.51147   -664298.41046  24057535.0044   24057546.7004   24057534.101
        42.0004         37.0004
 -14176017.93147 -11040369.65046  23337427.7694   23337437.1504   23337429.370
        45.0004         41.0004
 -13194583.51349 -10261638.72048  20016539.8734   20016546.0654   20016539.937
        54.0004         50.0004
 -18216094.79848 -14164681.05047  21175177.7114   21175182.9854   21175177.169
        51.0004         47.0004
  21915714.21246  17071675.10345  24910926.4614   24910935.9704   24910925.524
        39.0004         34.0004
  -7114126.80347  -5523509.67146  23041060.0404   23041067.3684   23041060.311
        46.0004         41.0004
 -25576260.29548 -19883519.95548  19939333.5754   19939340.0104   19939333.777
        53.0004         49.0004
 -10800580.95348  -8362204.72047  23094288.9434   23094296.7424   23094288.425
        48.0004         43.0004
 -24612121.67048 -19130832.54648  20635443.9704   20635450.5314   20635443.776
        53.0004         48.0004
  -7984775.61247  -6185265.67146  23008253.5834   23008261.8624   23008254.302
        46.0004         41.0004
 14  5 20  0 14 30.0000000  0 11G20G26G10G09G07G13G02G08G17G04G28
 -16273953.45946 -12625078.29945  23849313.1034   23849322.1254   23849309.981
        39.0004         34.0004
   -873541.88647   -661083.51046  24058320.5844   24058332.6614   24058319.129
        42.0004         38.0004
 -14243195.07247 -11092715.32846  23324644.4014   23324654.4414   23324645.511
        45.0004         41.0004
 -13178530.26149 -10249129.64948  20019594.4134   20019600.9414   20019594.569
        54.0004         50.0004
 -18139998.47748 -14105385.20247  21189657.8104   21189663.4084   21189657.679
        51.0004         47.0004
  21974832.79446  17117741.60445  24922176.1074   24922184.6814   24922175.159
        39.0004         34.0004
  -7193819.57047  -5585607.77446  23025894.2364   23025901.5964   23025895.515
        46.0004         41.0004
 -25556049.53348 -19867771.27948  19943179.3584   19943185.8534   19943179.939
        53.0004         49.0004
 -10759408.46848  -8330122.20447  23102124.2184   23102132.0494   23102123.180
        48.0004         43.0004
 -24655987.55348 -19165013.69348  20627097.0014   20627103.0754   20627096.603
        53.0004         48.0004
  -8042388.60447  -6230158.77346  22997289.6264   22997297.9104   22997290.921
        46.0004         41.0004
 14  5 20  0 15  0.0000000  0 11G20G26G10G09G07G13G02G08G17G04G28
 -16246156.53946 -12603418.31245  23854600.0604   23854610.3494   23854600.011
        39.0004         34.0004
   -869184.19247   -657687.75046  24059147.8744   24059161.4514   24059148.343
        42.0004         38.0004
 -14310505.29947 -11145164.71546  23311836.4474   23311844.6204   23311836.372
        45.0004         41.0004
 -13161879.93449 -10236155.33148  20022763.1134   20022769.0294   20022763.079
        54.0004         50.0004
 -18063484.31248 -14045763.76347  21204217.8934   21204224.0854   21204217.864
        51.0004         47.0004
  22033699.09646  17163611.55745  24933376.4184   24933383.0554   24933376.758
        39.0004         34.0004
  -7273214.09647  -5647473.48446  23010787.2524   23010793.3804   23010787.013
        46.0004         41.0004
 -25535181.22548 -19851510.22748  19947150.6194   19947156.9164   19947150.901
        53.0004         49.0004
 -10718315.91748  -8298101.98347  23109943.2714   23109951.1494   23109942.865
        48.0004         43.0004
 -24699335.43248 -19198791.19948  20618847.7004   20618854.2884   20618846.889
        53.0004         48.0004
  -8100084.72247  -6275116.64446  22986310.3734   22986318.2284   22986311.236
        46.0004         41.0004
 14  5 20  0 15 30.0000000  0 11G20G26G10G09G07G13G02G08G17G04G28
 -16218038.92746 -12581508.44045  23859949.3334   23859962.2214   23859950.328
        39.0004         34.0004
   -864597.31347   -654113.42446  24060021.2534   24060035.9534   24060020.650
        42.0004         38.0004
 -14377947.43547 -11197716.87846  23299002.0744   23299010.0034   23299002.503
        45.0004         40.0004
 -13144634.41049 -10222717.22148  20026045.0544   20026050.7024   20026044.849
        54.0004         50.0004
 -17986555.75048 -13985819.41747  21218857.5984   21218863.1934   21218857.014
        51.0004         47.0004
  22092311.74646  17209283.79545  24944529.4944   24944539.5474   24944530.902
        39.0004         34.0004
  -7352309.50047  -5709106.11246  22995734.8764   22995741.7044   22995734.753
        46.0004         41.0004
 -25513656.85049 -19834737.95548  19951246.3264   19951253.1974   19951246.745
        54.0004         49.0004
 -10677306.29748  -8266146.37847  23117747.2334   23117755.6504   23117746.496
        48.0004         43.0004
 -24742165.00148 -19232164.82048  20610697.7604   20610703.9154   20610697.442
        53.0004         48.0004
  -8157862.47647  -6320138.13246  22975316.5934   22975324.6514   22975316.655
        46.0004         41.0004
 14  5 20  0 16  0.0000000  0 11G20G26G10G09G07G13G02G08G17G04G28
 -16189599.35046 -12559347.74345  23865362.6184   23865371.5084   23865361.832
        39.0004         34.0004
   -859782.70647   -650361.63346  24060936.9524   24060949.4304   24060936.171
        42.0004         38.0004
 -14445519.19347 -11250370.04346  23286143.3924   23286152.6224   23286143.684
        45.0004         41.0004
 -13126794.04649 -10208815.60248  20029439.5444   20029445.5354   20029439.553
        54.0004         50.0004
 -17909214.87248 -13925553.79147  21233574.9014   21233580.2424   21233574.230
        51.0004         47.0004
  22150670.68946  17254758.39145  24955635.4674   24955647.2794   24955635.839
        38.0004         33.0004
  -7431102.93147  -5770503.44646  22980741.2064   22980749.0704   22980741.197
        46.0004         41.0004
 -25491476.81549 -19817454.78548  19955467.3814   19955473.9204   19955467.753
        54.0004         49.0004
 -10636380.81248  -8234256.33447  23125535.1394   23125543.0004   23125534.493
        48.0004         43.0004
 -24784474.22948 -19265132.98848  20602646.7314   20602652.7864   20602646.077
        53.0004         48.0004
  -8215719.07647  -6365221.06446  22964306.7344   22964314.7364   22964306.601
        46.0004         41.0004
 14  5 20  0 16 30.0000000  0 11G20G26G10G09G07G13G02G08G17G04G28
 -16160838.30046 -12536936.48845  23870834.4934   23870843.8844   23870835.192
        39.0004         34.0004
   -854743.74647   -646435.03646  24061896.7064   24061908.4604   24061895.956
        42.0004         38.0004
 -14513220.29147 -11303123.99746  23273259.8224   23273269.0744   23273260.661
        45.0004         41.0004
 -13108361.46449 -10194452.51948  20032947.2344   20032952.9054   20032947.302
        54.0004         50.0004
 -17831465.83648 -13864970.11647  21248370.3664   21248375.6834   21248369.771
        51.0004         47.0004
  22208774.19446  17300033.91745  24966694.7474   24966699.0214   24966692.509
        38.0004         34.0004
  -7509593.93047  -5831665.12046  22965804.4784   22965810.8734   22965805.276
        46.0004         41.0004
 -25468643.39649 -19799662.48548  19959812.2084   19959818.6324   19959812.699
        54.0004         49.0004
 -10595542.61747  -8202434.29247  23133305.0644   23133314.0044   23133305.561
        47.0004         43.0004
 -24826263.25948 -19297695.80748  20594694.0564   20594700.5024   20594693.303
        53.0004         48.0004
  -8273653.78547  -6410364.86146  22953281.4234   22953290.3144   22953281.995
        46.0004         41.0004
 14  5 20  0 17  0.0000000  0 11G20G26G10G09G07G13G02G08G17G04G28
 -16131753.38546 -12514272.89545  23876368.1904   23876381.5434   23876370.445
        39.0004         34.0004
   -849481.13447   -642334.14646  24062898.0574   24062909.2774   24062897.012
        42.0004         38.0004
 -14581047.62147 -11355976.31346  23260352.5854   23260361.1424   23260353.512
        45.0004         40.0004
 -13089336.41849 -10179627.76748  20036567.5694   20036573.5984   20036567.408
        54.0004         50.0004
 -17753309.78348 -13804069.28547  21263242.3684   21263248.5424   21263241.897
        51.0004         47.0004
  22266622.83646  17345110.84445  24977702.9704   24977711.6864   24977699.875
        38.0004         34.0004
  -7587778.85147  -5892588.29046  22950926.2774   22950932.0224   22950926.120
        46.0004         41.0004
 -25445156.00149 -19781360.59248  19964281.8154   19964288.2524   19964282.074
        54.0004         49.0004
 -10554792.47847  -8170680.87947  23141060.7104   23141068.4684   23141060.110
        47.0004         43.0004
 -24867529.08548 -19329850.92948  20586841.6034   20586848.1004   20586841.346
        53.0004         48.0004
  -8331662.81647  -6455566.56746  22942243.0154   22942250.7944   22942242.898
        46.0004         41.0004
 14  5 20  0 17 30.0000000  0 11G20G26G10G09G07G13G02G08G17G04G28
 -16102344.16546 -12491356.61345  23881965.5914   23881976.4164   23881966.552
        39.0004         34.0004
   -843997.03247   -638060.67546  24063940.8284   24063952.8254   24063941.113
        42.0004         38.0004
 -14648999.44547 -11408925.63846  23247421.8254   23247430.6284   23247423.098
        45.0004         41.0004
 -13069720.01649 -10164342.22748  20040300.4074   20040306.2504   20040300.284
        54.0004         50.0004
 -17674749.96248 -13742853.83147  21278191.8274   21278198.0354   21278191.300
        51.0004         46.0004
  22324216.05346  17389988.76345  24988657.3664   24988667.6094   24988660.336
        38.0004         33.0004
  -7665655.56847  -5953271.30146  22936105.8224   22936113.5774   22936107.013
        46.0004         41.0004
 -25421015.63749 -19762549.89348  19968875.5104   19968882.0254   19968875.766
        54.0004         49.0004
 -10514132.10447  -8138997.41947  23148797.1154   23148807.0444   23148797.497
        47.0004         43.0004
 -24908270.69248 -19361597.57548  20579088.6414   20579094.6964   20579087.781
        53.0004         48.0004
  -8389743.94747  -6500824.45846  22931189.7374   22931197.0144   22931190.454
        46.0004         41.0004
 14  5 20  0 18  0.0000000  0 11G20G26G10G09G07G13G02G08G17G04G28
 -16072607.67746 -12468185.28545  23887623.1474   23887636.2834   23887625.239
        39.0004         35.0004
   -838291.31647   -633614.52046  24065026.4284   24065038.4014   24065026.661
        42.0004         38.0004
 -14717071.55347 -11461968.70346  23234467.7914   23234476.9074   23234469.107
        45.0004         41.0004
 -13049511.00949 -10148594.91348  20044145.8034   20044151.9964   20044146.022
        54.0004         50.0004
 -17595786.81548 -13681324.10247  21293218.1964   21293223.8044   21293217.668
        51.0004         46.0004
  22381555.33246  17434668.80245  24999572.5024   24999578.9034   24999571.833
        38.0004         34.0004
  -7743219.96647  -6013710.94047  22921346.8404   22921352.8044   22921347.780
        46.0004         42.0004
 -25396221.08549 -19743229.43748  19973593.6184   19973600.1234   19973594.059
        54.0004         49.0004
 -10473561.34747  -8107383.78147  23156518.6364   23156526.8834   23156517.738
        47.0004         43.0004
 -24948484.72348 -19392933.12448  20571436.0424   20571442.3844   20571435.866
        53.0004         48.0004
  -8447892.49247  -6546134.87146  22920124.9744   22920132.3314   22920125.067
        46.0004         41.0004
 14  5 20  0 18 30.0000000  0 11G20G26G10G09G07G13G02G08G17G04G28
 -16042549.02946 -12444762.94845  23893345.4074   23893356.6684   23893345.848
        39.0004         35.0004
   -832371.95447   -629001.88846  24066152.3154   24066165.4074   24066152.495
        42.0004         37.0004
 -14785268.11147 -11515108.72746  23221490.7124   23221498.9664   23221491.507
        45.0004         41.0004
 -13028716.62449 -10132391.46248  20048102.9234   20048108.5954   20048103.063
        54.0004         50.0004
 -17516429.19048 -13619486.98147  21308319.2874   21308324.5854   21308318.868
        51.0004         46.0004
  22438634.47746  17479146.12245  25010433.1294   25010439.9154   25010433.747
        38.0004         34.0004
  -7820476.12747  -6073910.38947  22906646.4204   22906651.3284   22906645.577
        46.0004         42.0004
 -25370779.32948 -19723404.66548  19978435.2194   19978441.3274   19978435.465
        53.0004         49.0004
 -10433088.16847  -8075846.17247  23164220.0084   23164227.9024   23164219.489
        47.0004         43.0004
 -24988175.62648 -19423861.04248  20563883.0354   20563889.6344   20563882.734
        53.0004         48.0004
  -8506112.12547  -6591500.69746  22909046.0154   22909054.2844   22909046.438
        46.0004         41.0004
 14  5 20  0 19  0.0000000  0 11G20G26G10G09G07G13G02G08G17G04G28
 -16012163.48146 -12421085.84545  23899125.6714   23899136.1704   23899127.253
        39.0004         34.0004
   -826237.02247   -624221.28946  24067321.2444   24067332.4204   24067320.456
        42.0004         37.0004
 -14853583.48147 -11568341.34546  23208491.3384   23208499.2294   23208491.347
        45.0004         41.0004
 -13007334.12949 -10115729.74348  20052171.8004   20052177.7774   20052171.787
        54.0004         50.0004
 -17436675.58148 -13557341.30547  21323495.9224   21323501.3714   21323495.568
        51.0004         46.0004
  22495456.96546  17523423.44945  25021247.6464   25021253.0704   25021246.265
        38.0004         33.0004
  -7897418.03247  -6133864.97147  22892002.9804   22892010.0674   22892004.453
        46.0004         42.0004
 -25344687.32948 -19703073.21248  19983400.5934   19983406.2894   19983400.604
        53.0004         49.0004
 -10392710.03647  -8044382.63547  23171903.6164   23171911.3884   23171902.742
        47.0004         43.0004
 -25027338.29348 -19454377.34548  20556430.0834   20556437.4144   20556429.749
        53.0004         48.0004
  -8564396.56747  -6636917.02046  22897954.5014   22897962.0704   22897955.263
        46.0004         41.0004
 14  5 20  0 19 30.0000000  0 11G20G26G10G09G07G13G02G08G17G04G28
 -15981451.02346 -12397154.05345  23904972.5684   23904984.0484   23904971.861
        38.0004         34.0004
   -819889.72047   -619275.20146  24068527.4844   24068540.9284   24068527.250
        42.0004         37.0004
 -14922016.51947 -11621665.65446  23195466.9414   23195476.3454   23195468.285
        45.0004         41.0004
 -12985365.68449 -10098611.44348  20056352.0824   20056358.5744   20056352.373
        54.0004         50.0004
 -17356530.14248 -13494890.29847  21338747.7034   21338752.3794   21338746.906
        51.0004         46.0004
  22552021.27046  17567499.60745  25032011.3654   25032018.7544   25032010.344
        38.0004         33.0004
  -7974044.53047  -6193573.77747  22877422.4074   22877428.6984   22877422.402
        46.0004         42.0004
 -25317947.15248 -19682236.68248  19988488.8474   19988495.4674   19988488.905
        53.0004         49.0004
 -10352429.92047  -8012995.47047  23179568.4734   23179577.0464   23179568.213
        47.0004         43.0004
 -25065972.49548 -19484481.85748  20549078.7684   20549084.7324   20549078.574
        53.0004         48.0004
  -8622744.38347  -6682382.72046  22886851.2644   22886859.2144   22886851.722
        46.0004         41.0004
 14  5 20  0 20  0.0000000  0 11G20G26G10G09G07G13G02G08G17G04G28
 -15950410.74546 -12372966.80645  23910879.5054   23910887.4834   23910878.165
        39.0004         34.0004
   -813331.23347   -614164.55546  24069775.6044   24069788.5734   24069776.314
        42.0004         37.0004
 -14990564.77947 -11675079.74546  23182423.3564   23182432.1334   23182424.526
        45.0004         41.0004
 -12962811.73349 -10081036.90048  20060644.2824   20060650.0884   20060644.353
        54.0004         50.0004
 -17275994.79348 -13432135.47847  21354072.5144   21354077.8894   21354072.328
        51.0004         46.0004
                  17611374.76845                  25042731.0954   25042724.192
                        33.0004
  -8050352.78947  -6253034.60947  22862900.9014   22862907.0884   22862901.243
        46.0004         42.0004
 -25290559.27948 -19660895.45648  19993700.4934   19993706.6774   19993700.841
        53.0004         49.0004
 -10312248.94847  -7981685.56347  23187214.8594   23187223.5154   23187214.487
        47.0004         43.0004
 -25104076.37748 -19514173.13348  20541827.4114   20541833.8624   20541827.160
        53.0004         48.0004
  -8681152.46947  -6727895.38947  22875736.4164   22875744.6564   22875736.907
        46.0004         42.0004
 14  5 20  0 20 30.0000000  0 11G20G26G10G09G07G13G02G08G17G04G28
 -15919043.32346 -12348524.61545  23916844.8864   23916855.9214   23916846.876
        38.0004         34.0004
   -806565.37047   -608892.32346  24071061.4334   24071075.3474   24071062.939
        42.0004         37.0004
 -15059228.28947 -11728583.63946  23169357.0534   23169365.3844   23169358.347
        45.0004         41.0004
 -12939675.21649 -10063008.41348  20065046.8954   20065053.0434   20065046.727
        54.0004         50.0004
 -17195074.01748 -13369080.31447  21369471.5824   21369477.1894   21369471.057
        51.0004         46.0004
  22664374.11046  17655047.41645  25053390.7514   25053401.0684   25053388.674
        38.0004         33.0004
  -8126342.27947  -6312247.05547  22848440.7324   22848445.6294   22848440.921
        46.0004         42.0004
 -25262526.28148 -19639051.54048  19999035.1934   19999041.0164   19999035.525
        53.0004         49.0004
 -10272170.56447  -7950455.59247  23194841.5474   23194849.9894   23194840.684
        47.0004         43.0004
 -25141650.46848 -19543451.58648  20534677.6404   20534683.9644   20534677.185
        53.0004         48.0004
  -8739620.08747  -6773454.45146  22864610.1304   22864617.0214   22864610.736
        46.0004         41.0004
 14  5 20  0 21  0.0000000  0 11G20G26G10G09G07G13G02G08G17G04G28
 -15887346.22246 -12323825.56245  23922879.7054   23922889.3904   23922878.372
        38.0004         34.0004
   -799592.67647   -603458.92846  24072389.4634   24072402.6804   24072390.048
        42.0004         38.0004
 -15128003.59247 -11782174.64146  23156269.6634   23156277.7854   23156270.484
        45.0004         41.0004
 -12915955.95449 -10044525.84048  20069560.4214   20069566.3494   20069560.588
        54.0004         50.0004
 -17113768.98048 -13305725.73147  21384942.8804   21384948.7644   21384942.788
        51.0004         46.0004
  22720161.58656  17698518.19355  25064006.8045   25064017.9315   25064005.374
        38.0004         33.0004
  -8202009.78447  -6371208.59447  22834041.5654   22834048.0744   22834041.940
        46.0004         42.0004
 -25233847.73048 -19616704.59048  20004491.9494   20004498.5714   20004492.618
        53.0004         49.0004
 -10232194.88147  -7919305.65347  23202448.9034   23202457.0184   23202448.057
        47.0004         42.0004
 -25178691.79348 -19572314.90048  20527628.5764   20527634.9444   20527628.385
        53.0004         48.0004
  -8798143.56347  -6819057.04547  22853473.2464   22853480.7384   22853473.550
        46.0004         42.0004
 14  5 20  0 21 30.0000000  0 11G20G26G10G09G07G13G02G08G17G04G28
 -15855319.35946 -12298869.54545  23928973.2064   23928984.0714   23928973.809
        38.0004         34.0004
   -792415.39647   -597866.09946  24073757.2864   24073767.5504   24073756.072
        42.0004         38.0004
 -15196888.58147 -11835851.11946  23143161.3394   23143169.2124   23143161.951
        45.0004         41.0004
 -12891655.46449 -10025590.36048  20074184.4624   20074190.5724   20074184.464
        54.0004         50.0004
 -17032082.90748 -13242074.24147  21400487.3584   21400492.4424   21400486.903
        51.0004         46.0004
  22775689.50246  17741786.74445  25074570.1654   25074577.8384   25074571.737
        38.0004         33.0004
  -8277353.64047  -6429917.95447  22819702.7104   22819709.4844   22819703.258
        46.0004         42.0004
 -25204525.07948 -19593855.74848  20010072.6644   20010078.6594   20010072.327
        53.0004         49.0004
 -10192323.77647  -7888237.19847  23210035.2064   23210043.7154   23210035.126
        47.0004         42.0004
 -25215199.57948 -19600762.46948  20520681.9224   20520688.0714   20520681.272
        53.0004         48.0004
  -8856720.06247  -6864700.94747  22842326.7534   22842334.9424   22842327.447
        46.0004         42.0004
 14  5 20  0 22  0.0000000  0 11G20G26G10G09G07G13G02G08G17G04G28
 -15822962.09546 -12273656.08545  23935131.0354   23935143.4574   23935130.837
        38.0004         34.0004
   -785035.82647   -592115.64246  24075160.8754   24075171.6104   24075159.569
        42.0004         38.0004
 -15265881.76447 -11889611.90846  23130031.7184   23130040.5834   23130032.724
        45.0004         41.0004
 -12866775.31049 -10006203.19848  20078919.0174   20078925.0834   20078919.200
        54.0004         50.0004
 -16950018.74248 -13178128.12847  21416103.5414   21416109.5264   21416103.243
        51.0004         46.0004
  19680117.14146  15329652.51045  25085087.5524   25085094.7974   25085089.304
        38.0004         33.0004
  -8352371.77247  -6488373.50847  22805428.3544   22805434.1424   22805427.664
        46.0004         42.0004
 -25174559.63648 -19570506.02648  20015774.2484   20015780.8784   20015774.783
        53.0004         49.0004
 -10152559.30147  -7857251.83147  23217602.9824   23217610.6554   23217601.892
        47.0004         43.0004
 -25251172.97048 -19628793.63548  20513835.8314   20513842.3194   20513835.220
        53.0004         48.0004
  -8915347.54647  -6910384.57047  22831170.9024   22831178.5044   22831170.598
        46.0004         42.0004
 14  5 20  0 22 30.0000000  0 11G20G26G10G09G07G13G02G08G17G04G28
 -15790274.16846 -12248184.96745  23941354.8384   23941355.9554   23941351.988
        38.0004         34.0004
   -777456.65547   -586209.65946  24076601.5284   24076613.6854   24076602.294
        43.0004         38.0004
 -15334981.60847 -11943455.80746  23116882.6414   23116891.0924   23116882.982
        45.0004         41.0004
 -12841317.22049  -9986365.69048  20083763.6874   20083769.5964   20083763.713
        54.0004         50.0004
 -16867579.87748 -13113890.04047  21431791.3184   21431796.8734   21431790.764
        51.0004         46.0004
  19735123.77346  15372514.88045  25095555.5604   25095564.8414   25095555.759
        38.0004         33.0004
  -8427063.04647  -6546574.35447  22791214.6814   22791220.7314   22791215.544
        46.0004         42.0004
 -25143953.08348 -19546656.73848  20021598.5064   20021604.7654   20021598.821
        53.0004         49.0004
 -10112903.86447  -7826351.43447  23225149.0514   23225156.9744   23225148.185
        47.0004         43.0004
 -25286611.44048 -19656407.96848  20507092.1114   20507098.7154   20507092.062
        53.0004         48.0004
  -8974024.17947  -6956106.50747  22820003.6524   22820011.7574   22820004.698
        47.0004         42.0004
 14  5 20  0 23  0.0000000  0 10G26G10G09G07G13G02G08G17G04G28
   -769678.58947   -580148.68746  24078082.4514   24078095.0004   24078082.019
        43.0004         38.0004
 -15404184.89647 -11997380.32146  23103713.9634   23103722.6634   23103714.853
        46.0004         41.0004
 -12815281.36349  -9966077.98148  20088717.9854   20088724.2944   20088718.035
        54.0004         50.0004
 -16784767.71248 -13049361.07147  21447549.3654   21447555.3034   21447549.381
        51.0004         46.0004
  19789870.31346  15415174.55245  25105974.0164   25105982.3154   25105975.051
        38.0004         33.0004
  -8501423.77547  -6604517.62447  22777064.3644   22777069.8364   22777064.758
        47.0004         42.0004
 -25112705.08048 -19522307.61648  20027545.1884   20027551.5914   20027545.422
        53.0004         49.0004
 -10073357.95847  -7795536.38547  23232674.0724   23232681.8864   23232673.465
        47.0004         43.0004
 -25321512.22248 -19683603.33348  20500450.5494   20500456.9024   20500450.343
        53.0004         48.0004
  -9032746.08447  -7001863.72047  22808829.7934   22808837.5824   22808830.127
        47.0004         42.0004
 14  5 20  0 23 30.0000000  0 11G20G26G10G09G07G13G02G08G17G04G28
 -15723902.71446 -12196466.93445  23953983.1944   23953988.7064   23953981.842
        38.0004         33.0004
   -761706.49147   -573936.52546  24079599.0824   24079612.0854   24079599.141
        43.0004         38.0004
 -15473492.32147 -12051385.98746  23090524.4044   23090533.0994   23090525.684
        46.0004         41.0004
 -12788672.21449  -9945343.54648  20093781.8954   20093787.6284   20093781.728
        54.0004         50.0004
 -16701588.09648 -12984545.77847  21463378.1144   21463383.9654   21463377.699
        51.0004         46.0004
  19844353.58146  15457629.06245  25116340.3634   25116351.6514   25116342.285
        38.0004         33.0004
  -8575454.87547  -6662204.05747  22762976.4044   22762981.4304   22762976.771
        47.0004         42.0004
 -25080820.13548 -19497462.17448  20033612.5614   20033618.5524   20033612.645
        53.0004         49.0004
 -10033926.02647  -7764810.13447  23240177.9664   23240185.2204   23240177.195
        47.0004         43.0004
 -25355877.51548 -19710381.43048  20493911.2434   20493917.4774   20493910.819
        53.0004         48.0004
  -9091513.78947  -7047656.61847  22797646.4074   22797655.4124   22797647.172
        47.0004         42.0004
 14  5 20  0 24  0.0000000  0 11G20G26G10G09G07G13G02G08G17G04G28
 -15690218.38646 -12170219.38745  23960390.2034   23960397.6084   23960391.793
        38.0004         34.0004
   -753540.27247   -567573.09046  24081152.9284   24081164.7894   24081152.578
        43.0004         38.0004
 -15542899.59547 -12105469.44846  23077316.6834   23077323.9234   23077317.389
        46.0004         41.0004
 -12761488.63549  -9924161.50748  20098954.5324   20098960.6264   20098954.382
        54.0004         50.0004
 -16618041.50048 -12919444.52947  21479276.3434   21479282.3054   21479276.412
        50.0004         46.0004
  19898575.39346  15499879.87645  25126662.2314   25126671.7894   25126660.435
        38.0004         33.0004
  -8649152.31447  -6719630.49547  22748952.2944   22748958.2844   22748953.268
        47.0004         42.0004
 -25048297.15348 -19472119.56748  20039801.3464   20039807.3834   20039801.622
        53.0004         49.0004
  -9994607.33247  -7734172.13547  23247659.5254   23247667.3394   23247658.929
        47.0004         42.0004
 -25389703.82848 -19736739.55048  20487474.5114   20487480.3964   20487474.091
        53.0004         48.0004
  -9150322.38447  -7093481.38247  22786455.2914   22786463.3404   22786456.305
        47.0004         42.0004
 14  5 20  0 24 30.0000000  0 11G20G26G10G09G07G13G02G08G17G04G28
 -15656200.37746 -12143711.82245  23966862.1684   23966871.6094   23966863.939
        39.0004         34.0004
   -745182.20047   -561060.15746  24082743.6384   24082755.8814   24082742.734
        43.0004         38.0004
 -15612404.94447 -12159629.32446  23064090.3484   23064098.8214   23064090.975
        46.0004         41.0004
 -12733732.32649  -9902533.18448  20104236.1204   20104242.2444   20104236.415
        54.0004         50.0004
 -16534130.98148 -12854059.69847  21495243.9674   21495250.1224   21495243.720
        50.0004         46.0004
  19952535.51446  15541926.73245  25136931.8074   25136938.2384   25136928.426
        38.0004         33.0004
  -8722514.33147  -6776795.56747  22734991.8434   22734997.2884   22734991.761
        47.0004         42.0004
 -25015137.70248 -19446281.00348  20046111.0574   20046117.6934   20046111.545
        53.0004         49.0004
  -9955403.82447  -7703623.89747  23255119.4914   23255128.2534   23255119.160
        47.0004         43.0004
 -25422990.22248 -19762676.94848  20481140.1894   20481146.2824   20481139.435
        53.0004         48.0004
  -9209169.25647  -7139335.97947  22775257.6114   22775265.0964   22775257.773
        47.0004         42.0004
 14  5 20  0 25  0.0000000  0 11G20G26G10G09G07G13G02G08G17G04G28
 -15621848.89346 -12116944.43645  23973403.2324   23973412.5964   23973400.917
        39.0004         34.0004
   -736635.26147   -554400.04646  24084370.1474   24084381.8204   24084369.674
        43.0004         38.0004
 -15682007.31147 -12213864.80246  23050845.9594   23050854.2224   23050846.108
        46.0004         41.0004
 -12705405.70349  -9880460.45848  20109626.5844   20109632.5264   20109626.446
        54.0004         50.0004
 -16449860.36348 -12788394.26747  21511280.5524   21511285.8974   21511279.993
        50.0004         46.0004
  20006232.70446  15583768.76145  25147146.0214   25147153.8444   25147145.814
        38.0004         33.0004
  -8795539.65947  -6833698.27447  22721095.9844   22721100.9804   22721095.876
        47.0004         42.0004
 -24981343.84948 -19419948.10948  20052541.6604   20052547.9684   20052542.220
        53.0004         49.0004
  -9916317.99747  -7673167.35647  23262557.3234   23262566.0694   23262557.224
        47.0004         43.0004
 -25455736.76948 -19788193.68548  20474908.7764   20474914.8244   20474908.452
        53.0004         48.0004
  -9268053.05347  -7185219.34547  22764052.9044   22764059.4694   22764052.621
        47.0004         42.0004
 14  5 20  0 25 30.0000000  0 11G20G26G10G09G07G13G02G08G17G04G28
 -15587162.90246 -12089916.35445  23980005.3614   23980011.6434   23980002.794
        39.0004         34.0004
   -727901.22947   -547594.15946  24086031.0064   24086042.8224   24086030.832
        43.0004         38.0004
 -15751704.12647 -12268173.88247  23037582.5684   23037592.3434   23037583.390
        46.0004         42.0004
 -12676510.13749  -9857944.40148  20115125.2284   20115131.1614   20115125.205
        54.0004         50.0004
 -16365232.07948 -12722450.13847  21527384.6044   21527390.1984   21527384.272
        50.0004         46.0004
  20059666.96246  15625405.88545  25157316.7344   25157324.8534   25157314.259
        38.0004         33.0004
  -8868226.26447  -6890337.05247  22707264.0624   22707268.9134   22707263.856
        47.0004         42.0004
 -24946916.65248 -19393121.69448  20059093.2374   20059099.2474   20059093.666
        53.0004         49.0004
  -9877351.22147  -7642803.58247  23269973.0194   23269980.7104   23269971.858
        47.0004         43.0004
 -25487942.04148 -19813288.65848  20468780.2844   20468786.2264   20468779.486
        53.0004         48.0004
  -9326970.76147  -7231129.14947  22752840.3934   22752847.0624   22752840.625
        47.0004         42.0004
 14  5 20  0 26  0.0000000  0 11G20G26G10G09G07G13G02G08G17G04G28
 -15552142.24746 -12062627.57745  23986665.2314   23986675.3764   23986665.778
        39.0004         34.0004
   -718982.26647   -540644.16846  24087729.8874   24087740.1624   24087728.854
        43.0004         38.0004
 -15821493.65347 -12322555.20946  23024302.8144   23024310.5064   23024302.278
        46.0004         41.0004
 -12647046.99349  -9834986.07448  20120731.7694   20120737.7794   20120731.691
        54.0004         50.0004
 -16280249.17948 -12656229.68747  21543556.8524   21543562.0294   21543556.012
        50.0004         45.0004
  20112837.66746  15666837.64645  25167430.3024   25167435.9004   25167433.048
        37.0004         33.0004
  -8940572.16847  -6946710.33947  22693495.2254   22693502.0934   22693496.888
        47.0004         42.0004
 -24911857.61948 -19365802.94148  20065764.8084   20065770.7264   20065764.750
        53.0004         49.0004
  -9838505.69647  -7612534.29747  23277364.3344   23277373.0934   23277364.248
        47.0004         43.0004
 -25519605.29548 -19837961.27248  20462754.7634   20462760.6064   20462754.451
        53.0004         48.0004
  -9385920.17047  -7277063.63947  22741622.8944   22741629.1754   22741623.171
        47.0004         42.0004
 14  5 20  0 26 30.0000000  0 11G20G26G10G09G07G13G02G08G17G04G28
 -15516786.21046 -12035077.37245  23993393.2354   23993403.3174   23993394.302
        39.0004         34.0004
   -709880.85647   -533551.99746  24089460.4974   24089472.2154   24089460.277
        43.0004         38.0004
 -15891374.13747 -12377007.41446  23011003.6914   23011012.5154   23011004.277
        46.0004         41.0004
 -12617018.05449  -9811586.86848  20126446.2344   20126451.9694   20126446.272
        54.0004         50.0004
 -16194914.74448 -12589735.31547  21559795.3884   21559800.1164   21559794.750
        50.0004         45.0004
  20165744.44046  15708063.72945  25177501.4314   25177508.0144   25177502.099
        38.0004         33.0004
  -9012575.67647  -7002816.83147  22679795.0204   22679800.8794   22679794.997
        47.0004         43.0004
 -24876168.47348 -19337993.19848  20072556.1494   20072562.5104   20072556.529
        53.0004         49.0004
  -9799782.68847  -7582360.48047  23284732.9524   23284740.6974   23284732.688
        47.0004         42.0004
 -25550725.88948 -19862211.03748  20456832.6934   20456838.8514   20456832.087
        53.0004         48.0004
  -9444898.82447  -7323020.93147  22730399.1564   22730407.4324   22730399.599
        47.0004         42.0004
 14  5 20  0 27  0.0000000  0 11G20G26G10G09G07G13G02G08G17G04G28
 -15481093.97646 -12007265.24445  24000184.3394   24000196.5144   24000185.859
        39.0004         34.0004
   -700598.42747   -526318.78746  24091226.1494   24091238.3514   24091226.666
        43.0004         38.0004
 -15961342.62747 -12431528.19446  22997688.6514   22997697.5754   22997690.217
        46.0004         41.0004
 -12586424.35749  -9787747.59348  20132267.7164   20132273.6414   20132267.959
        54.0004         50.0004
 -16109231.04248 -12522968.78847  21576100.1754   21576105.5894   21576099.715
        50.0004         46.0004
                  15749084.58745                  25187526.8014   25187518.335
                        33.0004
  -9084234.34447  -7058654.62347  22666157.9074   22666164.0364   22666158.381
        47.0004         43.0004
 -24839850.24148 -19309693.25648  20079467.3664   20079473.6414   20079467.423
        53.0004         49.0004
  -9761183.53547  -7552283.16347  23292079.0364   23292086.8144   23292078.308
        47.0004         43.0004
 -25581302.31348 -19886036.77348  20451013.8774   20451020.4374   20451013.641
        53.0004         48.0004
  -9503903.55747  -7368998.53947  22719171.1194   22719178.6534   22719171.408
        47.0004         42.0004
 14  5 20  0 27 30.0000000  0 11G20G26G10G09G07G13G02G08G17G04G28
 -15445066.08246 -11979191.58445  24007041.8234   24007048.7134   24007041.869
        38.0004         34.0004
   -691138.48147   -518947.24346  24093026.8124   24093038.5824   24093026.736
        43.0004         38.0004
 -16031398.57347 -12486117.12646  22984358.1554   22984366.1844   22984358.799
        46.0004         41.0004
 -12555268.79249  -9763470.49848  20138196.5754   20138202.5204   20138196.772
        54.0004         50.0004
 -16023202.37948 -12455933.44947  21592470.7554   21592476.1684   21592470.495
        50.0004         45.0004
  20270766.02746  15789898.82845  25197481.1154   25197495.8944   25197485.500
        38.0004         33.0004
  -9155547.28747  -7114223.02047  22652587.9124   22652592.8734   22652588.294
        47.0004         42.0004
 -24802905.66548 -19280905.25248  20086497.5194   20086503.5954   20086497.775
        53.0004         49.0004
  -9722711.12847  -7522304.62647  23299399.0264   23299408.0984   23299399.138
        47.0004         42.0004
 -25611334.83748 -19909438.69548  20445299.2974   20445305.1224   20445298.910
        53.0004         48.0004
  -9562932.97347  -7414995.38847  22707938.4314   22707945.1814   22707938.473
        47.0004         42.0004
 14  5 20  0 28  0.0000000  0 11G20G26G10G09G07G13G02G08G17G04G28
 -15408702.25546 -11950856.09545  24013963.5804   24013971.2024   24013961.834
        38.0004         34.0004
   -681503.22647   -511439.10446  24094859.2234   24094871.1404   24094860.094
        43.0004         38.0004
 -16101540.00347 -12540772.66546  22971010.9684   22971018.0364   22971010.793
        46.0004         41.0004
 -12523553.23349  -9738757.04448  20144232.0174   20144237.6224   20144231.891
        54.0004         50.0004
 -15936831.70648 -12388631.62847  21608907.4204   21608911.1914   21608906.475
        50.0004         45.0004
  20322878.89146  15830506.29545  25207399.2414   25207410.9524   25207401.967
        38.0004         33.0004
  -9226513.12447  -7169520.92447  22639082.7624   22639089.4084   22639083.922
        47.0004         43.0004
 -24765336.56048 -19251630.59848  20093646.5974   20093653.0374   20093646.867
        53.0004         49.0004
  -9684366.97447  -7492426.00747  23306696.1384   23306703.8984   23306695.653
        47.0004         42.0004
 -25640822.93348 -19932416.37748  20439687.3074   20439693.7494   20439687.211
        53.0004         48.0004
  -9621984.82947  -7461009.72647  22696700.2284   22696708.7914   22696701.051
        47.0004         42.0004
 14  5 20  0 28 30.0000000  0 11G20G26G10G09G07G13G02G08G17G04G28
 -15371999.51146 -11922256.53845  24020941.3574   24020953.2554   24020946.925
        38.0004         34.0004
   -671692.12947   -503793.94046  24096727.0004   24096738.1444   24096726.855
        43.0004         38.0004
 -16171761.92047 -12595490.92546  22957647.0204   22957656.0854   22957648.069
        46.0004         41.0004
 -12491276.49549  -9713606.31048  20150373.8894   20150379.6764   20150373.920
        54.0004         50.0004
 -15850119.26348 -12321063.48147  21625407.5104   21625413.0624   21625407.044
        50.0004         45.0004
  20374728.82146  15870908.89445  25217271.8964   25217277.0554   25217268.168
        37.0004         32.0004
  -9297127.53147  -7224545.00847  22625645.8284   22625651.4824   22625645.937
        47.0004         43.0004
 -24727141.63648 -19221868.30048  20100914.4394   20100921.1624   20100915.154
        53.0004         48.0004
  -9646150.28347  -7462646.71147  23313968.6534   23313975.3184   23313967.823
        47.0004         42.0004
 -25669763.14748 -19954967.14748  20434180.6074   20434186.3074   20434179.997
        53.0004         48.0004
  -9681053.80047  -7507037.39647  22685460.1984   22685466.2224   22685460.748
        47.0004         42.0004
 14  5 20  0 29  0.0000000  0 11G20G26G10G09G07G13G02G08G17G04G28
 -15334961.03846 -11893395.40945  24027993.1274   24028001.9974   24027993.851
        39.0004         34.0004
   -661711.35047   -496016.55346  24098625.1384   24098638.1684   24098625.678
        43.0004         38.0004
 -16242066.32247 -12650273.45447  22944268.9554   22944276.9064   22944269.887
        46.0004         42.0004
 -12458444.40149  -9688022.83148  20156621.8514   20156627.5114   20156621.651
        54.0004         50.0004
 -15763072.27848 -12253234.65847  21641972.1514   21641977.8774   21641971.532
        50.0004         45.0004
  20426311.37846  15911103.10745  25227083.8844   25227093.8484   25227084.489
        37.0004         33.0004
  -9367392.45447  -7279296.76047  22612273.3154   22612280.1584   22612275.051
        47.0004         43.0004
 -24688326.47648 -19191622.69548  20108300.9664   20108307.5414   20108301.187
        53.0004         48.0004
  -9608066.41247  -7432970.91047  23321215.6284   23321223.5454   23321214.873
        47.0004         42.0004
 -25698158.46748 -19977093.32548  20428776.7254   20428782.8224   20428776.217
        53.0004         48.0004
  -9740141.38647  -7553079.57347  22674216.2274   22674222.6524   22674216.623
        47.0004         42.0004
 14  5 20  0 29 30.0000000  0 11G20G26G10G09G07G13G02G08G17G04G28
 -15297582.53346 -11864269.27545  24035107.8614   24035117.0434   24035107.368
        39.0004         34.0004
   -651559.19347   -488105.62446  24100558.2314   24100569.7494   24100558.049
        43.0004         38.0004
 -16312447.20147 -12705115.57546  22930876.2744   22930883.9304   22930877.006
        46.0004         41.0004
 -12425054.70449  -9662004.85448  20162975.3494   20162981.2384   20162975.161
        54.0004         50.0004
 -15675689.47048 -12185144.14747  21658600.5404   21658606.4344   21658600.004
        50.0004         45.0004
  20477630.71346  15951092.22745  25236850.8974   25236856.5604   25236850.990
        38.0004         33.0004
  -9437302.32847  -7333771.85347  22598970.6264   22598976.5464   22598971.794
        47.0004         43.0004
 -24648888.65848 -19160891.90648  20115806.0894   20115811.7394   20115806.362
        53.0004         49.0004
  -9570113.21647  -7403396.93647  23328437.3904   23328445.9634   23328437.053
        47.0004         42.0004
 -25726004.52948 -19998791.50848  20423477.9134   20423484.1084   20423477.905
        53.0004         49.0004
  -9799240.69847  -7599130.88747  22662969.8674   22662975.6144   22662969.931
        47.0004         42.0004
 14  5 20  0 30  0.0000000  0 11G20G26G10G09G07G13G02G08G17G04G28
 -15259866.70646 -11834880.28645  24042285.3694   24042294.7694   24042283.396
        38.0004         34.0004
   -641240.83847   -480065.19046  24102521.3234   24102532.6324   24102521.436
        43.0004         38.0004
 -16382905.45947 -12760018.00347  22917467.4424   22917476.6854   22917468.520
        46.0004         42.0004
 -12391112.01949  -9635555.98348  20169434.8464   20169440.4904   20169434.573
        54.0004         50.0004
 -15587976.97448 -12116796.74147  21675291.4784   21675296.4604   21675290.716
        50.0004         45.0004
  20528683.16846  15990873.42245  25246568.6554   25246573.6724   25246566.332
        38.0004         33.0004
  -9506858.06347  -7387970.99647  22585735.4294   22585739.9814   22585734.877
        47.0004         43.0004
 -24608832.95948 -19129679.65148  20123428.2854   20123434.7664   20123428.425
        53.0004         49.0004
  -9532295.27047  -7373928.34347  23335633.8034   23335641.7064   23335633.882
        47.0004         42.0004
 -25753303.44848 -20020063.34948  20418282.9434   20418289.2184   20418282.540
        53.0004         49.0004
  -9858352.28947  -7645191.77147  22651719.5314   22651728.2014   22651721.469
        47.0004         42.0004
 14  5 20  0 30 30.0000000  0 11G20G26G10G09G07G13G02G08G17G04G28
 -15221813.43746 -11805228.38845  24049527.7864   24049533.7084   24049526.214
        38.0004         34.0004
   -630758.61447   -471897.07146  24104516.7374   24104527.8744   24104516.154
        43.0004         38.0004
 -16453438.95647 -12814979.05747  22904045.3454   22904053.9394   22904046.650
        46.0004         42.0004
 -12356618.40149  -9608677.80748  20175998.4614   20176004.4694   20175998.240
        54.0004         50.0004
 -15499937.88848 -12048194.84947  21692044.3494   21692050.2814   21692044.141
        50.0004         45.0004
  20579468.45446  16030446.35845  25256227.3764   25256232.4654   25256229.485
        38.0004         33.0004
  -9576058.20647  -7441893.06247  22572567.1784   22572572.0704   22572567.080
        47.0004         43.0004
 -24568161.28848 -19097987.41648  20131167.8214   20131173.9974   20131168.087
        53.0004         48.0004
  -9494614.31747  -7344566.50747  23342804.7074   23342811.8404   23342804.189
        47.0004         42.0004
 -25780054.58848 -20040908.34648  20413192.5754   20413198.5734   20413192.393
        53.0004         49.0004
  -9917473.73347  -7691260.33547  22640472.6384   22640477.2694   22640471.125
        47.0004         42.0004
 14  5 20  0 31  0.0000000  0 11G20G26G10G09G07G13G02G08G17G04G28
 -15183418.96346 -11775310.60745  24056829.4014   24056841.8484   24056832.387
        39.0004         34.0004
   -620111.54247   -463600.49846  24106541.9584   24106553.2604   24106541.393
        43.0004         38.0004
 -16524042.63147 -12869994.79747  22890610.4754   22890617.8524   22890611.345
        46.0004         42.0004
 -12321572.58249  -9581369.35048  20182667.3114   20182673.1644   20182667.332
        54.0004         50.0004
 -15411571.98148 -11979338.29947  21708860.1124   21708865.8334   21708859.769
        50.0004         45.0004
  20629989.75346  16069813.65745  25265846.6304   25265852.3474   25265843.369
        37.0004         32.0004
  -9644897.63848  -7495534.04547  22559466.3234   22559472.3434   22559467.225
        48.0004         43.0004
 -24526872.27248 -19065814.13148  20139024.8024   20139031.2414   20139025.229
        53.0004         48.0004
  -9457068.80247  -7315310.22047  23349950.1394   23349956.5884   23349948.839
        47.0004         42.0004
 -25806254.38648 -20061323.73048  20408206.9474   20408212.6024   20408206.548
        53.0004         49.0004
  -9976599.67447  -7737332.40247  22629220.0694   22629226.1764   22629219.621
        47.0004         42.0004
 14  5 20  0 31 30.0000000  0 11G20G26G10G09G07G13G02G08G17G04G28
 -15144685.31846 -11745128.52545  24064202.2024   24064211.2434   24064203.606
        39.0004         34.0004
   -609304.27747   -455179.10446  24108597.8784   24108609.6154   24108598.225
        42.0004         38.0004
 -16594716.73847 -12925065.41847  22877161.2474   22877169.0634   22877162.022
        46.0004         42.0004
 -12285978.81549  -9553633.91348  20189440.5064   20189446.5914   20189440.588
        54.0004         50.0004
 -15322884.67248 -11910231.29447  21725736.7954   21725742.1314   21725736.234
        50.0004         45.0004
  20680244.41846  16108973.16145  25275409.3804   25275411.5174   25275406.524
        37.0004         33.0004
  -9713377.32148  -7548894.70647  22546435.6924   22546441.4924   22546434.848
        48.0004         43.0004
 -24484970.20648 -19033163.14848  20146998.1534   20147004.7324   20146998.673
        53.0004         48.0004
  -9419662.65647  -7286162.53347  23357067.1394   23357075.3904   23357067.253
        47.0004         42.0004
 -25831904.71448 -20081310.95548  20403325.5384   20403331.5734   20403325.254
        53.0004         49.0004
 -10035729.46147  -7783407.46147  22617968.5004   22617973.5084   22617967.724
        47.0004         42.0004
 14  5 20  0 32  0.0000000  0 11G20G26G10G09G07G13G02G08G17G04G28
 -15105612.62746 -11714682.24745  24071637.8924   24071648.7324   24071637.275
        39.0004         34.0004
   -598339.26947   -446634.79846  24110684.2604   24110697.1454   24110684.258
        42.0004         38.0004
 -16665459.22647 -12980189.32647  22863699.4524   22863707.6324   22863700.811
        46.0004         42.0004
 -12249839.29849  -9525473.22048  20196317.7104   20196323.4934   20196317.532
        54.0004         50.0004
 -15233879.07248 -11840876.27247  21742672.7684   21742679.7154   21742673.511
        50.0004         45.0004
  20730231.76946  16147924.36345  25284919.6324   25284927.7364   25284919.463
        37.0004         33.0004
  -9781495.78448  -7601973.90947  22533473.2064   22533478.8854   22533473.835
        48.0004         43.0004
 -24442457.14148 -19000036.06248  20155088.4974   20155094.7024   20155088.945
        53.0004         48.0004
  -9382397.76947  -7257124.90247  23364158.9214   23364166.1144   23364158.444
        47.0004         42.0004
 -25857004.82148 -20100869.43948  20398549.2854   20398555.3304   20398549.124
        53.0004         49.0004
 -10094860.71647  -7829483.67547  22606714.4844   22606721.5444   22606715.253
        47.0004         42.0004
 14  5 20  0 32 30.0000000  0 11G20G26G10G09G07G13G02G08G17G04G28
 -15066199.19346 -11683970.47845  24079136.5234   24079152.9224   24079138.707
        39.0004         35.0004
   -587217.48147   -437968.32646  24112799.3984   24112812.1554   24112800.872
        42.0004         38.0004
 -16736266.88347 -13035364.01847  22850225.8324   22850233.3864   22850225.655
        46.0004         42.0004
 -12213154.47749  -9496887.61548  20203298.7814   20203304.3984   20203298.721
        54.0004         50.0004
 -15144557.27848 -11771274.87347  21759671.1844   21759677.0794   21759670.860
        50.0004         45.0004
  20779953.04946  16186668.24845  25294379.0424   25294386.6554   25294380.006
        38.0004         33.0004
  -9849249.74448  -7654769.07247  22520579.8104   22520584.7364   22520579.643
        48.0004         43.0004
 -24399333.70948 -18966433.36748  20163294.5684   20163300.6874   20163294.855
        53.0004         48.0004
  -9345274.32647  -7228197.50647  23371222.6634   23371230.2724   23371222.446
        47.0004         42.0004
 -25881553.10748 -20119997.92948  20393877.7464   20393884.0844   20393877.164
        53.0004         49.0004
 -10153989.86047  -7875558.23847  22595463.4264   22595469.1624   22595463.262
        47.0004         42.0004
 14  5 20  0 33  0.0000000  0 11G20G26G10G09G07G13G02G08G17G04G28
 -15026446.96846 -11652994.65745  24086700.3874   24086713.6774   24086703.093
        39.0004         34.0004
   -575943.49647   -429183.26046  24114946.4194   24114956.9164   24114945.914
        42.0004         38.0004
 -16807139.72647 -13090589.50747  22836738.9254   22836746.2814   22836738.768
        46.0004         42.0004
 -12175928.79249  -9467880.55448  20210382.2544   20210388.1554   20210382.222
        54.0004         50.0004
 -15054924.40648 -11701431.07047  21776727.5134   21776733.0654   21776727.333
        50.0004         45.0004
  20829406.04646  16225203.05545  25303790.1264   25303800.5574   25303791.309
        37.0004         33.0004
  -9916640.29548  -7707281.08647  22507755.5974   22507760.1054   22507755.702
        48.0004         43.0004
 -24355603.93048 -18932358.18848  20171616.1334   20171621.7344   20171616.454
        53.0004         48.0004
  -9308296.05447  -7199383.22147  23378260.2924   23378267.8304   23378258.925
        47.0004         43.0004
 -25905551.58648 -20138697.99948  20389310.9934   20389316.9694   20389310.929
        53.0004         49.0004
 -10213116.47647  -7921630.82947  22584211.4634   22584217.6034   22584211.950
        47.0004         43.0004
 14  5 20  0 33 30.0000000  0 11G20G26G10G09G07G13G02G08G17G04G28
 -14986351.38146 -11621751.35045  24094333.6674   24094337.2184   24094333.189
        39.0004         34.0004
   -564515.08147   -420277.85546  24117119.6824   24117132.3404   24117120.787
        42.0004         38.0004
 -16878071.20947 -13145860.69047  22823240.5094   22823248.0854   22823241.205
        46.0004         42.0004
 -12138159.80249  -9438450.14148  20217569.7024   20217575.1274   20217569.649
        54.0004         50.0004
 -14964978.94448 -11631343.69747  21793843.9174   21793849.1974   21793843.647
        49.0004         45.0004
  20878594.71746  16263531.94145  25313151.1044   25313156.7044   25313151.371
        38.0004         33.0004
  -9983660.99548  -7759504.88547  22495002.8154   22495007.0544   22495002.650
        48.0004         43.0004
 -24311265.17748 -18897808.48948  20180053.4884   20180059.3724   20180053.831
        53.0004         48.0004
  -9271460.21847  -7170679.93047  23385269.4214   23385276.5284   23385269.069
        47.0004         42.0004
 -25928995.16148 -20156965.67548  20384849.8484   20384855.8184   20384849.172
        53.0004         49.0004
 -10272233.71347  -7967696.11047  22572961.1964   22572969.0274   22572962.097
        47.0004         43.0004
 14  5 20  0 34  0.0000000  0 11G20G26G10G09G07G13G02G08G17G04G28
 -14945916.78746 -11590243.86345  24102026.9834   24102036.3494   24102026.709
        39.0004         34.0004
   -552939.15247   -411257.52046  24119323.6854   24119334.3344   24119324.103
        42.0004         38.0004
 -16949063.44547 -13201179.21647  22809731.6984   22809738.7614   22809731.603
        46.0004         42.0004
 -12099853.88049  -9408601.33748  20224858.7624   20224864.6414   20224858.732
        54.0004         50.0004
 -14874728.77448 -11561018.88047  21811017.7514   21811023.8234   21811017.364
        49.0004         45.0004
  20927514.20546  16301651.04845  25322461.4104   25322468.3774   25322459.917
        37.0004         33.0004
 -10050314.71048  -7811442.73947  22482317.6504   22482322.7804   22482318.147
        48.0004         43.0004
 -24266324.18348 -18862789.51048  20188605.4214   20188611.5344   20188605.766
        53.0004         48.0004
  -9234773.14947  -7142092.55347  23392250.4604   23392258.2504   23392249.954
        47.0004         43.0004
 -25951887.81948 -20174804.06948  20380493.8394   20380499.3404   20380493.267
        53.0004         49.0004
 -10331342.92947  -8013755.13247  22561714.8374   22561719.3694   22561713.939
        47.0004         43.0004
 14  5 20  0 34 30.0000000  0 11G20G26G10G09G07G13G02G08G17G04G28
 -14905141.64846 -11558470.99445  24109786.8664   24109794.4604   24109786.358
        39.0004         34.0004
   -541216.75547   -402123.04546  24121553.8764   24121567.0124   24121553.522
        43.0004         38.0004
 -17020113.26647 -13256542.61947  22796210.2094   22796217.8454   22796211.570
        46.0004         42.0004
 -12061011.94049  -9378334.86548  20232250.3724   20232256.2054   20232250.339
        54.0004         50.0004
 -14784175.85448 -11490458.16047  21828249.4094   21828255.4234   21828248.980
        49.0004         45.0004
  20976165.70446  16339561.30045  25331715.5014   25331722.9604   25331718.566
        37.0004         33.0004
 -10116598.82148  -7863092.58047  22469704.7114   22469709.9634   22469705.092
        48.0004         43.0004
 -24220782.04948 -18827302.11548  20197271.7234   20197277.8514   20197272.077
        53.0004         48.0004
  -9198235.15247  -7113621.32647  23399203.4044   23399210.4024   23399203.224
        47.0004         42.0004
 -25974228.30248 -20192212.19448  20376242.3464   20376247.8554   20376242.021
        53.0004         49.0004
 -10390440.65947  -8059805.21147  22550467.4454   22550474.8114   22550467.741
        47.0004         43.0004
 14  5 20  0 35  0.0000000  0 11G20G26G10G09G07G13G02G08G17G04G28
 -14864023.80246 -11526431.08445  24117609.8974   24117618.6334   24117610.098
        39.0004         35.0004
   -529348.23047   -392874.70946  24123813.4694   24123824.9464   24123812.778
        42.0004         38.0004
 -17091216.70347 -13311947.79547  22782679.4644   22782687.5314   22782680.557
        46.0004         42.0004
 -12021634.20249  -9347650.87948  20239743.6214   20239749.0944   20239743.474
        54.0004         50.0004
 -14693321.10948 -11419662.25547  21845538.9834   21845544.0914   21845538.619
        49.0004         45.0004
                  16377264.35845                  25340931.9264   25340926.170
                        32.0004
 -10182509.96348  -7914451.79347  22457161.5084   22457167.8024   22457162.178
        48.0004         43.0004
 -24174638.57848 -18791346.13848  20206052.3204   20206058.6904   20206052.846
        53.0004         48.0004
  -9161845.73247  -7085265.88447  23406128.8174   23406135.6274   23406127.311
        47.0004         42.0004
 -25996013.89248 -20209187.93448  20372096.7054   20372102.6524   20372096.007
        53.0004         49.0004
 -10449522.51847  -8105842.91247  22539224.5604   22539231.6044   22539224.685
        47.0004         43.0004
 14  5 20  0 35 30.0000000  0 11G20G26G10G09G07G13G02G08G17G04G28
 -14822565.61046                  24125498.0404                   24125500.892
        39.0004
   -517338.24747   -383516.14046  24126098.2464   24126109.7004   24126097.749
        43.0004         38.0004
 -17162374.18247 -13367395.09147  22769138.2434   22769147.8304   22769139.702
        46.0004         42.0004
 -11981725.02649  -9316552.79148  20247337.8554   20247343.8524   20247337.974
        54.0004         49.0004
 -14602170.12348 -11348635.50847  21862883.8904   21862889.6414   21862883.433
        49.0004         45.0004
                  16414757.79845                  25350086.8214   25350081.981
                        33.0004
 -10248048.76648  -7965520.88547  22444689.3024   22444696.7384   22444690.606
        48.0004         43.0004
 -24127898.37748 -18754925.18448  20214946.6464   20214953.2444   20214947.085
        53.0004         48.0004
  -9125608.83147  -7057029.28547  23413023.8024   23413032.5014   23413023.258
        47.0004         42.0004
 -26017246.88848 -20225733.08548  20368056.4594   20368062.0954   20368055.974
        53.0004         49.0004
 -10508588.15047  -8151867.98647  22527985.4274   22527990.2254   22527984.559
        47.0004         43.0004
 14  5 20  0 36  0.0000000  0 11G20G26G10G09G07G13G02G08G17G04G28
 -14780764.92946 -11461553.98445  24133452.7904   24133463.0244   24133454.088
        39.0004         35.0004
   -505187.09347   -374047.58146  24128410.2984   24128422.1814   24128410.149
        42.0004         38.0004
 -17233581.26647 -13422881.01947  22755589.2324   22755596.3064   22755589.303
        46.0004         42.0004
 -11941284.49649  -9285040.65748  20255033.3334   20255039.4604   20255033.455
        54.0004         49.0004
 -14510723.90448 -11277378.71247  21880285.8514   21880291.2044   21880285.774
        49.0004         45.0004
  21120517.63246  16452043.40745  25359187.5064   25359195.8684   25359188.104
        38.0004         33.0004
 -10313211.77548  -8016297.15347  22432289.1944   22432294.1764   22432290.203
        48.0004         43.0004
 -24080561.32748 -18718039.15148  20223954.6074   20223961.3624   20223955.240
        53.0004         48.0004
  -9089523.95947  -7028911.16047  23419889.9244   23419897.9604   23419889.811
        47.0004         42.0004
 -26037924.96948 -20241845.83348  20364120.8524   20364127.2974   20364120.446
        53.0004         49.0004
 -10567632.97047  -8197876.83847  22516748.6344   22516754.6074   22516748.955
        47.0004         43.0004
 14  5 20  0 36 30.0000000  0 11G20G26G10G09G07G13G02G08G17G04G28
 -14738621.89346 -11428715.25945  24141478.0134   24141482.5184   24141473.662
        39.0004         35.0004
   -492897.66847   -364471.25546  24130750.2684   24130759.3904   24130748.803
        42.0004         38.0004
 -17304836.51247 -13478404.48447  22742030.0394   22742037.8304   22742029.783
        46.0004         42.0004
 -11900315.21949  -9253116.51848  20262829.5234   20262835.4804   20262829.691
        54.0004         49.0004
 -14418985.99848 -11205894.62847  21897743.2484   21897747.9964   21897742.737
        49.0004         45.0004
  21168099.94246  16489120.55045  25368244.0834   25368248.8984   25368242.482
        38.0004         33.0004
 -10377997.89048  -8066779.73447  22419961.1104   22419966.0144   22419961.486
        48.0004         43.0004
 -24032630.26948 -18680690.25248  20233075.9644   20233081.9944   20233075.944
        53.0004         48.0004
  -9053593.22247  -7000913.13047  23426727.1004   23426735.0824   23426726.770
        46.0004         42.0004
 -26058048.08348 -20257526.13848  20360291.8244   20360297.7594   20360291.463
        53.0004         49.0004
 -10626654.86448  -8243867.82547  22505517.6134   22505524.1334   22505517.650
        48.0004         43.0004
 14  5 20  0 37  0.0000000  0 11G20G26G10G09G07G13G02G08G17G04G28
 -14696137.23246 -11395610.26445  24149558.6184   24149565.0394   24149558.264
        39.0004         34.0004
   -480472.65647   -354789.29846  24133112.2684   24133122.2704   24133112.770
        43.0004         38.0004
 -17376137.86547 -13533963.88647  22728461.6034   22728468.4104   22728461.547
        46.0004         42.0004
 -11858819.81049  -9220782.40048  20270725.9744   20270731.7894   20270725.986
        54.0004         49.0004
 -14326959.98048 -11134186.04147  21915256.0624   21915260.7444   21915254.658
        49.0004         45.0004
  21215414.11346  16525988.77145  25377247.9194   25377250.8534   25377247.230
        38.0004         33.0004
 -10442406.01348  -8116967.77047  22407705.1434   22407710.1144   22407705.256
        48.0004         43.0004
 -23984107.83748 -18642880.54848  20242309.7534   20242315.3234   20242309.628
        53.0004         48.0004
  -9017818.68447  -6973036.81446  23433534.4804   23433543.2354   23433534.498
        46.0004         41.0004
 -26077616.62848 -20272774.31248  20356568.0764   20356574.0404   20356567.529
        53.0004         49.0004
 -10685651.46048  -8289839.10247  22494290.9884   22494296.4134   22494291.073
        48.0004         43.0004
 14  5 20  0 37 30.0000000  0 11G20G26G10G09G07G13G02G08G17G04G28
 -14653309.93546 -11362238.32945  24157710.7844   24157718.6534   24157708.510
        39.0004         34.0004
   -467913.69847   -345002.95146  24135502.7774   24135514.5964   24135502.779
        43.0004         38.0004
 -17447482.35347 -13589556.89647  22714884.2854   22714892.0394   22714885.067
        47.0004         42.0004
 -11816800.04649  -9188039.69948  20278722.1904   20278727.7804   20278722.178
        54.0004         49.0004
 -14234648.56348 -11062255.07047  21932821.4654   21932826.9394   21932820.786
        49.0004         45.0004
  21262461.03346  16562648.73345  25386201.3504   25386204.6234   25386198.639
        38.0004         34.0004
 -10506434.04348  -8166859.63447  22395521.1994   22395526.3734   22395521.323
        48.0004         43.0004
 -23934995.45448 -18604611.14448  20251655.1434   20251661.1214   20251655.236
        53.0004         48.0004
  -8982201.18647  -6945282.85947  23440313.0204   23440320.9284   23440312.551
        46.0004         42.0004
 -26096629.80848 -20287589.73748  20352949.7564   20352956.0484   20352949.242
        53.0004         49.0004
 -10744619.79848  -8335788.37347  22483068.2474   22483075.5704   22483069.316
        48.0004         43.0004
 14  5 20  0 38  0.0000000  0 11G20G26G10G09G07G13G02G08G17G04G28
 -14610140.21446 -11328599.54145  24165921.9334   24165930.8634   24165922.081
        38.0004         34.0004
   -455223.50947   -335114.35546  24137918.3984   24137927.7904   24137917.318
        42.0004         38.0004
 -17518868.27847 -13645182.20247  22701300.0184   22701308.3904   22701300.551
        47.0004         42.0004
 -11774258.35249  -9154890.29948  20286817.6254   20286823.5374   20286817.411
        54.0004         49.0004
 -14142054.88948 -10990104.14947  21950440.9334   21950446.7604   21950440.437
        49.0004         45.0004
  21309239.73246  16599099.68645  25395100.5124   25395107.6604   25395100.300
        38.0004         33.0004
 -10570080.88948  -8216454.47747  22383408.5854   22383413.3454   22383408.989
        48.0004         43.0004
 -23885295.52648 -18565883.90948  20261112.7954   20261118.5414   20261112.970
        53.0004         48.0004
  -8946742.09347  -6917652.33347  23447061.4044   23447068.1804   23447060.222
        46.0004         42.0004
 -26115087.59348 -20301972.38448  20349437.4684   20349443.1664   20349437.123
        53.0004         49.0004
 -10803557.18548  -8381713.50647  22471853.8614   22471860.7574   22471854.140
        48.0004         43.0004
 14  5 20  0 38 30.0000000  0 10G26G10G09G07G13G02G08G17G04G28
   -442395.27847   -325118.20246  24140358.9224   24140368.2574   24140358.542
        42.0004         38.0004
 -17590284.33347 -13700830.98847  22687709.4834   22687717.8524   22687710.861
        47.0004         42.0004
 -11731187.80049  -9121328.80448  20295013.7354   20295019.1164   20295013.541
        54.0004         49.0004
 -14049173.33448 -10917728.90547  21968115.5884   21968122.3864   21968115.765
        49.0004         45.0004
  21355759.73546  16635349.04345  25403952.7144   25403956.8174   25403953.424
        38.0004         33.0004
 -10633335.92448  -8265744.02447  22371372.1254   22371377.6634   22371372.237
        48.0004         43.0004
 -23835001.37048 -18526693.64248  20270683.2364   20270689.0734   20270683.699
        53.0004         48.0004
  -8911434.09447  -6890139.55747  23453779.0524   23453787.3504   23453778.811
        46.0004         42.0004
 -26132980.85548 -20315915.14148  20346032.3324   20346038.4594   20346031.930
        53.0004         49.0004
 -10862452.11948  -8427605.57447  22460647.6434   22460653.0814   22460646.545
        48.0004         43.0004
 14  5 20  0 39  0.0000000  0 10G26G10G09G07G13G02G08G17G04G28
   -429450.17847   -315030.96746  24142823.0944   24142832.5494   24142821.543
        42.0004         38.0004
 -17661747.15247 -13756516.20547  22674110.9944   22674118.4814   22674111.527
        47.0004         42.0004
 -11687609.71549  -9087371.83048  20303305.5614   20303311.7484   20303306.125
        54.0004         49.0004
 -13956025.53148 -10845146.20247  21985841.3354   21985847.3604   21985840.679
        49.0004         44.0004
  21402001.58446  16671381.67245  25412750.6714   25412762.3304   25412752.582
        38.0004         34.0004
 -10696216.53548  -8314741.79247  22359405.9434   22359409.8654   22359406.142
        48.0004         44.0004
 -23784134.03348 -18487056.74348  20280362.9004   20280369.0504   20280363.273
        53.0004         48.0004
  -8876297.70547  -6862760.49347  23460465.7994   23460472.8654   23460465.035
        46.0004         42.0004
 -26150328.11548 -20329432.44748  20342731.2394   20342736.9804   20342730.881
        53.0004         49.0004
 -10921320.78748  -8473477.16347  22449443.4494   22449450.9864   22449444.342
        48.0004         43.0004
 14  5 20  0 39 30.0000000  0 10G26G10G09G07G13G02G08G17G04G28
   -416379.75747   -304846.08946  24145307.6394   24145320.3674   24145308.130
        42.0004         38.0004
 -17733243.56147 -13812227.60347  22660505.0834   22660513.8944   22660506.531
        47.0004         43.0004
 -11643515.40749  -9053012.60348  20311696.9604   20311702.8854   20311696.940
        54.0004         49.0004
 -13862604.03148 -10772350.22647  22003618.7154   22003624.7244   22003618.435
        49.0004         44.0004
  21447976.19446  16707206.08145  25421502.0744   25421505.8594   25421500.930
        38.0004         33.0004
 -10758710.46148  -8363438.26047  22347514.1314   22347518.5114   22347513.573
        48.0004         43.0004
 -23732684.94248 -18446966.52448  20290152.9554   20290159.4584   20290153.380
        53.0004         48.0004
  -8841323.36447  -6835507.70947  23467121.4954   23467128.5464   23467120.821
        46.0004         42.0004
 -26167118.50448 -20342515.82248  20339535.6284   20339541.9344   20339535.627
        53.0004         49.0004
 -10980149.56448  -8519317.67247  22438248.4664   22438256.1024   22438249.321
        48.0004         43.0004
 14  5 20  0 40  0.0000000  0 10G26G10G09G07G13G02G08G17G04G28
   -403187.48547   -294566.26446  24147819.4064   24147830.7444   24147819.596
        43.0004         38.0004
 -17804772.75047 -13867964.53047  22646893.6294   22646901.0544   22646894.825
        47.0004         42.0004
 -11598908.49049  -9018253.94248  20320185.5134   20320190.7214   20320185.385
        54.0004         49.0004
 -13768913.06748 -10699344.26547  22021447.9184   22021453.3404   22021447.082
        49.0004         44.0004
  21493682.46646                  25430197.8214                   25430199.620
        38.0004
 -10820817.56748  -8411833.30647  22335695.9264   22335699.7894   22335695.793
        48.0004         44.0004
 -23680657.67948 -18406425.78348  20300053.4294   20300060.1504   20300054.189
        53.0004         48.0004
  -8806513.93647  -6808383.41647  23473744.4384   23473752.4984   23473744.340
        46.0004         42.0004
 -26183353.07848 -20355166.10648  20336447.0244   20336452.5484   20336446.670
        53.0004         49.0004
 -11038937.01348  -8565125.98647  22427062.8624   22427068.1174   22427062.083
        48.0004         43.0004
 14  5 20  0 40 30.0000000  0 10G26G10G09G07G13G02G08G17G04G28
   -389873.81147   -284191.84346  24150352.4494   24150364.6084   24150352.949
        43.0004         38.0004
 -17876330.57947 -13923723.77947  22633276.5474   22633285.0244   22633277.559
        47.0004         43.0004
 -11553789.25349  -8983096.06748  20328771.1784   20328776.8684   20328771.250
        54.0004         49.0004
 -13674953.69248 -10626129.16547  22039327.2204   22039332.7154   22039327.134
        49.0004         44.0004
  21539122.25846                  25438842.6264                   25438845.185
        39.0004
 -10882534.47348  -8459924.30047  22323950.3034   22323956.6934   22323951.190
        48.0004         44.0004
 -23628052.74948 -18365434.90948  20310064.1044   20310070.2004   20310064.539
        53.0004         48.0004
  -8771868.85947  -6781387.18547  23480336.7834   23480344.7454   23480337.237
        46.0004         42.0004
 -26199029.99148 -20367381.84248  20333463.5204   20333469.5624   20333462.957
        53.0004         49.0004
 -11097678.54248  -8610898.50847  22415884.7764   22415889.5634   22415884.283
        48.0004         43.0004
 14  5 20  0 41  0.0000000  0 10G26G10G09G07G13G02G08G17G04G28
   -376445.03347   -273727.72946  24152908.0004   24152917.9744   24152907.490
        43.0004         38.0004
 -17947918.42747 -13979506.43047  22619654.3074   22619662.0734   22619655.126
        47.0004         43.0004
 -11508163.96349  -8947543.87248  20337453.5024   20337458.9914   20337453.338
        54.0004         49.0004
 -13580733.17948 -10552710.57647  22057256.0494   22057263.4104   22057256.292
        49.0004         44.0004
  21584291.95346  16813426.14545  25447438.6574   25447448.5894   25447440.982
        39.0004         35.0004
 -10943863.84248  -8507713.31747  22312280.5984   22312285.6094   22312280.085
        48.0004         44.0004
 -23574876.58748 -18323998.92448  20320183.1894   20320189.2004   20320183.389
        53.0004         48.0004
  -8737393.30147  -6754523.06247  23486898.0634   23486905.0614   23486897.290
        47.0004         42.0004
 -26214153.11548 -20379166.05348  20330585.4844   20330591.7294   20330585.150
        53.0004         49.0004
 -11156375.47748  -8656636.29647  22404714.3324   22404720.8194   22404714.461
        48.0004         43.0004
 14  5 20  0 41 30.0000000  0 10G26G10G09G07G13G02G08G17G04G28
   -362899.86647   -263172.91746  24155486.0434   24155496.6004   24155485.240
        43.0004         38.0004
 -18019530.54847 -14035307.98147  22606027.2754   22606035.8014   22606028.112
        47.0004         43.0004
 -11462031.37349  -8911596.37648  20346232.1434   20346237.8204   20346231.914
        54.0004         49.0004
 -13486250.99648 -10479088.09747  22075237.0494   22075242.1624   22075236.491
        49.0004         44.0004
  21629194.60046  16848415.24945  25455986.9134   25455992.7474   25455986.021
        38.0004         34.0004
 -11004800.46448  -8555196.30047  22300684.3394   22300688.6504   22300685.085
        48.0004         44.0004
 -23521127.77948 -18282116.71048  20330411.6164   20330417.4014   20330411.521
        52.0004         48.0004
  -8703085.08647  -6727789.32147  23493426.9804   23493435.2244   23493426.199
        47.0004         42.0004
 -26228718.61148 -20390515.75048  20327813.9904   20327819.7224   20327813.889
        53.0004         49.0004
 -11215021.54748  -8702334.43747  22393553.7464   22393560.6424   22393554.034
        48.0004         43.0004
 14  5 20  0 42  0.0000000  0 10G26G10G09G07G13G02G08G17G04G28
   -349241.24847   -252529.69746  24158084.4484   24158094.5634   24158083.956
        43.0004         38.0004
 -18091165.03747 -14091126.97347  22592395.3344   22592401.9614   22592395.960
        47.0004         43.0004
 -11415394.37149  -8875255.83348  20355107.0614   20355112.4894   20355107.000
        54.0004         49.0004
 -13391511.01748 -10405264.73747  22093265.1714   22093270.7684   22093264.347
        49.0004         44.0004
  21673829.71346  16883195.84745  25464481.1104   25464485.3394   25464479.961
        38.0004         33.0004
 -11065343.46548  -8602372.56847  22289162.8474   22289168.6994   22289163.147
        49.0004         44.0004
 -23466809.17648 -18239790.51548  20340747.3224   20340753.8684   20340747.884
        52.0004         48.0004
  -8668946.57547  -6701187.83147  23499923.1174   23499930.4464   23499922.570
        47.0004         42.0004
 -26242727.42848 -20401431.67048  20325147.9664   20325153.9284   20325147.523
        53.0004         49.0004
 -11273614.54048  -8747991.22047  22382403.7544   22382410.1494   22382404.511
        48.0004         43.0004
 14  5 20  0 42 30.0000000  0 10G26G10G09G07G13G02G08G17G04G28
   -335471.91247   -241800.20546  24160704.5784   24160715.4484   24160704.629
        43.0004         38.0004
 -18162820.10947 -14146962.00247  22578759.5804   22578766.2294   22578759.921
        47.0004         43.0004
 -11368255.95149  -8838524.57448  20364076.9624   20364082.6464   20364076.813
        54.0004         49.0004
 -13296516.84048 -10331243.29047  22111341.6684   22111347.0724   22111340.969
        49.0004         44.0004
  21718197.05346  16917767.82645  25472923.4424   25472931.3734   25472922.654
        38.0004         34.0004
 -11125492.33948  -8649241.71747  22277717.0274   22277722.8174   22277717.307
        48.0004         44.0004
 -23411924.06748 -18197022.88448  20351192.3574   20351197.9124   20351192.318
        52.0004         48.0004
  -8634979.46747  -6674719.89247  23506386.8474   23506394.1064   23506386.468
        47.0004         42.0004
 -26256179.80348 -20411914.00148  20322588.1974   20322594.0054   20322587.893
        53.0004         49.0004
 -11332152.25348  -8793604.93047  22371264.9214   22371270.8884   22371265.287
        48.0004         43.0004
 14  5 20  0 43  0.0000000  0 10G26G10G09G07G13G02G08G17G04G28
   -321593.52647   -230985.73746  24163345.4324   24163355.7954   24163344.968
        43.0004         39.0004
 -18234492.96748 -14202810.88347  22565120.2384   22565128.6894   22565121.675
        48.0004         43.0004
 -11320617.53249  -8801403.70448  20373142.5414   20373148.0574   20373142.316
        54.0004         49.0004
 -13201270.52748 -10257025.37547  22129465.8244   22129472.0974   22129466.081
        49.0004         44.0004
  21762297.24046  16952131.64045  25481311.4744   25481319.9994   25481313.552
        39.0004         34.0004
 -11185244.86448  -8695802.03347  22266345.5934   22266351.3784   22266346.031
        49.0004         44.0004
 -23356473.94048 -18153814.97448  20361743.6634   20361749.9334   20361743.834
        52.0004         48.0004
  -8601184.25647  -6648385.89947  23512817.0264   23512825.1604   23512817.101
        46.0004         42.0004
 -26269075.16048 -20421962.29248  20320134.2764   20320140.0774   20320133.770
        53.0004         49.0004
 -11390630.79648  -8839172.53747  22360136.7144   22360142.0714   22360136.845
        48.0004         43.0004
 14  5 20  0 43 30.0000000  0  9G26G10G09G07G02G08G17G04G28
   -307609.14947   -220088.68746  24166006.5304   24166017.4844   24166006.722
        43.0004         39.0004
 -18306182.12548 -14258672.47747  22551478.7424   22551486.1024   22551479.670
        48.0004         43.0004
 -11272482.38849  -8763895.77848  20382302.0594   20382307.7734   20382302.042
        54.0004         49.0004
 -13105776.08148 -10182614.11747  22147638.3114   22147644.1474   22147638.250
        49.0004         44.0004
 -11244600.56348  -8742053.13847  22255051.1934   22255057.1234   22255051.858
        49.0004         44.0004
 -23300462.04948 -18110169.33348  20372402.4844   20372408.8444   20372402.798
        52.0004         48.0004
  -8567563.07747  -6622187.51646  23519215.9224   23519224.0334   23519215.027
        46.0004         41.0004
 -26281414.39448 -20431577.24248  20317785.9544   20317791.7204   20317785.627
        53.0004         49.0004
 -11449048.73348  -8884692.91047  22349020.4584   22349025.4774   22349020.169
        48.0004         43.0004
 14  5 20  0 44  0.0000000  0  9G26G10G09G07G02G08G17G04G28
   -293521.48947   -209111.15446  24168688.0914   24168698.0984   24168687.613
        43.0004         39.0004
 -18377885.48548 -14314545.13847  22537833.5004   22537842.4184   22537834.362
        48.0004         43.0004
 -11223853.40749  -8726003.04548  20391555.6824   20391561.0934   20391555.664
        54.0004         49.0004
 -13010037.22248 -10108012.40147  22165857.3234   22165862.7504   22165856.813
        49.0004         44.0004
 -11303558.36548  -8787994.18347  22243832.0494   22243837.0184   22243832.449
        49.0004         44.0004
 -23243891.08848 -18066088.04748  20383167.9194   20383173.6294   20383167.899
        52.0004         48.0004
  -8534117.46547  -6596125.95046  23525578.4714   23525586.7704   23525579.099
        46.0004         41.0004
 -26293197.84048 -20440759.11348  20315543.3864   20315549.6734   20315543.344
        53.0004         49.0004
 -11507403.81748  -8930164.30547  22337914.6604   22337920.9624   22337915.289
        48.0004         43.0004
 14  5 20  0 44 30.0000000  0  9G26G10G09G07G02G08G17G04G28
   -279331.15747   -198053.61746  24171387.4014   24171397.5514   24171388.012
        43.0004         38.0004
 -18449598.76348 -14370425.52947  22524186.6894   22524195.7814   22524187.829
        48.0004         43.0004
 -11174731.36549  -8687726.10548  20400903.3494   20400909.0864   20400903.248
        54.0004         49.0004
 -12914055.35348 -10033221.33647  22184121.9474   22184126.7444   22184121.521
        49.0004         44.0004
 -11362115.44048  -8833622.97847  22232688.6704   22232693.2574   22232689.363
        49.0004         44.0004
 -23186761.94048 -18021571.81448  20394039.2424   20394044.9234   20394039.207
        52.0004         48.0004
  -8500847.29647  -6570201.08746  23531911.0504   23531917.7334   23531910.305
        46.0004         41.0004
 -26304424.05148 -20449506.77248  20313407.4974   20313413.3164   20313407.273
        53.0004         49.0004
 -11565691.30248  -8975583.02947  22326823.3754   22326829.4004   22326823.806
        48.0004         43.0004
 14  5 20  0 45  0.0000000  0  9G26G10G09G07G02G08G17G04G28
   -265041.05847   -186918.33346  24174106.2094   24174116.8684   24174106.634
        43.0004         38.0004
 -18521319.93448 -14426312.07247  22510539.4104   22510545.7524   22510540.120
        48.0004         43.0004
 -11125119.20349  -8649067.25748  20410344.4594   20410349.8764   20410344.276
        54.0004         49.0004
 -12817834.04148  -9958243.68647  22202432.2674   22202438.6474   22202431.873
        49.0004         44.0004
 -11420270.65248  -8878938.64047  22221622.1744   22221626.8074   22221622.679
        49.0004         44.0004
 -23129077.85848 -17976623.16248  20405015.6154   20405021.5914   20405016.356
        52.0004         48.0004
  -8467754.75147  -6544414.63246  23538208.2854   23538215.2384   23538207.499
        46.0004         41.0004
 -26315093.54148 -20457820.62148  20311377.1314   20311382.4654   20311376.549
        53.0004         49.0004
 -11623908.93548  -9020947.32047  22315744.5414   22315751.0194   22315745.455
        48.0004         43.0004
 14  5 20  0 45 30.0000000  0  9G26G10G09G07G02G08G17G04G28
   -250654.02947   -175707.52446  24176845.0354   24176855.1044   24176844.582
        43.0004         38.0004
 -18593047.44048 -14482203.54147  22496888.8964   22496897.2764   22496890.244
        48.0004         43.0004
 -11075020.20249  -8610029.05648  20419877.8694   20419883.1844   20419877.956
        54.0004         49.0004
 -12721377.07848  -9883082.41547  22220787.4924   22220791.9624   22220786.977
        48.0004         44.0004
 -11478023.75848  -8923940.97147  22210632.4524   22210637.1184   22210632.295
        49.0004         44.0004
 -23070841.77048 -17931244.37648  20416097.3794   20416103.6724   20416097.931
        52.0004         48.0004
  -8434841.39247  -6518767.80046  23544472.3724   23544478.9414   23544471.046
        46.0004         41.0004
 -26325207.31048 -20465701.43848  20309452.3144   20309457.9994   20309451.787
        53.0004         49.0004
 -11682054.65748  -9066255.57947  22304679.3164   22304686.3654   22304680.200
        48.0004         44.0004
 14  5 20  0 46  0.0000000  0  9G26G10G09G07G02G08G17G04G28
   -236172.84447   -164423.33946  24179600.4404   24179611.7144   24179599.955
        43.0004         38.0004
 -18664779.50148 -14538098.56847  22483239.8264   22483246.1214   22483240.103
        48.0004         43.0004
 -11024437.19549  -8570613.70348  20429503.4524   20429508.8084   20429503.511
        54.0004         49.0004
 -12624687.94648  -9807740.22947  22239187.1144   22239192.6944   22239186.059
        48.0004         44.0004
 -11535373.80048  -8968629.21447  22199718.4054   22199723.2184   22199718.397
        49.0004         44.0004
 -23012056.78548 -17885437.88048  20427284.1284   20427290.4144   20427284.537
        52.0004         48.0004
  -8402108.97247  -6493261.95746  23550699.7074   23550706.8884   23550699.407
        46.0004         41.0004
 -26334765.66548 -20473149.46748  20307633.6444   20307639.0194   20307633.260
        53.0004         49.0004
 -11740125.95548  -9111505.84947  22293630.6294   22293635.5724   22293630.135
        48.0004         44.0004
 14  5 20  0 46 30.0000000  0  9G26G10G09G07G02G08G17G04G28
   -221597.81547   -153066.03046  24182373.0094   24182383.4234   24182373.018
        43.0004         38.0004
 -18736511.51748 -14593993.55147  22469588.3564   22469596.1384   22469590.258
        48.0004         43.0004
 -10973370.61349  -8530821.54548  20439220.8974   20439226.7364   20439221.106
        54.0004         49.0004
 -12527767.74848  -9732217.99647  22257629.8484   22257634.8304   22257629.844
        48.0004         44.0004
 -11592317.46348  -9013000.81547  22188882.4744   22188887.5024   22188883.273
        49.0004         44.0004
 -22952723.60448 -17839204.21748  20438575.0044   20438580.7474   20438575.262
        52.0004         48.0004
  -8369556.80347  -6467896.58646  23556893.8344   23556902.2694   23556893.587
        46.0004         41.0004
 -26343767.01748 -20480163.46648  20305920.8264   20305926.3244   20305920.179
        53.0004         49.0004
 -11798118.16048  -9156694.48847  22282594.5294   22282600.2904   22282594.196
        48.0004         44.0004
 14  5 20  0 47  0.0000000  0  9G26G10G09G07G02G08G17G04G28
   -206933.73347   -141639.33146  24185163.0364   24185174.7304   24185163.525
        43.0004         38.0004
 -18808243.54648 -14649888.55047  22455939.2364   22455946.2494   22455939.912
        48.0004         43.0004
 -10921825.34049  -8490656.37748  20449029.6924   20449035.3974   20449029.541
        54.0004         49.0004
 -12430621.86648  -9656519.90347  22276116.5154   22276121.0734   22276115.754
        48.0004         44.0004
 -11648855.96048  -9057056.70147  22178123.3764   22178128.8314   22178124.042
        49.0004         44.0004
 -22892847.35648 -17792547.38648  20449969.1994   20449975.1574   20449969.553
        52.0004         48.0004
  -8337188.45047  -6442674.45647  23563054.1224   23563061.8354   23563053.505
        46.0004         42.0004
 -26352214.24248 -20486745.67948  20304312.8744   20304318.6114   20304312.835
        53.0004         49.0004
 -11856030.85748  -9201821.16247  22271572.9304   22271579.9334   22271573.721
        48.0004         44.0004
 14  5 20  0 47 30.0000000  0  9G26G10G09G07G02G08G17G04G28
   -192180.77847   -130143.37346  24187972.2564   24187981.1814   24187970.793
        43.0004         38.0004
 -18879971.03448 -14705780.02147  22442290.4704   22442297.1564   22442290.229
        48.0004         43.0004
 -10869801.94949  -8450118.64948  20458929.4714   20458934.9784   20458929.558
        54.0004         49.0004
 -12333251.33048  -9580646.75647  22294644.6404   22294649.9914   22294644.561
        48.0004         43.0004
 -11704986.12548  -9100794.41047  22167441.8834   22167447.6184   22167442.752
        49.0004         44.0004
 -22832428.62948 -17745467.84748  20461466.0774   20461472.6524   20461466.430
        52.0004         48.0004
  -8305002.98547  -6417594.83147  23569179.1464   23569186.0384   23569178.399
        46.0004         42.0004
 -26360105.34248 -20492894.55248  20302811.7054   20302817.0804   20302811.090
        53.0004         49.0004
 -11913859.50148  -9246882.34747  22260569.7224   22260575.2794   22260569.213
        48.0004         44.0004
 14  5 20  0 48  0.0000000  0  9G26G10G09G07G02G08G17G04G28
   -177342.76547   -118581.14946  24190794.7774   24190805.0214   24190794.608
        43.0004         38.0004
 -18951693.16448 -14761667.30747  22428641.2454   22428648.2264   22428642.069
        48.0004         43.0004
 -10817304.41349  -8409211.45848  20468919.4954   20468925.0214   20468919.165
        54.0004         49.0004
 -12235661.16748  -9504602.47947  22313216.6264   22313220.5084   22313215.337
        48.0004         43.0004
 -11760708.38248  -9144214.25847  22156838.2014   22156842.7044   22156838.435
        49.0004         44.0004
 -22771471.24048 -17697968.56848  20473066.1304   20473071.9274   20473066.486
        52.0004         48.0004
  -8273003.43347  -6392660.07547  23575267.3414   23575275.2484   23575267.925
        46.0004         42.0004
 -26367441.96848 -20498611.36248  20301415.7384   20301421.1924   20301415.023
        53.0004         49.0004
 -11971602.44348  -9291876.77147  22249580.8684   22249585.5884   22249580.827
        48.0004         44.0004
 14  5 20  0 48 30.0000000  0  9G26G10G09G07G02G08G17G04G28
   -162419.05947   -106952.13946  24193633.8944   24193645.5354   24193633.670
        43.0004         38.0004
 -19023404.33948 -14817546.06347  22414995.6424   22415003.0414   22414995.622
        48.0004         43.0004
 -10764332.44049  -8367934.58148  20478999.6164   20479005.3314   20478999.468
        54.0004         49.0004
 -12137851.24248  -9428386.95347  22331828.7294   22331834.2204   22331828.046
        48.0004         43.0004
 -11816018.38048  -9187312.87547  22146313.8094   22146317.5784   22146314.007
        49.0004         44.0004
 -22709974.87748 -17650049.31448  20484768.6244   20484774.2304   20484768.938
        52.0004         48.0004
  -8241187.66447  -6367868.53147  23581322.6374   23581329.6524   23581321.816
        46.0004         42.0004
 -26374221.62349 -20503894.17448  20300125.1834   20300130.8634   20300124.867
        54.0004         49.0004
 -12029253.92848  -9336799.91547  22238609.7504   22238615.7324   22238610.059
        48.0004         44.0004
 14  5 20  0 49  0.0000000  0  9G26G10G09G07G02G08G17G04G28
   -147416.40847    -95261.62146  24196489.1504   24196498.3324   24196488.981
        43.0004         38.0004
 -19095106.56748 -14873417.85047  22401351.0274   22401356.7434   22401351.452
        48.0004         43.0004
 -10710892.88449  -8326293.34748  20489168.5054   20489174.5074   20489168.803
        54.0004         49.0004
 -12039828.94448  -9352005.93647  22350481.9034   22350486.5064   22350480.755
        48.0004         43.0004
 -11870919.43748  -9230092.83947  22135866.4654   22135870.8614   22135866.190
        49.0004         44.0004
 -22647946.86048 -17601715.77847  20496571.9774   20496577.8314   20496572.274
        52.0004         47.0004
  -8209561.64247  -6343224.85347  23587341.0134   23587347.7284   23587340.336
        46.0004         42.0004
 -26380449.19249 -20508746.78248  20298939.7324   20298945.8294   20298939.680
        54.0004         49.0004
 -12086815.40948  -9381652.93347  22227656.0604   22227661.6804   22227656.245
        48.0004         44.0004
 14  5 20  0 49 30.0000000  0  9G26G10G09G07G02G08G17G04G28
   -132334.13547    -83509.05046  24199357.9984   24199370.0334   24199357.881
        43.0004         38.0004
 -19166794.21548 -14929278.27647  22387709.6704   22387716.5284   22387709.144
        48.0004         43.0004
 -10656985.32049  -8284287.43648  20499426.6064   20499432.5144   20499426.923
        54.0004         49.0004
 -11941594.76548  -9275459.82247  22369175.0724   22369180.4374   22369174.198
        48.0004         43.0004
 -11925407.48248  -9272550.97247  22125497.4244   22125502.3024   22125497.552
        49.0004         45.0004
 -22585387.01248 -17552967.83847  20508476.9694   20508482.6054   20508476.943
        52.0004         47.0004
  -8178123.64647  -6318727.67147  23593322.8914   23593330.7884   23593322.697
        46.0004         42.0004
 -26386121.99049 -20513167.10748  20297860.5224   20297866.0064   20297860.080
        54.0004         49.0004
 -12144281.35448  -9426431.50847  22216720.9154   22216726.3984   22216720.860
        48.0004         44.0004
 14  5 20  0 50  0.0000000  0  9G26G10G09G07G02G08G17G04G28
   -117175.24147    -71696.78546  24202243.6384   24202253.3334   24202243.369
        42.0004         38.0004
 -19238465.99048 -14985126.35147  22374070.0344   22374076.4524   22374070.527
        48.0004         43.0004
 -10602613.43449  -8241919.71548  20509773.4534   20509779.2114   20509773.695
        54.0004         49.0004
 -11843152.41648  -9198751.50247  22387907.9194   22387912.0434   22387907.337
        48.0004         43.0004
 -11979482.05448  -9314686.91647  22115207.1174   22115211.9074   22115207.513
        49.0004         45.0004
 -22522298.65048 -17503808.06047  20520481.9914   20520487.8894   20520482.175
        52.0004         47.0004
  -8146875.28947  -6294378.27347  23599269.2554   23599276.3844   23599268.764
        46.0004         42.0004
 -26391241.14149 -20517156.01048  20296886.0054   20296891.9784   20296885.803
        54.0004         49.0004
 -12201649.55448  -9471133.92347  22205803.8304   22205810.6234   22205804.489
        48.0004         44.0004
 14  5 20  0 50 30.0000000  0  9G26G10G09G07G02G08G17G04G28
   -101941.97147    -59826.57346  24205141.9334   24205151.9054   24205142.284
        42.0004         38.0004
 -19310118.95148 -15040959.74047  22360434.8474   22360442.2044   22360435.645
        48.0004         43.0004
 -10547779.45249  -8199191.91948  20520208.1384   20520213.7274   20520208.105
        54.0004         49.0004
 -11744504.63748  -9121883.09947  22406680.4094   22406685.5254   22406679.295
        48.0004         43.0004
 -12033141.75048  -9356499.59247  22104995.7294   22105001.0144   22104996.560
        49.0004         45.0004
 -22458684.42248 -17454238.52747  20532587.0504   20532593.0004   20532587.477
        52.0004         47.0004
  -8115818.01147  -6270177.77147  23605178.1484   23605186.9324   23605178.917
        46.0004         42.0004
 -26395807.15748 -20520713.91048  20296017.2274   20296023.0464   20296017.188
        53.0004         49.0004
 -12258917.04448  -9515757.85647  22194905.6184   22194913.1464   22194906.690
        49.0004         44.0004
 14  5 20  0 51  0.0000000  0  9G26G10G09G07G02G08G17G04G28
    -86635.67247    -47899.43446  24208054.6104   24208065.4974   24208054.495
        43.0004         38.0004
 -19381749.73548 -15096775.85847  22346803.9484   22346811.7474   22346804.784
        48.0004         43.0004
 -10492485.28049  -8156105.53448  20530730.4284   20530735.9934   20530730.490
        54.0004         49.0004
 -11645653.81847  -9044856.49047  22425490.2064   22425495.5054   22425490.006
        47.0004         43.0004
 -12086384.79548  -9397987.60047  22094864.3174   22094869.3884   22094864.576
        49.0004         45.0004
 -22394546.29348 -17404260.75347  20544792.5804   20544798.2654   20544792.887
        52.0004         47.0004
  -8084951.57447  -6246125.98146  23611052.9614   23611059.9994   23611052.393
        46.0004         41.0004
 -26399819.11348 -20523840.07548  20295253.6854   20295259.8944   20295253.320
        53.0004         49.0004
 -12316080.19148  -9560300.48447  22184027.6934   22184034.7124   22184028.572
        49.0004         44.0004
 14  5 20  0 51 30.0000000  0  9G26G10G09G07G02G08G17G04G28
    -71261.10947    -35919.10146  24210979.9624   24210991.3584   24210980.003
        43.0004         38.0004
 -19453358.28148 -15152574.64347  22333177.4234   22333184.7374   22333177.634
        48.0004         43.0004
 -10436736.39149  -8112664.82248  20541338.8794   20541344.4684   20541338.747
        54.0004         49.0004
 -11546605.55147  -8967676.03047  22444339.4524   22444343.8924   22444338.342
        47.0004         43.0004
 -12139212.66948  -9439152.09247  22084811.1924   22084815.9674   22084811.480
        49.0004         45.0004
 -22329889.61248 -17353878.91147  20557096.0204   20557102.0804   20557096.392
        52.0004         47.0004
  -8054279.38047  -6222225.53646  23616889.7884   23616897.5544   23616889.180
        46.0004         41.0004
 -26403280.38448 -20526537.12948  20294595.2024   20294600.9834   20294594.798
        53.0004         49.0004
 -12373138.19548  -9604761.18847  22173169.7684   22173177.3874   22173170.805
        48.0004         44.0004
 14  5 20  0 52  0.0000000  0  9G26G10G09G07G02G08G17G04G28
    -55818.47047    -23885.74246  24213919.6624   24213929.1024   24213918.920
        43.0004         38.0004
 -19524939.81448 -15208352.38147  22319555.6024   22319562.0454   22319555.884
        48.0004         43.0004
 -10380533.09349  -8068870.02648  20552034.1304   20552039.4254   20552033.990
        54.0004         49.0004
 -11447360.87147  -8890342.50947  22463224.6884   22463229.9464   22463223.782
        47.0004         43.0004
 -12191621.85448  -9479990.34347  22074837.9044   22074841.7354   22074838.528
        49.0004         45.0004
 -22264714.87048 -17303093.38847  20569498.2674   20569504.7404   20569498.707
        52.0004         47.0004
  -8023801.47347  -6198476.49146  23622690.2474   23622696.7304   23622688.646
        46.0004         41.0004
 -26406189.15949 -20528803.67348  20294041.9164   20294047.3394   20294041.426
        54.0004         49.0004
 -12430086.37148  -9649136.31447  22162333.2984   22162339.0764   22162333.671
        48.0004         44.0004
 14  5 20  0 52 30.0000000  0  9G26G10G09G07G02G08G17G04G28
    -40310.32647    -11801.31846  24216869.9114   24216880.1954   24216869.547
        43.0004         38.0004
 -19596492.42348 -15264107.58447  22305940.4284   22305946.4154   22305940.542
        48.0004         43.0004
 -10323878.02849  -8024723.20448  20562815.1634   20562820.8514   20562815.417
        54.0004         49.0004
 -11347922.82647  -8812858.32347  22482147.2374   22482152.0804   22482146.387
        47.0004         43.0004
 -12243611.74248  -9520501.86047  22064943.9564   22064949.3494   22064944.798
        49.0004         45.0004
 -22199024.88048 -17251906.37147  20581998.4984   20582004.4574   20581999.333
        52.0004         47.0004
  -7993518.47347  -6174879.31846  23628452.4864   23628459.8414   23628452.018
        46.0004         41.0004
 -26408546.14849 -20530640.24948  20293592.8984   20293598.9594   20293592.653
        54.0004         49.0004
 -12486922.17048  -9693423.85447  22151517.4564   22151522.9184   22151517.876
        48.0004         44.0004
 14  5 20  0 53  0.0000000  0  9G26G10G09G07G02G08G17G04G28
    -24737.45447       333.52046  24219833.6824   24219843.3004   24219833.120
        42.0004         38.0004
 -19668011.88248 -15319836.95947  22292328.9384   22292335.4724   22292330.547
        48.0004         43.0004
 -10266772.48049  -7980225.35548  20573682.0974   20573687.5244   20573681.792
        54.0004         49.0004
 -11248293.21747  -8735224.87547  22501106.0134   22501110.4744   22501105.256
        47.0004         43.0004
 -12295179.89948  -9560684.76447  22055132.0634   22055136.3724   22055131.965
        49.0004         45.0004
 -22132821.32648 -17200319.17747  20594596.9104   20594603.1034   20594597.081
        52.0004         47.0004
  -7963429.97647  -6151433.70746  23634178.1974   23634184.4344   23634176.958
        46.0004         41.0004
 -26410350.46949 -20532046.18248  20293250.2204   20293255.3474   20293249.523
        54.0004         49.0004
 -12543641.08948  -9737620.33047  22140724.1114   22140729.6364   22140724.481
        48.0004         44.0004
 14  5 20  0 53 30.0000000  0  9G26G10G09G07G02G08G17G04G28
     -9107.66347     12512.71046  24222807.6914   24222816.8764   24222807.013
        42.0004         38.0004
 -19739501.07148 -15375542.75347  22278725.4224   22278733.3974   22278726.334
        48.0004         44.0004
 -10209224.57049  -7935382.81248  20584633.2834   20584638.5844   20584633.033
        54.0004         49.0004
 -11148480.57047  -8657448.78347  22520099.1584   22520104.9524   22520098.558
        47.0004         43.0004
 -12346330.62548  -9600542.39747  22045397.1084   22045402.3894   22045397.755
        49.0004         45.0004
 -22066112.37848 -17148338.17447  20607291.2504   20607297.3724   20607291.863
        52.0004         47.0004
  -7933542.95047  -6128145.10046  23639864.2964   23639872.6944   23639864.379
        46.0004         41.0004
 -26411608.42649 -20533026.37748  20293010.7404   20293015.7054   20293009.959
        54.0004         49.0004
 -12600245.84348  -9781727.84947  22129951.9354   22129959.1014   22129952.870
        48.0004         44.0004
 14  5 20  0 54  0.0000000  0  9G26G10G09G07G02G08G17G04G28
      6583.90247     24740.04846  24225792.4854   24225803.3774   24225792.280
        42.0004         38.0004
 -19810950.33748 -15431217.42947  22265129.7114   22265136.1564   22265130.241
        48.0004         44.0004
 -10151230.04849  -7890192.26148  20595669.2724   20595674.2094   20595669.089
        54.0004         49.0004
 -11048480.89647  -8579526.96847  22539129.0684   22539133.8194   22539128.339
        47.0004         42.0004
 -12397056.04048  -9640068.61747  22035745.4344   22035749.0654   22035745.235
        50.0004         45.0004
 -21998894.01648 -17095960.22147  20620082.6944   20620088.5024   20620082.780
        52.0004         47.0004
  -7903851.02747  -6105008.51146  23645514.9884   23645521.8774   23645514.660
        46.0004         41.0004
 -26412313.28949 -20533575.58648  20292876.2224   20292881.5584   20292876.059
        54.0004         49.0004
 -12656726.41048  -9825738.61547  22119206.0274   22119211.7554   22119205.342
        49.0004         44.0004
 14  5 20  0 54 30.0000000  0 10G26G10G09G07G02G08G05G17G04G28
     22330.75347     37010.44846  24228790.0894   24228799.7634   24228790.143
        42.0004         38.0004
 -19882361.26048 -15486862.22347  22251540.3574   22251547.8654   22251540.704
        48.0004         43.0004
 -10092795.89349  -7844659.13648  20606788.5004   20606794.4094   20606788.666
        54.0004         49.0004
 -10948301.33647  -8501464.97247  22558192.8374   22558197.9034   22558192.280
        47.0004         43.0004
 -12447359.10148  -9679265.73047  22026172.5754   22026177.7794   22026172.790
        50.0004         45.0004
 -21931173.26448 -17043190.79547  20632969.5994   20632975.3734   20632970.020
        52.0004         47.0004
   -429957.87348   -288190.31846  25466213.9154   25466224.9504   25466214.240
        48.0004         36.0004
  -7874359.50147  -6082028.07246  23651127.4774   23651134.0244   23651126.493
        46.0004         41.0004
 -26412469.86348 -20533697.56348  20292846.6384   20292851.8864   20292846.141
        53.0004         49.0004
 -12713083.95848  -9869653.49147  22108480.3374   22108485.8404   22108480.667
        49.0004         44.0004
 14  5 20  0 55  0.0000000  0 10G26G10G09G07G02G08G05G17G04G28
     38131.24447     49322.65946  24231796.0714   24231806.2844   24231795.781
        42.0004         38.0004
 -19953730.63848 -15542474.65847  22237959.6204   22237966.2244   22237959.903
        48.0004         44.0004
 -10033924.22149  -7798785.09448  20617991.4344   20617997.1104   20617991.411
        54.0004         49.0004
 -10847944.54847  -8423264.88447  22577289.2154   22577295.1274   22577289.119
        47.0004         43.0004
 -12497238.40448  -9718132.65447  22016681.0404   22016685.4404   22016681.186
        50.0004         45.0004
 -21862952.41248 -16990031.68647  20645950.7484   20645957.4144   20645951.357
        52.0004         47.0004
   -510382.63047   -350858.66345  25450910.6134   25450919.9464   25450909.297
        44.0004         35.0004
  -7845068.79647  -6059204.11246  23656700.5964   23656708.1974   23656700.438
        46.0004         41.0004
 -26412078.23649 -20533392.36848  20292920.8424   20292926.9224   20292920.354
        54.0004         49.0004
 -12769315.00148  -9913469.80747  22097780.2134   22097785.4814   22097780.471
        49.0004         44.0004
 14  5 20  0 55 30.0000000  0 10G26G10G09G07G02G08G05G17G04G28
     53983.28047     61675.03046  24234812.3954   24234823.1414   24234812.970
        43.0004         38.0004
 -20025055.36048 -15598052.29847  22224386.5364   22224392.6384   22224387.219
        48.0004         44.0004
  -9974617.72749  -7752572.22648  20629276.9974   20629282.8384   20629276.984
        54.0004         49.0004
 -10747413.18847  -8344928.76647  22596420.1314   22596424.8894   22596419.820
        47.0004         42.0004
 -12546692.70948  -9756668.40047  22007270.5144   22007275.2344   22007269.972
        50.0004         45.0004
 -21794234.25548 -16936485.06747  20659027.9964   20659034.3094   20659028.393
        52.0004         47.0004
   -591024.52546   -413696.18745  25435565.8464   25435576.7504   25435563.365
        41.0004         35.0004
  -7815979.67447  -6036537.22646  23662236.7454   23662242.9274   23662236.262
        46.0004         41.0004
 -26411138.86349 -20532660.36248  20293099.9664   20293105.2344   20293099.460
        54.0004         49.0004
 -12825416.54048  -9957185.21147  22087104.6154   22087110.1334   22087104.944
        49.0004         44.0004
 14  5 20  0 56  0.0000000  0 10G26G10G09G07G02G08G05G17G04G28
     69885.02947     74066.14446  24237838.0694   24237848.6384   24237838.628
        43.0004         38.0004
 -20096332.50648 -15653592.86347  22210821.7974   22210829.8644   22210823.701
        48.0004         44.0004
  -9914878.49549  -7706022.15948  20640645.3834   20640650.5304   20640645.230
        54.0004         49.0004
 -10646709.90347  -8266458.67847  22615583.7824   22615588.6384   22615583.059
        47.0004         42.0004
 -12595720.72648  -9794871.98447  21997940.4814   21997944.7104   21997940.841
        50.0004         45.0004
 -21725021.15148 -16882552.77147  20672198.5344   20672205.0404   20672198.929
        52.0004         47.0004
   -671881.95546   -476701.65946  25420178.5004   25420188.6914   25420176.667
        41.0004         36.0004
  -7787092.65647  -6014027.81546  23667733.0254   23667739.9604   23667732.833
        45.0004         40.0004
 -26409652.01349 -20531501.74748  20293382.4834   20293388.3774   20293382.032
        54.0004         49.0004
 -12881385.25848 -10000797.10847  22076453.9964   22076460.0574   22076453.705
        49.0004         44.0004
 14  5 20  0 56 30.0000000  0 10G26G10G09G07G02G08G05G17G04G28
     85832.84947     86493.15446  24240874.3834   24240883.7334   24240873.566
        42.0004         38.0004
 -20167560.75648 -15709095.31847  22197268.9664   22197274.2124   22197269.001
        48.0004         44.0004
  -9854710.77948  -7659138.21048  20652094.1694   20652100.2514   20652094.228
        53.0004         49.0004
 -10545839.21447  -8187858.14947  22634778.2704   22634784.3714   22634777.897
        47.0004         42.0004
 -12644322.77348  -9832743.62247  21988691.0224   21988695.5714   21988691.623
        50.0004         45.0004
 -21655317.54048 -16828238.26547  20685462.9954   20685468.6284   20685463.284
        52.0004         47.0004
   -752954.87646   -539875.04346  25404749.8934   25404759.5124   25404748.855
        41.0004         36.0004
  -7758410.07747  -5991677.71746  23673191.0644   23673198.6504   23673191.038
        45.0004         40.0004
 -26407619.83849 -20529918.19948  20293769.2004   20293774.9144   20293768.831
        54.0004         49.0004
 -12937219.64848 -10044304.33747  22065828.5154   22065835.1184   22065828.679
        49.0004         44.0004
 14  5 20  0 57  0.0000000  0 10G26G10G09G07G02G08G05G17G04G28
    101828.36047     98957.33946  24243916.3404   24243926.5984   24243916.199
        42.0004         38.0004
 -20238733.93248 -15764554.86247  22183724.8424   22183731.1644   22183725.131
        49.0004         44.0004
  -9794113.74848  -7611919.72948  20663626.2584   20663631.4444   20663625.873
        53.0004         49.0004
 -10444800.25347  -8109126.48547  22654004.8594   22654010.8984   22654004.959
        47.0004         42.0004
 -12692494.33448  -9870279.83747  21979525.2884   21979529.1684   21979524.799
        50.0004         45.0004
 -21585122.43948 -16773540.77547  20698820.2824   20698826.6624   20698820.508
        52.0004         47.0004
   -834238.35946   -603212.49946  25389282.3964   25389291.4044   25389280.952
        41.0004         37.0004
  -7729929.54647  -5969485.04846  23678611.6374   23678619.2104   23678610.681
        45.0004         41.0004
 -26405039.20749 -20527907.29348  20294259.8924   20294266.1344   20294260.074
        54.0004         49.0004
 -12992912.81248 -10087701.53947  22055230.1454   22055236.3444   22055230.669
        49.0004         44.0004
 14  5 20  0 57 30.0000000  0 10G26G10G09G07G02G08G05G17G04G28
    117863.02847    111452.02046  24246968.4724   24246978.3454   24246968.440
        43.0004         38.0004
 -20309855.60848 -15819974.28147  22170190.6094   22170196.2004   22170191.335
        48.0004         44.0004
  -9733096.21648  -7564373.58648  20675236.8894   20675242.4904   20675237.109
        53.0004         49.0004
 -10343602.29047  -8030270.93047  22673262.4814   22673267.6214   22673262.113
        47.0004         42.0004
 -12740240.47248  -9907484.54747  21970438.6264   21970443.9174   21970439.588
        50.0004         45.0004
 -21514445.08748 -16718467.50947  20712269.6134   20712276.9324   20712270.548
        52.0004         47.0004
   -915737.04946   -666717.65446  25373773.5464   25373784.4574   25373771.914
        41.0004         36.0004
  -7701658.12947  -5947455.32646  23683990.5574   23683998.4784   23683990.466
        45.0004         40.0004
 -26401917.09549 -20525474.44448  20294854.2904   20294859.7614   20294853.966
        54.0004         49.0004
 -13048467.82948 -10130991.08147  22044659.3634   22044664.5604   22044659.062
        49.0004         44.0004
 14  5 20  0 58  0.0000000  0 10G26G10G09G07G02G08G05G17G04G28
    133941.22047    123980.62146  24250027.3574   24250038.3594   24250027.311
        43.0004         38.0004
 -20380916.21248 -15875346.11447  22156667.6164   22156674.6224   22156668.967
        49.0004         44.0004
  -9671654.38248  -7516496.82248  20686928.8404   20686934.8264   20686929.044
        53.0004         49.0004
 -10242241.85847  -7951288.78447  22692550.8594   22692556.9464   22692550.899
        47.0004         42.0004
 -12787554.14748  -9944352.27547  21961435.5524   21961439.3824   21961435.148
        50.0004         45.0004
 -21443281.89648 -16663015.67147  20725812.2044   20725817.6534   20725812.151
        52.0004         47.0004
   -997443.93246   -730385.03246  25358224.4124   25358234.4004   25358222.831
        41.0004         36.0004
  -7673589.88847  -5925583.92046  23689332.0384   23689339.5994   23689331.679
        45.0004         40.0004
 -26398247.53648 -20522615.01648  20295552.7404   20295558.4904   20295552.390
        53.0004         49.0004
 -13103875.70148 -10174165.97047  22034114.7604   22034120.5094   22034115.122
        49.0004         44.0004
 14  5 20  0 58 30.0000000  0 10G26G10G09G07G02G08G05G17G04G28
    150055.53447    136537.37246  24253094.3094   24253102.8524   24253094.049
        43.0004         38.0004
 -20451918.54348 -15930672.54247  22143156.7004   22143163.9494   22143157.424
        49.0004         44.0004
  -9609796.23348  -7468295.65848  20698700.4324   20698705.4874   20698700.401
        53.0004         49.0004
 -10140726.98247  -7872186.29747  22711868.0264   22711874.1544   22711868.019
        47.0004         42.0004
 -12834439.36048  -9980886.13047  21952513.4154   21952516.7574   21952513.777
        50.0004         45.0004
 -21371640.99548 -16607191.58947  20739444.8184   20739450.6374   20739445.133
        52.0004         47.0004
  -1079362.83246   -794217.60745  25342635.7134   25342646.3034   25342634.447
        40.0004         35.0004
  -7645730.71947  -5903875.42846  23694634.0104   23694641.7264   23694632.542
        45.0004         40.0004
 -26394036.67048 -20519333.79748  20296354.0074   20296359.6704   20296353.385
        53.0004         49.0004
 -13159138.18748 -10217227.57247  22023598.7314   22023603.8414   22023599.193
        49.0004         44.0004
 14  5 20  0 59  0.0000000  0 10G26G10G09G07G02G08G05G17G04G28
    166205.79047    149122.11946  24256167.2364   24256176.9434   24256167.335
        43.0004         38.0004
 -20522857.88648 -15985949.88847  22129656.8924   22129663.5864   22129658.192
        49.0004         44.0004
  -9547522.58348  -7419770.72548  20710550.4054   20710556.3384   20710550.265
        53.0004         49.0004
 -10039058.83547  -7792964.37647  22731215.5514   22731220.9174   22731214.586
        47.0004         42.0004
 -12880892.90148 -10017083.62447  21943673.4624   21943677.6004   21943673.704
        50.0004         45.0004
 -21299523.37148 -16550996.03547  20753168.1464   20753174.1974   20753168.688
        52.0004         47.0004
  -1161490.04946   -858212.51246  25327005.6384   25327015.7754   25327006.162
        40.0004         36.0004
  -7618080.12947  -5882329.46146  23699895.4174   23699901.7054   23699894.458
        45.0004         40.0004
 -26389283.15148 -20515629.72848  20297258.5884   20297263.8314   20297258.124
        53.0004         49.0004
 -13214250.31748 -10260172.00247  22013109.9264   22013115.9404   22013110.895
        49.0004         44.0004
 14  5 20  0 59 30.0000000  0 10G26G10G09G07G02G08G05G17G04G28
    182390.86247    161733.99746  24259247.5354   24259257.6494   24259246.896
        43.0004         39.0004
 -20593730.03348 -16041174.87347  22116170.4574   22116177.1684   22116171.628
        49.0004         44.0004
  -9484835.05248  -7370923.28648  20722479.3074   20722485.4874   20722479.411
        53.0004         49.0004
  -9937239.13047  -7713624.34247  22750591.3694   22750596.4234   22750590.804
        47.0004         42.0004
 -12926913.24648 -10052943.55847  21934915.5424   21934920.2924   21934916.436
        50.0004         45.0004
 -21226930.93248 -16494430.49147  20766982.0064   20766988.1184   20766982.501
        52.0004         47.0004
  -1243823.60446   -922368.20945  25311338.9234   25311348.8064   25311338.429
        40.0004         35.0004
  -7590637.77147  -5860945.75046  23705117.6274   23705124.3544   23705116.904
        45.0004         40.0004
 -26383986.85248 -20511502.71648  20298266.0414   20298271.8624   20298265.783
        53.0004         49.0004
 -13269208.06448 -10302996.14947  22002653.4394   22002658.8794   22002653.210
        49.0004         44.0004
 14  5 20  1  0  0.0000000  0 10G26G10G09G07G02G08G05G17G04G28
    198606.34547    174369.56946  24262333.3394   24262342.6994   24262332.881
        43.0004         38.0004
 -20664534.81448 -16096347.37547  22102696.7204   22102702.9824   22102697.547
        49.0004         44.0004
  -9421738.93448  -7321757.47148  20734486.5354   20734491.8974   20734486.376
        53.0004         49.0004
  -9835273.11147  -7634170.32147  22769994.6124   22769999.5344   22769995.094
        47.0004         42.0004
 -12972501.83348 -10088467.06347  21926240.2144   21926245.0444   21926241.306
        50.0004         45.0004
 -21153868.81248 -16437498.96847  20780885.7164   20780891.6764   20780885.932
        52.0004         47.0004
  -1326363.98746   -986685.07546  25295630.8294   25295641.8434   25295631.113
        40.0004         36.0004
  -7563406.55147  -5839726.56346  23710299.2144   23710306.7354   23710298.800
        45.0004         41.0004
 -26378150.98148 -20506955.26048  20299376.9874   20299382.5094   20299376.525
        53.0004         49.0004
 -13324010.97848 -10345699.63647  21992223.8684   21992228.9114   21992224.248
        49.0004         44.0004
 14  5 20  1  0 30.0000000  0 10G26G10G09G07G02G08G05G17G04G28
    214851.39847    187028.19746  24265424.1294   24265433.3124   24265423.039
        43.0004         38.0004
 -20735268.12148 -16151464.16647  22089236.9994   22089243.8914   22089237.648
        49.0004         44.0004
  -9358235.38948  -7272274.17848  20746570.7144   20746576.5714   20746570.586
        53.0004         49.0004
  -9733162.27047  -7554603.43547  22789426.3424   22789431.5544   22789425.530
        47.0004         42.0004
 -13017656.39248 -10123652.36147  21917647.9664   21917652.1204   21917648.195
        50.0004         45.0004
 -21080338.53348 -16380202.64247  20794877.5384   20794883.7764   20794877.914
        51.0004         47.0004
  -1409108.92146  -1051161.34146  25279886.8134   25279897.4314   25279885.450
        40.0004         36.0004
  -7536385.58847  -5818671.20846  23715441.0234   23715448.3694   23715440.478
        45.0004         41.0004
 -26371774.74348 -20501986.74048  20300590.1134   20300595.9634   20300589.793
        53.0004         49.0004
 -13378654.14948 -10388278.65247  21981825.8344   21981831.9404   21981826.222
        49.0004         44.0004
 14  5 20  1  1  0.0000000  0 10G26G10G09G07G02G08G05G17G04G28
    231123.85547    199708.15446  24268520.0024   24268530.1184   24268520.365
        43.0004         38.0004
 -20805926.89148 -16206522.88747  22075791.4744   22075797.9524   22075792.123
        49.0004         44.0004
  -9294327.10748  -7222475.50948  20758731.8994   20758737.6314   20758731.850
        53.0004         49.0004
  -9630909.65847  -7474926.09147  22808883.7794   22808889.2484   22808883.191
        47.0004         42.0004
 -13062376.11648 -10158498.83047  21909138.0954   21909142.2474   21909138.513
        50.0004         45.0004
 -21006343.21648 -16322543.95447  20808958.7184   20808964.6904   20808958.935
        51.0004         47.0004
  -1492056.90346  -1115795.81746  25264101.0364   25264110.3614   25264101.099
        40.0004         36.0004
  -7509576.00247  -5797780.56546  23720542.6374   23720548.9334   23720542.070
        45.0004         41.0004
 -26364859.07049 -20496597.87648  20301905.7914   20301911.7674   20301905.896
        54.0004         49.0004
 -13433134.93948 -10430731.13647  21971458.3774   21971464.0064   21971458.862
        49.0004         44.0004
 14  5 20  1  1 30.0000000  0 10G26G10G09G07G02G08G05G17G04G28
    247420.16747    212406.71046  24271620.1444   24271629.4524   24271621.084
        43.0004         38.0004
 -20876509.90148 -16261522.56947  22062359.1934   22062366.0674   22062360.255
        49.0004         44.0004
  -9230018.64648  -7172365.01048  20770969.4264   20770975.2844   20770969.451
        53.0004         49.0004
  -9528519.68447  -7395141.70447  22828367.9884   22828373.6774   22828367.927
        46.0004         42.0004
 -13106661.73148 -10193007.02247  21900711.0824   21900715.4184   21900711.118
        50.0004         46.0004
 -20931887.31048 -16264526.36047  20823126.8744   20823132.7294   20823127.119
        51.0004         47.0004
  -1575208.12146  -1180588.65146  25248277.3934   25248288.2054   25248277.998
        41.0004         36.0004
  -7482980.04347  -5777056.38846  23725602.7284   23725610.7974   23725603.160
        45.0004         41.0004
 -26357406.48048 -20490790.64248  20303324.5624   20303329.7264   20303323.986
        53.0004         49.0004
 -13487451.74748 -10473055.83947  21961122.1394   21961128.3184   21961122.863
        49.0004         45.0004
 14  5 20  1  2  0.0000000  0 10G26G10G09G07G02G08G05G17G04G28
    263739.09547    225122.87646  24274727.2344   24274735.7784   24274725.979
        43.0004         38.0004
 -20947013.55048 -16316460.42047  22048943.4094   22048949.2214   22048944.000
        49.0004         44.0004
  -9165311.64048  -7121943.95948  20783283.0984   20783288.6294   20783282.921
        53.0004         49.0004
  -9425994.25747  -7315251.77647  22847877.6994   22847884.0044   22847877.801
        46.0004         42.0004
 -13150511.08748 -10227175.28047  21892366.2034   21892370.9934   21892366.705
        50.0004         45.0004
 -20856972.95148 -16206151.52947  20837382.5094   20837388.5454   20837382.868
        51.0004         47.0004
  -1658560.21646  -1245538.05346  25232415.2304   25232424.0864   25232415.852
        40.0004         36.0004
  -7456597.36047  -5756498.40346  23730624.5564   23730631.3074   23730623.710
        45.0004         41.0004
 -26349416.67548 -20484564.79148  20304844.3334   20304850.4554   20304844.135
        53.0004         49.0004
 -13541600.25348 -10515249.41447  21950817.9264   21950823.6304   21950818.671
        49.0004         45.0004
 14  5 20  1  2 30.0000000  0 10G26G10G09G07G02G08G05G17G04G28
    280079.09847    237855.47746  24277835.9654   24277845.6144   24277836.119
        43.0004         38.0004
 -21017434.27848 -16371333.65847  22035542.7014   22035548.9564   22035543.327
        49.0004         44.0004
  -9100208.24548  -7071214.03248  20795671.9564   20795676.8064   20795671.562
        53.0004         49.0004
  -9323335.63047  -7235258.04746  22867413.3524   22867418.3794   22867412.973
        46.0004         41.0004
 -13193922.92148 -10261002.61047  21884105.5444   21884108.7114   21884105.741
        50.0004         45.0004
 -20781602.35448 -16147421.19447  20851725.2064   20851731.2264   20851725.607
        51.0004         47.0004
  -1742111.36546  -1310642.53646  25216517.1214   25216526.8004   25216516.065
        40.0004         36.0004
  -7430428.42247  -5736106.95946  23735604.3784   23735610.8064   23735603.438
        46.0004         41.0004
 -26340890.08448 -20477920.66848  20306467.0634   20306472.7944   20306466.968
        53.0004         49.0004
 -13595577.26848 -10557309.35247  21940546.4004   21940552.0134   21940546.993
        49.0004         45.0004
 14  5 20  1  3  0.0000000  0 10G26G10G09G07G02G08G05G17G04G28
    296436.99147    250602.01146  24280947.9474   24280958.4404   24280947.527
        42.0004         38.0004
 -21087770.39848 -16426140.96847  22022158.4614   22022164.2144   22022158.539
        49.0004         44.0004
  -9034712.68048  -7020178.52348  20808135.0924   20808140.4444   20808135.182
        53.0004         49.0004
  -9220547.79547  -7155163.63946  22886973.6184   22886977.9404   22886972.492
        46.0004         41.0004
 -13236897.78248 -10294489.45347  21875927.7264   21875931.4274   21875927.843
        50.0004         45.0004
 -20705779.85848 -16088338.72847  20866153.6764   20866159.8064   20866154.218
        51.0004         47.0004
  -1825860.90146  -1375901.63546  25200577.5994   25200590.0814   25200579.162
        40.0004         36.0004
  -7404474.95247  -5715883.41246  23740542.8754   23740550.0744   23740542.436
        46.0004         41.0004
 -26331828.78449 -20470859.89148  20308191.5674   20308197.5674   20308191.185
        54.0004         49.0004
 -13649380.60048 -10599233.95447  21930308.8354   21930314.4914   21930308.542
        49.0004         45.0004
 14  5 20  1  3 30.0000000  0 10G26G10G09G07G02G08G05G17G04G28
    312810.73347    263360.88746  24284063.9904   24284073.8184   24284064.065
        42.0004         38.0004
 -21158018.80148 -16480879.92347  22008790.4034   22008796.9434   22008790.855
        49.0004         44.0004
  -8968827.59348  -6968839.48248  20820672.4424   20820677.9314   20820672.282
        53.0004         48.0004
  -9117633.53947  -7074970.72446  22906556.5384   22906562.9054   22906556.108
        46.0004         41.0004
 -13279434.62248 -10327634.97347  21867832.4924   21867837.1334   21867833.359
        50.0004         45.0004
 -20629508.16848 -16028906.24047  20880667.8594   20880673.8494   20880668.333
        51.0004         47.0004
  -1909807.22546  -1441314.04346  25184605.8044   25184615.8504   25184605.057
        41.0004         36.0004
  -7378737.20047  -5695827.97446  23745439.3724   23745447.2754   23745440.276
        46.0004         41.0004
 -26322233.42649 -20463382.96548  20310017.7264   20310022.8194   20310017.111
        54.0004         49.0004
 -13703006.96248 -10641020.65847  21920102.7734   21920108.8174   21920103.710
        50.0004         45.0004
 14  5 20  1  4  0.0000000  0 10G26G10G09G07G02G08G05G17G04G28
    329197.32647    276129.78446  24287182.8284   24287191.0204   24287182.922
        42.0004         38.0004
 -21228177.54048 -16535549.01647  21995439.2994   21995445.2124   21995440.009
        49.0004         44.0004
  -8902556.62948  -6917199.76248  20833283.5134   20833288.8724   20833283.490
        53.0004         48.0004
  -9014596.72647  -6994682.31646  22926163.3274   22926170.2194   22926163.671
        46.0004         41.0004
 -13321533.70948 -10360439.38947  21859821.6304   21859825.7294   21859821.700
        50.0004         45.0004
 -20552791.31348 -15969126.87247  20895266.6614   20895272.6724   20895266.729
        51.0004         47.0004
  -1993949.88046  -1506879.49246  25168593.4514   25168602.1234   25168592.007
        41.0004         36.0004
  -7353217.27547  -5675942.25546  23750296.0934   23750302.9814   23750296.126
        46.0004         41.0004
 -26312106.13249 -20455491.54548  20311944.8754   20311950.3644   20311944.453
        54.0004         49.0004
 -13756454.38948 -10682667.92947  21909931.7224   21909938.9934   21909932.740
        50.0004         45.0004
 14  5 20  1  4 30.0000000  0 10G26G10G09G07G02G08G05G17G04G28
    345596.18547    288908.24146  24290303.0604   24290312.0594   24290302.511
        42.0004         38.0004
 -21298242.51748 -16590145.04847  21982105.6954   21982112.6664   21982106.684
        49.0004         44.0004
  -8835901.25148  -6865260.49748  20845967.4394   20845972.7634   20845967.278
        53.0004         48.0004
  -8911438.79347  -6914299.53046  22945793.3704   22945800.5274   22945793.870
        46.0004         41.0004
 -13363192.71248 -10392900.87947  21851894.2704   21851897.9324   21851894.778
        50.0004         45.0004
 -20475630.98548 -15909001.93547  20909949.9944   20909956.0724   20909950.175
        51.0004         46.0004
  -2078286.24746  -1572595.86346  25152542.9014   25152553.1954   25152543.708
        41.0004         36.0004
  -7327913.99247  -5656225.36946  23755111.4374   23755118.3324   23755111.146
        46.0004         41.0004
 -26301446.34149 -20447185.19448  20313972.9364   20313978.6064   20313972.533
        54.0004         49.0004
 -13809718.27148 -10724172.19047  21899797.0244   21899802.0634   21899797.176
        50.0004         45.0004
 14  5 20  1  5  0.0000000  0 10G26G10G09G07G02G08G05G17G04G28
    362003.58547    301693.35046  24293424.9564   24293433.9554   24293425.287
        42.0004         38.0004
 -21368212.33748 -16644666.92847  21968791.8774   21968797.0024   21968791.925
        49.0004         44.0004
  -8768865.82448  -6813025.09248  20858723.7064   20858729.4084   20858723.936
        53.0004         48.0004
  -8808163.98447  -6833825.67246  22965446.6824   22965452.4044   22965446.251
        46.0004         41.0004
 -13404412.65448 -10425020.24647  21844049.3964   21844054.7144   21844050.097
        50.0004         45.0004
 -20398031.97848 -15848535.17547  20924716.2714   20924722.0544   20924716.261
        51.0004         46.0004
  -2162816.05246  -1638462.95146  25136457.6364   25136465.8624   25136456.932
        41.0004         36.0004
  -7302829.70947  -5636679.11946  23759884.3354   23759891.5434   23759884.023
        45.0004         41.0004
 -26290256.59549 -20438465.88848  20316102.6244   20316107.5164   20316102.144
        54.0004         49.0004
 -13862797.08148 -10765532.22647  21889695.8224   21889701.8224   21889696.322
        50.0004         45.0004
 14  5 20  1  5 30.0000000  0 10G26G10G09G07G02G08G05G17G04G28
    378418.08947    314483.99246  24296548.0374   24296557.9584   24296548.120
        42.0004         38.0004
 -21438083.33548 -16699111.80747  21955495.3514   21955501.4634   21955496.050
        49.0004         44.0004
  -8701452.69748  -6760495.37648  20871552.2414   20871557.6804   20871552.259
        53.0004         48.0004
  -8704774.51247  -6753262.46846  22985121.6504   22985127.7974   22985120.890
        46.0004         41.0004
 -13445192.07648 -10456796.34947  21836290.0194   21836294.2344   21836290.487
        50.0004         45.0004
 -20319996.50348 -15787728.31047  20939565.2484   20939572.4284   20939566.290
        51.0004         46.0004
  -2247537.25946  -1704479.18546  25120333.6274   25120346.4104   25120335.287
        41.0004         36.0004
  -7277964.46347  -5617303.53546  23764616.3264   23764623.0154   23764616.004
        45.0004         41.0004
 -26278537.44749 -20429334.06848  20318332.6674   20318338.0784   20318332.010
        54.0004         49.0004
 -13915687.07748 -10806745.14947  21879631.5144   21879636.7814   21879631.858
        49.0004         45.0004
 14  5 20  1  6  0.0000000  0 10G26G10G09G07G02G08G05G17G04G28
    394836.88747    327277.99646  24299673.3004   24299681.8894   24299672.683
        42.0004         38.0004
 -21507853.35848 -16753478.00847  21942218.4264   21942225.2454   21942219.344
        49.0004         45.0004
  -8633665.03748  -6707673.81348  20884451.8444   20884457.2274   20884451.860
        53.0004         48.0004
  -8601273.98747  -6672612.72346  23004815.9834   23004822.1084   23004816.461
        46.0004         41.0004
 -13485531.04948 -10488229.24647  21828613.7734   21828617.6534   21828613.779
        50.0004         45.0004
 -20241528.22548 -15726584.19547  20954497.8194   20954504.0164   20954498.101
        51.0004         46.0004
  -2332449.17846  -1770644.02146  25104176.8454   25104185.8484   25104176.243
        41.0004         36.0004
  -7253319.40647  -5598099.52246  23769306.5674   23769313.9324   23769305.912
        45.0004         41.0004
 -26266290.72849 -20419791.14748  20320662.9394   20320668.3074   20320662.698
        54.0004         49.0004
 -13968385.83648 -10847809.04847  21869603.7364   21869608.5394   21869603.353
        49.0004         45.0004
 14  5 20  1  6 30.0000000  0 10G26G10G09G07G02G08G05G17G04G28
    411258.99347    340074.56446  24302799.2014   24302807.0724   24302798.012
        42.0004         38.0004
 -21577518.30448 -16807762.32647  21928961.8154   21928968.4154   21928962.142
        49.0004         45.0004
  -8565504.94048  -6654562.04148  20897422.3984   20897427.4474   20897422.120
        53.0004         48.0004
  -8497664.25947  -6591877.89446  23024532.6324   23024538.1144   23024533.018
        46.0004         41.0004
 -13525428.03548 -10519317.73747  21821021.5794   21821026.1244   21821021.935
        50.0004         46.0004
 -20162629.37048 -15665104.56547  20969511.5594   20969517.4754   20969512.182
        51.0004         46.0004
  -2417549.43446  -1836955.62346  25087982.0524   25087991.9144   25087982.181
        41.0004         37.0004
  -7228894.35447  -5579066.95346  23773954.9674   23773961.1184   23773953.491
        45.0004         41.0004
 -26253516.33549 -20409837.05248  20323093.7494   20323099.2604   20323093.438
        54.0004         49.0004
 -14020889.19248 -10888720.69447  21859613.0314   21859617.6434   21859612.668
        50.0004         45.0004
 14  5 20  1  7  0.0000000  0 10G26G10G09G07G02G08G05G17G04G28
    427680.95947    352871.02946  24305922.0964   24305932.9204   24305921.635
        42.0004         38.0004
 -21647076.69148 -16861963.60647  21915725.3434   21915731.4164   21915725.883
        49.0004         45.0004
  -8496976.62848  -6601163.34648  20910462.9684   20910468.7314   20910462.940
        53.0004         48.0004
  -8393949.46747  -6511061.18546  23044269.0274   23044274.8864   23044269.492
        46.0004         41.0004
 -13564883.40948 -10550062.12047  21813513.5094   21813517.5344   21813513.553
        50.0004         46.0004
 -20083304.34648 -15603292.85147  20984607.1094   20984613.7354   20984607.057
        51.0004         46.0004
  -2502837.38446  -1903413.45846  25071752.5404   25071763.6254   25071752.711
        41.0004         36.0004
  -7204691.29647  -5560207.36946  23778559.6534   23778567.3364   23778559.538
        45.0004         41.0004
 -26240216.54349 -20399473.55848  20325624.4794   20325630.3904   20325624.253
        54.0004         49.0004
 -14073195.56548 -10929478.84647  21849658.5734   21849663.8974   21849658.673
        50.0004         45.0004
 14  5 20  1  7 30.0000000  0 10G26G10G09G07G02G08G05G17G04G28
    444101.79947    365666.60646  24309047.1044   24309055.9254   24309047.511
        42.0004         38.0004
 -21716524.90148 -16916079.03547  21902509.7334   21902515.7874   21902509.901
        49.0004         45.0004
  -8428081.86348  -6547479.10548  20923572.5044   20923578.6724   20923572.863
        53.0004         48.0004
  -8290131.35547  -6430163.97946  23064025.7724   23064030.4144   23064024.955
        46.0004         41.0004
 -13603895.52048 -10580461.10547  21806089.8814   21806094.1094   21806089.983
        50.0004         46.0004
 -20003555.05148 -15541150.54247  20999782.5594   20999788.4414   20999783.036
        51.0004         46.0004
  -2588310.46546  -1970015.56246  25055487.9764   25055499.4094   25055487.649
        41.0004         37.0004
  -7180709.51247  -5541520.20446  23783123.9474   23783130.2864   23783122.809
        45.0004         41.0004
 -26226391.60349 -20388700.85648  20328255.4034   20328260.8574   20328255.151
        54.0004         49.0004
 -14125300.65048 -10970080.14347  21839743.2864   21839748.0934   21839743.329
        50.0004         45.0004
 14  5 20  1  8  0.0000000  0 10G26G10G09G07G02G08G05G17G04G28
    460519.15447    378459.46946  24312172.1794   24312181.4874   24312171.809
        42.0004         38.0004
 -21785860.08548 -16970106.40147  21889315.0034   21889321.7264   21889315.726
        49.0004         45.0004
  -8358823.64648  -6493511.65048  20936752.2294   20936757.7564   20936752.186
        53.0004         48.0004
  -8186212.82747  -6349188.52946  23083800.5844   23083805.8504   23083800.654
        46.0004         41.0004
 -13642464.50048 -10610514.79647  21798749.7894   21798754.6544   21798750.303
        50.0004         46.0004
 -19923385.19248 -15478680.51747  21015038.8574   21015044.8604   21015038.874
        51.0004         46.0004
  -2673967.33946  -2036760.87146  25039186.5994   25039196.9034   25039186.713
        41.0004         37.0004
  -7156949.95847  -5523006.21346  23787644.4644   23787651.2724   23787643.878
        45.0004         41.0004
 -26212042.99049 -20377520.10648  20330986.1254   20330991.1234   20330985.493
        54.0004         49.0004
 -14177201.63948 -11010522.41247  21829866.4024   21829872.5014   21829866.847
        50.0004         45.0004
 14  5 20  1  8 30.0000000  0 10G26G10G09G07G02G08G05G17G04G28
    476930.69347    391247.80846  24315293.2284   24315303.4514   24315293.635
        42.0004         38.0004
 -21855079.42848 -17024043.49647  21876143.6974   21876150.3104   21876144.103
        50.0004         45.0004
  -8289205.22248  -6439263.51848  20950000.2634   20950005.6624   20950000.218
        53.0004         48.0004
  -8082197.40647  -6268137.58446  23103594.1994   23103599.8754   23103594.233
        46.0004         41.0004
 -13680589.51348 -10640222.53247  21791494.7704   21791499.1294   21791495.542
        50.0004         46.0004
 -19842798.06648 -15415885.35447  21030374.1794   21030380.0214   21030374.109
        51.0004         46.0004
  -2759807.08046  -2103648.69246  25022850.9934   25022862.5694   25022851.822
        41.0004         37.0004
  -7133413.54547  -5504666.08246  23792123.6784   23792130.5304   23792123.115
        46.0004         41.0004
 -26197172.11949 -20365932.39548  20333815.5064   20333821.3314   20333815.385
        54.0004         49.0004
 -14228895.66048 -11050803.41847  21820029.5674   21820034.8404   21820029.827
        50.0004         45.0004
 14  5 20  1  9  0.0000000  0 10G26G10G09G07G02G08G05G17G04G28
    493331.48047    404027.76346  24318415.6784   24318424.2224   24318415.698
        42.0004         38.0004
 -21924182.65548 -17077890.10547  21862992.8624   21862999.7414   21862993.963
        50.0004         45.0004
  -8219232.29348  -6384739.14848  20963315.5864   20963320.8934   20963315.554
        53.0004         48.0004
  -7978090.34547  -6187015.24646  23123405.3424   23123410.3324   23123405.074
        46.0004         41.0004
 -13718272.63748 -10669585.94847  21784324.2204   21784328.4454   21784324.346
        50.0004         46.0004
 -19761799.49648 -15352769.58547  21045786.7014   21045793.6804   21045787.740
        51.0004         46.0004
  -2845830.82347  -2170679.87946  25006482.9444   25006491.0624   25006481.952
        42.0004         37.0004
  -7110103.63047  -5486502.44846  23796557.7974   23796566.8974   23796558.518
        46.0004         41.0004
 -26181783.14649 -20353940.97048  20336744.3004   20336749.8514   20336743.827
        54.0004         49.0004
 -14280382.47048 -11090922.94947  21810231.1334   21810236.9494   21810231.977
        50.0004         45.0004
 14  5 20  1  9 30.0000000  0 10G26G10G09G07G02G08G05G17G04G28
    509723.65547    416801.00446  24321533.8534   24321542.9074   24321534.486
        42.0004         38.0004
 -21993162.97048 -17131640.94247  21849866.0674   21849873.7584   21849867.082
        50.0004         45.0004
  -8148903.76148  -6329937.68248  20976698.4664   20976703.9364   20976698.539
        53.0004         48.0004
  -7873890.31347  -6105820.44446  23143234.0474   23143238.6274   23143233.892
        46.0004         41.0004
 -13755509.80548 -10698601.86447  21777238.1064   21777242.8614   21777238.371
        50.0004         46.0004
 -19680388.35748 -15289332.32747  21061279.5014   21061285.4534   21061279.640
        51.0004         46.0004
  -2932032.65947  -2237849.84646  24990078.4264   24990087.2054   24990077.570
        42.0004         37.0004
  -7087016.54447  -5468512.44846  23800951.7284   23800959.6944   23800951.978
        45.0004         41.0004
 -26165872.99549 -20341543.43348  20339771.6394   20339777.0234   20339771.302
        54.0004         49.0004
 -14331655.04448 -11130875.55247  21800474.9304   21800480.1804   21800475.549
        50.0004         45.0004
 14  5 20  1 10  0.0000000  0 10G26G10G09G07G02G08G05G17G04G28
    526103.48447    429564.62446  24324651.5304   24324659.6624   24324650.629
        42.0004         38.0004
 -22062019.13648 -17185295.03647  21836764.2754   21836770.7034   21836764.974
        50.0004         45.0004
  -8078224.04448  -6274862.56948  20990148.7404   20990153.9834   20990148.771
        53.0004         48.0004
  -7769601.78147  -6024556.67546  23163079.2984   23163083.3004   23163079.192
        46.0004         41.0004
 -13792302.30248 -10727271.28147  21770237.2934   21770241.3504   21770237.009
        50.0004         46.0004
 -19598569.69748 -15225577.51847  21076848.6454   21076854.8764   21076849.251
        51.0004         46.0004
  -3018412.66647  -2305158.63546  24973640.4594   24973650.0814   24973639.629
        42.0004         37.0004
  -7064154.60947  -5450697.89846  23805302.8904   23805309.9494   23805301.799
        45.0004         40.0004
 -26149444.75749 -20328742.19048  20342897.9004   20342903.2524   20342897.680
        54.0004         49.0004
 -14382711.93748 -11170660.07947  21790759.5064   21790765.0664   21790759.038
        50.0004         45.0004
 14  5 20  1 10 30.0000000  0 10G26G10G09G07G02G08G05G17G04G28
    542466.97547    442315.53546  24327765.9134   24327773.7344   24327765.143
        42.0004         38.0004
 -22130750.32048 -17238851.75147  21823685.1574   21823690.9634   21823685.430
        50.0004         45.0004
  -8007198.24748  -6219517.77848  21003664.2204   21003669.4214   21003664.013
        53.0004         48.0004
  -7665229.61347  -5943227.74546  23182939.3034   23182945.3764   23182940.173
        45.0004         41.0004
 -13828651.19848 -10755595.03647  21763319.3984   21763323.5644   21763319.954
        50.0004         46.0004
 -19516348.70748 -15161509.21147  21092494.7924   21092500.9924   21092495.238
        51.0004         46.0004
  -3104971.43747  -2372606.72446  24957170.3144   24957177.2644   24957168.214
        42.0004         37.0004
  -7041520.10847  -5433060.55746  23809609.1224   23809616.5114   23809608.998
        45.0004         40.0004
 -26132501.38949 -20315539.54348  20346121.8414   20346127.4814   20346121.594
        54.0004         49.0004
 -14433551.67948 -11210275.40947  21781085.3924   21781089.3164   21781085.328
        50.0004         45.0004
 14  5 20  1 11  0.0000000  0 10G26G10G09G07G02G08G05G17G04G28
    558814.32747    455053.83046  24330876.0564   24330884.5294   24330876.162
        42.0004         38.0004
 -22199351.12448 -17292306.86347  21810630.5714   21810637.2574   21810630.865
        50.0004         45.0004
  -7935827.17548  -6163903.94748  21017245.6404   21017251.1974   21017245.840
        53.0004         48.0004
  -7560774.52347  -5861834.19146  23202817.7234   23202822.3484   23202817.178
        45.0004         41.0004
 -13864553.63548 -10783570.91047  21756488.0054   21756492.3734   21756488.299
        51.0004         46.0004
 -19433726.44548 -15097128.22347  21108217.4834   21108223.5124   21108217.869
        51.0004         46.0004
  -3191705.03347  -2440191.04746  24940664.4364   24940671.5504   24940662.622
        42.0004         37.0004
  -7019111.16447  -5415598.99446  23813873.5604   23813881.3584   23813873.781
        45.0004         41.0004
 -26115042.24749 -20301935.00148  20349444.1624   20349449.6784   20349444.152
        54.0004         49.0004
 -14484169.22648 -11249717.60147  21771452.6554   21771457.5734   21771452.596
        50.0004         45.0004
 14  5 20  1 11 30.0000000  0 10G26G10G09G07G02G08G05G17G04G28
    575142.66247    467777.34346  24333981.8894   24333991.4364   24333982.105
        42.0004         38.0004
 -22267819.18848 -17345658.54747  21797601.0344   21797607.0814   21797601.662
        50.0004         45.0004
  -7864114.27048  -6108023.74248  21030892.3194   21030897.9624   21030892.179
        52.0004         48.0004
  -7456239.83147  -5780378.63646  23222709.7214   23222713.4894   23222709.308
        45.0004         40.0004
 -13900010.20648 -10811199.35047  21749740.4894   21749744.4014   21749741.001
        51.0004         46.0004
 -19350706.74448 -15032437.54247  21124015.4234   21124021.6704   21124015.695
        51.0004         46.0004
  -3278612.21547  -2507910.62146  24924126.9894   24924133.8364   24924125.667
        42.0004         37.0004
  -6996929.40747  -5398314.45446  23818094.8584   23818102.0594   23818094.515
        45.0004         41.0004
 -26097069.29349 -20287930.08348  20352864.7124   20352869.8694   20352864.054
        54.0004         49.0004
 -14534562.15548 -11288984.75947  21761862.7174   21761868.7814   21761863.303
        50.0004         45.0004
 14  5 20  1 12  0.0000000  0 10G26G10G09G07G02G08G05G17G04G28
    591448.82347    480483.56546  24337086.4904   24337094.1074   24337085.974
        42.0004         38.0004
 -22336152.92948 -17398905.56047  21784597.4654   21784603.8554   21784598.232
        50.0004         45.0004
  -7792063.71848  -6051880.44448  21044602.8894   21044608.8834   21044603.016
        52.0004         48.0004
  -7351629.61047  -5698864.20946  23242617.3574   23242621.7334   23242616.144
        45.0004         40.0004
 -13935021.49848 -10838480.82447  21743077.8394   21743082.8584   21743078.536
        51.0004         46.0004
 -19267293.98848 -14967440.58347  21139888.8954   21139894.6694   21139888.923
        51.0004         46.0004
  -3365693.02847  -2575765.50846  24907553.8674   24907563.7804   24907553.951
        42.0004         37.0004
  -6974976.59347  -5381208.31146  23822273.0554   23822279.6874   23822272.303
        46.0004         41.0004
 -26078585.24048 -20273526.90648  20356381.7584   20356387.2844   20356381.542
        53.0004         49.0004
 -14584728.71748 -11328075.52947  21752316.2634   21752321.7864   21752316.552
        50.0004         45.0004
 14  5 20  1 12 30.0000000  0 10G26G10G09G07G02G08G05G17G04G28
    607732.97747    493172.62146  24340185.1194   24340192.5734   24340184.323
        42.0004         38.0004
 -22404347.04248 -17452043.77347  21771620.3244   21771627.0914   21771621.558
        50.0004         45.0004
  -7719676.08748  -5995474.48848  21058378.0324   21058383.3834   21058377.911
        52.0004         48.0004
  -7246944.04347  -5617291.06446  23262537.4964   23262541.2714   23262537.345
        45.0004         40.0004
 -13969584.93548 -10865413.32247  21736500.7184   21736505.0154   21736501.141
        51.0004         46.0004
 -19183489.04448 -14902138.02547  21155835.7404   21155841.6444   21155836.432
        50.0004         46.0004
  -3452943.06147  -2643752.25746  24890951.0354   24890958.6574   24890951.742
        42.0004         37.0004
  -6953250.68747  -5364278.97846  23826406.3354   23826413.3194   23826406.136
        45.0004         41.0004
 -26059588.99048 -20258724.61248  20359996.8404   20360002.3634   20359996.413
        53.0004         49.0004
 -14634663.25348 -11366985.50347  21742813.9054   21742819.4134   21742814.160
        50.0004         45.0004
 14  5 20  1 13  0.0000000  0 10G26G10G09G07G02G08G05G17G04G28
    623990.49047    505840.94446  24343278.2754   24343286.8274   24343277.571
        42.0004         38.0004
 -22472401.18748 -17505072.91947  21758670.5034   21758676.9884   21758670.979
        50.0004         45.0004
  -7646957.07348  -5938810.30848  21072215.7774   21072221.9564   21072215.953
        52.0004         48.0004
  -7142189.07247  -5535663.85646  23282471.2624   23282477.6304   23282471.276
        45.0004         40.0004
 -14003702.65848 -10891998.50647  21730008.5934   21730012.1734   21730008.448
        51.0004         46.0004
 -19099297.71448 -14836534.38947  21171857.2184   21171863.1854   21171857.295
        50.0004         46.0004
  -3540364.05447  -2711872.21446  24874315.9924   24874322.9864   24874316.101
        42.0004         37.0004
  -6931754.77847  -5347528.88446  23830497.3204   23830504.6494   23830496.506
        45.0004         41.0004
 -26040084.72648 -20243526.46248  20363708.1784   20363714.0844   20363707.782
        53.0004         49.0004
 -14684365.81048 -11405714.71147  21733355.6394   21733361.2904   21733356.055
        50.0004         45.0004
 14  5 20  1 13 30.0000000  0 10G26G10G09G07G02G08G05G17G04G28
    640220.46047    518487.78246  24346367.3974   24346374.4524   24346366.938
        43.0004         38.0004
 -22540310.98548 -17557989.58947  21745747.2464   21745754.2474   21745748.186
        50.0004         45.0004
  -7573908.46848  -5881889.30748  21086116.8464   21086121.9904   21086116.710
        52.0004         48.0004
  -7037366.05547  -5453983.62146  23302419.1444   23302424.0784   23302418.025
        45.0004         40.0004
 -14037373.38048 -10918235.37247  21723601.2314   21723605.3004   21723601.443
        51.0004         46.0004
 -19014722.08048 -14770631.29147  21187951.6404   21187957.1234   21187951.787
        50.0004         46.0004
  -3627952.75647  -2780122.87346  24857648.4564   24857655.3514   24857647.763
        42.0004         37.0004
  -6910488.23847  -5330957.50746  23834543.8194   23834551.5194   23834543.696
        45.0004         41.0004
 -26020072.68248 -20227932.63748  20367516.7294   20367521.7224   20367516.327
        53.0004         49.0004
 -14733831.75948 -11444259.56247  21723943.6794   21723948.6064   21723943.496
        50.0004         45.0004
 14  5 20  1 14  0.0000000  0 10G26G10G09G07G02G08G05G17G04G28
    656421.26847    531111.91246  24349448.3114   24349456.2774   24349448.747
        43.0004         38.0004
 -22608073.15548 -17610791.22347  21732852.5044   21732859.8574   21732853.522
        50.0004         45.0004
  -7500532.86648  -5824713.50048  21100079.3314   21100084.9904   21100079.494
        52.0004         48.0004
  -6932477.18847  -5372252.06446  23322379.2644   23322383.4394   23322377.617
        44.0004         40.0004
 -14070596.28248 -10944123.30647  21717278.7324   21717282.9544   21717279.165
        51.0004         46.0004
 -18929765.21248 -14704431.12947  21204118.8574   21204123.5034   21204118.530
        50.0004         46.0004
  -3715706.89846  -2848502.45246  24840950.0874   24840956.4884   24840949.126
        41.0004         37.0004
  -6889451.10047  -5314564.89146  23838546.5364   23838554.3374   23838546.717
        45.0004         40.0004
 -25999553.84048 -20211943.91048  20371421.0044   20371426.3684   20371420.666
        53.0004         49.0004
 -14783057.76748 -11482617.43547  21714575.3934   21714580.3144   21714575.533
        50.0004         45.0004
 14  5 20  1 14 30.0000000  0 10G26G10G09G07G02G08G05G17G04G28
    672581.46947    543704.39646  24352525.0864   24352533.0324   24352523.993
        43.0004         38.0004
 -22675694.38448 -17663483.03147  21719984.9764   21719990.9864   21719985.447
        50.0004         45.0004
  -7426842.71548  -5767292.59348  21114102.2344   21114107.8024   21114102.144
        52.0004         48.0004
  -6827534.69547  -5290478.73546  23342348.5954   23342354.1974   23342348.133
        44.0004         40.0004
 -14103380.45948 -10969669.37347  21711040.3524   21711043.9214   21711040.380
        51.0004         46.0004
 -18844439.86148 -14637943.84047  21220354.9184   21220360.9604   21220355.280
        50.0004         46.0004
  -3803634.42046  -2917017.13146  24824215.6634   24824224.2174   24824216.334
        41.0004         37.0004
  -6868653.06947  -5298358.59746  23842504.9694   23842511.5314   23842504.561
        45.0004         41.0004
 -25978539.08048 -20195568.75048  20375419.7214   20375425.2264   20375419.529
        53.0004         49.0004
 -14832050.29048 -11520793.36547  21705252.8484   21705257.6034   21705253.159
        50.0004         45.0004
 14  5 20  1 15  0.0000000  0 10G26G10G09G07G02G08G05G17G04G28
    688715.67947    556276.62146  24355594.7704   24355602.9424   24355594.709
        43.0004         38.0004
 -22743155.29248 -17716049.91647  21707147.6274   21707153.8344   21707148.284
        50.0004         45.0004
  -7352824.39448  -5709615.96548  21128187.2294   21128193.0744   21128187.330
        52.0004         48.0004
  -6722524.67847  -5208652.79646  23362332.2154   23362337.2704   23362331.108
        44.0004         40.0004
 -14135708.98848 -10994860.38447  21704888.4254   21704892.5364   21704889.062
        51.0004         46.0004
 -18758732.44548 -14571158.83547  21236664.0294   21236670.1704   21236665.024
        50.0004         46.0004
  -3891716.85846  -2985652.55346  24807454.9714   24807462.8794   24807454.344
        41.0004         37.0004
  -6848078.25547  -5282326.22746  23846420.0194   23846427.1974   23846419.629
        45.0004         41.0004
 -25957013.52448 -20178795.57048  20379516.2634   20379521.5894   20379515.800
        53.0004         49.0004
 -14880789.59548 -11558771.99347  21695977.4204   21695982.3504   21695977.722
        50.0004         45.0004
 14  5 20  1 15 30.0000000  0 10G26G10G09G07G02G08G05G17G04G28
    704814.33747    568821.14546  24358657.3694   24358666.9034   24358656.983
        42.0004         38.0004
 -22810460.26048 -17768495.28847  21694340.0964   21694345.6104   21694340.592
        50.0004         45.0004
  -7278488.34648  -5651691.76948  21142333.2474   21142338.5994   21142333.185
        52.0004         48.0004
  -6617457.59047  -5126782.38146  23382325.3724   23382332.1924   23382324.623
        44.0004         40.0004
 -14167589.06048 -11019701.95647  21698821.9894   21698825.3494   21698821.797
        51.0004         46.0004
 -18672653.77848 -14504084.54747  21253044.4474   21253050.6624   21253045.106
        50.0004         46.0004
  -3979960.26046  -3054413.40146  24790662.7764   24790670.5094   24790662.334
        41.0004         37.0004
  -6827734.33347  -5266473.77746  23850291.5144   23850298.3744   23850290.877
        46.0004         41.0004
 -25934985.96748 -20161631.22548  20383707.8344   20383713.4134   20383707.435
        53.0004         49.0004
 -14929279.98648 -11596556.65947  21686749.8564   21686755.6714   21686750.845
        50.0004         45.0004
 14  5 20  1 16  0.0000000  0 10G26G10G09G07G02G08G05G17G04G28
    720875.45447    581336.41246  24361714.2734   24361723.0854   24361713.120
        42.0004         38.0004
 -22877606.01048 -17820816.59347  21681562.4304   21681568.5384   21681563.137
        50.0004         45.0004
  -7203837.50548  -5593522.27048  21156538.6534   21156544.2214   21156538.712
        52.0004         48.0004
  -6512336.00847  -5044869.50546  23402328.6284   23402334.3394   23402328.307
        44.0004         40.0004
 -14199020.43348 -11044193.88747  21692840.1394   21692844.1914   21692840.733
        51.0004         46.0004
 -18586206.97748 -14436723.39947  21269495.9934   21269500.8444   21269495.613
        50.0004         45.0004
  -4068362.58946  -3123298.09946  24773838.6364   24773848.4824   24773839.107
        41.0004         37.0004
  -6807621.70347  -5250801.55846  23854118.2264   23854125.6534   23854118.713
        46.0004         41.0004
 -25912458.16948 -20144077.07848  20387995.0894   20387999.7324   20387994.528
        53.0004         49.0004
 -14977518.58148 -11634145.12147  21677571.0284   21677576.3124   21677571.057
        50.0004         45.0004
 14  5 20  1 16 30.0000000  0 10G26G10G09G07G02G08G05G17G04G28
    736893.02347    593817.72846  24364762.4294   24364770.6634   24364762.534
        42.0004         38.0004
 -22944593.88048 -17873014.88047  21668814.7114   21668821.3104   21668815.522
        50.0004         45.0004
  -7128879.26848  -5535113.24648  21170802.8424   21170808.2654   21170802.898
        52.0004         48.0004
  -6407166.83047  -4962919.54246  23422342.5854   23422347.7564   23422341.605
        44.0004         40.0004
 -14230006.87548 -11068339.12447  21686943.9024   21686947.2914   21686944.601
        51.0004         46.0004
 -18499399.64348 -14369081.31347  21286014.3664   21286020.3344   21286014.547
        50.0004         45.0004
  -4156926.25546  -3192308.51446  24756985.3664   24756992.4174   24756985.254
        41.0004         37.0004
  -6787744.75847  -5235312.99846  23857901.7324   23857908.5744   23857901.444
        46.0004         41.0004
 -25889435.48248 -20126137.30948  20392375.5864   20392381.1914   20392375.181
        53.0004         49.0004
 -15025506.42148 -11671538.18647  21668438.6624   21668444.9424   21668438.982
        50.0004         45.0004
 14  5 20  1 17  0.0000000  0 10G26G10G09G07G02G08G05G17G04G28
    752871.73247    606268.78346  24367802.3674   24367810.6094   24367802.419
        42.0004         38.0004
 -23011413.79348 -17925082.28347  21656099.1894   21656105.3824   21656099.910
        50.0004         45.0004
  -7053609.45548  -5476461.43348  21185126.0634   21185131.8704   21185126.014
        52.0004         48.0004
  -6301945.81647  -4880929.18246  23442365.3214   23442370.6664   23442364.635
        44.0004         39.0004
 -14260541.53648 -11092132.32047  21681133.3574   21681136.9314   21681133.141
        51.0004         46.0004
 -18412228.07648 -14301155.41647  21302602.3694   21302607.8124   21302602.637
        50.0004         45.0004
  -4245642.73646  -3261438.01846  24740102.9354   24740111.2914   24740102.961
        41.0004         37.0004
  -6768097.04247  -5220003.05046  23861639.6474   23861646.4944   23861639.275
        46.0004         41.0004
 -25865912.68948 -20107807.84548  20396851.9524   20396857.5274   20396851.674
        53.0004         49.0004
 -15073233.38148 -11708727.98047  21659357.6534   21659362.2444   21659357.047
        50.0004         45.0004
 14  5 20  1 17 30.0000000  0 11G26G10G09G07G30G02G08G05G17G04G28
    768804.66247    618684.17146  24370835.3384   24370844.1844   24370834.549
        43.0004         38.0004
 -23078067.91348 -17977020.50447  21643415.8664   21643422.1204   21643416.090
        50.0004         46.0004
  -6978036.27048  -5417573.23548  21199507.1274   21199512.9984   21199507.445
        52.0004         48.0004
  -6196680.72047  -4798904.47146  23462395.7624   23462402.3664   23462395.821
        44.0004         39.0004
  -1220100.69448   -959255.86147  21458208.4964   21458216.5384   21458208.493
        53.0004         47.0004
 -14290628.98848 -11115577.05047  21675407.7224   21675411.8274   21675408.365
        51.0004         46.0004
 -18324700.64648 -14232952.22047  21319257.9884   21319263.9234   21319258.292
        50.0004         45.0004
  -4334515.53746  -3330689.32046  24723192.6254   24723200.2954   24723190.966
        41.0004         37.0004
  -6748683.98747  -5204875.96146  23865335.0324   23865340.9944   23865333.772
        46.0004         41.0004
 -25841896.57548 -20089093.97748  20401422.2364   20401427.8304   20401421.869
        53.0004         49.0004
 -15120701.61548 -11745716.15947  21650324.1004   21650328.8384   21650324.174
        50.0004         45.0004
 14  5 20  1 18  0.0000000  0 11G26G10G09G07G30G02G08G05G17G04G28
    784692.44947    631064.35846  24373857.7754   24373866.4054   24373858.315
        43.0004         38.0004
 -23144550.84548 -18028825.33447  21630764.1574   21630770.5534   21630765.037
        50.0004         46.0004
  -6902160.12848  -5358448.95948  21213945.7644   21213951.5484   21213945.755
        52.0004         48.0004
  -6091371.68147  -4716845.51946  23482436.0114   23482441.7034   23482435.535
        44.0004         39.0004
  -1143587.74748   -899635.37647  21472768.5654   21472775.7214   21472768.659
        52.0004         47.0004
 -14320266.75648 -11138671.37147  21669767.8984   21669771.5704   21669768.360
        51.0004         46.0004
 -18236817.92348 -14164472.17947  21335981.8714   21335987.3124   21335982.131
        50.0004         45.0004
  -4423539.97346  -3400058.80246  24706249.4974   24706258.6084   24706249.909
        41.0004         37.0004
  -6729503.61547  -5189930.17646  23868984.4064   23868990.3034   23868983.706
        45.0004         41.0004
 -25817386.05548 -20069994.86048  20406086.2044   20406091.4234   20406085.944
        53.0004         49.0004
 -15167905.74148 -11782498.54747  21641340.9864   21641346.6264   21641341.357
        50.0004         45.0004
 14  5 20  1 18 30.0000000  0 11G26G10G09G07G30G02G08G05G17G04G28
    800528.54547    643404.28146  24376870.7444   24376880.2674   24376871.482
        43.0004         38.0004
 -23210863.80548 -18080497.71847  21618144.9454   21618151.2114   21618145.919
        50.0004         46.0004
  -6825988.42048  -5299094.37347  21228440.8724   21228446.4714   21228440.678
        52.0004         47.0004
  -5986025.85147  -4634757.90946  23502483.3124   23502488.3314   23502482.142
        44.0004         39.0004
  -1066777.28648   -839783.06447  21487385.0424   21487393.0674   21487385.168
        52.0004         47.0004
 -14349458.88148 -11161418.44647  21664212.3634   21664216.7054   21664213.231
        51.0004         46.0004
 -18148587.84548 -14095721.46647  21352771.7834   21352776.2814   21352771.562
        50.0004         45.0004
  -4512718.64147  -3469548.44546  24689281.7794   24689288.6004   24689280.094
        42.0004         37.0004
  -6710560.13047  -5175168.96646  23872588.8684   23872594.9674   23872589.052
        45.0004         41.0004
 -25792387.25848 -20050515.26348  20410843.6674   20410848.7784   20410842.939
        53.0004         49.0004
 -15214846.82248 -11819075.96447  21632408.9074   21632413.3964   21632408.544
        50.0004         45.0004
 14  5 20  1 19  0.0000000  0 11G26G10G09G07G30G02G08G05G17G04G28
    816315.45647    655705.86646  24379875.5294   24379882.8194   24379875.325
        43.0004         38.0004
 -23276999.08648 -18132031.65247  21605560.5254   21605566.4004   21605560.634
        50.0004         46.0004
  -6749519.64348  -5239508.31248  21242992.7404   21242998.2174   21242992.748
        52.0004         48.0004
  -5880641.47947  -4552640.26746  23522536.3514   23522541.9534   23522536.313
        44.0004         39.0004
   -989667.55748   -779697.55147  21502058.0934   21502066.1774   21502058.367
        52.0004         47.0004
 -14378200.85448 -11183814.75347  21658743.0244   21658747.2264   21658743.654
        51.0004         46.0004
 -18060009.29848 -14026699.22047  21369627.0104   21369632.9044   21369627.310
        50.0004         45.0004
  -4602045.36347  -3539153.45446  24672281.9934   24672289.0534   24672280.851
        42.0004         37.0004
  -6691849.87047  -5160589.48846  23876149.7494   23876155.9784   23876149.088
        45.0004         41.0004
 -25766897.47448 -20030653.08448  20415693.7924   20415699.5544   20415693.610
        53.0004         49.0004
 -15261517.37748 -11855442.58647  21623527.0194   21623532.3324   21623527.742
        50.0004         45.0004
 14  5 20  1 19 30.0000000  0 11G26G10G09G07G30G02G08G05G17G04G28
    832049.10147    667965.97246  24382869.5694   24382877.2214   24382869.645
        43.0004         38.0004
 -23342956.19548 -18183426.74547  21593008.7884   21593015.0024   21593009.577
        50.0004         46.0004
  -6672759.11448  -5179694.89947  21257600.0124   21257605.1914   21257599.414
        52.0004         47.0004
  -5775223.39947  -4470496.36146  23542596.8824   23542602.5034   23542596.552
        44.0004         39.0004
   -912263.53748   -719382.73047  21516788.3384   21516795.1114   21516788.254
        52.0004         47.0004
 -14406494.82348 -11205861.96747  21653358.9964   21653362.6194   21653359.269
        51.0004         46.0004
 -17971087.65048 -13957409.62347  21386548.6814   21386553.8674   21386549.377
        50.0004         45.0004
  -4691520.76047  -3608874.33646  24655254.4614   24655262.6534   24655254.838
        42.0004         37.0004
  -6673375.20647  -5146193.59646  23879665.3534   23879671.5984   23879664.100
        45.0004         40.0004
 -25740920.51048 -20010411.28048  20420637.3714   20420642.4894   20420636.940
        53.0004         49.0004
 -15307916.72948 -11891597.86547  21614697.1344   21614702.9584   21614697.712
        50.0004         45.0004
 14  5 20  1 20  0.0000000  0 11G26G10G09G07G30G02G08G05G17G04G28
    847729.28547    680184.39246  24385853.1944   24385861.7954   24385853.318
        43.0004         38.0004
 -23408730.20948 -18234679.17547  21580493.0054   21580498.1324   21580493.415
        50.0004         46.0004
  -6595708.06748  -5119655.11747  21272261.6434   21272267.6244   21272261.855
        52.0004         47.0004
  -5669772.42447  -4388326.81946  23562663.3284   23562668.4594   23562663.229
        44.0004         39.0004
   -834566.21848   -658839.35647  21531573.1794   21531580.9954   21531573.019
        51.0004         47.0004
 -14434338.82948 -11227558.55747  21648061.2464   21648063.7624   21648061.025
        51.0004         46.0004
 -17881824.56648 -13887853.97747  21403534.6704   21403540.4914   21403534.565
        50.0004         45.0004
  -4781140.89847  -3678707.99946  24638202.1774   24638209.3964   24638200.323
        42.0004         37.0004
  -6655134.68747  -5131980.16346  23883136.0254   23883140.9014   23883135.610
        45.0004         40.0004
 -25714456.35248 -19989789.84248  20425672.8744   20425678.3914   20425672.798
        53.0004         49.0004
 -15354040.11748 -11927538.11847  21605920.7244   21605925.9754   21605921.019
        50.0004         45.0004
 14  5 20  1 20 30.0000000  0 11G26G10G09G07G30G02G08G05G17G04G28
    863351.12747    692357.36046  24388824.6634   24388833.3004   24388824.876
        43.0004         38.0004
 -23474321.15048 -18285788.94947  21568011.0184   21568016.9144   21568011.434
        50.0004         46.0004
  -6518372.35548  -5059393.51547  21286978.3864   21286983.6544   21286978.268
        52.0004         47.0004
  -5564294.14347  -4306136.00546  23582735.7224   23582741.9604   23582735.371
        44.0004         39.0004
   -756581.21748   -598071.82147  21546413.6494   21546420.5754   21546413.558
        51.0004         47.0004
 -14461735.70748 -11248906.74447  21642846.7564   21642850.8634   21642847.295
        51.0004         46.0004
 -17792226.17148 -13818037.04447  21420584.8304   21420589.9824   21420584.844
        49.0004         45.0004
  -4870907.21347  -3748655.58546  24621118.7764   24621126.1594   24621118.435
        42.0004         38.0004
  -6637131.30047  -5117951.50746  23886561.8284   23886567.9444   23886561.627
        45.0004         40.0004
 -25687509.53948 -19968792.31448  20430800.7994   20430806.2084   20430800.635
        53.0004         49.0004
 -15399887.38448 -11963263.21247  21597196.5194   21597201.5854   21597196.402
        50.0004         45.0004
 14  5 20  1 21  0.0000000  0 11G26G10G09G07G30G02G08G05G17G04G28
    878915.27447    704485.36546  24391787.1294   24391796.1304   24391787.285
        43.0004         38.0004
 -23539723.39448 -18336751.68947  21555564.7164   21555571.0064   21555565.879
        50.0004         46.0004
  -6440752.50348  -4998910.51047  21301748.5814   21301754.3894   21301748.918
        52.0004         47.0004
  -5458788.65347  -4223923.99246  23602813.1744   23602818.1124   23602812.559
        44.0004         39.0004
   -678308.72648   -537080.27247  21561309.1514   21561315.2404   21561308.290
        51.0004         47.0004
 -14488682.88848 -11269904.50847  21637719.1034   21637723.0404   21637719.801
        51.0004         46.0004
 -17702293.19748 -13747959.40047  21437698.6424   21437703.5084   21437698.802
        49.0004         45.0004
  -4960815.18847  -3818713.55046  24604010.1804   24604016.4394   24604009.970
        42.0004         38.0004
  -6619362.82147  -5104105.90646  23889942.9054   23889948.8454   23889942.246
        44.0004         40.0004
 -25660078.99848 -19947417.85148  20436020.8704   20436025.9284   20436020.313
        53.0004         49.0004
 -15445452.58448 -11998768.52147  21588526.0424   21588531.0014   21588525.782
        50.0004         45.0004
 14  5 20  1 21 30.0000000  0 11G26G10G09G07G30G02G08G05G17G04G28
    894417.23447    716564.91946  24394737.4464   24394746.3324   24394737.267
        43.0004         38.0004
 -23604936.38048 -18387566.95147  21543155.3384   21543161.5484   21543156.150
        50.0004         46.0004
  -6362853.89348  -4938210.29247  21316572.5364   21316578.0254   21316572.724
        52.0004         47.0004
  -5353260.89947  -4141694.64246  23622893.4994   23622899.3094   23622893.738
        44.0004         39.0004
   -599754.07948   -475868.84947  21576257.0244   21576264.2424   21576256.556
        51.0004         47.0004
 -14515182.85848 -11290553.80947  21632676.2814   21632680.5674   21632676.378
        51.0004         46.0004
 -17612031.29148 -13677625.45147  21454874.5204   21454880.8354   21454874.463
        49.0004         45.0004
  -5050865.37947  -3888882.33146  24586873.9094   24586880.6804   24586873.474
        42.0004         38.0004
  -6601832.14947  -5090445.59446  23893278.4764   23893285.8944   23893278.800
        44.0004         40.0004
 -25632169.50448 -19925670.17648  20441331.9274   20441337.2034   20441331.671
        53.0004         49.0004
 -15490735.43148 -12034053.80247  21579908.3734   21579913.2224   21579908.600
        50.0004         45.0004
 14  5 20  1 22  0.0000000  0 11G26G10G09G07G30G02G08G05G17G04G28
    909857.93847    728596.72946  24397676.7014   24397683.3514   24397675.384
        43.0004         38.0004
 -23669954.21448 -18438230.15847  21530783.2424   21530789.3994   21530783.703
        50.0004         46.0004
  -6284677.00848  -4877293.23647  21331448.7864   21331454.7054   21331448.868
        52.0004         47.0004
  -5247711.09747  -4059448.10446  23642979.3374   23642985.4334   23642979.518
        44.0004         39.0004
   -520917.24848   -414437.55547  21591258.7474   21591265.7294   21591259.109
        51.0004         47.0004
 -14541232.79748 -11310852.43047  21627719.4754   21627723.7314   21627719.653
        51.0004         46.0004
 -17521441.16548 -13607035.74747  21472113.7494   21472119.0464   21472114.157
        49.0004         45.0004
  -5141053.11547  -3959158.29846  24569711.8064   24569718.3994   24569711.479
        42.0004         38.0004
  -6584536.61647  -5076968.50446  23896570.0784   23896576.5014   23896569.638
        44.0004         40.0004
 -25603779.86048 -19903548.36748  20446734.2884   20446739.2574   20446733.652
        53.0004         49.0004
 -15535730.34548 -12069114.73447  21571346.0604   21571351.1464   21571346.303
        50.0004         46.0004
 14  5 20  1 22 30.0000000  0 11G26G10G09G07G30G02G08G05G17G04G28
    925232.47047    740576.99346  24400600.5884   24400609.8484   24400601.437
        43.0004         38.0004
 -23734776.94048 -18488741.32847  21518447.5194   21518453.5834   21518448.114
        50.0004         46.0004
  -6206227.55148  -4816163.78447  21346377.6214   21346383.1994   21346377.771
        52.0004         47.0004
  -5142144.54047  -3977188.50646  23663067.9414   23663074.3984   23663068.375
        44.0004         40.0004
   -441803.83648   -352790.74047  21606313.3184   21606320.7874   21606313.281
        51.0004         47.0004
 -14566835.58448 -11330802.62647  21622847.1174   21622850.9734   21622847.615
        51.0004         46.0004
 -17430528.97848 -13536195.08247  21489413.2684   21489419.0704   21489413.658
        49.0004         45.0004
  -5231379.28047  -4029542.13146  24552524.7324   24552530.6014   24552522.427
        42.0004         38.0004
  -6567479.30547  -5063677.04846  23899816.6994   23899821.9524   23899815.353
        44.0004         40.0004
 -25574914.32748 -19881055.72548  20452227.2134   20452232.5604   20452226.734
        53.0004         49.0004
 -15580436.91648 -12103950.98547  21562838.8844   21562844.0814   21562839.429
        50.0004         46.0004
 14  5 20  1 23  0.0000000  0 11G26G10G09G07G30G02G08G05G17G04G28
    940538.73747    752504.04046  24403513.5664   24403520.9344   24403513.610
        43.0004         38.0004
 -23799401.61148 -18539098.17247  21506150.3134   21506155.3284   21506150.616
        51.0004         46.0004
  -6127508.72248  -4754824.43347  21361356.7424   21361363.1234   21361357.200
        52.0004         47.0004
  -5036564.42547  -3894918.35346  23683159.5404   23683166.2564   23683159.650
        44.0004         40.0004
   -362416.90648   -290930.79747  21621420.1114   21621427.7034   21621420.502
        51.0004         47.0004
 -14591991.42248 -11350404.55147  21618060.1324   21618063.7954   21618060.330
        51.0004         46.0004
 -17339298.25248 -13465106.20647  21506774.0424   21506780.1704   21506773.675
        49.0004         45.0004
  -5321842.25447  -4100032.57146  24535308.6204   24535316.1724   24535307.582
        42.0004         38.0004
  -6550660.45147  -5050571.40146  23903016.8544   23903023.5294   23903016.159
        44.0004         40.0004
 -25545575.55448 -19858194.33048  20457809.7394   20457815.2024   20457809.376
        53.0004         49.0004
 -15624852.38448 -12138560.39747  21554386.8064   21554391.6784   21554386.821
        50.0004         45.0004
 14  5 20  1 23 30.0000000  0 11G26G10G09G07G30G02G08G05G17G04G28
    955776.99747    764378.10946  24406412.9394   24406422.3994   24406413.332
        43.0004         38.0004
 -23863822.73148 -18589296.41047  21493890.9184   21493896.5674   21493891.435
        51.0004         46.0004
  -6048521.55448  -4693275.98747  21376387.6304   21376393.8014   21376387.793
        52.0004         47.0004
  -4930970.80347  -3812637.67246  23703253.4974   23703258.9464   23703253.445
        44.0004         39.0004
   -282757.03948   -228858.17647  21636579.2424   21636586.3564   21636579.272
        51.0004         47.0004
 -14616698.33348 -11369656.65947  21613358.5474   21613362.5654   21613358.735
        51.0004         46.0004
 -17247750.13648 -13393770.01347  21524194.4984   21524200.9064   21524195.447
        49.0004         45.0004
  -5412438.19247  -4170626.62946  24518067.8634   24518075.0164   24518067.232
        42.0004         38.0004
  -6534078.35847  -5037650.23646  23906170.9094   23906178.2694   23906171.655
        44.0004         39.0004
 -25515762.88648 -19834963.66648  20463483.2384   20463488.6734   20463482.925
        53.0004         49.0004
 -15668971.57348 -12172938.94747  21545991.5244   21545996.3624   21545991.269
        50.0004         46.0004
 14  5 20  1 24  0.0000000  0 11G26G10G09G07G30G02G08G05G17G04G28
    970945.81147    776198.05846  24409299.8784   24409307.9744   24409299.319
        43.0004         38.0004
 -23928037.04348 -18639333.49547  21481671.6034   21481678.0424   21481671.985
        51.0004         46.0004
  -5969268.66148  -4631520.48547  21391469.5004   21391474.7014   21391469.292
        52.0004         47.0004
  -4825365.61847  -3730347.97846  23723349.4764   23723355.2704   23723349.424
        44.0004         39.0004
   -202826.56048   -166574.68547  21651789.7404   21651797.1914   21651789.346
        51.0004         46.0004
 -14640955.84048 -11388558.59247  21608742.2944   21608746.0654   21608743.486
        51.0004         46.0004
 -17155887.65548 -13322188.86447  21541675.3924   21541681.5454   21541675.916
        49.0004         45.0004
  -5503164.32347  -4241322.10546  24500803.6634   24500810.9864   24500802.874
        42.0004         37.0004
  -6517732.66647  -5024913.29446  23909282.0264   23909289.1344   23909282.006
        44.0004         39.0004
 -25485477.83348 -19811364.91248  20469245.7374   20469251.2184   20469245.607
        53.0004         49.0004
 -15712791.18548 -12207084.06047  21537652.6744   21537657.9354   21537652.794
        50.0004         46.0004
 14  5 20  1 24 30.0000000  0 11G26G10G09G07G30G02G08G05G17G04G28
    986039.67147    787959.60146  24412171.3984   24412179.7744   24412171.587
        43.0004         38.0004
 -23992045.49448 -18689210.17347  21469491.2694   21469496.8524   21469491.450
        51.0004         46.0004
  -5889756.73548  -4569563.13547  21406599.5794   21406605.6114   21406599.861
        52.0004         47.0004
  -4719755.19847  -3648054.19846  23743446.6554   23743452.4754   23743446.385
        44.0004         39.0004
   -122631.92648   -104085.36547  21667050.2084   21667057.4274   21667050.053
        51.0004         46.0004
 -14664767.59948 -11407113.18247  21604211.7634   21604215.3214   21604210.750
        51.0004         47.0004
 -17063717.76548 -13250368.17547  21559214.7164   21559220.8284   21559215.364
        49.0004         44.0004
  -5594022.39547  -4312120.43846  24483514.4574   24483520.0544   24483512.898
        42.0004         37.0004
  -6501627.19447  -5012363.54546  23912348.0904   23912353.3494   23912346.855
        44.0004         39.0004
 -25454726.01448 -19787402.44848  20475098.0414   20475103.4564   20475097.813
        53.0004         49.0004
 -15756311.79348 -12240996.18247  21529370.5784   21529375.9434   21529371.020
        50.0004         46.0004
 14  5 20  1 25  0.0000000  0 11G26G10G09G07G30G02G08G05G17G04G28
   1001058.43247    799662.62646  24415029.9674   24415038.0974   24415029.495
        43.0004         38.0004
 -24055842.76948 -18738922.29547  21457350.8904   21457356.4824   21457351.013
        51.0004         46.0004
  -5809987.03648  -4507404.92747  21421779.3634   21421785.0624   21421779.559
        52.0004         47.0004
  -4614140.52847  -3565757.11946  23763544.3634   23763549.1674   23763544.398
        44.0004         39.0004
    -42174.06448    -41390.93047  21682360.8104   21682368.0634   21682360.189
        51.0004         46.0004
 -14688132.00848 -11425319.18647  21599764.9934   21599769.5444   21599765.299
        51.0004         46.0004
 -16971242.06548 -13178309.19147  21576812.8354   21576818.5204   21576813.183
        49.0004         44.0004
  -5685009.29347  -4383019.12746  24466199.1174   24466205.8264   24466199.203
        42.0004         38.0004
  -6485760.20347  -4999999.61546  23915366.0614   23915372.5444   23915365.936
        44.0004         39.0004
 -25423507.27948 -19763076.15348  20481038.6434   20481044.2014   20481038.349
        53.0004         49.0004
 -15799528.59148 -12274671.57547  21521146.4914   21521151.9424   21521146.667
        50.0004         46.0004
 14  5 20  1 25 30.0000000  0 11G26G10G09G07G30G02G08G05G17G04G28
   1016000.92947    811306.23146  24417874.4044   24417882.4574   24417873.491
        43.0004         38.0004
 -24119425.41548 -18788467.17947  21445251.1784   21445256.2904   21445251.758
        51.0004         46.0004
  -5729961.79948  -4445047.59847  21437007.6194   21437013.5554   21437007.548
        52.0004         47.0004
  -4508523.30947  -3483458.05446  23783642.2704   23783647.5694   23783642.846
        43.0004         39.0004
     38544.87748     21506.94147  21697720.8734   21697728.3274   21697720.953
        51.0004         46.0004
 -14711048.40148 -11443176.09247  21595404.1094   21595408.1404   21595404.716
        51.0004         46.0004
 -16878463.01648 -13106013.83347  21594467.2074   21594473.8854   21594468.112
        49.0004         44.0004
  -5776121.96147  -4454015.81146  24448860.7064   24448867.9064   24448860.766
        43.0004         38.0004
  -6470131.11847  -4987821.06046  23918341.1004   23918347.1944   23918339.885
        44.0004         40.0004
 -25391822.98348 -19738387.08248  20487068.2414   20487073.5554   20487067.686
        53.0004         49.0004
 -15842437.94348 -12308107.39547  21512981.0154   21512986.4474   21512981.507
        50.0004         46.0004
 14  5 20  1 26  0.0000000  0 11G26G10G09G07G30G02G08G05G17G04G28
   1030864.06547    822887.98546  24420700.7814   24420707.8944   24420700.748
        43.0004         38.0004
 -24182791.48248 -18837843.30447  21433192.9534   21433198.9004   21433193.507
        51.0004         46.0004
  -5649685.10948  -4382494.32947  21452284.0154   21452289.6164   21452284.029
        52.0004         47.0004
  -4402907.29047  -3401159.92446  23803741.0594   23803745.9774   23803741.181
        43.0004         39.0004
    119521.03248     84605.23747  21713129.8224   21713137.8944   21713129.834
        51.0004         46.0004
 -14733518.32248 -11460685.10247  21591128.6134   21591132.1784   21591128.686
        51.0004         47.0004
 -16785385.20648 -13033485.68547  21612180.1454   21612185.9044   21612180.056
        49.0004         44.0004
  -5867359.56947  -4525109.86346  24431498.5874   24431505.9614   24431498.976
        43.0004         38.0004
  -6454741.25647  -4975828.92046  23921268.0454   23921276.1264   23921268.544
        44.0004         40.0004
 -25359676.22648 -19713337.65148  20493185.4754   20493190.5164   20493185.033
        53.0004         49.0004
 -15885038.13148 -12341302.31247  21504874.3574   21504879.6654   21504875.100
        51.0004         46.0004
 14  5 20  1 26 30.0000000  0 11G26G10G09G07G30G02G08G05G17G04G28
   1045646.33147    834406.73046  24423514.5004   24423523.0174   24423514.372
        43.0004         38.0004
 -24245937.31048 -18887047.80447  21421176.7934   21421182.1024   21421177.314
        51.0004         46.0004
  -5569159.68148  -4319747.24347  21467607.7314   21467612.7464   21467607.474
        52.0004         47.0004
  -4297294.83347  -3318864.56646  23823838.9444   23823843.4954   23823838.295
        43.0004         38.0004
    200751.86948    147901.99147  21728587.4884   21728595.5164   21728587.657
        51.0004         46.0004
 -14755541.47848 -11477845.97147  21586937.3104   21586941.7164   21586937.545
        51.0004         46.0004
 -16692011.56648 -12960727.01847  21629948.2994   21629953.3014   21629948.983
        49.0004         44.0004
  -5958719.77647  -4596299.45046  24414113.8854   24414120.4024   24414113.727
        43.0004         39.0004
  -6439590.42647  -4964023.04946  23924152.6664   23924159.2144   23924152.000
        44.0004         40.0004
 -25327068.55648 -19687929.06748  20499390.8484   20499395.7464   20499390.122
        53.0004         48.0004
 -15927325.49348 -12374253.46647  21496827.8324   21496832.8094   21496828.111
        51.0004         46.0004
 14  5 20  1 27  0.0000000  0 11G26G10G09G07G30G02G08G05G17G04G28
   1060345.15747    845860.44946  24426312.6624   24426319.9374   24426311.704
        43.0004         38.0004
 -24308860.97948 -18936079.20147  21409202.8544   21409208.8514   21409203.440
        51.0004         46.0004
  -5488389.42848  -4256809.37747  21482977.4144   21482982.8144   21482977.582
        52.0004         47.0004
  -4191688.97247  -3236574.34046  23843935.0384   23843940.5934   23843934.430
        43.0004         38.0004
    282233.78248    211394.38247  21744093.4274   21744100.8644   21744093.639
        51.0004         46.0004
 -14777118.45848 -11494659.17947  21582832.0894   21582835.2344   21582832.390
        51.0004         46.0004
 -16598346.33648 -12887741.13047  21647772.2534   21647778.0114   21647772.616
        49.0004         44.0004
  -6050201.36747  -4667583.62246  24396705.7094   24396712.9544   24396704.302
        44.0004         39.0004
  -6424679.69047  -4952404.25546  23926989.9874   23926996.1334   23926989.384
        44.0004         40.0004
 -25294002.70848 -19662163.45948  20505682.5824   20505688.1984   20505682.152
        53.0004         48.0004
 -15969298.11348 -12406959.37247  21488840.7404   21488845.7634   21488840.877
        51.0004         46.0004
 14  5 20  1 27 30.0000000  0 11G26G10G09G07G30G02G08G05G17G04G28
   1074960.59447    857249.19446  24429092.5754   24429101.2764   24429092.211
        43.0004         38.0004
 -24371557.21048 -18984933.36747  21397271.7954   21397278.3574   21397272.854
        51.0004         46.0004
  -5407375.47448  -4193681.61747  21498394.1004   21498399.0044   21498394.124
        52.0004         47.0004
  -4086090.56547  -3154289.93046  23864029.8634   23864034.0714   23864028.864
        43.0004         38.0004
    363966.02948    275081.83647  21759646.4724   21759653.7944   21759646.695
        51.0004         46.0004
 -14798247.79548 -11511123.57047  21578810.2704   21578813.7214   21578810.429
        51.0004         46.0004
 -16504390.76648 -12814529.00747  21665651.8244   21665657.4744   21665651.801
        49.0004         44.0004
  -6141800.60747  -4738959.47646  24379273.9134   24379281.0294   24379273.657
        44.0004         39.0004
  -6410007.03747  -4940971.00246  23929781.7744   23929788.4384   23929780.814
        44.0004         40.0004
 -25260478.64948 -19636040.80948  20512061.8824   20512067.6164   20512061.534
        53.0004         48.0004
 -16010951.02348 -12439416.14747  21480914.0504   21480919.4364   21480914.690
        51.0004         46.0004
 14  5 20  1 28  0.0000000  0 11G26G10G09G07G30G02G08G05G17G04G28
   1089487.71047    868569.12346  24431856.5224   24431865.2934   24431856.701
        43.0004         38.0004
 -24434026.14548 -19033610.42947  21385384.2184   21385390.4334   21385385.207
        51.0004         46.0004
  -5326123.86848  -4130368.67547  21513855.2444   21513861.3694   21513855.770
        52.0004         47.0004
  -3980505.01047  -3072015.53046  23884120.7654   23884126.8524   23884121.358
        43.0004         38.0004
    445942.72848    338959.77947  21775246.1354   21775253.3524   21775245.889
        51.0004         46.0004
 -14818933.00548 -11527241.89347  21574874.3124   21574878.0784   21574874.850
        51.0004         46.0004
 -16410151.28448 -12741095.64947  21683585.5604   21683590.8014   21683585.270
        49.0004         44.0004
  -6233518.07847  -4810427.44946  24361820.4504   24361827.9694   24361819.941
        44.0004         39.0004
  -6395575.51547  -4929725.62746  23932527.5644   23932534.8004   23932527.900
        44.0004         39.0004
 -25226501.49248 -19609565.09248  20518527.7894   20518532.8024   20518527.539
        53.0004         48.0004
 -16052284.19348 -12471623.78347  21473048.8634   21473054.5474   21473049.149
        51.0004         46.0004
 14  5 20  1 28 30.0000000  0 11G26G10G09G07G30G02G08G05G17G04G28
   1103926.04247    879819.85346  24434603.8594   24434611.7764   24434604.006
        43.0004         38.0004
 -24496263.38848 -19082106.94547  21373541.7064   21373547.9874   21373542.283
        51.0004         46.0004
  -5244636.04048  -4066871.66447  21529362.6874   21529367.6114   21529362.361
        51.0004         47.0004
  -3874933.57547  -2989752.12946  23904210.6674   23904217.8844   23904210.190
        43.0004         38.0004
    528162.38148    403027.03047  21790891.2274   21790899.4494   21790892.272
        51.0004         46.0004
 -14839172.79848 -11543013.13547  21571022.9544   21571026.2254   21571022.909
        51.0004         46.0004
 -16315630.01848 -12667442.72847  21701572.2334   21701577.6284   21701571.986
        49.0004         44.0004
  -6325350.94147  -4881985.35146  24344344.8754   24344352.0314   24344344.916
        44.0004         39.0004
  -6381383.90747  -4918667.19946  23935228.4014   23935234.4434   23935228.079
        44.0004         40.0004
 -25192071.73348 -19582736.70248  20525079.4024   20525084.9204   20525079.069
        53.0004         48.0004
 -16093293.59848 -12503579.13347  21465244.8914   21465250.1904   21465245.265
        51.0004         46.0004
 14  5 20  1 29  0.0000000  0 11G26G10G09G07G30G02G08G05G17G04G28
   1118274.99047    891000.94746  24437334.5174   24437342.0734   24437335.110
        43.0004         38.0004
 -24558264.51948 -19130419.48047  21361742.9154   21361748.9884   21361743.596
        51.0004         46.0004
  -5162914.05248  -4003192.19147  21544913.4894   21544919.2814   21544913.475
        51.0004         47.0004
  -3769377.63047  -2907500.81746  23924297.0754   23924304.6064   23924297.201
        43.0004         38.0004
    610623.42748    467282.38547  21806583.6414   21806591.3514   21806583.701
        51.0004         46.0004
 -14858966.63248 -11558436.87247  21567256.3814   21567259.9394   21567256.391
        51.0004         47.0004
 -16220829.05148 -12593571.84847  21719610.9434   21719618.1304   21719611.499
        49.0004         44.0004
  -6417296.01847  -4953630.69446  24326848.7204   24326856.7274   24326847.939
        44.0004         39.0004
  -6367431.12147  -4907794.87646  23937883.5244   23937889.5834   23937883.008
        44.0004         40.0004
 -25157190.60548 -19555556.59848  20531717.1584   20531722.5464   20531716.744
        53.0004         49.0004
 -16133975.04748 -12535278.93347  21457503.2364   21457508.1804   21457504.067
        51.0004         46.0004
 14  5 20  1 29 30.0000000  0 11G26G10G09G07G30G02G08G05G17G04G28
   1132530.74947    902109.41746  24440046.9254   24440055.5484   24440046.708
        43.0004         38.0004
 -24620028.63148 -19178547.32247  21349989.4184   21349995.8704   21349990.105
        51.0004         46.0004
  -5080962.75648  -3939334.04447  21560508.2564   21560513.8794   21560508.619
        51.0004         47.0004
  -3663841.35347  -2825264.81646  23944381.0304   23944386.7724   23944379.828
        43.0004         38.0004
    693321.19848    531722.19947  21822320.8744   21822328.0334   21822320.661
        51.0004         46.0004
 -14878316.19548 -11573514.43147  21563574.0764   21563577.8624   21563574.445
        51.0004         47.0004
 -16125753.67148 -12519487.15247  21737703.8434   21737709.7884   21737704.287
        49.0004         44.0004
  -6509352.57547  -5025362.90846  24309330.4234   24309337.5994   24309330.065
        43.0004         39.0004
  -6353718.94647  -4897110.03746  23940493.2904   23940499.2584   23940492.325
        44.0004         40.0004
 -25121861.73348 -19528027.60148  20538439.7934   20538445.2174   20538439.373
        53.0004         48.0004
 -16174327.48748 -12566722.36547  21449824.7044   21449829.8604   21449825.347
        51.0004         46.0004
 14  5 20  1 30  0.0000000  0 11G26G10G09G07G30G02G08G05G17G04G28
   1146691.39447    913143.78846  24442742.3904   24442749.6224   24442742.399
        43.0004         38.0004
 -24681552.65548 -19226488.08447  21338281.7134   21338288.1544   21338282.429
        51.0004         47.0004
  -4998785.44448  -3875299.76847  21576146.1654   21576151.2894   21576146.120
        51.0004         47.0004
  -3558327.48047  -2743046.28146  23964460.2304   23964464.6504   23964459.116
        43.0004         38.0004
    776252.68648    596344.12947  21838101.7574   21838109.0244   21838102.180
        51.0004         46.0004
 -14897221.90648 -11588246.12847  21559976.0754   21559980.4304   21559976.989
        51.0004         47.0004
 -16030407.11448 -12445191.14247  21755848.1724   21755853.5924   21755847.888
        49.0004         44.0004
  -6601518.70147  -5097180.51546  24291792.0114   24291798.5964   24291790.962
        43.0004         39.0004
  -6340247.65847  -4886612.89446  23943056.7504   23943063.4234   23943055.982
        44.0004         40.0004
 -25086087.39148 -19500151.48848  20545247.7484   20545252.8584   20545247.403
        53.0004         48.0004
 -16214348.08248 -12597907.21047  21442209.7224   21442213.5374   21442209.587
        51.0004         46.0004
 14  5 20  1 30 30.0000000  0 11G26G10G09G07G30G02G08G05G17G04G28
   1160755.60147    924102.98746  24445418.7944   24445426.4114   24445419.129
        43.0004         38.0004
 -24742833.04648 -19274239.00247  21326620.6844   21326626.0994   21326621.190
        51.0004         46.0004
  -4916384.67648  -3811091.37447  21591826.2694   21591832.5734   21591826.344
        51.0004         47.0004
  -3452837.96647  -2660846.72946  23984532.6544   23984539.2734   23984533.255
        43.0004         38.0004
    859415.69948    661146.47047  21853928.0054   21853934.4574   21853927.404
        50.0004         46.0004
 -14915683.80748 -11602632.00347  21556463.1534   21556467.0824   21556463.597
        51.0004         47.0004
 -15934792.30548 -12370686.11147  21774042.4774   21774049.5724   21774042.843
        48.0004         44.0004
  -6693792.22947  -5169081.81546  24274232.6334   24274240.2344   24274231.843
        43.0004         39.0004
  -6327016.78047  -4876303.08746  23945573.9744   23945581.0024   23945573.482
        45.0004         40.0004
 -25049869.09548 -19471929.43548  20552139.8454   20552144.9824   20552139.198
        53.0004         48.0004
 -16254033.42548 -12628830.82947  21434656.9804   21434662.7284   21434657.371
        51.0004         46.0004
 14  5 20  1 31  0.0000000  0 11G26G10G09G07G30G02G08G05G17G04G28
   1174721.61247    934985.69146  24448076.0674   24448083.4544   24448074.997
        43.0004         38.0004
 -24803866.80548 -19321797.73947  21315006.7994   21315011.6964   21315006.732
        51.0004         47.0004
  -4833763.30348  -3746711.08347  21607548.6674   21607554.6144   21607549.003
        51.0004         47.0004
  -3347375.13447  -2578667.95446  24004603.1304   24004608.2684   24004602.062
        42.0004         38.0004
    942807.37248    726126.99447  21869796.0774   21869803.9754   21869796.229
        50.0004         46.0004
 -14933702.35448 -11616672.39547  21553034.2244   21553037.7524   21553034.896
        51.0004         47.0004
 -15838912.80548 -12295974.82747  21792288.1474   21792293.1604   21792288.034
        48.0004         44.0004
  -6786171.32947  -5241065.37646  24256653.1814   24256661.1414   24256652.917
        43.0004         39.0004
  -6314026.24147  -4866180.56846  23948046.4474   23948052.6424   23948045.987
        45.0004         40.0004
 -25013209.08548 -19443363.18948  20559115.7614   20559120.9024   20559115.610
        53.0004         48.0004
 -16293380.76748 -12659491.06347  21427168.7884   21427174.2824   21427169.678
        50.0004         46.0004
 14  5 20  1 31 30.0000000  0 11G26G10G09G07G30G02G08G05G17G04G28
   1188588.62447    945791.25546  24450715.6274   24450722.8374   24450714.750
        43.0004         38.0004
 -24864649.62748 -19369160.93947  21303439.5454   21303445.5774   21303440.137
        51.0004         47.0004
  -4750923.52748  -3682160.60747  21623312.1374   21623317.4934   21623312.689
        51.0004         47.0004
  -3241940.42747  -2496511.09846  24024665.9134   24024671.1994   24024665.729
        42.0004         38.0004
   1026425.91148    791284.28547  21885709.0734   21885715.8264   21885708.483
        50.0004         46.0004
 -14951276.50448 -11630366.51547  21549689.9674   21549693.8764   21549690.212
        51.0004         47.0004
 -15742770.72848 -12221058.92847  21810583.3034   21810589.3214   21810583.256
        48.0004         44.0004
  -6878652.56347  -5313128.53546  24239055.4854   24239061.5094   24239054.314
        44.0004         39.0004
  -6301274.93747  -4856244.45046  23950472.7834   23950479.2174   23950472.764
        45.0004         40.0004
 -24976108.31048 -19414453.48848  20566175.7574   20566180.8774   20566175.401
        53.0004         48.0004
 -16332385.95148 -12689884.68947  21419746.7514   21419752.5194   21419747.111
        50.0004         46.0004
 14  5 20  1 32  0.0000000  0 11G26G10G09G07G30G02G08G05G17G04G28
   1202353.09347    956516.88846  24453333.7924   24453341.3014   24453334.790
        43.0004         38.0004
 -24925180.45448 -19416327.77647  21291921.3404   21291926.4344   21291921.782
        51.0004         46.0004
  -4667870.07448  -3617443.62847  21639117.5094   21639122.3344   21639117.021
        51.0004         46.0004
  -3136538.35847  -2414379.68346  24044724.1154   24044729.9814   24044723.379
        42.0004         38.0004
   1110266.69748    856614.75447  21901662.4564   21901670.0694   21901662.748
        50.0004         46.0004
 -14968408.83548 -11643716.35847  21546430.7564   21546433.4044   21546430.074
        51.0004         47.0004
 -15646371.52748 -12145942.68147  21828927.4094   21828933.5184   21828927.954
        48.0004         44.0004
  -6971235.42647  -5385270.87446  24221436.8264   24221443.7734   24221436.566
        44.0004         39.0004
  -6288764.33547  -4846495.90246  23952853.0774   23952859.8774   23952852.838
        45.0004         40.0004
 -24938570.86748 -19385203.53048  20573319.3694   20573324.8194   20573318.766
        53.0004         48.0004
 -16371048.03148 -12720010.96047  21412389.8564   21412394.8614   21412389.944
        50.0004         46.0004
 14  5 20  1 32 30.0000000  0 11G26G10G09G07G30G02G08G05G17G04G28
   1216012.14947    967160.38846  24455933.4824   24455940.0004   24455932.614
        43.0004         38.0004
 -24985457.38848 -19463296.77447  21280450.5094   21280456.2284   21280450.908
        51.0004         47.0004
  -4584606.83848  -3552563.18447  21654962.0654   21654967.3894   21654961.715
        51.0004         46.0004
  -3031172.30747  -2332276.33446  24064775.5154   24064778.6694   24064774.155
        42.0004         38.0004
   1194325.93048    922115.44847  21917658.9874   21917665.8524   21917659.047
        50.0004         46.0004
 -14985100.45848 -11656722.79247  21543253.3134   21543257.4634   21543253.994
        51.0004         47.0004
 -15549719.39848 -12070629.34847  21847320.2684   21847324.5684   21847319.755
        48.0004         44.0004
  -7063918.97847  -5457491.67946  24203798.8404   24203806.6764   24203799.080
        44.0004         39.0004
  -6276495.89447  -4836936.06046  23955187.4294   23955194.5464   23955186.474
        44.0004         40.0004
 -24900599.81248 -19355615.69948  20580544.6364   20580549.9824   20580544.409
        53.0004         48.0004
 -16409365.24048 -12749868.50247  21405098.0504   21405103.4794   21405098.654
        50.0004         46.0004
 14  5 20  1 33  0.0000000  0 11G26G10G09G07G30G02G08G05G17G04G28
   1229566.07047    977721.98446  24458512.9174   24458519.9914   24458512.155
        43.0004         38.0004
 -25045475.10348 -19510063.78647  21269029.0364   21269035.9584   21269029.994
        51.0004         47.0004
  -4501134.85648  -3487520.07847  21670845.6574   21670851.6844   21670845.762
        51.0004         46.0004
  -2925842.84747  -2250201.49446  24084818.3034   24084823.5054   24084817.517
        42.0004         38.0004
   1278602.80948    987785.73547  21933696.8194   21933703.3524   21933696.388
        50.0004         45.0004
 -15001350.21148 -11669384.91347  21540161.8834   21540165.2184   21540161.776
        51.0004         47.0004
 -15452815.59748 -11995119.90347  21865760.8264   21865766.2754   21865759.958
        48.0004         44.0004
  -7156699.30147  -5529787.90246  24186143.6614   24186150.4294   24186143.563
        44.0004         39.0004
  -6264467.54747  -4827563.28946  23957477.1014   23957482.8754   23957476.253
        44.0004         40.0004
 -24862195.24748 -19325690.06048  20587852.7174   20587858.1334   20587852.539
        53.0004         48.0004
 -16447332.75748 -12779453.55347  21397873.1604   21397877.7434   21397873.672
        50.0004         46.0004
 14  5 20  1 33 30.0000000  0 11G26G10G09G07G30G02G08G05G17G04G28
   1243014.62047    988201.44846  24461071.7844   24461080.0594   24461071.228
        43.0004         38.0004
 -25105229.27848 -19556625.43247  21257659.0964   21257664.3404   21257658.936
        51.0004         47.0004
  -4417455.82248  -3422315.63647  21686769.1944   21686774.9554   21686769.355
        51.0004         46.0004
  -2820550.32547  -2168155.43646  24104853.4894   24104858.7394   24104853.622
        43.0004         38.0004
   1363096.00848   1053624.58747  21949775.6524   21949781.9124   21949774.735
        50.0004         45.0004
 -15017156.99648 -11681701.86147  21537153.3294   21537156.7474   21537153.539
        51.0004         47.0004
 -15355662.01248 -11919415.82247  21884247.6804   21884253.3164   21884247.803
        48.0004         44.0004
  -7249572.84247  -5602156.75646  24168471.3214   24168476.6974   24168470.193
        44.0004         39.0004
  -6252677.70947  -4818376.38346  23959720.1994   23959727.0504   23959719.501
        44.0004         40.0004
 -24823357.96748 -19295427.24348  20595242.9814   20595248.1474   20595242.983
        53.0004         48.0004
 -16484946.24548 -12808762.74547  21390716.1104   21390720.3584   21390716.139
        51.0004         46.0004
 14  5 20  1 34  0.0000000  0 11G26G10G09G07G30G02G08G05G17G04G28
   1256350.62447    998593.23246  24463607.8544   24463617.1294   24463608.498
        43.0004         38.0004
 -25164722.19448 -19602983.50947  21246337.1174   21246342.7984   21246337.858
        51.0004         47.0004
  -4333578.10648  -3356956.37347  21702730.5904   21702736.3264   21702730.827
        51.0004         46.0004
  -2715302.96447  -2086144.58246  24124881.6904   24124887.9764   24124881.663
        42.0004         38.0004
   1447797.46048   1119625.70647  21965893.5674   21965900.0724   21965893.147
        50.0004         46.0004
 -15032526.24748 -11693677.87747  21534228.5574   21534232.7144   21534229.162
        51.0004         47.0004
 -15258267.23248 -11843523.79547  21902781.2024   21902787.2104   21902781.538
        48.0004         44.0004
  -7342542.27747  -5674600.33446  24150778.9854   24150785.2474   24150778.803
        44.0004         39.0004
  -6241131.32247  -4809379.18846  23961917.6734   23961923.3854   23961916.809
        44.0004         40.0004
 -24784095.37648 -19264833.02348  20602714.5804   20602720.1424   20602714.367
        53.0004         48.0004
 -16522207.89848 -12837797.77547  21383624.7164   21383629.7314   21383625.404
        51.0004         46.0004
 14  5 20  1 34 30.0000000  0 11G26G10G09G07G30G02G08G05G17G04G28
   1269577.89347   1008900.29446  24466125.8104   24466135.0134   24466125.997
        43.0004         38.0004
 -25223945.28248 -19649131.32747  21235067.7294   21235073.5214   21235068.118
        51.0004         46.0004
  -4249499.21248  -3291440.35047  21718730.4174   21718735.8944   21718730.148
        51.0004         46.0004
  -2610097.41447  -2004166.30146  24144902.2534   24144908.6804   24144901.969
        42.0004         38.0004
   1532709.84048   1185791.17747  21982051.3404   21982058.4394   21982051.372
        50.0004         46.0004
 -15047453.18848 -11705309.23947  21531387.9174   21531391.7234   21531388.588
        51.0004         47.0004
 -15160629.04948 -11767442.11247  21921360.7184   21921367.9924   21921361.380
        48.0004         44.0004
  -7435600.33947  -5747112.96346  24133070.2554   24133076.7414   24133069.623
        44.0004         39.0004
  -6229823.10947  -4800567.55746  23964068.5984   23964075.4404   23964068.125
        45.0004         40.0004
 -24744404.31848 -19233904.92548  20610267.5014   20610272.8074   20610267.181
        53.0004         48.0004
 -16559109.51348 -12866552.25347  21376603.0514   21376607.0444   21376603.226
        51.0004         46.0004
 14  5 20  1 35  0.0000000  0 11G26G10G09G07G30G02G08G05G17G04G28
   1282689.01047   1019116.84146  24468620.4604   24468629.7934   24468620.433
        43.0004         38.0004
 -25282901.08548 -19695070.88247  21223848.8054   21223854.7054   21223849.201
        51.0004         47.0004
  -4165227.81148  -3225774.32047  21734766.7374   21734772.6944   21734766.636
        51.0004         46.0004
  -2504941.79347  -1922226.93546  24164913.1804   24164918.9814   24164912.262
        42.0004         38.0004
   1617824.71848   1252114.45847  21998247.9014   21998255.2554   21998247.707
        50.0004         45.0004
 -15061943.99348 -11716600.74747  21528630.6684   21528634.6274   21528631.060
        51.0004         47.0004
 -15062756.50848 -11691177.80747  21939984.8504   21939991.7664   21939986.196
        48.0004         43.0004
  -7528750.46347  -5819697.33146  24115344.4964   24115351.9084   24115344.168
        44.0004         39.0004
  -6218758.34747  -4791945.64246  23966175.3004   23966180.8814   23966174.410
        45.0004         40.0004
 -24704292.41848 -19202648.90248  20617900.6534   20617906.2414   20617900.413
        53.0004         48.0004
 -16595653.68048 -12895028.20147  21369649.2524   21369653.4784   21369649.068
        51.0004         46.0004
 14  5 20  1 35 30.0000000  0 11G26G10G09G07G30G02G08G05G17G04G28
   1295687.73147   1029245.80646  24471095.4354   24471102.2524   24471095.259
        43.0004         38.0004
 -25341581.34848 -19740795.72047  21212682.2274   21212688.3224   21212682.839
        51.0004         47.0004
  -4080761.34448  -3159956.29747  21750840.2884   21750845.8284   21750840.216
        51.0004         46.0004
  -2399832.89447  -1840323.95646  24184914.9994   24184920.5934   24184913.539
        42.0004         37.0004
   1703144.78748   1318597.62347  22014483.8264   22014491.6484   22014483.704
        50.0004         45.0004
 -15075993.48848 -11727548.38547  21525957.5094   21525961.1194   21525957.627
        51.0004         47.0004
 -14964647.66148 -11614729.37247  21958655.6644   21958660.2964   21958655.293
        48.0004         43.0004
  -7621984.97347  -5892347.45846  24097603.4474   24097607.9354   24097601.985
        44.0004         39.0004
  -6207931.58747  -4783509.18346  23968235.5404   23968241.1814   23968234.846
        45.0004         40.0004
 -24663756.43748 -19171062.42248  20625614.3974   20625619.8004   20625614.003
        53.0004         48.0004
 -16631832.39948 -12923219.38447  21362763.6134   21362768.6654   21362764.266
        51.0004         46.0004
 14  5 20  1 36  0.0000000  0 11G26G10G09G07G30G02G08G05G17G04G28
   1308567.69047   1039282.20146  24473545.9254   24473553.2004   24473546.063
        43.0004         38.0004
 -25399987.26048 -19786306.78347  21201568.2824   21201573.3814   21201568.519
        51.0004         47.0004
  -3996107.28748  -3093992.09647  21766949.1974   21766954.6034   21766949.140
        51.0004         46.0004
  -2294777.74947  -1758462.89646  24204906.0904   24204912.5314   24204905.082
        42.0004         37.0004
   1788662.68548   1385234.93547  22030757.3244   22030765.2864   22030757.319
        50.0004         45.0004
 -15089607.06648 -11738156.34947  21523366.5524   21523370.0394   21523366.678
        51.0004         47.0004
 -14866310.26948 -11538102.84647  21977368.0744   21977374.3014   21977368.501
        48.0004         43.0004
  -7715306.16147  -5965065.14146  24079843.6624   24079850.1694   24079843.239
        44.0004         39.0004
  -6197347.10147  -4775261.49846  23970248.7004   23970255.7484   23970248.349
        45.0004         40.0004
 -24622803.39448 -19139150.96248  20633407.7834   20633412.5734   20633407.294
        53.0004         48.0004
 -16667647.13048 -12951126.94147  21355948.9224   21355952.8934   21355949.162
        51.0004         46.0004
 14  5 20  1 36 30.0000000  0 11G26G10G09G07G30G02G08G05G17G04G28
   1321329.74447   1049226.75046  24475974.2004   24475982.0904   24475973.338
        43.0004         38.0004
 -25458113.39048 -19831599.83747  21190506.9154   21190512.5094   21190507.425
        51.0004         47.0004
  -3911266.51448  -3027882.39647  21783093.9834   21783099.6104   21783094.065
        51.0004         46.0004
  -2189776.28247  -1676643.63746  24224887.3744   24224891.2624   24224886.082
        42.0004         37.0004
   1874378.02148   1452026.09247  22047068.1324   22047076.2174   22047068.485
        50.0004         45.0004
 -15102782.84748 -11748423.17047  21520859.4154   21520862.3774   21520859.469
        52.0004         47.0004
 -14767745.12248 -11461298.85247  21996124.4654   21996130.7744   21996124.476
        48.0004         43.0004
  -7808709.19147  -6037846.58946  24062069.5254   24062075.0884   24062068.766
        44.0004         39.0004
  -6187002.37947  -4767200.64746  23972217.4854   23972223.5714   23972216.987
        45.0004         40.0004
 -24581433.02248 -19106914.30448  20641280.1514   20641285.1794   20641279.812
        53.0004         48.0004
 -16703093.16248 -12978747.19647  21349202.8384   21349208.4904   21349203.658
        51.0004         46.0004
 14  5 20  1 37  0.0000000  0 11G26G10G09G07G30G02G08G05G17G04G28
   1333969.58547   1059076.07746  24478379.6304   24478387.6584   24478378.733
        43.0004         38.0004
 -25515959.36948 -19876674.59147  21179499.0784   21179504.9204   21179499.792
        51.0004         47.0004
  -3826244.25148  -2961631.28547  21799273.2054   21799278.7564   21799273.439
        51.0004         46.0004
  -2084833.15647  -1594869.86146  24244856.7804   24244862.4754   24244856.426
        42.0004         37.0004
   1960285.55348   1518967.01447  22063416.0844   22063423.9814   22063416.100
        50.0004         45.0004
 -15115523.79448 -11758351.15347  21518434.8774   21518438.3954   21518435.115
        52.0004         47.0004
 -14668957.93448 -11384321.83947  22014924.0294   22014927.7194   22014923.572
        48.0004         43.0004
  -7902194.75847  -6110692.36146  24044280.4314   24044286.4414   24044279.328
        44.0004         39.0004
  -6176899.90147  -4759328.55746  23974139.3474   23974146.5554   23974139.612
        45.0004         40.0004
 -24539649.95148 -19074356.06848  20649231.2334   20649236.5244   20649230.865
        53.0004         48.0004
 -16738169.76748 -13006079.58747  21342528.6084   21342533.7044   21342529.010
        51.0004         46.0004
 14  5 20  1 37 30.0000000  0 11G26G10G09G07G30G02G08G05G17G04G28
   1346489.59847   1068832.01146  24480761.1134   24480769.1054   24480761.894
        43.0004         38.0004
 -25573518.00348 -19921525.44347  21168546.1104   21168552.2154   21168546.834
        52.0004         47.0004
  -3741039.38148  -2895237.87247  21815487.5954   21815492.5564   21815487.187
        51.0004         46.0004
  -1979946.85147  -1513140.34846  24264816.1044   24264820.8374   24264815.581
        42.0004         38.0004
   2046386.66148   1586058.77947  22079800.4074   22079807.8994   22079800.665
        50.0004         45.0004
 -15127826.36648 -11767937.55147  21516093.8364   21516096.8884   21516093.994
        52.0004         47.0004
 -14569947.99348 -11307171.25647  22033763.7404   22033770.1884   22033764.465
        48.0004         43.0004
  -7995756.41047  -6183597.41546  24026475.8884   24026481.7324   24026474.978
        44.0004         39.0004
  -6167035.59247  -4751642.05546  23976017.4134   23976023.3244   23976017.018
        45.0004         40.0004
 -24497452.52448 -19041474.94948  20657261.2574   20657266.5744   20657260.566
        53.0004         48.0004
 -16772870.08448 -13033118.77547  21335924.8444   21335930.0774   21335925.743
        51.0004         46.0004
 14  5 20  1 38  0.0000000  0 11G26G10G09G07G30G02G08G05G17G04G28
   1358884.35247   1078490.34446  24483118.7984   24483127.4844   24483119.415
        43.0004         38.0004
 -25630789.72848 -19966152.72447  21157647.5764   21157653.4284   21157648.347
        52.0004         47.0004
  -3655658.72648  -2828707.49347  21831734.6244   21831740.7284   21831734.692
        50.0004         46.0004
  -1875123.10647  -1431459.59346  24284763.3754   24284769.4624   24284763.066
        42.0004         37.0004
   2132674.72348   1653296.22247  22096220.4554   22096228.0404   22096220.810
        50.0004         45.0004
 -15139695.04448 -11777185.85347  21513835.1124   21513838.9604   21513835.320
        51.0004         47.0004
 -14470722.43248 -11229852.64747  22052646.5114   22052652.3874   22052646.187
        48.0004         43.0004
  -8089395.68047  -6256562.96046  24008657.0664   24008663.1554   24008655.901
        44.0004         40.0004
  -6157412.50947  -4744143.51346  23977848.2464   23977854.5484   23977848.094
        45.0004         40.0004
 -24454846.70948 -19008275.61948  20665368.8504   20665374.1134   20665368.396
        53.0004         48.0004
 -16807195.25548 -13059865.63247  21329393.4464   21329398.3074   21329394.043
        51.0004         46.0004
 14  5 20  1 38 30.0000000  0 11G26G10G09G07G30G02G08G05G17G04G28
   1371153.02247   1088050.42946  24485455.1064   24485462.5444   24485453.548
        43.0004         38.0004
 -25687770.95048 -20010553.64647  21146804.2854   21146810.2064   21146804.693
        52.0004         47.0004
  -3570104.37148  -2762041.75547  21848015.3644   21848020.5984   21848014.824
        50.0004         46.0004
  -1770363.85147  -1349829.09446  24304699.2104   24304704.2994   24304698.490
        42.0004         37.0004
   2219147.66648   1720677.73147  22112675.7724   22112682.9484   22112675.654
        50.0004         45.0004
 -15151129.62548 -11786095.88947  21511659.0594   21511662.6904   21511659.651
        52.0004         47.0004
 -14371284.15948 -11152368.29347  22071569.3584   22071574.8944   22071568.604
        48.0004         43.0004
  -8183109.80747  -6329586.83046  23990823.8874   23990830.1744   23990822.907
        44.0004         40.0004
  -6148029.68847  -4736832.20446  23979634.4584   23979640.5164   23979633.163
        45.0004         40.0004
 -24411834.11748 -18974759.31848  20673553.7294   20673558.8564   20673553.287
        53.0004         48.0004
 -16841141.78648 -13086317.45047  21322933.8504   21322938.6214   21322934.154
        51.0004         46.0004
 14  5 20  1 39  0.0000000  0 11G26G10G09G07G30G02G08G05G17G04G28
   1383294.31947   1097511.24946  24487764.7114   24487773.7884   24487765.210
        43.0004         38.0004
 -25744458.18548 -20054725.48347  21136016.9684   21136022.6674   21136017.982
        52.0004         47.0004
  -3484378.89948  -2695242.68547  21864327.9104   21864333.5784   21864328.029
        50.0004         46.0004
  -1665670.56047  -1268249.98046  24324621.2514   24324627.6314   24324620.729
        42.0004         37.0004
   2305803.26848   1788201.56747  22129166.0904   22129172.9454   22129165.961
        50.0004         45.0004
 -15162130.45148 -11794667.94347  21509565.2894   21509569.2964   21509565.990
        52.0004         47.0004
 -14271635.73647 -11074720.19147  22090530.8874   22090536.9664   22090530.918
        47.0004         43.0004
  -8276895.33347  -6402666.33146  23972975.9334   23972982.6714   23972975.493
        45.0004         40.0004
  -6138886.94247  -4729707.95446  23981373.9064   23981380.0184   23981373.407
        45.0004         40.0004
 -24368416.71048 -18940927.57748  20681816.1254   20681821.1904   20681815.753
        53.0004         48.0004
 -16874706.47048 -13112471.72947  21316546.4224   21316551.8554   21316546.882
        51.0004         46.0004
 14  5 20  1 39 30.0000000  0 11G26G10G09G07G30G02G08G05G17G04G28
   1395305.62747   1106870.80046  24490051.1384   24490058.4274   24490050.557
        43.0004         38.0004
 -25800849.43148 -20098666.68647  21125285.9984   21125292.1424   21125286.567
        52.0004         47.0004
  -3398486.48448  -2628313.52647  21880672.7684   21880678.1374   21880672.909
        50.0004         46.0004
  -1561046.79647  -1186725.06346  24344529.7444   24344537.4244   24344530.093
        42.0004         37.0004
   2392637.71948   1855864.75747  22145689.7784   22145697.1994   22145690.301
        49.0004         45.0004
 -15172699.22648 -11802903.33247  21507554.7264   21507557.8404   21507554.913
        52.0004         47.0004
 -14171781.22347 -10996911.50347  22109531.9884   22109538.2734   22109532.962
        47.0004         43.0004
  -8370751.64147  -6475800.99146  23955116.2124   23955122.2234   23955115.826
        45.0004         40.0004
  -6129984.74547  -4722771.14946  23983067.6294   23983074.0044   23983066.963
        45.0004         40.0004
 -24324597.56748 -18906782.78848  20690153.9564   20690159.6884   20690153.792
        53.0004         48.0004
 -16907887.52448 -13138327.06647  21310232.4334   21310237.1834   21310232.711
        51.0004         46.0004
 14  5 20  1 40  0.0000000  0 11G26G10G09G07G30G02G08G05G17G04G28
   1407187.85547   1116129.76146  24492312.2144   24492318.6634   24492311.695
        43.0004         38.0004
 -25856939.17748 -20142372.94747  21114612.7814   21114618.4804   21114613.189
        52.0004         47.0004
  -3312427.41348  -2561254.50447  21897049.4654   21897055.4504   21897049.054
        50.0004         46.0004
  -1456492.00447  -1105253.89846  24364426.5644   24364432.7684   24364426.198
        42.0004         37.0004
   2479650.83048   1923667.17247  22162248.3024   22162255.4184   22162247.765
        49.0004         45.0004
 -15182833.71548 -11810800.31747  21505626.0844   21505630.0024   21505626.405
        52.0004         47.0004
 -14071721.75547 -10918943.09747  22128574.1154   22128579.9904   22128573.384
        47.0004         43.0004
  -8464673.95547  -6548987.09546  23937243.5644   23937249.2134   23937243.107
        45.0004         40.0004
  -6121319.94747  -4716019.32346  23984717.2004   23984722.6184   23984715.686
        45.0004         40.0004
 -24280376.56548 -18872324.87748  20698569.0364   20698574.9844   20698568.986
        53.0004         48.0004
 -16940679.47548 -13163879.21147  21303992.7404   21303997.0174   21303992.846
        51.0004         46.0004
 14  5 20  1 40 30.0000000  0 11G26G10G09G07G30G02G08G05G17G04G28
   1418936.00347   1125284.24046  24494547.9994   24494555.7524   24494547.276
        43.0004         38.0004
 -25912727.62248 -20185844.43347  21103996.4794   21104001.7264   21103996.951
        52.0004         47.0004
  -3226207.88748  -2494070.45847  21913456.2854   21913461.6504   21913456.696
        50.0004         46.0004
  -1352011.88947  -1023840.90246  24384309.9714   24384314.4344   24384308.296
        42.0004         37.0004
   2566836.50848   1991604.05147  22178838.8384   22178846.0404   22178838.883
        49.0004         45.0004
 -15192538.33548 -11818362.33547  21503779.1334   21503782.8774   21503779.493
        52.0004         47.0004
 -13971463.69947 -10840819.95847  22147649.9824   22147657.6654   22147651.789
        47.0004         43.0004
  -8558663.10047  -6622225.28046  23919357.7274   23919363.0424   23919357.244
        45.0004         40.0004
  -6112896.07847  -4709455.23946  23986319.7434   23986325.5414   23986318.797
        45.0004         40.0004
 -24235759.27648 -18837558.16148  20707059.8394   20707064.6994   20707059.382
        53.0004         48.0004
 -16973083.02248 -13189128.70747  21297826.0104   21297830.8914   21297826.381
        51.0004         46.0004
 14  5 20  1 41  0.0000000  0 11G26G10G09G07G30G02G08G05G17G04G28
   1430549.63947   1134333.90546  24496756.8794   24496764.4014   24496756.801
        43.0004         38.0004
 -25968210.69748 -20229077.96847  21093438.3044   21093444.3344   21093439.078
        52.0004         47.0004
  -3139829.84148  -2426762.88347  21929893.4554   21929898.8914   21929893.760
        50.0004         46.0004
  -1247607.67347   -942487.05046  24404174.9744   24404183.2854   24404175.628
        42.0004         37.0004
   2654193.04248   2059674.06247  22195462.3624   22195470.3554   22195462.538
        49.0004         45.0004
 -15201812.69648 -11825589.08647  21502014.1884   21502017.7324   21502014.752
        52.0004         47.0004
 -13871009.31947 -10762543.83147  22166766.4894   22166772.9004   22166768.083
        47.0004         42.0004
  -8652715.40847  -6695512.67846  23901460.7264   23901465.6264   23901459.636
        45.0004         40.0004
  -6104711.43847  -4703077.56646  23987876.6104   23987884.0604   23987876.158
        45.0004         40.0004
 -24190747.10248 -18802483.74348  20715625.3114   20715630.6014   20715624.786
        53.0004         48.0004
 -17005094.60348 -13214072.76247  21291734.5694   21291739.2064   21291735.017
        51.0004         46.0004
 14  5 20  1 41 30.0000000  0 11G26G10G09G07G30G02G08G05G17G04G28
   1442026.06947   1143276.65546  24498940.9534   24498948.6864   24498940.441
        43.0004         38.0004
 -26023386.49948 -20272072.07247  21082939.0034   21082944.6014   21082939.446
        52.0004         47.0004
  -3053297.22148  -2359334.86847  21946359.7424   21946365.3484   21946360.048
        50.0004         46.0004
  -1143282.49247   -861194.80246  24424027.4594   24424033.4534   24424028.098
        42.0004         37.0004
   2741716.66248   2127874.27347  22212117.3774   22212125.1514   22212117.378
        49.0004         45.0004
 -15210658.33448 -11832481.76647  21500331.3364   21500334.7774   21500331.313
        52.0004         47.0004
 -13770362.90247 -10684118.08147  22185920.2774   22185926.5944   22185920.388
        47.0004         42.0004
  -8746830.12047  -6768848.71946  23883550.5984   23883557.2104   23883550.676
        45.0004         40.0004
  -6096767.11047  -4696887.13046  23989388.4924   23989395.3444   23989388.187
        45.0004         41.0004
 -24145343.32748 -18767104.18648  20724265.1854   20724270.6614   20724264.823
        53.0004         48.0004
 -17036712.28548 -13238709.89347  21285717.9744   21285722.5694   21285717.895
        51.0004         47.0004
 14  5 20  1 42  0.0000000  0 11G26G10G09G07G30G02G08G05G17G04G28
   1453366.04247   1152113.07146  24501099.1614   24501106.6664   24501099.227
        43.0004         38.0004
 -26078249.30548 -20314822.28147  21072498.7294   21072504.4884   21072499.232
        52.0004         47.0004
  -2966610.71548  -2291786.94647  21962856.2664   21962861.7134   21962856.055
        50.0004         46.0004
  -1039036.12447   -779963.95546  24443866.9734   24443872.3074   24443865.246
        42.0004         37.0004
   2829407.07748   2196204.45747  22228805.0874   22228811.9434   22228804.159
        49.0004         45.0004
 -15219073.80448 -11839039.25547  21498729.3694   21498733.0584   21498730.066
        52.0004         47.0004
 -13669525.49947 -10605543.48047  22205109.1764   22205114.9674   22205108.700
        47.0004         43.0004
  -8841001.80347  -6842229.14646  23865630.4374   23865636.4614   23865630.404
        45.0004         40.0004
  -6089060.21647  -4690881.71746  23990855.1314   23990861.7684   23990855.150
        45.0004         41.0004
 -24099548.20648 -18731419.68048  20732979.9354   20732985.0994   20732979.437
        53.0004         48.0004
 -17067931.05948 -13263036.18747  21279776.9754   21279782.0264   21279777.266
        51.0004         47.0004
 14  5 20  1 42 30.0000000  0 11G26G10G09G07G30G02G08G05G17G04G28
   1464564.52047   1160839.22546  24503229.8674   24503238.2514   24503229.631
        43.0004         38.0004
 -26132799.72548 -20357329.07047  21062117.9874   21062123.6894   21062118.636
        52.0004         47.0004
  -2879776.54248  -2224123.94947  21979380.5324   21979385.3264   21979380.161
        50.0004         46.0004
   -934874.42846   -698799.09646  24463687.3484   24463694.5984   24463686.700
        41.0004         37.0004
   2917258.01248   2264659.70647  22245522.0784   22245529.3294   22245522.301
        49.0004         45.0004
 -15227063.38348 -11845264.87747  21497209.5924   21497212.3784   21497209.924
        52.0004         47.0004
 -13568503.63947 -10526825.18047  22224332.2734   22224339.8694   22224332.899
        47.0004         42.0004
  -8935232.23047  -6915655.33946  23847698.2264   23847705.3214   23847698.360
        45.0004         40.0004
  -6081593.83147  -4685063.70846  23992275.7474   23992282.2274   23992275.475
        45.0004         41.0004
 -24053367.27448 -18695434.54748  20741767.7544   20741772.8584   20741767.110
        53.0004         48.0004
 -17098751.51148 -13287052.10047  21273912.2484   21273917.2434   21273912.473
        51.0004         47.0004
 14  5 20  1 43  0.0000000  0 11G26G10G09G07G30G02G08G05G17G04G28
   1475621.99047   1169455.51246  24505333.7294   24505340.3094   24505333.464
        43.0004         38.0004
 -26187032.61848 -20399588.44247  21051797.7364   21051803.3654   21051798.518
        52.0004         47.0004
  -2792795.45948  -2156346.48047  21995931.8344   21995936.9944   21995931.850
        50.0004         46.0004
   -830797.43647   -617700.24746  24483492.2364   24483499.4574   24483492.123
        42.0004         37.0004
   3005268.89048   2333239.59847  22262269.2604   22262277.9124   22262270.117
        49.0004         44.0004
 -15234625.60948 -11851157.50547  21495770.6714   21495774.3354   21495770.477
        52.0004         47.0004
 -13467298.34447 -10447963.93447  22243592.1074   22243598.3604   22243591.886
        47.0004         42.0004
  -9029516.57347  -6989123.55446  23829756.8454   23829762.9634   23829756.409
        45.0004         40.0004
  -6074365.56447  -4679431.23446  23993651.7544   23993657.3784   23993651.447
        45.0004         41.0004
 -24006800.95948 -18659149.11748  20750629.2224   20750634.2754   20750628.845
        53.0004         48.0004
 -17129169.40148 -13310754.32747  21268123.7184   21268128.2274   21268124.182
        51.0004         47.0004
 14  5 20  1 43 30.0000000  0 11G26G10G09G07G30G02G08G05G17G04G28
   1486537.80647   1177961.40446  24507411.8534   24507419.2494   24507412.093
        43.0004         38.0004
 -26240944.19248 -20441597.43447  21041539.0494   21041544.3624   21041539.630
        52.0004         47.0004
  -2705669.82048  -2088456.37647  22012511.3714   22012516.4074   22012511.853
        50.0004         46.0004
   -726806.55346   -536668.51146  24503279.6944   24503289.2814   24503281.113
        41.0004         37.0004
   3093437.74348   2401942.59147  22279047.9114   22279055.6364   22279047.449
        49.0004         45.0004
 -15241760.65248 -11856717.25647  21494412.5094   21494415.6004   21494412.889
        52.0004         47.0004
 -13365912.22647 -10368961.79047  22262883.9504   22262889.6904   22262885.175
        47.0004         42.0004
  -9123851.87647  -7062631.48546  23811805.2134   23811811.6354   23811804.908
        45.0004         41.0004
  -6067374.26547  -4673983.42446  23994982.0424   23994987.9744   23994981.452
        45.0004         41.0004
 -23959850.87248 -18622564.63548  20759562.8084   20759568.1934   20759562.656
        53.0004         48.0004
 -17159180.48748 -13334139.57047  21262412.9024   21262417.8224   21262413.391
        51.0004         47.0004
 14  5 20  1 44  0.0000000  0 11G26G10G09G07G30G02G08G05G17G04G28
   1497314.31547   1186358.76146  24509462.5904   24509469.0604   24509461.637
        43.0004         38.0004
 -26294527.54948 -20483350.67347  21031342.1814   21031347.6664   21031342.582
        52.0004         47.0004
  -2618398.46248  -2020452.72247  22029119.2344   22029123.4554   22029118.978
        50.0004         45.0004
   -622899.77046   -455702.31146  24523054.9404   24523060.9004   24523054.273
        41.0004         37.0004
   3181765.93748   2470769.74047  22295856.9444   22295863.8354   22295856.556
        49.0004         44.0004
 -15248465.05448 -11861941.44547  21493136.7804   21493140.4754   21493137.366
        52.0004         47.0004
 -13264344.16647 -10289817.86447  22282211.9634   22282217.3784   22282212.116
        47.0004         42.0004
  -9218231.46747  -7136173.93046  23793846.1834   23793851.4774   23793845.627
        45.0004         41.0004
  -6060615.40947  -4668716.73146  23996267.3054   23996273.4164   23996267.270
        45.0004         40.0004
 -23912515.24248 -18585679.74048  20768570.8524   20768576.3624   20768570.493
        52.0004         48.0004
 -17188778.71848 -13357203.10347  21256781.0604   21256785.0554   21256780.906
        51.0004         47.0004
 14  5 20  1 44 30.0000000  0 11G26G10G09G07G30G02G08G05G17G04G28
   1507938.35347   1194637.33846  24511484.1864   24511490.5164   24511483.142
        43.0004         38.0004
 -26347791.31648 -20524854.88247  21021206.5334   21021212.3204   21021207.181
        52.0004         47.0004
  -2530995.69148  -1952346.66747  22045750.3674   22045755.9394   22045750.645
        50.0004         45.0004
   -519090.76546   -374812.29846  24542807.0394   24542815.6734   24542808.376
        41.0004         37.0004
   3270239.07448   2539709.82647  22312693.3024   22312699.5944   22312692.113
        49.0004         44.0004
 -15254751.58148 -11866840.01547  21491939.9204   21491944.0114   21491940.327
        52.0004         47.0004
 -13162609.32047 -10210543.98247  22301570.5414   22301576.9704   22301571.936
        47.0004         42.0004
  -9312665.03547  -7209758.44246  23775875.2534   23775881.8454   23775874.994
        45.0004         41.0004
  -6054100.01347  -4663639.75846  23997507.6404   23997514.2694   23997507.406
        45.0004         40.0004
 -23864808.14348 -18548505.38148  20777648.7604   20777655.2184   20777648.853
        52.0004         48.0004
 -17217972.71148 -13379951.64247  21251225.5634   21251229.4194   21251225.387
        51.0004         47.0004
 14  5 20  1 45  0.0000000  0 11G26G10G09G07G30G02G08G05G17G04G28
   1518412.91847   1202799.40446  24513477.0994   24513484.2934   24513477.035
        43.0004         38.0004
 -26400727.99548 -20566104.21847  21011132.3714   21011138.5914   21011133.252
        52.0004         47.0004
  -2443460.14548  -1884137.15347  22062408.6344   22062413.8674   22062408.550
        50.0004         45.0004
   -415377.45346   -293996.86146  24562545.4224   24562551.8554   24562544.198
        41.0004         37.0004
   3358858.81848   2608764.15747  22329556.0124   22329563.7314   22329555.825
        49.0004         44.0004
 -15260616.62348 -11871410.15447  21490824.2344   21490827.6644   21490825.031
        52.0004         47.0004
 -13060706.61047 -10131139.30447  22320962.5124   22320968.8774   22320963.842
        47.0004         42.0004
  -9407145.41847  -7283379.42746  23757896.4274   23757901.7304   23757895.427
        45.0004         41.0004
  -6047823.98947  -4658749.31046  23998701.9274   23998708.0094   23998701.594
        45.0004         40.0004
 -23816727.79248 -18511040.18548  20786798.6204   20786804.6874   20786798.315
        52.0004         48.0004
 -17246755.92048 -13402380.09147  21245747.9944   21245752.7214   21245748.137
        51.0004         47.0004
 14  5 20  1 45 30.0000000  0 11G26G10G09G07G30G02G08G05G17G04G28
   1528739.59747   1210846.23846  24515441.4274   24515448.8634   24515442.028
        43.0004         38.0004
 -26453331.13148 -20607093.64947  21001123.0224   21001128.6584   21001123.536
        52.0004         47.0004
  -2355791.57448  -1815823.98147  22079090.9804   22079096.3204   22079091.178
        50.0004         45.0004
   -311758.71646   -213255.10546  24582263.4644   24582270.3604   24582262.253
        41.0004         37.0004
   3447625.75048   2677933.18047  22346447.4234   22346454.7704   22346447.717
        49.0004         44.0004
 -15266057.72948 -11875649.96247  21489789.0904   21489792.6954   21489789.433
        52.0004         47.0004
 -12958636.05247 -10051603.83347  22340386.5384   22340392.9674   22340386.565
        46.0004         42.0004
  -9501666.71447  -7357032.29046  23739909.9634   23739915.9604   23739908.804
        45.0004         41.0004
  -6041783.36647  -4654042.28346  23999851.3044   23999857.8964   23999850.917
        45.0004         40.0004
 -23768273.10548 -18473283.30748  20796019.0594   20796024.6884   20796018.976
        52.0004         48.0004
 -17275122.16048 -13424483.63047  21240349.9934   21240354.7594   21240350.139
        51.0004         47.0004
 14  5 20  1 46  0.0000000  0 11G26G10G09G07G30G02G08G05G17G04G28
   1538915.32847   1218775.45046  24517377.3294   24517384.8264   24517377.379
        43.0004         38.0004
 -26505599.46748 -20647822.19547  20991176.3384   20991181.5634   20991176.937
        52.0004         47.0004
  -2267994.29748  -1747410.51947  22095798.4424   22095803.6064   22095798.232
        50.0004         45.0004
   -208238.31846   -132589.99046  24601961.8264   24601970.1334   24601961.093
        41.0004         37.0004
   3536535.59548   2747213.57047  22363366.8854   22363374.5474   22363366.551
        49.0004         44.0004
 -15271077.32048 -11879561.30747  21488833.3324   21488837.4244   21488833.713
        52.0004         47.0004
 -12856402.22747  -9971941.13447  22359841.4234   22359845.9264   22359840.978
        46.0004         42.0004
  -9596228.48547  -7430716.68946  23721914.5034   23721920.4724   23721914.305
        45.0004         41.0004
  -6035979.08247  -4649519.41746  24000955.7534   24000961.7554   24000955.027
        45.0004         40.0004
 -23719448.41548 -18435238.11248  20805310.3954   20805315.6624   20805310.198
        52.0004         48.0004
 -17303070.39748 -13446261.45647  21235031.8804   21235036.1904   21235031.833
        51.0004         47.0004
 14  5 20  1 46 30.0000000  0 11G26G10G09G07G30G02G08G05G17G04G28
   1548935.27947   1226583.26046  24519284.9824   24519291.9534   24519285.006
        43.0004         38.0004
 -26557533.46948 -20688290.22847  20981293.8754   20981299.2884   20981294.477
        52.0004         47.0004
  -2180074.62748  -1678901.69947  22112529.3904   22112534.0764   22112529.008
        50.0004         45.0004
   -104821.55446    -52005.60946  24621641.6964   24621650.1924   24621641.436
        41.0004         37.0004
   3625582.25748   2816600.56947  22380311.8364   22380319.1694   22380311.813
        49.0004         44.0004
 -15275679.86948 -11883147.69547  21487958.1364   21487961.2784   21487958.241
        52.0004         47.0004
 -12754011.66347  -9892156.30447  22379324.7784   22379330.8244   22379325.970
        46.0004         42.0004
  -9690831.63347  -7504433.33746  23703912.2624   23703918.0134   23703911.654
        45.0004         41.0004
  -6030414.37847  -4645183.23246  24002013.7584   24002020.5634   24002014.313
        45.0004         40.0004
 -23670259.38548 -18396909.01748  20814670.4824   20814676.1134   20814670.399
        52.0004         48.0004
 -17330601.46848 -13467714.21047  21229792.5114   21229796.8944   21229792.488
        51.0004         47.0004
 14  5 20  1 47  0.0000000  0 11G26G10G09G07G30G02G08G05G17G04G28
   1558801.82747   1234271.54046  24521163.0084   24521168.7344   24521162.127
        43.0004         38.0004
 -26609126.06448 -20728492.23047  20971476.1924   20971481.9304   20971476.490
        52.0004         47.0004
  -2092031.44248  -1610296.61847  22129283.0044   22129288.7334   22129283.083
        50.0004         45.0004
     -1506.61046     28499.43146  24641303.7034   24641309.4224   24641302.089
        41.0004         36.0004
   3714766.96548   2886095.13747  22397283.2394   22397291.0164   22397283.158
        49.0004         44.0004
 -15279862.30948 -11886406.72247  21487162.1434   21487165.5764   21487162.091
        52.0004         47.0004
 -12651463.54047  -9812248.70147  22398839.9564   22398847.0194   22398840.311
        46.0004         42.0004
  -9785469.82347  -7578177.29246  23685903.1674   23685909.0494   23685902.859
        45.0004         41.0004
  -6025084.63847  -4641030.14546  24003028.7334   24003035.8574   24003028.605
        45.0004         41.0004
 -23620704.54448 -18358294.87348  20824101.0624   20824105.9324   20824100.434
        52.0004         48.0004
 -17357708.91948 -13488836.87747  21224634.3264   21224638.4504   21224634.285
        51.0004         47.0004
 14  5 20  1 47 30.0000000  0 11G26G10G09G07G30G02G08G05G17G04G28
   1568512.69347   1241838.51846  24523009.2934   24523018.5914   24523009.576
        43.0004         38.0004
 -26660375.06448 -20768426.49247  20961723.6374   20961729.2674   20961724.227
        52.0004         47.0004
  -2003868.32448  -1541598.09347  22146060.2004   22146065.6834   22146060.021
        50.0004         45.0004
    101703.88546    108923.07946  24660943.0024   24660948.2864   24660942.242
        41.0004         36.0004
   3804086.26848   2955694.56647  22414280.1234   22414287.2674   22414279.983
        49.0004         44.0004
 -15283626.33448 -11889339.70647  21486445.9674   21486449.1614   21486446.130
        52.0004         47.0004
 -12548762.10847  -9732221.64247  22418382.7484   22418389.7084   22418383.221
        46.0004         42.0004
  -9880140.98347  -7651946.94246  23667887.8614   23667893.3024   23667887.025
        45.0004         41.0004
  -6019989.93347  -4637060.20046  24003998.7004   24004004.9324   24003997.786
        45.0004         41.0004
 -23570787.01648 -18319398.11748  20833599.4384   20833605.2954   20833599.122
        52.0004         48.0004
 -17384391.00348 -13509628.09247  21219556.7184   21219561.5254   21219556.672
        51.0004         47.0004
 14  5 20  1 48  0.0000000  0 11G26G10G09G07G30G02G08G05G17G04G28
   1578065.00047   1249281.95446  24524827.7344   24524834.2724   24524826.412
        43.0004         38.0004
 -26711279.17348 -20808092.01247  20952036.7324   20952042.4034   20952037.325
        52.0004         47.0004
  -1915589.63448  -1472809.50247  22162859.2544   22162864.1654   22162858.759
        50.0004         45.0004
    204806.15546    189262.38346  24680562.3654   24680569.0554   24680562.238
        41.0004         36.0004
   3893536.04648   3025395.69147  22431300.9914   22431309.4044   22431301.785
        49.0004         44.0004
 -15286974.19548 -11891948.41347  21485808.6604   21485812.0004   21485809.207
        52.0004         47.0004
 -12445911.95447  -9652078.68547  22437954.9284   22437961.5404   22437954.884
        46.0004         42.0004
  -9974844.57147  -7725741.85646  23649865.6284   23649871.7884   23649865.124
        45.0004         41.0004
  -6015131.43747  -4633274.31446  24004923.2954   24004930.0234   24004922.219
        45.0004         41.0004
 -23520510.79748 -18280221.86148  20843167.3014   20843172.4984   20843166.846
        52.0004         48.0004
 -17410646.55648 -13530086.94547  21214560.2464   21214564.4014   21214560.785
        51.0004         47.0004
 14  5 20  1 48 30.0000000  0 11G26G10G09G07G30G02G08G05G17G04G28
   1587457.71647   1256601.02246  24526614.5144   24526622.3824   24526615.155
        43.0004         38.0004
 -26761834.77548 -20847485.96547  20942416.1584   20942421.6674   20942417.244
        52.0004         47.0004
  -1827197.94948  -1403932.87947  22179678.7254   22179684.1884   22179679.245
        49.0004         45.0004
    307798.51546    269516.05846  24700162.0384   24700167.6404   24700160.862
        41.0004         36.0004
   3983114.03148   3095196.70147  22448348.4214   22448355.6554   22448348.039
        48.0004         44.0004
 -15289906.71648 -11894233.48247  21485250.2634   21485253.7214   21485250.555
        52.0004         47.0004
 -12342915.79347  -9571821.96347  22457554.5354   22457560.8404   22457554.186
        46.0004         42.0004
 -10069577.37947  -7799559.54446  23631838.8844   23631844.2454   23631838.770
        45.0004         41.0004
  -6010508.00847  -4629671.59646  24005802.5614   24005808.6214   24005802.230
        45.0004         41.0004
 -23469878.10048 -18240767.82148  20852802.1304   20852806.9564   20852801.842
        52.0004         48.0004
 -17436472.72348 -13550211.20847  21209645.7074   21209651.1044   21209645.945
        51.0004         46.0004
 14  5 20  1 49  0.0000000  0 11G26G10G09G07G30G02G08G05G17G04G28
   1596689.40447   1263794.60546  24528371.3364   24528378.4734   24528372.091
        43.0004         38.0004
 -26812038.99348 -20886606.11848  20932862.9884   20932868.4704   20932863.454
        52.0004         48.0004
  -1738696.00148  -1334970.31747  22196520.0874   22196526.1084   22196520.643
        49.0004         45.0004
    410679.07446    349682.62545  24719736.9324   24719748.4824   24719739.117
        40.0004         35.0004
   4072817.59448   3165095.55647  22465417.6754   22465425.6154   22465417.911
        48.0004         44.0004
 -15292424.68648 -11896195.51847  21484771.3744   21484774.8764   21484771.462
        52.0004         47.0004
 -12239776.84947  -9491453.98546  22477180.0014   22477188.3294   22477181.112
        46.0004         41.0004
 -10164337.08747  -7873398.19646  23613806.5684   23613812.3644   23613806.869
        46.0004         41.0004
  -6006119.33547  -4626251.79846  24006637.4164   24006643.5534   24006637.146
        45.0004         41.0004
 -23418891.36848 -18201037.92748  20862504.6594   20862509.5394   20862504.180
        52.0004         48.0004
 -17461866.85348 -13569998.81947  21204813.4774   21204818.2424   21204813.650
        51.0004         47.0004
 14  5 20  1 49 30.0000000  0 11G26G10G09G07G30G02G08G05G17G04G28
   1605758.18547   1270861.24946  24530098.4904   24530104.4544   24530096.995
        43.0004         38.0004
 -26861889.42948 -20925450.59348  20923376.2274   20923381.7364   20923377.300
        52.0004         48.0004
  -1650087.07648  -1265924.41947  22213382.5294   22213387.6344   22213382.248
        49.0004         45.0004
    513445.57246    429760.29845  24739295.4254   24739302.3034   24739294.022
        40.0004         35.0004
   4162643.59048   3235089.82547  22482511.5614   22482519.5364   22482510.875
        48.0004         44.0004
 -15294529.70548 -11897835.78247  21484370.8784   21484374.1674   21484370.902
        52.0004         47.0004
 -12136498.62147  -9410977.47147  22496834.1964   22496840.8804   22496834.497
        46.0004         42.0004
 -10259121.29747  -7947255.93846  23595770.1584   23595776.4844   23595769.468
        46.0004         41.0004
  -6001965.60347  -4623015.06946  24007428.1744   24007434.3204   24007427.860
        45.0004         41.0004
 -23367553.42048 -18161034.34548  20872273.9264   20872279.2864   20872273.670
        52.0004         48.0004
 -17486826.82648 -13589448.13047  21200063.1224   21200068.5154   21200063.682
        51.0004         47.0004
 14  5 20  1 50  0.0000000  0 11G26G10G09G07G30G02G08G05G17G04G28
   1614664.25547   1277801.11446  24531792.7844   24531799.3934   24531790.473
        43.0004         38.0004
 -26911381.17848 -20964015.57348  20913958.6484   20913964.3884   20913959.317
        52.0004         48.0004
  -1561372.21148  -1196795.96047  22230263.9624   22230269.8104   22230264.355
        49.0004         45.0004
    616097.47946    509748.67945  24758831.8424   24758834.6634   24758828.318
        40.0004         35.0004
   4252591.04648   3305178.74547  22499627.1444   22499634.9414   22499627.437
        48.0004         44.0004
 -15296220.96348 -11899153.63347  21484049.0854   21484052.7344   21484048.979
        52.0004         47.0004
 -12033082.34347  -9330393.38846  22516513.5774   22516520.6294   22516513.879
        46.0004         41.0004
 -10353926.08747  -8021129.72346  23577728.8864   23577734.8204   23577728.331
        46.0004         41.0004
  -5998044.54547  -4619959.64846  24008174.7094   24008180.4364   24008173.741
        45.0004         41.0004
 -23315865.02048 -18120757.68948  20882109.7234   20882115.3914   20882109.241
        52.0004         48.0004
 -17511348.53548 -13608555.92947  21195397.3694   21195401.9844   21195397.605
        51.0004         47.0004
 14  5 20  1 50 30.0000000  0 11G26G10G09G07G30G02G08G05G17G04G28
   1623402.27447   1284610.02246  24533453.4584   24533462.4384   24533455.159
        43.0004         38.0004
 -26960515.49448 -21002302.03748  20904608.9614   20904614.5524   20904609.341
        52.0004         48.0004
  -1472558.13448  -1127590.18747  22247164.7674   22247170.2934   22247164.793
        49.0004         45.0004
    718628.52746    589642.88545  24778339.5264   24778347.4334   24778340.019
        39.0004         35.0004
   4342653.34248   3375357.13247  22516764.6674   22516774.2114   22516765.814
        48.0004         44.0004
 -15297503.74548 -11900153.19247  21483804.5034   21483808.2814   21483805.263
        52.0004         47.0004
 -11929535.57347  -9249707.62446  22536217.4994   22536224.6604   22536218.346
        46.0004         41.0004
 -10448753.04647  -8095020.78446  23559683.3784   23559689.5984   23559683.564
        46.0004         41.0004
  -5994358.97247  -4617087.73046  24008875.4254   24008881.7964   24008875.164
        46.0004         41.0004
 -23263832.84548 -18080213.16248  20892011.6894   20892016.6674   20892010.751
        52.0004         48.0004
 -17535433.54248 -13627323.45247  21190813.8674   21190819.2624   21190814.213
        51.0004         47.0004
 14  5 20  1 51  0.0000000  0 11G26G10G09G07G30G02G08G05G17G04G28
   1631973.38147   1291288.87146  24535086.6904   24535094.0394   24535085.625
        43.0004         38.0004
 -27009286.85648 -21040305.67647  20895327.3744   20895333.5924   20895328.517
        52.0004         47.0004
  -1383645.48148  -1058307.61447  22264084.9564   22264089.9934   22264084.826
        49.0004         45.0004
    821039.20246    669443.27745  24797826.9704   24797838.1614   24797828.779
        39.0004         35.0004
   4432830.35048   3445624.91547  22533925.1954   22533934.1654   22533925.916
        48.0004         43.0004
 -15298376.43548 -11900833.19847  21483638.5224   21483642.5614   21483639.430
        52.0004         47.0004
 -11825858.52147  -9168920.33746  22555947.3234   22555953.2624   22555947.390
        46.0004         41.0004
 -10543596.87947  -8168924.97646  23541636.3354   23541642.1134   23541635.175
        46.0004         41.0004
  -5990905.84447  -4614396.92746  24009532.6724   24009539.1974   24009532.528
        46.0004         41.0004
 -23211456.83148 -18039400.70547  20901977.5894   20901983.2484   20901977.592
        52.0004         47.0004
 -17559076.88148 -13645746.81347  21186314.9074   21186318.8274   21186315.196
        51.0004         47.0004
 14  5 20  1 51 30.0000000  0 11G26G10G09G07G30G02G08G05G17G04G28
   1640377.90747   1297837.90246  24536684.8354   24536691.9634   24536684.510
        43.0004         38.0004
 -27057690.58448 -21078022.85247  20886116.9084   20886122.5514   20886117.407
        52.0004         47.0004
  -1294635.20448   -988948.96847  22281023.1124   22281028.3334   22281022.563
        49.0004         44.0004
    923329.83646    749150.15145  24817293.2304   24817302.1474   24817293.608
        39.0004         35.0004
   4523121.17948   3515981.38447  22551107.0084   22551114.9054   22551108.062
        48.0004         43.0004
 -15298838.19848 -11901193.00447  21483550.4354   21483554.2444   21483550.543
        52.0004         47.0004
 -11722052.66047  -9088032.68346  22575700.9384   22575707.1624   22575701.767
        46.0004         41.0004
 -10638453.10547  -8242838.83046  23523586.0814   23523590.5674   23523584.510
        46.0004         41.0004
  -5987683.89847  -4611886.27846  24010146.2414   24010151.6174   24010145.823
        46.0004         41.0004
 -23158737.81348 -17998320.97448  20912010.3954   20912015.5054   20912009.939
        52.0004         48.0004
 -17582274.52048 -13663822.87347  21181900.4354   21181904.7404   21181900.732
        51.0004         47.0004
 14  5 20  1 52  0.0000000  0 11G26G10G09G07G30G02G08G05G17G04G28
   1648609.74147   1304252.37246  24538251.6054   24538258.5274   24538251.319
        43.0004         39.0004
 -27105728.49548 -21115454.96748  20876975.1044   20876981.4064   20876976.158
        52.0004         48.0004
  -1205534.53248   -919519.88747  22297978.3494   22297982.3834   22297977.781
        49.0004         44.0004
   1025494.05146    828758.47545  24836735.4524   24836742.3194   24836735.570
        40.0004         35.0004
   4613518.53048   3586420.86347  22568310.1374   22568317.8624   22568309.633
        48.0004         43.0004
 -15298894.92948 -11901237.19647  21483539.8344   21483543.8224   21483540.224
        52.0004         47.0004
 -11618125.85347  -9007050.78546  22595477.9604   22595482.7694   22595478.012
        46.0004         41.0004
 -10733324.11947  -8316764.20646  23505531.6584   23505537.5714   23505531.253
        46.0004         41.0004
  -5984696.32847  -4609558.26146  24010714.3124   24010719.9974   24010714.157
        46.0004         41.0004
 -23105682.91548 -17956979.52047  20922106.1934   20922111.6634   20922105.698
        52.0004         47.0004
 -17605028.44448 -13681553.18247  21177570.6644   21177575.3084   21177571.104
        51.0004         47.0004
 14  5 20  1 52 30.0000000  0 11G26G10G09G07G30G02G08G05G17G04G28
   1656670.29247   1310533.33946  24539786.2784   24539792.6224   24539785.934
        43.0004         39.0004
 -27153394.86848 -21152597.58047  20867905.3464   20867910.5624   20867905.409
        52.0004         47.0004
  -1116343.62748   -850020.48247  22314949.8644   22314955.7834   22314950.167
        49.0004         44.0004
   1127531.83146    908268.32345  24856153.9064   24856160.1534   24856151.727
        39.0004         35.0004
   4704022.49648   3656943.40147  22585531.6394   22585539.3124   22585532.275
        48.0004         43.0004
 -15298544.98448 -11900964.49947  21483607.1104   21483609.4664   21483607.133
        52.0004         47.0004
 -11514078.52547  -8925974.97346  22615276.1584   22615283.5874   22615277.171
        46.0004         41.0004
 -10828204.55047  -8390696.93246  23487476.4024   23487481.9424   23487476.328
        46.0004         41.0004
  -5981939.93647  -4607410.37946  24011239.1084   24011245.3004   24011238.655
        46.0004         41.0004
 -23052292.05748 -17915376.27147  20932266.0904   20932271.9014   20932265.924
        52.0004         47.0004
 -17627333.66348 -13698933.84847  21173325.7004   21173330.7794   21173326.150
        51.0004         47.0004
 14  5 20  1 53  0.0000000  0 11G26G10G09G07G30G02G08G05G17G04G28
   1664557.14847   1316679.00146  24541287.3564   24541292.3824   24541287.406
        43.0004         39.0004
 -27200687.90248 -21189449.27647  20858905.1404   20858910.8434   20858905.810
        52.0004         47.0004
  -1027066.51748   -780453.91547  22331938.4784   22331945.0974   22331939.052
        49.0004         44.0004
  -6647659.52846  -5150322.48745  24875545.1764   24875552.0454   24875544.185
        39.0004         35.0004
   4794629.30548   3727546.09547  22602774.5694   22602782.0384   22602774.119
        48.0004         43.0004
 -15297790.60448 -11900376.66147  21483749.9044   21483753.4694   21483749.916
        51.0004         47.0004
 -11409915.10247  -8844808.69446  22635098.3014   22635105.5284   22635098.809
        46.0004         41.0004
 -10923092.94947  -8464635.85846  23469419.3014   23469426.0074   23469419.337
        46.0004         41.0004
  -5979415.06247  -4605442.90146  24011719.0064   24011723.9604   24011719.107
        46.0004         41.0004
 -22998568.65548 -17873513.89547  20942489.2684   20942494.6464   20942488.885
        52.0004         47.0004
 -17649188.78548 -13715963.79147  21169167.2594   21169171.4264   21169167.480
        51.0004         47.0004
 14  5 20  1 53 30.0000000  0 11G26G10G09G07G30G02G08G05G17G04G28
   1672269.86047   1322688.96846  24542754.5114   24542761.0784   24542753.063
        43.0004         38.0004
 -27247603.51848 -21226006.88047  20849977.4194   20849983.0664   20849978.229
        52.0004         47.0004
   -937704.76848   -710821.40947  22348943.4474   22348948.8464   22348943.934
        49.0004         44.0004
  -6545880.99446  -5071014.71945  24894911.8954   24894918.9234   24894912.448
        40.0004         35.0004
   4885337.48348   3798227.77747  22620035.5194   22620043.8094   22620035.812
        48.0004         43.0004
 -15296631.92848 -11899473.78347  21483970.4894   21483974.3834   21483970.822
        52.0004         47.0004
 -11305637.43147  -8763553.39546  22654942.0874   22654948.0304   22654941.914
        46.0004         41.0004
 -11017985.80347  -8538578.25246  23451361.9454   23451368.2154   23451361.264
        46.0004         41.0004
  -5977119.83047  -4603654.36846  24012155.8234   24012162.0424   24012155.817
        46.0004         41.0004
 -22944514.33948 -17831393.67147  20952775.4264   20952780.7444   20952775.372
        52.0004         47.0004
 -17670590.43548 -13732640.37647  21165094.2304   21165098.9914   21165094.814
        51.0004         47.0004
 14  5 20  1 54  0.0000000  0 11G26G10G09G07G30G02G08G05G17G04G28
   1679805.70647   1328561.11446  24544186.9194   24544194.7384   24544187.218
        43.0004         39.0004
 -27294140.43748 -21262269.39148  20841121.7864   20841127.6484   20841122.406
        52.0004         48.0004
   -848262.56748   -641126.19247  22365963.8254   22365970.2864   22365963.967
        49.0004         44.0004
  -6444235.53646  -4991810.60945  24914254.1514   24914258.2064   24914254.804
        39.0004         34.0004
   4976142.88848   3868985.21347  22637315.3124   22637322.9064   22637314.677
        48.0004         43.0004
 -15295071.79848 -11898258.08647  21484267.3084   21484271.2624   21484267.737
        52.0004         47.0004
 -11201249.96647  -8682212.55446  22674805.4574   22674812.3644   22674806.491
        46.0004         41.0004
 -11112881.72547  -8612523.03247  23433303.7064   23433309.4444   23433303.440
        46.0004         42.0004
  -5975055.55647  -4602045.80446  24012548.2574   24012555.2694   24012547.831
        46.0004         41.0004
 -22890133.09648 -17789018.69547  20963124.1544   20963129.8284   20963123.709
        52.0004         47.0004
 -17691537.64448 -13748962.86147  21161108.7584   21161113.1694   21161108.893
        51.0004         47.0004
 14  5 20  1 54 30.0000000  0 11G26G10G09G07G30G02G08G05G17G04G28
   1687163.58547   1334294.58846  24545587.1554   24545595.0744   24545588.225
        43.0004         38.0004
 -27340295.74448 -21298234.54448  20832338.8404   20832344.2564   20832339.452
        52.0004         48.0004
   -758742.42548   -571370.25047  22383000.2264   22383004.0684   22382999.670
        49.0004         44.0004
  -6342725.78846  -4912712.24145  24933572.2044   24933581.4194   24933571.811
        39.0004         35.0004
   5067043.26048   3939816.64647  22654612.5854   22654620.7164   22654612.827
        48.0004         43.0004
 -15293110.88048 -11896730.08147  21484640.4904   21484644.3544   21484640.996
        52.0004         47.0004
 -11096755.47947  -8600788.30446  22694690.0214   22694697.9474   22694691.147
        46.0004         41.0004
 -11207778.12347  -8686468.18447  23415246.2154   23415251.7144   23415245.294
        46.0004         42.0004
  -5973220.86247  -4600616.14346  24012898.0614   24012904.3404   24012897.247
        46.0004         41.0004
 -22835427.28448 -17746390.80947  20973533.9734   20973539.5734   20973533.930
        52.0004         47.0004
 -17712027.87748 -13764929.25247  21157209.0264   21157213.9904   21157209.523
        51.0004         47.0004
 14  5 20  1 55  0.0000000  0 11G26G10G09G07G30G02G08G05G17G04G28
   1694341.47447   1339887.78146  24546954.2854   24546961.1604   24546953.370
        43.0004         38.0004
 -27386067.19848 -21333900.59048  20823628.9104   20823634.7864   20823629.430
        52.0004         48.0004
   -669147.73548   -501556.22147  22400048.6374   22400054.1304   22400048.980
        49.0004         44.0004
  -6241353.00146  -4833720.60945  24952864.3614   24952869.5684   24952862.502
        39.0004         35.0004
   5158035.21848   4010719.44847  22671928.0824   22671935.1204   22671928.255
        48.0004         43.0004
 -15290751.14348 -11894891.31347  21485090.2734   21485093.5264   21485090.225
        52.0004         47.0004
 -10992157.75547  -8519283.60446  22714594.9874   22714602.3824   22714595.427
        45.0004         41.0004
 -11302673.01747  -8760412.16447  23397187.6714   23397193.1694   23397187.439
        46.0004         42.0004
  -5971616.05947  -4599365.61346  24013203.7024   24013209.5294   24013202.965
        46.0004         41.0004
 -22780400.36348 -17703512.70847  20984005.4484   20984011.0574   20984005.268
        52.0004         47.0004
 -17732059.83148 -13780538.54547  21153397.2394   21153401.3754   21153397.439
        51.0004         47.0004
 14  5 20  1 55 30.0000000  0 11G26G10G09G07G30G02G08G05G17G04G28
   1701338.65647   1345340.19046  24548285.3384   24548291.6154   24548284.601
        43.0004         38.0004
 -27431451.15648 -21369264.69648  20814992.8884   20814998.2864   20814993.351
        52.0004         48.0004
   -579480.83048   -431685.91747  22417112.4294   22417117.2894   22417112.151
        49.0004         44.0004
  -6140118.98346  -4754837.13045  24972129.2164   24972132.8904   24972126.257
        40.0004         35.0004
   5249116.82348   4081692.10147  22689260.8014   22689268.1594   22689260.500
        48.0004         43.0004
 -15287993.32748 -11892742.34947  21485614.6534   21485618.1974   21485614.543
        52.0004         47.0004
 -10887459.60147  -8437700.66246  22734517.9554   22734524.5914   22734519.172
        45.0004         41.0004
 -11397562.90847  -8834352.24547  23379130.8234   23379136.3914   23379130.241
        46.0004         42.0004
  -5970239.62947  -4598293.03546  24013464.5734   24013471.2094   24013464.401
        46.0004         41.0004
 -22725054.02248 -17660385.70547  20994537.7274   20994542.9114   20994537.218
        52.0004         47.0004
 -17751630.19348 -13795788.15647  21149672.9754   21149677.2324   21149673.298
        51.0004         47.0004
 14  5 20  1 56  0.0000000  0 11G26G10G09G07G30G02G08G05G17G04G28
   1708155.55347   1350652.12646  24549582.9864   24549590.1124   24549581.536
        43.0004         38.0004
 -27476443.35348 -21404323.52948  20806431.0134   20806436.1684   20806431.181
        52.0004         48.0004
   -489742.81948   -361760.20647  22434188.5264   22434193.7144   22434188.397
        49.0004         44.0004
  -6039024.15246  -4676062.11445  24991365.5784   24991371.3554   24991365.339
        40.0004         35.0004
   5340287.05648   4152733.82847  22706608.7684   22706617.2144   22706609.580
        48.0004         43.0004
 -15284836.76048 -11890282.67447  21486215.0664   21486218.4904   21486215.499
        52.0004         47.0004
 -10782662.37147  -8356040.50346  22754460.3484   22754467.6574   22754461.236
        45.0004         41.0004
 -11492443.87047  -8908285.38447  23361075.7674   23361081.7974   23361074.478
        46.0004         42.0004
  -5969089.74747  -4597396.99646  24013683.7504   24013689.5214   24013683.241
        46.0004         41.0004
 -22669389.29148 -17617010.60647  21005130.4044   21005136.0784   21005129.920
        52.0004         47.0004
 -17770735.16448 -13810675.12347  21146037.4374   21146041.7074   21146037.635
        51.0004         47.0004
 14  5 20  1 56 30.0000000  0 11G26G10G09G07G30G02G08G05G17G04G28
   1714786.27647   1355818.97346  24550845.1714   24550851.4234   24550843.742
        43.0004         38.0004
 -27521045.27248 -21439078.25348  20797942.7514   20797948.5284   20797943.734
        52.0004         48.0004
   -399940.99648   -291784.77547  22451277.8344   22451282.7034   22451277.378
        49.0004         44.0004
  -5938074.94246  -4597400.54045  25010576.6014   25010584.7324   25010575.373
        40.0004         35.0004
   5431538.91847   4223839.14747  22723973.7094   22723982.2034   22723973.970
        47.0004         43.0004
 -15281287.11748 -11887516.69947  21486890.6414   21486893.7504   21486890.622
        52.0004         47.0004
 -10677773.41047  -8274308.86646  22774421.3614   22774427.7574   22774421.138
        45.0004         41.0004
 -11587317.31547  -8982212.67147  23343022.0544   23343027.7484   23343021.175
        46.0004         42.0004
  -5968169.91947  -4596680.21346  24013858.5324   24013865.0554   24013858.339
        46.0004         41.0004
 -22613413.31748 -17573392.98747  21015782.0814   21015788.2304   21015781.872
        52.0004         47.0004
 -17789377.15248 -13825201.32447  21142490.2414   21142494.9074   21142490.458
        51.0004         47.0004
 14  5 20  1 57  0.0000000  0 11G26G10G09G07G30G02G08G05G17G04G28
   1721232.95347   1360842.38746  24552070.7374   24552077.9934   24552071.662
        43.0004         38.0004
 -27565250.70348 -21473524.02848  20789531.0834   20789536.7434   20789531.501
        52.0004         48.0004
   -310074.35048   -221758.83347  22468379.1424   22468384.0094   22468378.767
        49.0004         44.0004
  -5837269.57246  -4518851.06045  25029758.2524   25029766.6964   25029757.283
        40.0004         35.0004
   5522873.20747   4295008.70047  22741353.8494   22741361.5504   22741354.151
        47.0004         43.0004
 -15277342.27848 -11884442.78947  21487641.4434   21487644.6154   21487641.783
        52.0004         47.0004
 -10572792.28747  -8192505.42646  22794397.0734   22794404.4094   22794398.226
        45.0004         41.0004
 -11682177.51347  -9056129.63047  23324970.6934   23324974.9434   23324970.143
        46.0004         42.0004
  -5967475.92547  -4596139.41146  24013991.1234   24013996.9264   24013990.268
        46.0004         41.0004
 -22557125.19148 -17529532.12947  21026493.8204   21026498.5594   21026493.486
        52.0004         47.0004
 -17807550.15848 -13839362.08847  21139032.0944   21139036.5044   21139031.754
        51.0004         47.0004
 14  5 20  1 57 30.0000000  0 11G26G10G09G07G30G02G08G05G17G04G28
   1727494.24347   1365721.34346  24553262.6044   24553267.8934   24553263.532
        42.0004         38.0004
 -27609057.02448 -21507658.80148  20781195.1764   20781200.9824   20781195.660
        52.0004         48.0004
   -220145.87648   -151684.70847  22485492.3634   22485496.5084   22485491.328
        49.0004         44.0004
  -5736609.83946  -4440415.04345  25048915.1734   25048919.0084   25048913.106
        40.0004         35.0004
   5614287.30347   4366240.43347  22758749.6664   22758758.2714   22758749.893
        47.0004         43.0004
 -15273003.71448 -11881062.07647  21488466.9044   21488470.0054   21488467.083
        52.0004         47.0004
 -10467722.17647  -8110632.63946  22814391.8094   22814398.9714   22814392.146
        45.0004         40.0004
 -11777021.73947  -9130034.14547  23306922.1924   23306927.1544   23306921.146
        46.0004         42.0004
  -5967006.97047  -4595773.96846  24014079.8394   24014086.6214   24014079.546
        46.0004         41.0004
 -22500527.61248 -17485430.13347  21037263.5334   21037269.4214   21037263.502
        52.0004         47.0004
 -17825252.15648 -13853155.83647  21135663.0714   21135667.5134   21135663.372
        51.0004         47.0004
 14  5 20  1 58  0.0000000  0 11G26G10G09G07G30G02G08G05G17G04G28
   1733565.48647   1370452.24846  24554418.3574   24554423.8044   24554417.256
        43.0004         38.0004
 -27652464.84548 -21541483.05848  20772934.9024   20772940.1254   20772935.374
        52.0004         48.0004
   -130161.68348    -81567.17547  22502615.7864   22502618.8554   22502614.676
        49.0004         44.0004
  -5636101.26146  -4362096.83345  25068039.7144   25068048.0254   25068038.454
        40.0004         35.0004
   5705775.21747   4437529.69847  22776158.8344   22776166.7174   22776159.418
        47.0004         43.0004
 -15268276.14348 -11877378.23747  21489366.5744   21489369.6594   21489367.077
        52.0004         47.0004
 -10362569.49247  -8028695.51246  22834402.7504   22834408.1834   22834402.417
        45.0004         41.0004
 -11871850.87947  -9203926.90347  23288876.5304   23288882.3224   23288875.881
        47.0004         42.0004
  -5966765.98647  -4595586.15446  24014126.3154   24014132.1974   24014125.106
        46.0004         41.0004
 -22443626.67548 -17441091.76247  21048091.3984   21048097.4184   21048091.321
        52.0004         47.0004
 -17842484.50648 -13866583.62147  21132383.2574   21132388.7114   21132384.164
        51.0004         47.0004
 14  5 20  1 58 30.0000000  0 11G26G10G09G07G30G02G08G05G17G04G28
   1739448.43547   1375036.42546  24555537.0704   24555544.1844   24555536.508
        43.0004         38.0004
 -27695468.43348 -21574992.32648  20764751.3524   20764756.8934   20764752.118
        52.0004         48.0004
    -40121.52948    -11406.02747  22519749.2034   22519754.0634   22519748.836
        49.0004         44.0004
  -5535742.38046  -4283895.27945  25087138.8284   25087142.7064   25087136.798
        40.0004         35.0004
   5797337.37247   4508876.80847  22793583.4164   22793590.3974   22793583.179
        47.0004         43.0004
 -15263157.83148 -11873389.93347  21490340.3694   21490343.4464   21490340.488
        52.0004         47.0004
 -10257334.10347  -7946693.93946  22854427.8114   22854435.0954   22854428.712
        45.0004         41.0004
 -11966659.36047  -9277803.55447  23270834.9984   23270840.0004   23270834.868
        47.0004         42.0004
  -5966748.82747  -4595572.76146  24014129.2054   24014134.7164   24014128.755
        46.0004         41.0004
 -22386422.05148 -17396516.75547  21058977.2344   21058982.5234   21058976.626
        52.0004         47.0004
 -17859241.77648 -13879641.21747  21129195.0984   21129199.8314   21129195.502
        51.0004         47.0004
