     2.11           OBSERVATION DATA    G (GPS)             RINEX VERSION / TYPE
teqc  2008Oct2      gpsops              20090107 00:09:50UTCPGM / RUN BY / DATE
    30.0000                                                 INTERVAL
     1     1                                                WAVELENGTH FACT L1/2
     7    L1    L2    P1    P2    C1    S1    S2            # / TYPES OF OBSERV
Linux 2.4.20-8|Pentium IV|gcc -static|Linux|486/DX+         COMMENT
     2.10           OBSERVATION DATA    GPS                 COMMENT
soc2rnx ver 1.20    gpsops               7-Jan-2009 00:09:44COMMENT
S1, if present, is the SNR for the C/A data stream on L1.   COMMENT
 SNR is mapped to RINEX snr flag value [1,4-9]              COMMENT
    SNR:   >316  >100  >31.6  >10  >3.2    >0 bad=0         COMMENT
L1 & L2:      9     8     7     6     5     4     1         COMMENT
                                                            COMMENT
This data is provided as a public service by NASA/JPL.      COMMENT
No warranty is expressed or implied regarding suitability   COMMENT
for use.  For further information, contact:                 COMMENT
Dave Stowers, NASA/JPL m/s 238-600                          COMMENT
4800 Oak Grove Drive, Pasadena CA 91109 USA                 COMMENT
                                                            COMMENT
Forced Modulo Decimation to 30 seconds                      COMMENT
  2009     1     6     0     0    0.0000000     GPS         TIME OF FIRST OBS
GGN                 JPL                                     OBSERVER / AGENCY
CR519992104         ASH701945B_M    SCIT                    ANT # / TYPE
   -33801.4662 -6377516.5323   -82154.3508                  APPROX POSITION XYZ
        0.0083        0.0000        0.0000                  ANTENNA: DELTA H/E/N
ZR220013847         ASHTECH UZ-12       CQ00                REC # / TYPE / VERS
GLPS                                                        MARKER NAME
42005M002                                                   MARKER NUMBER
                                                            END OF HEADER
 09  1  6  0  0  0.0000000  0 10G21G22G18G30G24G14G 5G29G12G 9
 112559902.62647  87709002.69147  21419445.7944   21419447.7384   21419446.2504
        53.000          46.000
 128194104.37547  99891498.44847  24394535.4244   24394536.8584   24394535.9104
        44.000          37.000
 124873251.44947  97303801.91947  23762612.7934   23762616.5594   23762613.8044
        45.000          39.000
 123994640.15947  96619177.22547  23595413.7074   23595418.7234   23595413.1864
        46.000          40.000
 112244783.32847  87463434.13747  21359500.4784   21359504.1194   21359500.0914
        53.000          47.000
 116308619.28347  90630088.83247  22132795.6374   22132800.1404   22132795.1124
        50.000          44.000
 125495677.70847  97788809.92747  23881056.6944   23881061.6144   23881056.6484
        46.000          39.000
 111583421.10347  86948112.48647  21233621.5214   21233625.3324   21233621.5864
        53.000          48.000
 127976979.92747  99722301.56747  24353225.6304   24353230.2314   24353224.9034
        43.000          38.000
 113031681.11847  88076621.09947  21509222.6584   21509226.8564   21509223.2474
        52.000          46.000
 09  1  6  0  0 30.0000000  0 10G21G22G18G30G24G14G 5G29G12G 9
 112481662.09047  87648036.04247  21404557.3064   21404559.1934   21404557.6974
        53.000          46.000
 128189966.03647  99888273.87447  24393748.4154   24393749.5754   24393748.4124
        44.000          38.000
 124869511.89847  97300888.00647  23761901.7124   23761904.7314   23761902.0214
        46.000          39.000
 123988269.96547  96614213.46847  23594201.2734   23594206.0044   23594200.9264
        46.000          40.000
 112238254.10047  87458346.44247  21358257.4014   21358261.8824   21358257.5774
        53.000          47.000
 116277053.58447  90605492.24847  22126788.8954   22126792.5144   22126789.2444
        50.000          44.000
 125488574.11447  97783274.70647  23879704.6864   23879709.8334   23879705.0764
        46.000          39.000
 111644820.78547  86995956.39447  21245305.7154   21245309.2034   21245305.5264
        53.000          48.000
 127984420.19347  99728099.23547  24354641.0524   24354646.1764   24354640.6754
        43.000          38.000
 113052465.69547  88092816.90147  21513178.2484   21513182.0774   21513178.3404
        52.000          46.000
 09  1  6  0  1  0.0000000  0 10G21G22G18G30G24G14G 5G29G12G 9
 112403643.64647  87587242.45547  21389710.7004   21389712.7674   21389710.9674
        53.000          46.000
 128185676.70847  99884931.59047  24392931.4114   24392933.7504   24392931.4414
        43.000          37.000
 124865554.22747  97297804.13847  23761148.8194   23761151.4154   23761149.4224
        46.000          39.000
 123981683.41947  96609081.13447  23592947.8544   23592952.7794   23592947.4264
        47.000          40.000
 112232140.67847  87453582.74147  21357094.1474   21357098.5924   21357094.3404
        53.000          47.000
 116245966.56547  90581268.65247  22120872.9324   22120877.0224   22120873.1414
        50.000          44.000
 125481322.91647  97777624.44347  23878324.6464   23878330.3144   23878325.0764
        45.000          39.000
 111706500.21847  87044018.30147  21257042.9484   21257046.5214   21257042.5694
        53.000          48.000
 127991721.10047  99733788.32447  24356030.8344   24356035.5424   24356030.8164
        42.000          37.000
 113073777.91747  88109423.84947  21517233.8144   21517237.6034   21517233.9014
        52.000          46.000
 09  1  6  0  1 30.0000000  0 10G21G22G18G30G24G14G 5G29G12G 9
 112325848.70647  87526623.03147  21374906.8274   21374908.7944   21374907.1974
        53.000          46.000
 128181233.39247  99881469.33347  24392086.5524   24392088.0154   24392086.5654
        45.000          38.000
 124861376.61647  97294548.89347  23760353.6934   23760356.5214   23760354.1354
        45.000          39.000
 123974879.30447  96603779.26147  23591653.0434   23591658.0924   23591652.6234
        47.000          40.000
 112226442.77747  87449142.82047  21356010.0234   21356014.1154   21356010.0764
        53.000          47.000
 116215356.27947  90557416.53947  22115048.2284   22115051.6194   22115048.5974
        50.000          44.000
 125473923.59547  97771858.76447  23876916.6594   23876921.8254   23876916.8834
        46.000          39.000
 111768454.85047  87092294.64747  21268832.5014   21268836.2194   21268832.1154
        53.000          48.000
 127998881.84447  99739368.18947  24357393.0014   24357398.1814   24357393.5614
        42.000          37.000
 113095616.62047  88126441.04847  21521389.6364   21521393.0974   21521389.7764
        52.000          46.000
 09  1  6  0  2  0.0000000  0 10G21G22G18G30G24G14G 5G29G12G 9
 112248285.36847  87466184.08747  21360146.9834   21360149.2914   21360147.3834
        53.000          46.000
 128176639.91247  99877890.06647  24391212.3764   24391213.5564   24391212.5034
        45.000          38.000
 124856983.42947  97291125.65447  23759517.2694   23759520.2574   23759517.7454
        45.000          39.000
 123967863.20647  96598312.21147  23590317.8554   23590322.7794   23590317.7474
        46.000          40.000
 112221166.89047  87445031.74147  21355005.9774   21355010.4324   21355006.2094
        53.000          47.000
 116185227.85747  90533939.90447  22109314.9194   22109318.3134   22109315.0024
        49.000          44.000
 125466382.52247  97765982.65647  23875481.5834   23875486.5784   23875482.2124
        45.000          39.000
 111830687.00747  87140787.23647  21280674.8304   21280678.5214   21280674.6684
        53.000          48.000
 128005908.77247  99744843.78247  24358730.8174   24358734.9014   24358730.3644
        43.000          38.000
 113117987.22247  88143872.71247  21525646.5334   21525650.3174   21525646.5474
        52.000          46.000
 09  1  6  0  2 30.0000000  0 10G21G22G18G30G24G14G 5G29G12G 9
 112170950.42947  87405923.12247  21345430.4564   21345432.6924   21345430.8504
        53.000          46.000
 128171888.70947  99874187.89247  24390308.6654   24390309.1724   24390308.1324
        45.000          37.000
 124852368.22947  97287529.43447  23758639.2434   23758642.4264   23758639.2544
        46.000          39.000
 123960629.06047  96592675.26347  23588941.2774   23588946.0204   23588941.2124
        47.000          40.000
 112216308.15747  87441245.72147  21354081.2644   21354085.7744   21354081.3704
        53.000          47.000
 116155574.67747  90510833.58647  22103672.1494   22103675.5884   22103672.2054
        50.000          44.000
 125458694.83847  97759992.27347  23874018.1544   23874023.9594   23874018.4874
        45.000          39.000
 111893187.82047  87189489.16847  21292568.4144   21292571.8794   21292568.1994
        53.000          48.000
 128012797.29947  99750211.54347  24360040.9434   24360045.6534   24360040.6904
        43.000          38.000
 113140883.89247  88161714.31147  21530003.8254   21530007.3014   21530004.0214
        52.000          46.000
 09  1  6  0  3  0.0000000  0 11G21G22G18G30G24G14G 5G29G12G31G 9
 112093850.95447  87345845.61947  21330758.9384   21330761.1014   21330759.3034
        53.000          46.000
 128166982.35747  99870364.80847  24389374.5344   24389375.3034   24389374.8114
        44.000          37.000
 124847534.60247  97283762.97747  23757719.8484   23757722.2844   23757720.8054
        45.000          39.000
 123953181.25847  96586871.82947  23587523.9434   23587528.8934   23587524.0544
        47.000          40.000
 112211871.94547  87437788.93847  21353236.9804   21353241.5064   21353237.0254
        53.000          47.000
 116126400.44947  90488100.47847  22098120.0684   22098123.8904   22098120.4214
        49.000          44.000
 125450865.62247  97753891.60747  23872528.4224   23872533.9734   23872529.3634
        46.000          39.000
 111955958.28147  87238401.21847  21304513.1314   21304516.5284   21304512.7014
        52.000          48.000
 128019552.21047  99755475.16547  24361326.5194   24361331.0494   24361326.1134
        43.000          38.000
 142214485.54257  93024245.35057  25159602.9095   25159609.5585   25159601.4755
        40.000          35.000
 113164310.82447  88179969.09447  21534461.8414   21534465.4404   21534461.9384
        52.000          46.000
 09  1  6  0  3 30.0000000  0 11G21G22G18G30G24G14G 5G29G12G31G 9
 112016989.47247  87285953.55947  21316132.7504   21316134.7474   21316133.1674
        53.000          46.000
 128161919.17247  99866419.51347  24388410.8704   24388412.7394   24388410.9924
        42.000          37.000
 124842482.12847  97279826.01447  23756758.2494   23756761.0814   23756758.7134
        45.000          39.000
 123945519.88647  96580901.97347  23586066.0204   23586070.5274   23586065.3354
        46.000          40.000
 112207859.08847  87434662.04447  21352473.2664   21352477.9884   21352473.4394
        53.000          47.000
 116097704.92647  90465740.37947  22092659.7644   22092663.1724   22092659.8394
        50.000          44.000
 125442895.70547  97747681.31047  23871011.9704   23871017.4544   23871012.3814
        45.000          39.000
 112018994.87347  87287520.64347  21316508.7654   21316512.0574   21316508.5704
        53.000          48.000
 128026174.52247  99760635.45547  24362586.9024   24362591.3164   24362587.0514
        43.000          38.000
 142114420.68147  92946272.84047  25140561.1634   25140567.3054   25140560.3204
        41.000          36.000
 113188267.77647  88198636.88347  21539020.6464   21539024.3884   21539020.8204
        52.000          46.000
 09  1  6  0  4  0.0000000  0 11G21G22G18G30G24G14G 5G29G12G31G 9
 111940368.61447  87226249.01347  21301552.0564   21301554.5584   21301552.6214
        53.000          46.000
 128156697.23447  99862350.52247  24387417.1784   24387418.5284   24387417.2224
        43.000          37.000
 124837209.23347  97275717.28747  23755754.5274   23755757.5364   23755755.0954
        45.000          39.000
 123937644.55447  96574765.39147  23584567.0854   23584571.7934   23584566.0964
        46.000          40.000
 112204270.40747  87431865.67147  21351790.4264   21351795.0424   21351790.5854
        53.000          47.000
 116069487.12047  90443752.52347  22087290.0434   22087293.4434   22087290.3504
        50.000          44.000
 125434785.69047  97741361.85247  23869468.5814   23869474.5564   23869468.8844
        45.000          39.000
 112082294.26747  87336844.84947  21328554.2894   21328557.5434   21328553.9864
        53.000          48.000
 128032664.60347  99765692.72647  24363821.3624   24363826.8454   24363821.0964
        42.000          38.000
 142014227.36347  92868200.22747  25121494.8394   25121501.3064   25121494.0194
        40.000          36.000
 113212754.25847  88217717.28947  21543680.2044   21543683.8794   21543680.3914
        52.000          46.000
 09  1  6  0  4 30.0000000  0 11G21G22G18G30G24G14G 5G29G12G31G 9
 111863993.76547  87166736.15847  21287018.4304   21287020.9594   21287018.6254
        53.000          47.000
 128151317.46647  99858158.57047  24386393.0864   24386393.7214   24386393.2764
        43.000          37.000
 124831717.79047  97271438.25547  23754709.7524   23754712.5224   23754710.3454
        46.000          39.000
 123929557.92347  96568464.18047  23583028.2874   23583033.0114   23583027.4994
        46.000          40.000
 112201109.33347  87429402.49447  21351189.0424   21351193.5924   21351189.1584
        53.000          47.000
 116041749.00747  90422138.46147  22082011.3754   22082015.0164   22082011.7124
        50.000          44.000
 125426538.97647  97734935.90247  23867899.0074   23867905.4854   23867899.6974
        45.000          40.000
 112145855.81447  87386373.32947  21340649.5114   21340652.9414   21340649.2274
        53.000          47.000
 128039026.02247  99770649.76147  24365031.5314   24365036.9704   24365031.7044
        43.000          38.000
 141913909.57547  92790030.62847  25102404.7784   25102410.3614   25102403.9014
        41.000          36.000
 113237772.98447  88237212.43347  21548440.8284   21548444.6154   21548440.9564
        52.000          46.000
 09  1  6  0  5  0.0000000  0 11G21G22G18G30G24G14G 5G29G12G31G 9
 111787865.17747  87107415.19847  21272531.8724   21272534.0254   21272532.3304
        53.000          47.000
 128145776.05547  99853840.62247  24385338.7934   24385340.3144   24385338.7164
        42.000          37.000
 124826005.11347  97266986.85247  23753622.6244   23753625.0684   23753623.0804
        45.000          39.000
 123921257.88347  96561996.68347  23581448.6354   23581453.4544   23581448.6074
        47.000          40.000
 112198374.78647  87427271.67747  21350668.4494   21350673.2004   21350668.5504
        53.000          47.000
 116014487.51347  90400895.78247  22076823.5744   22076827.2354   22076823.7554
        50.000          44.000
 125418154.42847  97728402.51647  23866303.5874   23866310.0814   23866304.1154
        46.000          39.000
 112209674.38047  87436102.09247  21352793.8054   21352797.0884   21352793.6694
        53.000          47.000
 128045257.67147  99775505.67247  24366217.9234   24366223.5744   24366217.5734
        43.000          38.000
 141813467.30147  92711764.01347  25083291.5314   25083297.5604   25083289.6534
        39.000          35.000
 113263321.36847  88257120.30047  21553302.3034   21553306.3754   21553302.2494
        52.000          46.000
 09  1  6  0  5 30.0000000  0 11G21G22G18G30G24G14G 5G29G12G31G 9
 111711986.85047  87048289.24547  21258092.6834   21258094.7834   21258092.9674
        53.000          47.000
 128140072.23047  99849396.12047  24384252.8984   24384255.0474   24384252.7194
        41.000          37.000
 124820071.85347  97262363.57447  23752493.7134   23752496.0034   23752494.2214
        46.000          39.000
 123912745.97247  96555364.08547  23579829.2134   23579833.4574   23579829.3054
        47.000          40.000
 112196068.72347  87425474.74747  21350229.7774   21350234.5304   21350229.8854
        53.000          47.000
 115987703.41347  90380025.10847  22071727.2464   22071730.5574   22071727.6184
        50.000          44.000
 125409634.18247  97721763.42647  23864682.3554   23864688.5504   23864682.8924
        45.000          39.000
 112273747.72647  87486029.39047  21364986.4924   21364989.7544   21364986.1254
        52.000          47.000
 128051362.38647  99780262.69047  24367380.0024   24367384.3034   24367379.3284
        43.000          39.000
 141712903.22247  92633402.44347  25064154.7294   25064159.6334   25064152.5814
        38.000          35.000
 113289400.78747  88277441.95047  21558265.1794   21558269.1204   21558265.1424
        52.000          46.000
 09  1  6  0  6  0.0000000  0 11G21G22G18G30G24G14G 5G29G12G31G 9
 111636361.82747  86989360.66947  21243701.7214   21243703.7934   21243701.9304
        53.000          47.000
 128134205.00547  99844824.30547  24383136.8354   24383138.1494   24383136.4544
        42.000          37.000
 124813917.66847  97257568.09847  23751322.5884   23751325.0324   23751322.7744
        46.000          39.000
 123904022.62747  96548566.72747  23578169.6244   23578173.6644   23578169.5064
        47.000          40.000
 112194192.35147  87424012.64047  21349872.6494   21349877.3244   21349872.7194
        53.000          47.000
 115961396.26347  90359526.06347  22066720.7964   22066724.3614   22066720.8534
        50.000          44.000
 125400979.40347  97715019.47447  23863035.4774   23863040.8214   23863035.7334
        45.000          39.000
 112338072.88247  87536152.89647  21377227.0084   21377230.5764   21377226.6464
        53.000          47.000
 128057340.06947  99784920.69147  24368517.5744   24368521.6884   24368517.3644
        44.000          38.000
 141612218.96647  92554947.22747  25044995.0694   25045000.8864   25044992.0994
        39.000          35.000
 113316011.28847  88298177.43147  21563329.0894   21563332.5554   21563329.3214
        52.000          46.000
 09  1  6  0  6 30.0000000  0 11G21G22G18G30G24G14G 5G29G12G31G 9
 111560994.33347  86930632.76747  21229359.7784   21229361.8434   21229360.1654
        53.000          47.000
 128128174.37747  99840125.17347  24381988.8164   24381990.6254   24381988.6984
        42.000          37.000
 124807543.41547  97252601.19547  23750109.8874   23750111.4504   23750110.1974
        46.000          39.000
 123895089.21647  96541605.67747  23576469.3044   23576473.6474   23576469.4744
        47.000          40.000
 112192748.10647  87422887.25547  21349597.8414   21349602.4594   21349597.9564
        53.000          47.000
 115935566.92747  90339399.34747  22061805.6074   22061808.9004   22061805.7934
        50.000          44.000
 125392192.37347  97708172.47647  23861363.5504   23861368.8304   23861364.0264
        45.000          39.000
 112402648.03247  87586471.20747  21389515.5744   21389518.7624   21389515.3304
        53.000          48.000
 128063193.05947  99789481.55047  24369630.5654   24369635.6054   24369630.4364
        42.000          38.000
 141511417.51047  92476400.66547  25025813.1134   25025819.0504   25025810.6214
        40.000          35.000
 113343153.84147  88319327.50147  21568494.1334   21568497.9814   21568494.1544
        52.000          46.000
 09  1  6  0  7  0.0000000  0 11G21G22G18G30G24G14G 5G29G12G31G 9
 111485887.84547  86872108.25847  21215067.5694   21215069.5854   21215068.0044
        53.000          47.000
 128121979.37547  99835297.95047  24380810.7944   24380811.5484   24380810.3744
        42.000          37.000
 124800949.15647  97247462.85047  23748854.9394   23748857.0924   23748855.3064
        46.000          39.000
 123885946.65047  96534481.66047  23574729.3654   23574733.6084   23574729.2934
        47.000          40.000
 112191737.59947  87422099.85247  21349405.4584   21349410.0904   21349405.6104
        53.000          47.000
 115910215.26347  90319644.83647  22056981.0804   22056984.7754   22056981.2434
        50.000          44.000
 125383275.10247  97701223.99247  23859666.1994   23859672.1124   23859666.3704
        45.000          39.000
 112467470.89947  87636982.54447  21401851.0954   21401854.1674   21401850.9064
        53.000          47.000
 128068923.67247  99793947.07247  24370721.3144   24370725.9774   24370720.5674
        43.000          38.000
 141410501.68147  92397764.97947  25006609.2094   25006615.5244   25006607.4334
        40.000          36.000
 113370828.72947  88340892.38047  21573760.4584   21573764.0644   21573760.5554
        52.000          46.000
 09  1  6  0  7 30.0000000  0 11G21G22G18G30G24G14G 5G29G12G31G 9
 111411041.82147  86813786.70147  21200824.9014   21200826.8174   21200825.3734
        54.000          47.000
 128115615.67747  99830339.28947  24379599.6164   24379600.5304   24379599.2774
        43.000          37.000
 124794131.03447  97242150.07347  23747557.5904   23747559.6214   23747557.7074
        46.000          39.000
 123876591.88847  96527192.28547  23572948.8914   23572953.4064   23572948.3814
        47.000          40.000
 112191158.35147  87421648.49147  21349295.5774   21349299.8914   21349295.7344
        53.000          47.000
 115885337.45147  90300259.57147  22052247.2524   22052250.6054   22052247.4754
        50.000          44.000
 125374225.16747  97694172.12847  23857943.8174   23857950.4244   23857944.2294
        45.000          39.000
 112532534.85547  87687681.74147  21414232.1574   21414235.3634   21414231.9144
        52.000          47.000
 128074529.65347  99798315.44947  24371788.0164   24371792.9984   24371787.3364
        44.000          38.000
 141309469.77147  92319038.89247  24987383.1544   24987389.8444   24987381.6814
        40.000          36.000
 113399032.61247  88362869.45347  21579127.5124   21579131.0484   21579127.6814
        52.000          46.000
 09  1  6  0  8  0.0000000  0 11G21G22G18G30G24G14G 5G29G12G31G 9
 111336464.17747  86755674.26647  21186633.0754   21186635.0694   21186633.4654
        53.000          47.000
 128109085.83247  99825251.14347  24378356.7624   24378358.5094   24378357.0594
        43.000          38.000
 124787093.65247  97236666.41847  23746218.1714   23746220.1204   23746218.3854
        46.000          39.000
 123867030.19347  96519741.67747  23571129.2414   23571134.4574   23571128.4874
        47.000          41.000
 112191016.62547  87421538.06547  21349268.3904   21349273.0444   21349268.5564
        53.000          47.000
 115860937.66747  90281246.78647  22047603.9824   22047607.4514   22047604.2444
        50.000          44.000
 125365048.79747  97687021.76147  23856197.3234   23856203.7034   23856197.9074
        45.000          39.000
 112597841.81847  87738570.29047  21426659.6004   21426662.8624   21426659.1324
        52.000          47.000
 128080017.18147  99802591.50447  24372832.8584   24372836.9014   24372832.5784
        44.000          39.000
 141208328.34847  92240227.43547  24968136.8984   24968143.6434   24968135.8994
        41.000          36.000
 113427770.33447  88385262.50747  21584596.3334   21584600.0804   21584596.4514
        52.000          46.000
 09  1  6  0  8 30.0000000  0 11G21G22G18G30G24G14G 5G29G12G31G 9
 111262154.70447  86697770.79647  21172492.4534   21172494.5934   21172492.7924
        53.000          47.000
 128102386.12147  99820030.66947  24377081.6624   24377082.7264   24377081.9164
        43.000          37.000
 124779833.84547  97231009.46147  23744836.6264   23744839.1214   23744837.1844
        47.000          39.000
 123857258.67447  96512127.54147  23569270.2044   23569274.9944   23569269.7064
        47.000          41.000
 112191310.50647  87421767.07247  21349324.3814   21349328.7854   21349324.5084
        53.000          47.000
 115837012.56347  90262603.87647  22043051.2614   22043054.9734   22043051.6394
        50.000          44.000
 125355744.25747  97679771.50847  23854426.9034   23854432.7554   23854427.2074
        45.000          39.000
 112663386.30747  87789643.91747  21439132.2424   21439135.5734   21439132.1144
        52.000          47.000
 128085384.36447  99806773.79247  24373853.8104   24373858.3614   24373853.6524
        44.000          39.000
 141107076.44647  92161329.93447  24948869.7294   24948874.5734   24948868.7434
        40.000          36.000
 113457039.12147  88408069.38047  21590165.7504   21590169.4054   21590165.7894
        52.000          46.000
 09  1  6  0  9  0.0000000  0 11G21G22G18G30G24G14G 5G29G12G31G 9
 111188117.29847  86640079.32747  21158403.4854   21158405.6664   21158403.9584
        54.000          47.000
 128095515.89647  99814677.29147  24375773.8704   24375775.4184   24375773.6864
        43.000          37.000
 124772351.70147  97225179.26647  23743412.7144   23743415.0694   23743413.1224
        47.000          39.000
 123847278.76047  96504351.02047  23567371.2004   23567376.0044   23567370.8734
        47.000          41.000
 112192041.30247  87422336.53147  21349463.6204   21349467.7174   21349463.8184
        53.000          47.000
 115813562.23547  90244330.92747  22038588.9104   22038592.1774   22038589.1994
        50.000          44.000
 125346313.40047  97672422.83147  23852632.3104   23852638.2504   23852633.1644
        45.000          39.000
 112729165.85047  87840900.71147  21451649.5444   21451652.9094   21451649.0644
        52.000          47.000
 128090632.92947  99810863.65947  24374852.0834   24374856.5414   24374851.6794
        43.000          38.000
 141005717.12347  92082348.70247  24929581.5984   24929587.6054   24929581.0914
        42.000          36.000
 113486839.22247  88431290.25447  21595836.2254   21595840.1224   21595836.2944
        52.000          46.000
 09  1  6  0  9 30.0000000  0 11G21G22G18G30G24G14G 5G29G12G31G 9
 111114356.16547  86582603.14447  21144367.1344   21144369.5364   21144367.5004
        53.000          47.000
 128088474.97147  99809190.90247  24374434.5354   24374435.6134   24374434.4784
        43.000          37.000
 124764648.52747  97219176.82447  23741946.5844   23741949.2104   23741947.2284
        46.000          39.000
 123837092.43247  96496413.67447  23565432.3514   23565437.5044   23565432.1314
        47.000          41.000
 112193211.54347  87423248.42747  21349686.1054   21349690.5854   21349686.2464
        53.000          47.000
 115790587.59647  90226428.64447  22034216.6564   22034220.3474   22034216.8214
        50.000          44.000
 125336758.94947  97664977.87747  23850814.2254   23850820.0524   23850815.0074
        46.000          39.000
 112795178.51147  87892339.15947  21464211.4514   21464214.7884   21464211.2644
        52.000          47.000
 128095765.58947  99814863.17847  24375829.0344   24375833.6274   24375828.5624
        44.000          38.000
 140904253.49647  92003286.19147  24910273.6614   24910278.7594   24910273.4234
        42.000          36.000
 113517171.82747  88454926.07047  21601608.2684   21601612.2024   21601608.4544
        52.000          46.000
 09  1  6  0 10  0.0000000  0 11G21G22G18G30G24G14G 5G29G12G31G 9
 111040872.71047  86525343.33347  21130383.6344   21130386.1004   21130383.9524
        53.000          47.000
 128081260.62047  99803569.37047  24373061.6334   24373062.8664   24373061.5234
        43.000          37.000
 124756722.24647  97213000.53947  23740438.2854   23740440.6914   23740438.5124
        46.000          39.000
 123826698.44947  96488314.50347  23563453.9704   23563459.5784   23563454.3934
        47.000          41.000
 112194820.64247  87424502.28247  21349992.3774   21349996.7054   21349992.5444
        53.000          47.000
 115768086.16947  90208895.09747  22029934.9874   22029938.3974   22029935.3304
        50.000          44.000
 125327080.50547  97657436.30047  23848972.2274   23848978.8004   23848972.8434
        45.000          39.000
 112861419.82447  87943955.77247  21476816.9364   21476820.2104   21476816.7794
        52.000          47.000
 128100782.17447  99818772.25847  24376784.1464   24376788.1414   24376783.6584
        44.000          38.000
 140802685.40447  91924142.27647  24890945.4644   24890951.1464   24890945.1654
        42.000          36.000
 113548035.16547  88478975.44147  21607481.4984   21607485.1954   21607481.5894
        52.000          46.000
 09  1  6  0 10 30.0000000  0 11G21G22G18G30G24G14G 5G29G12G31G 9
 110967671.53847  86468303.47047  21116454.1084   21116456.3344   21116454.3694
        54.000          47.000
 128073872.97747  99797812.81047  24371656.5024   24371656.8544   24371656.3424
        44.000          38.000
 124748574.29147  97206651.51547  23738887.6974   23738890.5514   23738888.0964
        46.000          39.000
 123816099.03047  96480055.26847  23561437.4934   23561442.6724   23561437.9584
        47.000          41.000
 112196871.34547  87426100.25147  21350382.5324   21350387.1114   21350382.4904
        53.000          47.000
 115746059.15447  90191731.22647  22025743.0294   22025746.4314   22025743.2254
        49.000          44.000
 125317280.82547  97649800.23247  23847107.4024   23847113.2464   23847107.5454
        45.000          39.000
 112927888.42347  87995749.49447  21489465.4684   21489468.8894   21489465.0844
        52.000          47.000
 128105685.53247  99822593.09247  24377716.7364   24377721.3424   24377716.5124
        44.000          38.000
 140701016.48847  91844919.79447  24871598.5244   24871603.9914   24871598.3394
        41.000          36.000
 113579430.51947  88503439.37747  21613455.8464   21613459.6034   21613456.0024
        52.000          46.000
 09  1  6  0 11  0.0000000  0 11G21G22G18G30G24G14G 5G29G12G31G 9
 110894757.63647  86411487.45047  21102579.2394   21102581.1014   21102579.6294
        54.000          47.000
 128066312.99947  99791921.97847  24370216.9994   24370218.3614   24370217.2654
        43.000          38.000
 124740206.65547  97200131.32247  23737295.3234   23737297.9064   23737295.8014
        46.000          39.000
 123805296.50447  96471637.75047  23559381.8474   23559386.9374   23559381.7414
        47.000          41.000
 112199366.82947  87428044.79747  21350857.3884   21350861.7144   21350857.5174
        54.000          47.000
 115724507.99047  90174938.13347  22021641.9504   22021645.8354   22021641.9154
        50.000          44.000
 125307363.41247  97642072.44747  23845220.0694   23845226.3474   23845220.5234
        45.000          39.000
 112994583.48047  88047719.68747  21502157.0144   21502160.5594   21502156.6624
        52.000          47.000
 128110478.90447  99826328.20547  24378628.9174   24378633.3944   24378628.9654
        44.000          38.000
 140599251.22447  91765622.26047  24852232.1964   24852238.3494   24852232.6384
        43.000          36.000
 113611359.86347  88528319.40547  21619531.8634   21619535.3904   21619531.8424
        52.000          46.000
 09  1  6  0 11 30.0000000  0 11G21G22G18G30G24G14G 5G29G12G31G 9
 110822129.66747  86354894.23447  21088758.6194   21088760.3264   21088758.9904
        54.000          47.000
 128058575.33647  99785892.68447  24368744.1564   24368746.2644   24368744.1644
        43.000          38.000
 124731614.40047  97193436.09947  23735660.2904   23735663.0034   23735660.9084
        46.000          39.000
 123794287.07347  96463058.99947  23557286.8314   23557291.6394   23557286.3134
        47.000          40.000
 112202303.39247  87430333.04947  21351416.2904   21351420.4614   21351416.4434
        53.000          47.000
 115703427.48247  90158511.80047  22017630.3744   22017634.0164   22017630.7464
        50.000          44.000
 125297325.34547  97634250.63347  23843309.8644   23843315.7634   23843310.5844
        45.000          39.000
 113061497.75147  88099860.68447  21514890.3654   21514893.8264   21514890.3904
        52.000          47.000
 128115159.19147  99829975.21847  24379518.7484   24379523.8294   24379518.6904
        43.000          38.000
 140497387.04147  91686247.62347  24832848.3524   24832854.3194   24832848.0714
        40.000          36.000
 113643818.68947  88553612.02047  21625708.5764   21625712.2654   21625708.7744
        52.000          46.000
 09  1  6  0 12  0.0000000  0 11G21G22G18G30G24G14G 5G29G12G31G 9
 110749791.49547  86298526.84447  21074992.9634   21074994.8314   21074993.3214
        54.000          47.000
 128050659.66547  99779724.67747  24367238.5384   24367239.8854   24367238.2454
        44.000          38.000
 124722798.37147  97186566.49847  23733982.4414   23733985.1884   23733982.7994
        46.000          39.000
 123783072.41647  96454320.33347  23555152.6914   23555157.5774   23555152.4324
        47.000          41.000
 112205683.10347  87432966.60147  21352059.3014   21352063.5444   21352059.3534
        53.000          47.000
 115682817.79347  90142452.33847  22013708.4434   22013712.0844   22013708.8144
        50.000          44.000
 125287168.76347  97626336.47147  23841377.0234   23841383.0974   23841377.0574
        45.000          39.000
 113128629.02047  88152170.76247  21527664.8104   21527668.4434   21527664.5874
        52.000          47.000
 128119728.64447  99833535.86747  24380388.7094   24380393.2524   24380388.6304
        42.000          38.000
 140395427.00947  91606798.27147  24813446.5354   24813451.3664   24813445.3064
        41.000          36.000
 113676807.77647  88579317.81347  21631986.3264   21631989.6864   21631986.3324
        52.000          46.000
 09  1  6  0 12 30.0000000  0 11G21G22G18G30G24G14G 5G29G12G31G 9
 110677750.38347  86242390.92547  21061284.0394   21061286.0844   21061284.4124
        54.000          47.000
 128042568.81947  99773420.16347  24365698.9714   24365699.8364   24365698.8434
        45.000          38.000
 124713762.43047  97179525.54347  23732262.8444   23732265.5604   23732263.7144
        46.000          39.000
 123771657.30047  96445425.45947  23552980.3184   23552985.3314   23552980.1194
        47.000          41.000
 112209511.23747  87435949.58147  21352787.6464   21352792.0534   21352787.8654
        53.000          47.000
 115662682.74947  90126762.73347  22009877.1654   22009880.5334   22009877.2394
        50.000          44.000
 125276899.12147  97618334.19547  23839422.8324   23839429.0424   23839423.1334
        46.000          39.000
 113195978.81247  88204651.12447  21540480.9274   21540484.7024   21540480.5484
        51.000          47.000
 128124192.96647  99837014.59647  24381238.1374   24381242.7504   24381238.3114
        43.000          38.000
 140293377.38347  91527279.11847  24794026.4754   24794032.1234   24794026.6624
        41.000          37.000
 113710331.12347  88605439.92247  21638365.5374   21638369.0314   21638365.6694
        52.000          46.000
 09  1  6  0 13  0.0000000  0 11G21G22G18G30G24G14G 5G29G12G31G 9
 110606005.28647  86186485.67547  21047631.2064   21047633.4624   21047631.4664
        54.000          47.000
 128034297.36047  99766974.92247  24364124.7504   24364125.8014   24364124.8034
        44.000          38.000
 124704502.58947  97172310.13147  23730501.4334   23730503.5184   23730501.7024
        47.000          39.000
 123760038.11647  96436371.56447  23550769.4434   23550774.3504   23550768.9994
        47.000          41.000
 112213784.37647  87439279.31347  21353600.8964   21353605.2474   21353601.0454
        53.000          47.000
 115643017.36947  90111439.10447  22006134.9824   22006138.3164   22006135.0354
        50.000          44.000
 125266513.93647  97610241.88847  23837447.1194   23837452.4844   23837447.6794
        45.000          39.000
 113263539.83347  88257296.07847  21553337.5064   21553341.1094   21553337.3234
        52.000          47.000
 128128549.21947  99840409.11747  24382067.3444   24382072.1134   24382067.6994
        42.000          38.000
 140191235.79147  91447688.29147  24774589.7864   24774595.1354   24774589.5614
        41.000          36.000
 113744383.87147  88631974.54247  21644845.5084   21644849.1944   21644845.4914
        52.000          46.000
 09  1  6  0 13 30.0000000  0 11G21G22G18G30G24G14G 5G29G12G31G 9
 110534562.27147  86130815.80647  21034035.9064   21034038.2594   21034036.3074
        54.000          47.000
 128025847.37247  99760390.57347  24362515.9094   24362518.0654   24362516.2104
        44.000          38.000
 124695021.98447  97164922.70047  23728696.6704   23728699.5834   23728697.5224
        46.000          39.000
 123748218.47547  96427161.48547  23548520.0604   23548525.2644   23548519.6484
        46.000          41.000
 112218506.62147  87442958.99947  21354499.5754   21354503.8704   21354499.7014
        53.000          47.000
 115623824.19147  90096483.43347  22002482.2834   22002486.0884   22002482.5744
        50.000          44.000
 125256017.62247  97602062.98447  23835449.3564   23835455.2784   23835449.9994
        45.000          39.000
 113331312.51447  88310105.96947  21566234.1064   21566237.9284   21566233.9134
        52.000          47.000
 128132802.10847  99843723.09047  24382876.2514   24382881.5164   24382875.8184
        43.000          38.000
 140089007.84347  91368030.17847  24755136.8254   24755142.0464   24755136.5004
        41.000          36.000
 113778969.24447  88658924.19947  21651427.0434   21651430.3444   21651426.8644
        52.000          46.000
 09  1  6  0 14  0.0000000  0 11G21G22G18G30G24G14G 5G29G12G31G 9
 110463422.06047  86075381.87647  21020498.4954   21020500.5514   21020498.8784
        54.000          47.000
 128017215.49347  99753664.48547  24360874.0384   24360875.2734   24360873.6384
        44.000          38.000
 124685317.65847  97157360.92647  23726849.8114   23726852.8014   23726850.4824
        46.000          39.000
 123736196.85947  96417794.02947  23546232.4694   23546237.1514   23546232.3424
        47.000          40.000
 112223676.44047  87446987.44347  21355483.3694   21355487.7854   21355483.4644
        53.000          47.000
 115605100.17647  90081893.34347  21998919.3504   21998922.6364   21998919.6714
        50.000          44.000
 125245409.29947  97593796.80147  23833430.8874   23833436.3724   23833431.0864
        45.000          39.000
 113399291.52547  88363076.63447  21579169.9754   21579173.7644   21579169.5404
        52.000          47.000
 128136950.33047  99846955.50647  24383665.8104   24383670.7184   24383665.6904
        43.000          38.000
 139986693.45047  91288304.69447  24735667.1044   24735672.2104   24735666.4764
        41.000          37.000
 113814084.41847  88686286.68847  21658109.0864   21658112.6304   21658109.2094
        52.000          46.000
 09  1  6  0 14 30.0000000  0 11G21G22G18G30G24G14G 5G29G12G31G 9
 110392588.06547  86020186.56147  21007019.2204   21007021.2714   21007019.6264
        54.000          47.000
 128008401.16647  99746796.22447  24359196.6004   24359197.2544   24359196.4504
        44.000          37.000
 124675390.18447  97149625.26147  23724961.3934   23724963.3794   23724961.5614
        47.000          39.000
 123723974.15547  96408269.85547  23543906.7524   23543911.3594   23543906.5064
        47.000          41.000
 112229295.44547  87451365.90247  21356552.4284   21356557.0994   21356552.4114
        53.000          47.000
 115586844.82447  90067668.44047  21995445.5574   21995449.0874   21995445.6444
        50.000          44.000
 125234690.86847  97585444.80947  23831391.0574   23831396.7834   23831391.2964
        45.000          39.000
 113467474.48747  88416206.22447  21592144.9004   21592148.5984   21592144.6354
        52.000          47.000
 128140996.11847  99850108.09347  24384435.8254   24384440.6814   24384435.2824
        42.000          38.000
 139884294.92647  91208513.63847  24716181.1294   24716186.3124   24716180.1544
        41.000          37.000
 113849729.67647  88714062.23447  21664892.0634   21664895.5474   21664892.3074
        52.000          46.000
 09  1  6  0 15  0.0000000  0 11G21G22G18G30G24G14G 5G29G12G31G 9
 110322064.85147  85965233.41747  20993599.1744   20993601.0614   20993599.6094
        54.000          47.000
 127999403.99347  99739785.47447  24357484.2094   24357485.0404   24357484.3614
        45.000          38.000
 124665240.98147  97141716.83347  23723030.0594   23723031.6404   23723030.4884
        47.000          39.000
 123711552.56247  96398590.73247  23541542.4934   23541547.4074   23541542.0704
        47.000          40.000
 112235366.05447  87456096.25747  21357707.5354   21357712.3654   21357707.7214
        53.000          47.000
 115569058.82447  90053809.27447  21992060.9194   21992064.1774   21992061.1504
        50.000          44.000
 125223865.19447  97577009.25447  23829330.9754   23829336.4414   23829331.6604
        45.000          39.000
 113535860.08947  88469493.70947  21605158.2334   21605161.8664   21605158.1234
        52.000          47.000
 128144942.19747  99853183.01547  24385186.6984   24385191.4654   24385186.7224
        44.000          38.000
 139781815.80847  91128659.76647  24696680.0354   24696685.1244   24696679.3364
        40.000          37.000
 113885906.08847  88742251.65647  21671776.1874   21671779.7324   21671776.0834
        52.000          46.000
 09  1  6  0 15 30.0000000  0 11G21G22G18G30G24G14G 5G29G12G31G 9
 110251854.61247  85910524.14447  20980238.8014   20980240.4634   20980239.2844
        54.000          47.000
 127990222.81947  99732631.35247  24355736.8364   24355738.0004   24355737.0404
        44.000          38.000
 124654869.27747  97133635.03047  23721056.3904   23721058.3604   23721056.4914
        47.000          39.000
 123698931.85247  96388756.44547  23539140.9534   23539145.7854   23539140.3054
        47.000          40.000
 112241888.25847  87461178.50747  21358948.8744   21358953.5204   21358948.8964
        53.000          47.000
 115551741.03747  90040314.94647  21988765.3204   21988768.7384   21988765.5284
        50.000          44.000
 125212932.92247  97568490.63547  23827250.7674   23827256.2284   23827251.2904
        45.000          39.000
 113604444.17147  88522935.84747  21618209.3044   21618212.9224   21618208.9024
        52.000          47.000
 128148788.95947  99856180.57047  24385918.2364   24385923.0354   24385917.8494
        43.000          39.000
 139679257.60447  91048744.27347  24677163.4694   24677168.8814   24677162.8454
        41.000          36.000
 113922612.38447  88770853.97947  21678761.2234   21678764.6774   21678761.2724
        52.000          45.000
 09  1  6  0 16  0.0000000  0 11G21G22G18G30G24G14G 5G29G12G31G 9
 110181961.55147  85856062.03047  20966938.3544   20966940.3604   20966938.7734
        54.000          47.000
 127980858.13547  99725334.23347  24353955.1004   24353956.3094   24353954.8754
        44.000          38.000
 124644276.61747  97125381.02447  23719040.0264   23719042.8924   23719040.6614
        46.000          39.000
 123686114.49947  96378768.90447  23536702.2494   23536706.4794   23536701.8004
        47.000          41.000
 112248864.50047  87466614.55747  21360276.2464   21360281.0484   21360276.3734
        53.000          47.000
 115534891.95047  90027185.85047  21985559.0134   21985562.2814   21985559.3104
        50.000          44.000
 125201897.09647  97559891.34047  23825150.3864   23825155.9914   23825150.8174
        44.000          39.000
 113673226.02247  88576532.08847  21631298.1904   21631301.8154   21631297.7794
        52.000          47.000
 128152539.55447  99859103.16647  24386632.4624   24386636.9844   24386631.9344
        44.000          39.000
 139576624.04647  90968770.03547  24657633.2454   24657638.3944   24657631.8284
        41.000          36.000
 113959849.72247  88799870.09947  21685846.9664   21685850.6034   21685847.0564
        52.000          45.000
 09  1  6  0 16 30.0000000  0 11G21G22G18G30G24G14G 5G29G12G31G 9
 110112385.75947  85801847.14747  20953698.2634   20953700.5114   20953698.6634
        54.000          47.000
 127971304.96347  99717890.26547  24352137.0914   24352138.1314   24352137.5434
        44.000          38.000
 124633458.93747  97116951.68847  23716981.5694   23716984.1404   23716982.0574
        47.000          39.000
 123673097.62347  96368625.90747  23534224.8374   23534229.9484   23534225.0214
        47.000          41.000
 112256291.88647  87472402.14747  21361689.8594   21361694.2444   21361689.9644
        53.000          47.000
 115518506.93747  90014418.35047  21982441.0914   21982444.2834   21982441.2894
        50.000          44.000
 125190755.68847  97551209.76747  23823030.3124   23823035.3764   23823030.7824
        45.000          39.000
 113742198.67247  88630277.00947  21644423.1224   21644426.6734   21644422.8764
        51.000          46.000
 128156191.95247  99861949.24647  24387327.3184   24387331.8944   24387326.7204
        43.000          38.000
 139473913.55547  90888735.86047  24638087.8964   24638092.9614   24638087.1094
        41.000          36.000
 113997614.17747  88829296.95947  21693033.2574   21693037.0444   21693033.2524
        52.000          45.000
 09  1  6  0 17  0.0000000  0 11G21G22G18G30G24G14G 5G29G12G31G 9
 110043132.83047  85747883.83647  20940520.0694   20940522.0504   20940520.4114
        54.000          48.000
 127961565.15447  99710300.83247  24350283.6224   24350285.1344   24350283.8214
        44.000          38.000
 124622419.07347  97108349.23047  23714880.9204   23714883.4104   23714881.5294
        46.000          39.000
 123659884.49447  96358330.00147  23531710.4644   23531715.4684   23531710.5734
        47.000          40.000
 112264173.83247  87478543.93947  21363189.5774   21363194.1644   21363189.7734
        53.000          47.000
 115502588.05447  90002014.07547  21979411.8614   21979415.1314   21979411.9594
        50.000          44.000
 125179512.79047  97542449.12147  23820890.9594   23820896.0654   23820891.3454
        45.000          39.000
 113811361.86647  88684170.40847  21657584.2864   21657587.9494   21657583.9444
        51.000          46.000
 128159750.30847  99864722.03847  24388004.4054   24388009.2334   24388003.7274
        43.000          38.000
 139371130.98147  90808645.50447  24618529.5184   24618533.9114   24618528.6564
        41.000          36.000
 114035907.82347  88859136.18547  21700320.4024   21700323.9654   21700320.2244
        52.000          45.000
 09  1  6  0 17 30.0000000  0 11G21G22G18G30G24G14G 5G29G12G31G 9
 109974206.50847  85694175.02447  20927403.7694   20927405.8614   20927404.1784
        54.000          48.000
 127951638.77847  99702566.01847  24348394.8394   24348395.9844   24348394.9234
        44.000          39.000
 124611158.39247  97099574.70247  23712738.1714   23712740.6314   23712738.4704
        46.000          39.000
 123646477.19947  96347882.79347  23529159.0204   23529164.0944   23529158.4214
        47.000          40.000
 112272512.36747  87485041.51147  21364776.3224   21364780.7454   21364776.3754
        53.000          47.000
 115487135.88447  89989973.46047  21976471.1714   21976474.5344   21976471.2774
        51.000          44.000
 125168171.23747  97533611.58447  23818733.1294   23818737.7934   23818733.4584
        46.000          39.000
 113880714.19347  88738211.17947  21670781.6674   21670785.2924   21670781.3814
        51.000          46.000
 128163217.55247  99867423.86647  24388664.1354   24388668.2164   24388664.0464
        43.000          38.000
 139268279.98447  90728501.87047  24598957.3164   24598962.3354   24598957.2884
        42.000          36.000
 114074731.41347  88889388.34947  21707708.3164   21707711.9434   21707708.3934
        52.000          45.000
 09  1  6  0 18  0.0000000  0 11G21G22G18G30G24G14G 5G29G12G31G 9
 109905608.65547  85640722.16447  20914349.9564   20914352.0734   20914350.3824
        54.000          48.000
 127941523.19347  99694683.79647  24346469.7384   24346470.9514   24346469.9754
        45.000          38.000
 124599675.49947  97090627.02147  23710552.8674   23710555.1954   23710553.3394
        46.000          39.000
 123632875.26247  96337283.92547  23526570.8034   23526575.5794   23526570.7434
        47.000          41.000
 112281306.83447  87491894.35747  21366449.6824   21366454.3884   21366449.8604
        53.000          47.000
 115472147.94347  89978294.58147  21973619.1054   21973622.5974   21973619.4804
        50.000          44.000
 125156731.00047  97524697.15947  23816555.5204   23816560.9614   23816556.4304
        45.000          39.000
 113950251.45347  88792396.04947  21684014.2764   21684017.7584   21684014.1134
        51.000          46.000
 128166593.10647  99870054.24347  24389306.6394   24389311.1054   24389306.1114
        43.000          38.000
 139165361.50847  90648305.64447  24579373.3454   24579377.8384   24579372.6654
        42.000          37.000
 114114083.11347  88920052.03347  21715196.7814   21715200.4274   21715196.7594
        52.000          45.000
 09  1  6  0 18 30.0000000  0 11G21G22G18G30G24G14G 5G29G12G31G 9
 109837340.55647  85587526.24847  20901359.2134   20901361.1094   20901359.5704
        54.000          48.000
 127931215.68247  99686652.02147  24344507.9584   24344509.5434   24344508.2724
        44.000          39.000
 124587968.52747  97081504.73647  23708325.5144   23708327.0224   23708325.9024
        46.000          39.000
 123619077.18647  96326532.20847  23523945.4494   23523949.2924   23523944.8374
        47.000          41.000
 112290556.28147  87499101.72647  21368209.8744   21368214.3824   21368210.0854
        53.000          47.000
 115457621.43447  89966975.25747  21970854.9714   21970858.0114   21970855.0774
        51.000          44.000
 125145191.74147  97515705.57647  23814359.5504   23814364.8634   23814359.8944
        45.000          39.000
 114019968.82147  88846721.26047  21697281.1054   21697284.7324   21697280.9534
        52.000          46.000
 128169876.99547  99872613.18147  24389931.3504   24389935.9064   24389931.3974
        44.000          38.000
 139062375.82247  90568057.07747  24559776.0564   24559780.4164   24559775.3084
        43.000          37.000
 114153960.34847  88951125.22747  21722785.0774   21722788.8044   21722785.1014
        52.000          45.000
 09  1  6  0 19  0.0000000  0 11G21G22G18G30G24G14G 5G29G12G31G 9
 109769410.24747  85534593.55447  20888432.5114   20888434.4344   20888432.7614
        54.000          48.000
 127920720.32447  99678473.85247  24342511.0334   24342512.2664   24342511.1734
        44.000          38.000
 124576042.39647  97072211.66947  23706055.8974   23706057.8034   23706056.3534
        46.000          39.000
 123605088.93447  96315632.31147  23521283.3214   23521287.7764   23521283.2064
        47.000          41.000
 112300266.76947  87506668.34847  21370057.5954   21370062.2724   21370057.7474
        53.000          47.000
 115443560.45447  89956018.67147  21968179.1384   21968182.3824   21968179.3514
        50.000          44.000
 125133560.25947  97506642.13847  23812146.3474   23812151.4724   23812146.7054
        46.000          39.000
 114089868.69247  88901188.69947  21710582.7584   21710586.0344   21710582.6014
        52.000          46.000
 128173075.76547  99875105.81347  24390539.6774   24390544.6224   24390539.3764
        43.000          38.000
 138959330.13647  90487761.80147  24540166.7934   24540171.5894   24540166.8884
        42.000          37.000
 114194367.81947  88982611.59047  21730474.4244   21730478.1774   21730474.5274
        52.000          46.000
 09  1  6  0 19 30.0000000  0 12G21G22G18G30G24G14G 5G29G 6G12G31G 9
 109701811.90347  85481919.53247  20875568.7694   20875570.8524   20875569.1904
        54.000          48.000
 127910027.78947  99670142.03047  24340475.8624   24340477.7414   24340475.9774
        44.000          38.000
 124563888.78847  97062741.36047  23703742.9774   23703745.1004   23703743.3474
        46.000          39.000
 123590902.65047  96304578.09547  23518583.5194   23518588.2134   23518583.1934
        47.000          41.000
 112310430.29147  87514587.98547  21371991.8014   21371996.4114   21371991.8614
        52.000          47.000
 115429955.49547  89945417.42547  21965590.2334   21965593.6604   21965590.5934
        50.000          44.000
 125121829.36447  97497501.24447  23809913.8694   23809919.1884   23809914.4254
        45.000          39.000
 114159939.33247  88955789.19347  21723916.7944   21723919.9354   21723916.6884
        51.000          46.000
 142588930.97957  93316040.10557  25230840.6075   25230844.9775   25230840.3035
        41.000          36.000
 128176182.10647  99877526.40947  24391130.7854   24391135.3554   24391130.8784
        43.000          38.000
 138856218.18747  90407414.91447  24520545.0414   24520550.1004   24520544.9924
        42.000          37.000
 114235296.29247  89014503.92647  21738262.9144   21738266.6084   21738263.0114
        51.000          45.000
 09  1  6  0 20  0.0000000  0 12G21G22G18G30G24G14G 5G29G 6G12G31G 9
 109634554.57947  85429511.23147  20862770.1694   20862772.1564   20862770.4814
        54.000          48.000
 127899142.22847  99661659.81347  24338404.4614   24338406.2234   24338404.7024
        44.000          38.000
 124551513.22047  97053098.07647  23701387.6574   23701390.1294   23701388.1784
        46.000          39.000
 123576524.80547  96293374.61647  23515847.4414   23515852.1794   23515846.8864
        47.000          41.000
 112321052.99647  87522865.42647  21374013.3684   21374017.5734   21374013.4214
        53.000          47.000
 115416811.20947  89935175.15147  21963088.8064   21963092.0574   21963088.9984
        50.000          44.000
 125110006.18147  97488288.43547  23807664.3694   23807669.3354   23807664.6364
        45.000          39.000
 114230183.32147  89010524.76347  21737283.6364   21737287.1464   21737282.9394
        52.000          46.000
 142522796.20447  93264506.55847  25218254.3904   25218259.7694   25218255.0704
        40.000          35.000
 128179203.19947  99879880.59347  24391705.5574   24391710.2554   24391704.9694
        43.000          38.000
 138753047.64147  90327022.38247  24500911.8764   24500917.0374   24500912.0884
        42.000          37.000
 114276750.71547  89046806.09947  21746151.8324   21746155.1304   21746151.8794
        52.000          46.000
 09  1  6  0 20 30.0000000  0 12G21G22G18G30G24G14G 5G29G 6G12G31G 9
 109567646.15547  85377374.80847  20850037.8334   20850040.0404   20850038.2694
        54.000          48.000
 127888068.27747  99653030.79847  24336297.2354   24336297.9144   24336297.2954
        44.000          38.000
 124538921.04147  97043286.02147  23698991.9584   23698993.5494   23698991.9964
        47.000          39.000
 123561961.77647  96282026.83847  23513076.2694   23513080.7714   23513075.5714
        47.000          40.000
 112332140.93747  87531505.38947  21376123.3504   21376127.5424   21376123.4984
        53.000          47.000
 115404132.12147  89925295.36647  21960675.9134   21960679.1284   21960676.0834
        50.000          44.000
 125098097.67247  97479009.15447  23805397.5464   23805403.3724   23805397.4564
        44.000          39.000
 114300603.46847  89065397.59547  21750684.1794   21750687.8134   21750683.9384
        52.000          46.000
 142456944.69147  93213193.71247  25205723.5224   25205729.2804   25205724.1554
        41.000          35.000
 128182146.07847  99882173.84647  24392266.0884   24392269.5924   24392265.2544
        43.000          38.000
 138649826.26547  90246590.28247  24481269.3644   24481274.6034   24481269.1594
        42.000          37.000
 114318735.85447  89079521.81147  21754140.9284   21754144.4144   21754141.0684
        51.000          45.000
 09  1  6  0 21  0.0000000  0 12G21G22G18G30G24G14G 5G29G 6G12G31G 9
 109501084.29647  85325508.44047  20837371.4864   20837373.7114   20837371.8524
        54.000          48.000
 127876799.49947  99644249.96847  24334153.2034   24334154.1914   24334153.1934
        44.000          38.000
 124526106.96747  97033301.04047  23696553.2274   23696554.8584   23696553.7714
        47.000          39.000
 123547208.62547  96270530.90547  23510268.9614   23510273.4394   23510268.7164
        47.000          40.000
 112343689.14747  87540503.99247  21378320.8454   21378325.2434   21378321.0554
        53.000          47.000
 115391911.56047  89915772.87247  21958350.5974   21958353.7114   21958350.7284
        50.000          44.000
 125086099.82347  97469660.26747  23803114.4714   23803120.2084   23803114.8494
        45.000          39.000
 114371191.39547  89120401.18047  21764116.6864   21764120.1844   21764116.6634
        52.000          46.000
 142391371.42747  93162097.67347  25193245.5474   25193250.4964   25193245.5344
        42.000          36.000
 128185006.36547  99884402.73347  24392809.7824   24392814.0444   24392809.5634
        43.000          37.000
 138546550.86447  90166116.09147  24461616.8554   24461621.8114   24461615.7234
        42.000          38.000
 114361245.49747  89112646.22447  21762230.1404   21762233.6404   21762230.3014
        52.000          45.000
 09  1  6  0 21 30.0000000  0 12G21G22G18G30G24G14G 5G29G 6G12G31G 9
 109434872.77547  85273915.05447  20824772.0134   20824773.9314   20824772.4544
        54.000          48.000
 127865335.95747  99635317.37147  24331971.2174   24331972.5724   24331971.4444
        43.000          38.000
 124513072.00547  97023143.94447  23694073.3184   23694074.6664   23694073.4684
        47.000          39.000
 123532267.26147  96258888.32747  23507425.4824   23507430.2024   23507425.3034
        47.000          40.000
 112355699.33147  87549862.57947  21380606.1914   21380610.5834   21380606.3364
        53.000          47.000
 115380149.41947  89906607.59147  21956112.5774   21956115.2854   21956112.7764
        51.000          44.000
 125074015.16547  97460243.70747  23800814.8304   23800820.0094   23800815.8114
        45.000          39.000
 114441945.08347  89175533.92947  21777580.4074   21777584.1484   21777580.1554
        51.000          46.000
 142326078.63647  93111220.19447  25180820.9044   25180825.3294   25180820.8344
        41.000          36.000
 128187786.86447  99886569.43247  24393338.5714   24393342.9554   24393338.8474
        42.000          37.000
 138443224.56247  90085602.25347  24441954.1264   24441959.5104   24441953.2474
        42.000          38.000
 114404279.98247  89146179.60447  21770419.5114   21770422.7834   21770419.8664
        52.000          45.000
 09  1  6  0 22  0.0000000  0 12G21G22G18G30G24G14G 5G29G 6G12G31G 9
 109369014.18047  85222596.68147  20812239.5734   20812241.6424   20812239.9194
        54.000          48.000
 127853675.51947  99626231.32847  24329752.3904   24329753.7594   24329752.4494
        44.000          38.000
 124499815.58347  97012814.31147  23691550.3654   23691552.2684   23691550.8544
        46.000          39.000
 123517137.89247  96247099.24047  23504546.3504   23504551.0134   23504545.8344
        47.000          40.000
 112368171.62147  87559581.25347  21382979.5464   21382983.8774   21382979.7454
        53.000          47.000
 115368844.20747  89897798.36147  21953960.9004   21953964.2774   21953961.2714
        50.000          45.000
 125061844.74147  97450760.32247  23798499.0104   23798504.1964   23798499.5814
        45.000          39.000
 114512861.02647  89230793.09747  21791075.1594   21791078.9734   21791074.9844
        51.000          46.000
 142261066.36547  93060561.30547  25168448.8924   25168454.0354   25168449.2144
        41.000          36.000
 128190488.53747  99888674.70547  24393853.5994   24393856.9644   24393852.9984
        44.000          38.000
 138339849.03447  90005050.05747  24422282.4064   24422287.6314   24422281.6034
        43.000          38.000
 114447838.02647  89180120.95547  21778707.9794   21778711.6764   21778708.1484
        52.000          45.000
 09  1  6  0 22 30.0000000  0 12G21G22G18G30G24G14G 5G29G 6G12G31G 9
 109303511.73347  85171555.82447  20799774.9534   20799776.9104   20799775.3074
        54.000          48.000
 127841818.70647  99616992.30247  24327496.9914   24327497.2114   24327496.9424
        44.000          38.000
 124486338.46647  97002312.69147  23688985.5794   23688988.0154   23688986.0884
        46.000          39.000
 123501822.07747  96235164.89247  23501632.3854   23501636.7614   23501632.0334
        47.000          40.000
 112381107.03147  87569660.79647  21385441.0214   21385445.3634   21385441.1584
        53.000          47.000
 115357995.26247  89889344.66447  21951896.5644   21951899.9054   21951896.7894
        51.000          45.000
 125049590.72647  97441211.81447  23796167.2604   23796172.3964   23796167.5114
        44.000          39.000
 114583937.07147  89286177.01847  21804600.6524   21804604.4294   21804600.5694
        51.000          46.000
 142196335.64947  93010121.80547  25156132.0484   25156136.0464   25156131.3024
        41.000          35.000
 128193113.41347  99890720.15047  24394352.7104   24394356.9574   24394352.3974
        43.000          38.000
 138236427.18447  89924461.78247  24402601.7604   24402606.7884   24402601.0904
        43.000          38.000
 114491919.50747  89214470.18647  21787096.8314   21787100.0044   21787096.9424
        52.000          45.000
 09  1  6  0 23  0.0000000  0 12G21G22G18G30G24G14G 5G29G 6G12G31G 9
 109238367.84047  85120794.35747  20787378.4794   20787380.4044   20787378.9384
        54.000          48.000
 127829762.81347  99607598.13647  24325202.7634   24325203.2914   24325202.5254
        45.000          38.000
 124472639.83047  96991638.43247  23686378.6574   23686380.3854   23686379.0364
        46.000          39.000
 123486319.67347  96223085.13147  23498682.3714   23498686.1524   23498681.9514
        47.000          40.000
 112394505.19147  87580100.93547  21387990.6724   21387995.1544   21387990.9704
        53.000          47.000
 115347600.42047  89881244.81547  21949918.3494   21949921.8864   21949918.5474
        50.000          45.000
 125037253.78247  97431598.68947  23793819.3614   23793824.2014   23793819.8454
        44.000          39.000
 114655169.34847  89341682.67147  21818155.9224   21818159.3924   21818155.4594
        51.000          46.000
 142131886.65547  92959901.81447  25143866.8944   25143871.5234   25143867.5444
        42.000          35.000
 128195661.98447  99892706.15047  24394837.6094   24394841.4704   24394837.4794
        44.000          38.000
 138132960.26947  89843838.38747  24382912.5824   24382917.8754   24382911.9344
        43.000          38.000
 114536522.58047  89249225.84647  21795584.5894   21795587.6384   21795584.8364
        52.000          45.000
 09  1  6  0 23 30.0000000  0 12G21G22G18G30G24G14G 5G29G 6G12G31G 9
 109173587.69447  85070316.33747  20775051.1134   20775052.9934   20775051.4764
        54.000          48.000
 127817509.81847  99598050.37347  24322870.8684   24322871.3004   24322870.9394
        44.000          38.000
 124458722.30647  96980793.64847  23683730.2804   23683732.2894   23683730.5184
        46.000          39.000
 123470633.85247  96210862.46247  23495696.8914   23495701.2324   23495696.3864
        46.000          40.000
 112408369.21147  87590904.07747  21390628.9794   21390633.4424   21390629.1754
        53.000          46.000
 115337661.71147  89873500.40147  21948027.2634   21948030.1924   21948027.3434
        51.000          45.000
 125024837.95747  97421924.11147  23791456.4814   23791461.8174   23791456.6364
        45.000          39.000
 114726557.54847  89397309.82447  21831740.7174   21831743.7884   21831740.4994
        51.000          46.000
 142067722.32147  92909903.64947  25131657.4434   25131662.7224   25131657.5344
        40.000          35.000
 128198138.25947  99894635.79647  24395309.0054   24395313.0974   24395308.5714
        44.000          38.000
 138029453.35647  89763183.83047  24363215.4124   24363220.9494   24363214.8244
        42.000          37.000
 114581648.78447  89284389.14247  21804171.5274   21804175.0304   21804171.7194
        52.000          45.000
 09  1  6  0 24  0.0000000  0 12G21G22G18G30G24G14G 5G29G 6G12G31G 9
 109109173.35447  85020123.35047  20762793.5354   20762795.2564   20762793.8984
        54.000          48.000
 127805057.78647  99588347.54447  24320500.4784   24320501.7674   24320500.4774
        43.000          38.000
 124444585.08747  96969777.65347  23681039.9014   23681042.2914   23681040.3484
        46.000          39.000
 123454764.62347  96198496.87647  23492677.3944   23492681.4904   23492677.0264
        47.000          40.000
 112422698.79847  87602070.00247  21393355.7954   21393360.2494   21393356.0184
        53.000          47.000
 115328176.50147  89866109.36047  21946222.0114   21946225.3354   21946222.1564
        50.000          44.000
 125012343.98147  97412188.63647  23789079.1784   23789084.1614   23789079.8544
        46.000          39.000
 114798097.77247  89453055.44347  21845354.0994   21845357.6724   21845353.6124
        51.000          46.000
 142003842.80047  92860127.44047  25119501.4864   25119505.6394   25119501.4544
        40.000          35.000
 128200542.86447  99896509.61947  24395766.1284   24395769.9184   24395765.9214
        43.000          38.000
 137925907.90947  89682499.24847  24343511.1664   24343516.5354   24343510.7254
        42.000          37.000
 114627296.42847  89319958.76247  21812858.0244   21812861.1794   21812858.1814
        52.000          45.000
 09  1  6  0 24 30.0000000  0 12G21G22G18G30G24G14G 5G29G 6G12G31G 9
 109045125.87247  84970216.23647  20750605.6234   20750607.5574   20750606.0384
        54.000          48.000
 127792403.84147  99578487.35347  24318092.5154   24318094.2114   24318092.4944
        44.000          38.000
 124430226.15047  96958588.89347  23678307.8074   23678310.0444   23678308.1244
        46.000          39.000
 123438710.89747  96185987.50947  23489622.0424   23489626.7054   23489621.8644
        46.000          40.000
 112437492.17347  87613597.31747  21396171.0164   21396175.3084   21396171.2144
        53.000          47.000
 115319141.44747  89859069.10647  21944502.9434   21944505.7174   21944503.1214
        50.000          44.000
 124999771.29147  97402391.81747  23786686.6414   23786691.2424   23786686.8774
        45.000          39.000
 114869785.30247  89508915.84047  21858995.9434   21858999.4644   21858995.8954
        51.000          46.000
 141940246.09847  92810571.55847  25107398.9614   25107404.0084   25107399.4024
        40.000          35.000
 128202875.48147  99898327.34847  24396209.0844   24396213.4464   24396208.8844
        42.000          38.000
 137822323.87947  89601784.57747  24323800.0514   24323805.0494   24323799.0534
        43.000          37.000
 114673462.72047  89355932.52047  21821643.0584   21821646.4414   21821643.1844
        51.000          45.000
 09  1  6  0 25  0.0000000  0 12G21G22G18G30G24G14G 5G29G 6G12G31G 9
 108981449.75547  84920598.50147  20738488.3504   20738490.4164   20738488.6934
        54.000          48.000
 127779549.07647  99568470.67847  24315646.9864   24315648.2364   24315646.9024
        45.000          38.000
 124415647.61847  96947229.03547  23675533.5504   23675535.5974   23675534.0214
        47.000          39.000
 123422475.46347  96173336.56247  23486532.7724   23486537.1664   23486532.1544
        46.000          40.000
 112452751.61747  87625487.80847  21399074.7064   21399078.8914   21399074.8444
        53.000          47.000
 115310557.44647  89852380.31747  21942869.0334   21942872.0344   21942869.1174
        50.000          44.000
 124987123.47847  97392536.46347  23784279.4704   23784284.7784   23784280.1444
        45.000          39.000
 114941619.08447  89564890.20047  21872665.5334   21872668.9564   21872665.5124
        51.000          46.000
 141876935.14047  92761238.34147  25095351.4724   25095356.4614   25095351.6034
        40.000          35.000
 128205139.73247  99900091.80147  24396640.0874   24396645.3674   24396639.7104
        44.000          38.000
 137718705.62247  89521043.22847  24304082.1274   24304087.0554   24304081.2334
        42.000          37.000
 114720148.81847  89392311.31347  21830526.9984   21830530.4804   21830527.0934
        51.000          45.000
 09  1  6  0 25 30.0000000  0 12G21G22G18G30G24G14G 5G29G 6G12G31G 9
 108918148.67547  84871272.99347  20726442.6344   20726444.5474   20726443.0214
        54.000          48.000
 127766492.99747  99558297.12447  24313162.5064   24313163.0734   24313162.5764
        44.000          38.000
 124400850.71147  96935698.99147  23672717.7724   23672719.9834   23672718.3344
        46.000          39.000
 123406059.72847  96160545.11347  23483408.8634   23483413.1204   23483408.7294
        46.000          40.000
 112468478.51047  87637742.53747  21402067.4474   21402071.7234   21402067.5664
        53.000          47.000
 115302424.12547  89846042.72447  21941321.4714   21941324.3614   21941321.6674
        50.000          44.000
 124974402.90547  97382624.40847  23781858.9894   23781863.7204   23781859.4714
        44.000          39.000
 115013596.89847  89620976.79847  21886362.2964   21886365.8514   21886361.7154
        51.000          46.000
 141813911.27747  92712128.89147  25083359.2064   25083362.6784   25083358.5074
        39.000          35.000
 128207337.34247  99901804.33147  24397058.4334   24397063.1394   24397058.5184
        44.000          38.000
 137615056.17347  89440277.56847  24284357.7464   24284362.7394   24284357.4854
        43.000          37.000
 114767354.36947  89429094.88447  21839509.8254   21839513.3324   21839509.8714
        51.000          45.000
 09  1  6  0 26  0.0000000  0 12G21G22G18G30G24G14G 5G29G 6G12G31G 9
 108855225.43347  84822241.91247  20714468.6804   20714470.6894   20714469.1034
        54.000          48.000
 127753234.47047  99547965.85547  24310639.1954   24310640.2324   24310639.9194
        45.000          38.000
 124385835.12947  96923998.56347  23669860.0094   23669862.5564   23669860.6334
        46.000          39.000
 123389464.61347  96147613.87647  23480250.8664   23480255.3334   23480250.3594
        47.000          40.000
 112484673.03947  87650361.66947  21405149.0984   21405153.4484   21405149.2154
        53.000          47.000
 115294739.82347  89840055.00047  21939859.1514   21939862.0864   21939859.2444
        51.000          44.000
 124961611.08847  97372656.84547  23779424.7044   23779429.4944   23779424.9924
        46.000          39.000
 115085715.71347  89677173.27447  21900086.0094   21900089.5844   21900085.6744
        51.000          46.000
 141751175.03447  92663243.52747  25071420.1104   25071424.5504   25071420.1164
        41.000          35.000
 128209469.68847  99903465.99147  24397464.2314   24397468.9854   24397463.9534
        43.000          38.000
 137511377.49247  89359489.12447  24264628.0234   24264633.6224   24264627.8694
        43.000          37.000
 114815078.32547  89466282.39947  21848591.0614   21848594.8984   21848591.1114
        50.000          45.000
 09  1  6  0 26 30.0000000  0 12G21G22G18G30G24G14G 5G29G 6G12G31G 9
 108792682.84447  84773507.44747  20702567.1604   20702569.3394   20702567.4844
        54.000          48.000
 127739772.55647  99537476.08947  24308077.4174   24308078.6274   24308078.0124
        45.000          38.000
 124370600.76947  96912127.65147  23666960.6974   23666962.9604   23666961.4764
        46.000          39.000
 123372690.97947  96134543.53547  23477058.9354   23477063.4874   23477058.3424
        47.000          40.000
 112501335.35347  87663345.30147  21408319.8504   21408324.2064   21408320.1244
        53.000          47.000
 115287503.26947  89834416.18147  21938482.0224   21938484.7904   21938482.2904
        50.000          44.000
 124948749.37647  97362634.82147  23776976.9694   23776982.5624   23776977.6494
        45.000          39.000
 115157972.58847  89733477.30947  21913836.0864   21913839.5744   21913836.1954
        51.000          46.000
 141688726.69447  92614582.49947  25059537.0934   25059541.5844   25059536.9334
        41.000          35.000
 128211538.76247  99905078.34547  24397857.5334   24397862.1374   24397857.0854
        43.000          38.000
 137407672.21647  89278679.94847  24244893.4184   24244899.1914   24244892.4724
        42.000          37.000
 114863319.42547  89503872.88347  21857771.4704   21857774.8114   21857771.4124
        51.000          45.000
 09  1  6  0 27  0.0000000  0 12G21G22G18G30G24G14G 5G29G 6G12G31G 9
 108730521.52147  84725070.06347  20690738.4584   20690740.2254   20690738.8344
        54.000          48.000
 127726104.58447  99526825.75847  24305476.4584   24305477.6604   24305476.5464
        46.000          39.000
 124355145.99647  96900085.00747  23664020.4054   23664022.4824   23664020.7934
        46.000          39.000
 123355737.71547  96121333.22947  23473832.8604   23473837.3654   23473832.2194
        46.000          40.000
 112518463.48047  87676691.90947  21411579.3894   21411583.6584   21411579.4214
        53.000          47.000
 115280711.11047  89829123.64047  21937189.4484   21937192.4304   21937189.4674
        51.000          44.000
 124935817.30547  97352557.96947  23774515.9164   23774521.6064   23774516.1504
        45.000          39.000
 115230362.43047  89789884.96847  21927611.4424   21927614.9154   21927610.9974
        51.000          46.000
 121626511.66457 112566095.57257  25047706.8825   25047712.2985   25047707.9445
        41.000          35.000
 128213543.52347  99906640.61347  24398239.0534   24398243.3804   24398239.2664
        43.000          38.000
 137303940.38147  89197850.07747  24225153.3394   24225159.3994   24225152.3034
        42.000          38.000
 114912074.72047  89541864.04147  21867049.4204   21867052.7154   21867049.5614
        51.000          45.000
 09  1  6  0 27 30.0000000  0 12G21G22G18G30G24G14G 5G29G 6G12G31G 9
 108668748.38647  84676935.17147  20678983.1474   20678985.2114   20678983.5274
        54.000          48.000
 127712233.36447  99516017.06647  24302837.0144   24302837.9164   24302837.5524
        45.000          39.000
 124339474.91447  96887873.81647  23661037.7844   23661040.4684   23661038.1334
        46.000          39.000
 123338609.87347  96107986.89747  23470573.1714   23470577.9994   23470572.8524
        46.000          41.000
 112536062.24047  87690405.24647  21414928.3634   21414932.3134   21414928.5064
        53.000          46.000
 115274365.88247  89824179.36747  21935981.9934   21935985.0134   21935982.2354
        51.000          44.000
 124922820.63847  97342430.78147  23772042.6144   23772047.9694   23772042.9894
        45.000          39.000
 115302887.22447  89846397.77547  21941412.2864   21941416.0714   21941411.8594
        51.000          46.000
 121564640.79547 112517884.48047  25035934.2494   25035938.6464   25035934.1294
        41.000          35.000
 128215490.12247  99908157.53947  24398609.3474   24398613.6894   24398609.2874
        43.000          38.000
 137200188.52847  89117004.59847  24205410.1404   24205416.3044   24205409.2084
        43.000          38.000
 114961347.11747  89580258.13747  21876425.6614   21876429.2964   21876425.6724
        51.000          45.000
 09  1  6  0 28  0.0000000  0 12G21G22G18G30G24G14G 5G29G 6G12G31G 9
 108607364.75047  84629103.78947  20667302.3064   20667304.3254   20667302.6164
        54.000          48.000
 127698156.70547  99505048.26047  24300158.0024   24300158.9534   24300157.9754
        45.000          38.000
 124323585.96247  96875492.82447  23658014.7764   23658016.6304   23658014.8304
        45.000          39.000
 123321306.56947  96094503.83047  23467280.6034   23467285.1094   23467280.2464
        47.000          41.000
 112554130.19547  87704484.18447  21418366.1264   21418370.6344   21418366.3284
        53.000          46.000
 115268464.72147  89819581.10947  21934859.0354   21934862.0334   21934859.2214
        50.000          45.000
 124909759.27747  97332253.15947  23769557.3634   23769562.4344   23769557.4084
        46.000          39.000
 115375541.55547  89903011.52847  21955238.2664   21955241.8874   21955238.1804
        51.000          46.000
 121503059.99747 112469899.45247  25024215.7124   25024220.2274   25024216.0024
        41.000          35.000
 128217377.88047  99909628.63347  24398968.9024   24398972.9514   24398968.4794
        43.000          38.000
 137096417.15847  89036143.92747  24185663.3834   24185668.8294   24185663.1324
        43.000          38.000
 115011134.08047  89619053.19847  21885899.6984   21885903.2654   21885899.8314
        51.000          45.000
 09  1  6  0 28 30.0000000  0 12G21G22G18G30G24G14G 5G29G 6G12G31G 9
 108546371.05847  84581576.25447  20655695.4654   20655697.3674   20655695.8384
        54.000          48.000
 127683872.04247  99493917.39847  24297440.1394   24297441.0904   24297439.9794
        45.000          39.000
 124307477.58547  96862940.86447  23654949.1084   23654951.2784   23654949.5334
        46.000          39.000
 123303826.88747  96080883.34047  23463954.1154   23463958.8564   23463953.8634
        46.000          41.000
 112572665.65147  87718927.40447  21421893.4244   21421897.8534   21421893.4484
        53.000          47.000
 115263003.97547  89815326.02147  21933819.8714   21933822.8764   21933820.2844
        51.000          45.000
 124896632.83647  97322024.83947  23767059.3404   23767064.3394   23767059.9634
        46.000          39.000
 115448320.51747  89959722.40147  21969087.5304   21969091.2494   21969087.0154
        51.000          46.000
 121441767.51747 112422139.07847  25012552.1354   25012556.5444   25012552.1244
        41.000          35.000
 128219206.70747  99911053.81647  24399316.2354   24399320.8534   24399316.2364
        42.000          38.000
 136992626.65547  88955268.34047  24165912.7174   24165918.1894   24165912.7664
        44.000          38.000
 115061432.27547  89658246.62147  21895471.3104   21895474.4384   21895471.4404
        51.000          45.000
 09  1  6  0 29  0.0000000  0 12G21G22G18G30G24G14G 5G29G 6G12G31G 9
 108485774.59947  84534358.24147  20644164.5204   20644166.1994   20644164.8824
        55.000          48.000
 127669381.88447  99482626.41047  24294682.5014   24294683.8774   24294682.7364
        44.000          39.000
 124291154.38747  96850221.52347  23651842.9464   23651845.1184   23651843.1784
        46.000          39.000
 123286175.86647  96067129.33147  23460595.1474   23460599.9814   23460594.5494
        47.000          41.000
 112591673.03447  87733738.36047  21425510.3474   21425514.8174   21425510.4224
        53.000          47.000
 115257987.06447  89811416.78447  21932865.1664   21932868.3494   21932865.2194
        50.000          45.000
 124883447.24247  97311750.39647  23764550.4044   23764555.2434   23764550.6214
        45.000          39.000
 115521225.64147  90016531.57647  21982961.0224   21982964.6524   21982960.8364
        51.000          46.000
 121380768.29947 112374607.20547  25000943.6794   25000948.4844   25000944.0264
        41.000          35.000
 128220982.51747  99912437.63947  24399654.3584   24399658.2594   24399653.9904
        43.000          38.000
 136888823.67047  88874383.03647  24146159.2834   24146165.1384   24146159.7984
        42.000          38.000
 115112244.99247  89697840.97247  21905140.5134   21905143.6034   21905140.7514
        51.000          45.000
 09  1  6  0 29 30.0000000  0 12G21G22G18G30G24G14G 5G29G 6G12G31G 9
 108425575.51947  84487449.88047  20632709.1554   20632710.8084   20632709.5584
        55.000          48.000
 127654683.28847  99471172.97147  24291885.1324   24291886.4614   24291885.0144
        44.000          39.000
 124274614.03047  96837332.96047  23648695.2924   23648697.2234   23648695.7054
        46.000          39.000
 123268352.09347  96053240.73647  23457203.7814   23457208.1814   23457203.1354
        47.000          41.000
 112611149.80147  87748915.06947  21429216.8844   21429221.1934   21429216.9064
        53.000          47.000
 115253409.70347  89807850.05847  21931993.8384   21931997.1544   21931994.0904
        50.000          44.000
 124870201.74347  97301429.29547  23762029.6024   23762034.5344   23762029.9574
        45.000          39.000
 115594252.01347  90073435.22947  21996857.5924   21996861.0904   21996857.3494
        51.000          46.000
 121320060.51347 112327302.41447  24989392.3934   24989396.7224   24989391.7754
        40.000          36.000
 128222704.02947  99913779.15947  24399981.9604   24399985.6194   24399981.9744
        42.000          38.000
 136785008.42547  88793488.18247  24126403.9144   24126409.8344   24126402.8234
        42.000          39.000
 115163568.76347  89737833.54947  21914907.0654   21914910.5014   21914907.2764
        51.000          45.000
 09  1  6  0 30  0.0000000  0 12G21G22G18G30G24G14G 5G29G 6G12G31G 9
 108365776.71447  84440853.42047  20621329.6884   20621331.5094   20621329.9944
        55.000          49.000
 127639775.14147  99459556.26647  24289048.5884   24289049.3834   24289048.7634
        45.000          38.000
 124257856.46747  96824275.14847  23645506.7464   23645508.3724   23645507.1244
        47.000          39.000
 123250356.39247  96039218.14647  23453779.4124   23453784.0924   23453779.3134
        47.000          41.000
 112631096.34947  87764457.84147  21433012.4564   21433016.7924   21433012.5524
        53.000          47.000
 115249270.28747  89804624.58047  21931206.1254   21931209.1034   21931206.2794
        50.000          44.000
 124856897.87247  97291062.71447  23759497.7024   23759502.8204   23759498.3664
        45.000          39.000
 115667396.39247  90130430.84347  22010776.4494   22010780.0244   22010776.1904
        51.000          46.000
 121259644.33947 112280224.89747  24977894.6594   24977899.7274   24977894.5214
        40.000          36.000
 128224372.66347  99915079.48647  24400299.2704   24400303.7364   24400299.2274
        43.000          38.000
 136681182.82847  88712585.25047  24106646.8094   24106652.0874   24106644.9884
        42.000          38.000
 115215402.49447  89778223.49047  21924770.5814   21924773.7744   21924770.7864
        51.000          44.000
 09  1  6  0 30 30.0000000  0 12G21G22G18G30G24G14G 5G29G 6G12G31G 9
 108306382.77347  84394572.43447  20610027.4854   20610029.2254   20610027.9414
        55.000          49.000
 127624658.89547  99447777.42147  24286171.8784   24286172.7234   24286171.6614
        45.000          38.000
 124240883.62047  96811049.59247  23642276.9594   23642278.6254   23642277.3284
        46.000          39.000
 123232191.32847  96025063.61547  23450322.5124   23450327.4604   23450322.2984
        47.000          41.000
 112651514.46747  87780368.06847  21436898.0404   21436902.5124   21436898.1264
        53.000          47.000
 115245569.24447  89801740.69447  21930502.0294   21930505.0594   21930502.1744
        50.000          45.000
 124843538.83047  97280653.12247  23756955.7374   23756960.9354   23756956.0864
        45.000          39.000
 115740657.57247  90187517.48047  22024717.4824   22024721.2944   22024717.3074
        51.000          46.000
 141199531.67757  92233384.06457  24966453.5665   24966457.5285   24966453.1235
        41.000          35.000
 128225991.72747  99916341.20447  24400607.2134   24400611.8324   24400606.9054
        43.000          38.000
 136577350.93447  88631677.42947  24086888.3794   24086893.1404   24086887.2434
        44.000          38.000
 115267746.25747  89819010.86347  21934731.3234   21934734.4434   21934731.3814
        50.000          44.000
 09  1  6  0 31  0.0000000  0 12G21G22G18G30G24G14G 5G29G 6G12G31G 9
 108247395.81047  84348608.57747  20598802.4384   20598804.4104   20598802.7904
        54.000          49.000
 127609333.12247  99435835.31047  24283255.5574   24283256.5714   24283255.8524
        45.000          38.000
 124223695.55447  96797656.31747  23639005.9234   23639008.1244   23639006.3964
        46.000          39.000
 123213857.84647  96010777.84347  23446833.3864   23446838.0924   23446832.7284
        47.000          41.000
 112672404.28147  87796645.85547  21440873.2834   21440877.4594   21440873.4024
        53.000          46.000
 115242304.92547  89799197.10247  21929880.7984   21929883.6294   21929880.9314
        50.000          45.000
 124830126.28247  97270201.84947  23754403.3474   23754408.1784   23754404.1264
        46.000          39.000
 115814032.62947  90244692.84747  22038680.2924   22038684.0564   22038680.2034
        50.000          46.000
 141139703.41647  92186764.62947  24955069.4004   24955073.9854   24955068.8744
        40.000          36.000
 128227562.93647  99917565.60847  24400906.5574   24400910.8714   24400906.6444
        43.000          38.000
 136473515.06647  88550766.50747  24067129.1434   24067133.2364   24067128.9484
        44.000          38.000
 115320598.52947  89860194.47947  21944788.6664   21944792.1054   21944788.6184
        50.000          44.000
 09  1  6  0 31 30.0000000  0 12G21G22G18G30G24G14G 5G29G 6G12G31G 9
 108188817.63647  84302963.26847  20587655.3394   20587657.5644   20587655.7374
        55.000          49.000
 127593795.74247  99423728.29347  24280298.4004   24280299.7334   24280298.8184
        44.000          38.000
 124206291.76147  96784094.93447  23635694.2274   23635696.1044   23635694.7114
        46.000          39.000
 123195355.53747  95996360.51747  23443312.5444   23443316.9924   23443312.2414
        47.000          41.000
 112693764.62947  87813290.28747  21444937.8754   21444942.1054   21444938.1694
        53.000          46.000
 115239474.36947  89796991.51547  21929341.8794   21929345.2794   21929342.2424
        50.000          45.000
 124816660.52347  97259709.11047  23751840.6204   23751845.8994   23751841.2354
        46.000          39.000
 115887517.44747  90301953.76047  22052663.9504   22052667.6174   22052663.4754
        51.000          45.000
 141080168.31947  92140373.66447  24943739.8884   24943744.9554   24943739.2804
        38.000          36.000
 128229086.33747  99918752.76547  24401195.9464   24401200.5054   24401195.8764
        43.000          38.000
 136369676.42047  88469853.42847  24047369.4544   24047373.2944   24047369.5664
        45.000          38.000
 115373956.97447  89901772.50047  21954942.1204   21954945.6224   21954942.1064
        50.000          44.000
 09  1  6  0 32  0.0000000  0 12G21G22G18G30G24G14G 5G29G 6G12G31G 9
 108130653.93847  84257640.92947  20576587.2744   20576589.3204   20576587.6984
        55.000          49.000
 127578049.12047  99411458.21847  24277302.2484   24277302.8804   24277302.5454
        45.000          38.000
 124188675.10847  96770367.69847  23632341.6464   23632343.4424   23632342.3794
        47.000          39.000
 123176688.33647  95981814.68847  23439760.6174   23439764.7314   23439760.4404
        47.000          41.000
 112715598.49847  87830303.70447  21449092.5364   21449096.8244   21449092.7104
        52.000          46.000
 115237078.76647  89795124.84347  21928885.9544   21928889.1364   21928886.1464
        51.000          45.000
 124803146.13547  97249178.50447  23749268.9704   23749273.8094   23749269.5494
        45.000          39.000
 115961112.19647  90359300.32247  22066668.4224   22066672.3654   22066668.1534
        51.000          45.000
 141020929.76947  92094213.80047  24932467.2084   24932472.4974   24932466.5274
        40.000          35.000
 128230566.40047  99919906.14447  24401477.8134   24401481.5704   24401477.5584
        43.000          38.000
 136265840.09847  88388942.17547  24027610.0074   24027613.8684   24027610.5684
        45.000          39.000
 115427823.40547  89943746.36547  21965192.6724   21965196.0034   21965192.6884
        50.000          44.000
 09  1  6  0 32 30.0000000  0 12G21G22G18G30G24G14G 5G29G 6G12G31G 9
 108072902.94547  84212640.17747  20565597.4574   20565599.5374   20565597.8724
        54.000          49.000
 127562087.73447  99399020.82047  24274265.4564   24274266.2844   24274265.5574
        44.000          38.000
 124170841.24547  96756471.19847  23628947.5564   23628950.0064   23628948.0434
        46.000          39.000
 123157853.43347  95967138.21647  23436175.9384   23436180.9374   23436175.8764
        47.000          41.000
 112737901.54947  87847682.71147  21453336.5944   21453341.1374   21453336.8484
        52.000          46.000
 115235112.44147  89793592.67647  21928511.9334   21928514.8484   21928512.2564
        51.000          45.000
 124789580.35347  97238607.81147  23746687.7054   23746692.6364   23746687.7774
        46.000          39.000
 116034809.19847  90416726.54947  22080692.8774   22080696.3604   22080692.5034
        51.000          45.000
 140961983.62047  92048281.73247  24921250.4634   24921255.1694   24921249.8544
        39.000          35.000
 128232000.43447  99921023.64847  24401750.9814   24401754.8754   24401750.8304
        44.000          38.000
 136162004.17847  88308031.23447  24007850.5344   24007854.7274   24007850.3354
        44.000          39.000
 115482191.59847  89986111.21847  21975538.6744   21975542.4454   21975538.6304
        50.000          44.000
 09  1  6  0 33  0.0000000  0 12G21G22G18G30G24G14G 5G29G 6G12G31G 9
 108015573.94647  84167968.24547  20554688.3814   20554690.2634   20554688.8254
        54.000          49.000
 127545917.50747  99386420.68147  24271187.6894   24271188.8724   24271187.6114
        43.000          38.000
 124152797.23547  96742410.97047  23625514.0934   23625516.6074   23625514.4634
        46.000          39.000
 123138858.23847  95952336.83147  23432561.4454   23432566.0214   23432560.8604
        47.000          41.000
 112760680.31247  87865432.40247  21457671.2024   21457675.7784   21457671.1604
        52.000          46.000
 115233580.41547  89792398.91847  21928220.2644   21928223.4134   21928220.3914
        50.000          45.000
 124775971.36447  97228003.47047  23744098.1024   23744102.5524   23744098.5924
        45.000          39.000
 116108612.39447  90474235.52547  22094737.1334   22094740.7044   22094737.0464
        50.000          45.000
 140903337.03247  92002583.13247  24910089.7134   24910094.8324   24910089.9734
        40.000          35.000
 128233396.70147  99922111.72247  24402016.9544   24402020.1404   24402016.7194
        44.000          38.000
 136058177.94147  88227127.83347  23988092.6554   23988096.6304   23988091.9714
        44.000          39.000
 115537067.27047  90028871.49947  21985980.9334   21985984.5584   21985981.1764
        50.000          44.000
 09  1  6  0 33 30.0000000  0 12G21G22G18G30G24G14G 5G29G 6G12G31G 9
 107958663.64047  84123622.56247  20543858.3594   20543860.5064   20543858.8464
        54.000          48.000
 127529531.84147  99373652.64347  24268069.6294   24268070.9274   24268069.7184
        43.000          38.000
 124134537.53247  96728182.64747  23622039.1354   23622041.8554   23622039.7564
        46.000          39.000
 123119697.64747  95937406.55747  23428915.1624   23428920.0614   23428914.6384
        46.000          41.000
 112783929.03947  87883548.29347  21462095.5204   21462099.8804   21462095.7154
        52.000          46.000
 115232475.34747  89791537.85947  21928010.1354   21928013.4044   21928010.5744
        51.000          45.000
 124762315.14547  97217362.32747  23741498.9794   23741504.2804   23741499.3894
        45.000          39.000
 116182513.29647  90531820.64747  22108799.8914   22108803.3504   22108799.6154
        50.000          45.000
 140844984.46647  91957113.60347  24898985.4624   24898991.3224   24898985.8084
        41.000          35.000
 128234750.73947  99923166.88147  24402274.6034   24402277.3124   24402274.5484
        44.000          38.000
 135954357.80247  88146229.20447  23968335.9704   23968340.4904   23968335.7804
        45.000          39.000
 115592443.00747  90072021.45347  21996519.1824   21996521.9594   21996519.2354
        51.000          44.000
 09  1  6  0 34  0.0000000  0 12G21G22G18G30G24G14G 5G29G 6G12G31G 9
 107902178.17747  84079607.92547  20533109.4314   20533111.6744   20533109.8114
        54.000          49.000
 127512933.32247  99360718.76847  24264911.4194   24264912.1914   24264911.2244
        44.000          38.000
 124116066.30547  96713789.50247  23618524.5464   23618526.8794   23618525.0994
        46.000          39.000
 123100376.12247  95922350.89447  23425238.7174   23425243.0814   23425238.6954
        47.000          41.000
 112807651.32347  87902033.19847  21466609.6864   21466614.1334   21466609.7594
        53.000          46.000
 115231799.04147  89791010.90247  21927881.4564   21927884.3404   21927881.6564
        51.000          45.000
 124748617.04447  97206688.56347  23738892.3184   23738897.2424   23738892.6464
        46.000          39.000
 116256512.38147  90589482.26547  22122881.4144   22122885.0324   22122881.2674
        50.000          45.000
 140786929.82447  91911876.21047  24887938.3294   24887943.3894   24887938.4584
        41.000          35.000
 128236068.02647  99924193.40247  24402525.4844   24402528.5444   24402525.0584
        44.000          39.000
 135850549.77147  88065340.01547  23948581.7464   23948586.0334   23948581.5994
        44.000          39.000
 115648321.13547  90115562.87747  22007152.1944   22007155.2814   22007152.2414
        51.000          44.000
 09  1  6  0 34 30.0000000  0 12G21G22G18G30G24G14G 5G29G 6G12G31G 9
 107846119.57147  84035925.91047  20522441.8794   20522443.9874   20522442.2294
        54.000          48.000
 127496120.44047  99347617.85747  24261711.3914   24261712.6774   24261711.2974
        43.000          38.000
 124097382.81347  96699230.96947  23614969.1284   23614971.2404   23614969.6404
        46.000          40.000
 123080893.97747  95907170.06747  23421531.2794   23421535.7934   23421531.3664
        47.000          41.000
 112831846.53947  87920886.61047  21471213.9054   21471218.3464   21471214.1454
        52.000          46.000
 115231549.05747  89790816.14947  21927833.8074   21927836.8004   21927834.1904
        51.000          45.000
 124734877.88147  97195982.79147  23736277.9654   23736282.7744   23736278.6664
        46.000          39.000
 116330606.10447  90647217.63547  22136981.1874   22136984.5294   22136981.1844
        50.000          45.000
 140729172.74747  91866870.65747  24876947.9074   24876951.1714   24876947.8784
        42.000          35.000
 128237349.00647  99925191.64947  24402768.4534   24402772.1864   24402768.4094
        44.000          39.000
 135746755.57247  87984461.59947  23928829.9584   23928834.3964   23928829.0924
        44.000          39.000
 115704699.24947  90159493.89447  22017880.5144   22017883.7964   22017880.7434
        51.000          44.000
 09  1  6  0 35  0.0000000  0 12G21G22G18G30G24G14G 5G29G 6G12G31G 9
 107790492.01347  83992579.78247  20511856.1584   20511858.3054   20511856.4594
        54.000          49.000
 127479093.93047  99334350.47547  24258471.4044   24258472.4194   24258471.6694
        43.000          37.000
 124078488.78647  96684508.37847  23611373.6594   23611375.9574   23611373.9024
        46.000          40.000
 123061253.76747  95891866.08247  23417794.0584   23417798.1914   23417793.6244
        47.000          41.000
 112856515.54447  87940109.22047  21475908.2734   21475912.7274   21475908.3884
        53.000          46.000
 115231724.94547  89790953.24047  21927867.2204   21927870.0364   21927867.3904
        50.000          45.000
 124721100.60447  97185247.31047  23733656.3184   23733661.0754   23733656.7014
        45.000          39.000
 116404792.97047  90705025.58747  22151098.1604   22151101.5644   22151097.7594
        50.000          45.000
 140671714.76847  91822098.20647  24866014.4154   24866017.3454   24866013.9894
        42.000          34.000
 128238596.50647  99926163.79047  24403005.5444   24403009.2054   24403005.5214
        44.000          38.000
 135642978.56647  87903596.58447  23909081.9644   23909086.1114   23909080.3374
        44.000          39.000
 115761577.52747  90203814.66947  22028704.2054   22028707.4814   22028704.5054
        51.000          44.000
 09  1  6  0 35 30.0000000  0 12G21G22G18G30G24G14G 5G29G 6G12G31G 9
 107735295.26447  83949569.32747  20501353.0584   20501354.7274   20501353.4784
        54.000          49.000
 127461850.46347  99320914.04547  24255190.3554   24255191.0804   24255189.7464
        44.000          37.000
 124059382.09747  96669620.07147  23607737.9574   23607739.8274   23607738.2964
        46.000          40.000
 123041454.09247  95876437.81847  23414025.7434   23414030.2094   23414025.3564
        47.000          41.000
 112881655.80447  87959699.04347  21480692.4804   21480696.7304   21480692.6334
        53.000          46.000
 115232322.51047  89791418.90847  21927980.8954   21927983.8794   21927981.1014
        51.000          45.000
 124707284.29947  97174481.43447  23731026.7134   23731031.8034   23731027.2164
        45.000          39.000
 116479067.52147  90762901.85947  22165232.3784   22165235.7304   22165231.8034
        50.000          45.000
 140614553.52247  91777556.95147  24855136.0254   24855140.3834   24855136.3704
        41.000          34.000
 128239809.71947  99927109.19647  24403236.6934   24403240.2304   24403236.2814
        44.000          38.000
 135539218.77747  87822744.98847  23889336.8614   23889341.3124   23889336.1094
        45.000          39.000
 115818951.62547  90248521.78247  22039622.0124   22039625.2664   22039622.1404
        50.000          44.000
 09  1  6  0 36  0.0000000  0 12G21G22G18G30G24G14G 5G29G 6G12G31G 9
 107680535.02247  83906899.02147  20490932.4124   20490934.2714   20490932.7334
        54.000          49.000
 127444392.08147  99307310.12947  24251867.7734   24251868.7224   24251867.6504
        44.000          38.000
 124040065.78747  96654568.41547  23604062.1004   23604064.0234   23604062.4324
        46.000          39.000
 123021498.87147  95860888.37147  23410228.8724   23410232.5214   23410228.7314
        47.000          41.000
 112907270.46147  87979658.52847  21485566.6394   21485571.1094   21485566.6044
        52.000          46.000
 115233342.95147  89792214.09447  21928175.0144   21928178.2804   21928175.4444
        51.000          45.000
 124693433.60347  97163688.73947  23728391.0044   23728395.9544   23728391.1304
        45.000          39.000
 116553430.06847  90820846.69847  22179383.1794   22179386.4264   22179382.8364
        51.000          45.000
 140557692.29647  91733249.46747  24844316.9974   24844320.1944   24844315.6594
        41.000          34.000
 128240992.99947  99928031.30447  24403461.1794   24403465.5394   24403461.1644
        43.000          38.000
 135435481.85947  87741911.19947  23869596.4914   23869600.5784   23869596.4314
        45.000          39.000
 115876823.01747  90293616.38647  22050634.6024   22050637.9674   22050634.5464
        51.000          44.000
 09  1  6  0 36 30.0000000  0 12G21G22G18G30G24G14G 5G29G 6G12G31G 9
 107626211.62747  83864569.12147  20480595.0404   20480596.8944   20480595.4374
        55.000          49.000
 127426716.12647  99293536.68647  24248504.1454   24248505.0234   24248504.3334
        42.000          37.000
 124020538.39447  96639352.29047  23600345.7764   23600348.1874   23600346.3944
        46.000          39.000
 123001387.00247  95845216.86547  23406401.6114   23406405.4574   23406401.6804
        47.000          41.000
 112933357.55347  87999986.13347  21490530.6324   21490535.2624   21490530.7104
        52.000          46.000
 115234782.80047  89793336.09547  21928449.0444   21928451.9834   21928449.3164
        50.000          45.000
 124679548.38247  97152869.16647  23725748.2774   23725753.1984   23725748.9164
        45.000          39.000
 116627875.77147  90878856.35547  22193549.6924   22193552.7174   22193549.6404
        50.000          45.000
 140501129.49947  91689174.56347  24833552.8124   24833557.1454   24833552.6304
        42.000          35.000
 128242146.46447  99928930.16447  24403681.0904   24403685.3374   24403680.6594
        44.000          38.000
 135331768.09247  87661095.44547  23849860.2034   23849864.5694   23849859.9364
        45.000          39.000
 115935188.36647  90339095.91047  22061741.2604   22061744.2434   22061741.2974
        50.000          44.000
 09  1  6  0 37  0.0000000  0 12G21G22G18G30G24G14G 5G29G 6G12G31G 9
 107572330.68347  83822583.98447  20470341.7584   20470343.5674   20470342.1764
        54.000          49.000
 127408824.99747  99279595.56947  24245099.7534   24245100.5624   24245099.4164
        43.000          37.000
 124000802.96347  96623974.03547  23596590.3424   23596592.7374   23596590.9254
        46.000          39.000
 122981122.43947  95829426.37047  23402545.3624   23402549.3854   23402544.7814
        47.000          41.000
 112959919.23947  88020683.56147  21495585.3604   21495589.4434   21495585.4784
        52.000          46.000
 115236642.66647  89794785.37747  21928802.9874   21928806.0924   21928803.1014
        51.000          45.000
 124665632.94447  97142026.02647  23723100.4984   23723105.2464   23723101.3684
        45.000          39.000
 116702404.43547  90936930.64047  22207732.0474   22207735.2174   22207731.5444
        51.000          45.000
 140444867.83047  91645334.27347  24822846.2754   24822851.3614   24822846.7114
        42.000          35.000
 128243274.18447  99929808.97147  24403896.0824   24403899.2824   24403895.6944
        44.000          38.000
 135228082.67847  87580301.77247  23830129.6514   23830133.7884   23830128.7074
        45.000          40.000
 115994049.02947  90384961.39447  22072941.8724   22072944.8224   22072941.9824
        50.000          44.000
 09  1  6  0 37 30.0000000  0 12G21G22G18G30G24G14G 5G29G 6G12G31G 9
 107518894.37847  83780945.32047  20460172.8974   20460174.9774   20460173.3024
        54.000          49.000
 127390717.60047  99265485.94247  24241654.3854   24241654.7674   24241654.1944
        44.000          38.000
 123980859.81547  96608433.94247  23592795.1764   23592797.6204   23592795.6104
        46.000          39.000
 122960706.19447  95813517.69147  23398659.8374   23398664.1674   23398659.5934
        46.000          41.000
 112986955.33947  88041750.65947  21500730.1074   21500734.4554   21500730.1654
        52.000          46.000
 115238920.82747  89796560.61147  21929236.4154   21929239.3904   21929236.7584
        50.000          45.000
 124651688.83547  97131160.53847  23720447.3364   23720452.1854   23720448.0054
        46.000          39.000
 116777013.08247  90995067.24847  22221929.5944   22221932.4634   22221929.2674
        51.000          45.000
 140388907.59347  91601728.89047  24812196.5574   24812201.3734   24812197.1724
        41.000          35.000
 128244377.73947  99930668.97047  24404105.4754   24404109.2964   24404105.0774
        43.000          38.000
 135124427.82647  87499531.90847  23810404.5034   23810409.0734   23810404.0124
        45.000          40.000
 116053403.06647  90431211.32847  22084236.4054   22084239.7474   22084236.5564
        50.000          44.000
 09  1  6  0 38  0.0000000  0 12G21G22G18G30G24G14G 5G29G 6G12G31G 9
 107465900.56447  83739651.44847  20450088.6724   20450090.5844   20450088.9714
        54.000          49.000
 127372388.26947  99251203.37147  24238165.6584   24238166.6884   24238166.5764
        43.000          37.000
 123960704.64147  96592728.63347  23588959.9224   23588962.4584   23588960.3424
        46.000          40.000
 122940134.51147  95797487.88947  23394744.8714   23394749.3454   23394744.7834
        47.000          41.000
 113014460.79247  88063183.48247  21505964.1514   21505968.5034   21505964.2724
        52.000          46.000
 115241610.74947  89798656.69247  21929748.1504   21929751.2364   21929748.2274
        50.000          44.000
 124637713.04047  97120270.34847  23717788.1014   23717792.4774   23717788.7534
        46.000          39.000
 116851694.05747  91053260.21647  22236140.9484   22236143.8894   22236140.7484
        50.000          45.000
 140333244.11547  91558354.70247  24801604.9074   24801609.9034   24801605.3404
        43.000          35.000
 128245453.85447  99931507.57447  24404310.3074   24404313.9774   24404309.6634
        43.000          38.000
 135020801.22047  87418784.04947  23790684.7734   23790689.2304   23790684.4274
        45.000          40.000
 116113244.18647  90477840.79347  22095623.7034   22095627.2134   22095623.8394
        49.000          43.000
 09  1  6  0 38 30.0000000  0 12G21G22G18G30G24G14G 5G29G 6G12G31G 9
 107413358.95547  83698709.94847  20440090.2844   20440092.1914   20440090.7294
        54.000          49.000
 127353843.12647  99236752.62447  24234636.4704   24234637.6694   24234636.5554
        43.000          37.000
 123940345.07647  96576864.05547  23585085.8684   23585087.8134   23585086.1084
        46.000          40.000
 122919415.62547  95781343.36247  23390802.4564   23390806.5674   23390802.3084
        47.000          41.000
 113042442.58147  88084987.47747  21511288.8614   21511293.2334   21511288.9044
        52.000          46.000
 115244717.45847  89801077.55147  21930339.2764   21930342.2934   21930339.4654
        50.000          45.000
 124623714.38647  97109362.34247  23715123.8004   23715128.2794   23715124.3154
        45.000          39.000
 116926451.68147  91111512.91047  22250366.7274   22250369.8834   22250366.5524
        50.000          45.000
 140277884.58047  91515217.38547  24791070.4194   24791075.0084   24791070.4394
        41.000          35.000
 128246511.06347  99932331.44847  24404511.5544   24404515.1714   24404511.4124
        44.000          38.000
 134917212.56447  87338065.75847  23770972.4764   23770977.0784   23770971.8474
        45.000          40.000
 116173577.82747  90524854.04247  22107104.6004   22107108.4604   22107104.9794
        50.000          43.000
 09  1  6  0 39  0.0000000  0 12G21G22G18G30G24G14G 5G29G 6G12G31G 9
 107361269.23547  83658120.57347  20430178.0054   20430179.9124   20430178.4054
        55.000          49.000
 127335079.06447  99222131.30047  24231066.3654   24231067.4704   24231065.6054
        43.000          37.000
 123919778.46647  96560838.13247  23581172.1534   23581174.1684   23581172.8934
        47.000          40.000
 122898547.99147  95765082.94047  23386830.9614   23386835.1924   23386830.7464
        46.000          41.000
 113070897.70247  88107160.30747  21516703.6024   21516708.0874   21516703.6664
        52.000          46.000
 115248236.67747  89803819.83547  21931008.8674   21931011.8624   21931009.2864
        50.000          45.000
 124609691.87047  97098435.74647  23712455.2234   23712460.0574   23712455.6224
        45.000          40.000
 117001280.69347  91169821.23447  22264606.3534   22264609.6104   22264606.1404
        50.000          45.000
 140222826.49047  91472314.97347  24780593.3534   24780598.3894   24780593.0304
        40.000          35.000
 128247548.36447  99933139.81047  24404708.9824   24404712.4364   24404709.4284
        43.000          38.000
 134813661.62047  87257376.84747  23751267.3504   23751272.0534   23751266.5984
        44.000          40.000
 116234399.59947  90572247.66047  22118679.0524   22118682.0634   22118679.1714
        50.000          44.000
 09  1  6  0 39 30.0000000  0 12G21G22G18G30G24G14G 5G29G 6G12G31G 9
 107309632.43947  83617884.13147  20420351.8524   20420353.7264   20420352.2474
        54.000          49.000
 127316094.25547  99207337.97647  24227453.0104   24227454.5364   24227452.4724
        42.000          37.000
 123899004.18647  96544650.40147  23577219.1054   23577221.1244   23577219.4364
        46.000          40.000
 122877531.21547  95748706.29747  23382831.6364   23382835.8424   23382831.2874
        47.000          41.000
 113099824.44647  88129700.63147  21522208.3804   21522212.4464   21522208.5414
        52.000          46.000
 115252165.24947  89806881.09647  21931756.4014   21931759.5774   21931756.5474
        50.000          45.000
 124595645.84047  97087490.81647  23709782.3164   23709787.4564   23709783.2284
        45.000          40.000
 117076176.51347  91228181.61647  22278858.5574   22278861.8754   22278858.1374
        50.000          45.000
 140168068.79047  91429646.59947  24770172.2124   24770177.4134   24770173.2254
        42.000          36.000
 128248566.04647  99933932.90147  24404902.7164   24404905.4114   24404902.9764
        44.000          38.000
 134710149.60247  87176718.26747  23731569.5894   23731574.0804   23731569.3404
        45.000          40.000
 116295706.38947  90620019.20947  22130345.1714   22130348.3764   22130345.3764
        50.000          43.000
 09  1  6  0 40  0.0000000  0 12G21G22G18G30G24G14G 5G29G 6G12G31G 9
 107258453.49047  83578004.44247  20410612.7084   20410614.7124   20410613.0584
        55.000          49.000
 127296890.35347  99192373.90447  24223798.7874   24223800.2224   24223798.7584
        43.000          37.000
 123878024.58547  96528302.69047  23573226.7304   23573228.6804   23573226.9274
        46.000          40.000
 122856368.90847  95732216.25447  23378804.8444   23378808.7034   23378804.8874
        47.000          41.000
 113129224.69247  88152609.91547  21527803.0364   21527807.3244   21527803.1774
        52.000          46.000
 115256503.26047  89810261.40847  21932582.2224   21932585.0284   21932582.5714
        51.000          45.000
 124581580.34347  97076530.70147  23707106.2534   23707110.6234   23707106.5814
        45.000          40.000
 117151138.83647  91286593.82947  22293123.3194   22293126.5654   22293122.6614
        50.000          45.000
 140113613.78647  91387214.08747  24759811.4254   24759816.1424   24759811.1794
        42.000          36.000
 128249568.02347  99934713.76647  24405093.0494   24405096.6064   24405092.7954
        43.000          39.000
 134606680.92047  87096093.45447  23711880.3904   23711884.6414   23711880.3104
        46.000          40.000
 116357498.61647  90668169.01547  22142103.5324   22142107.1944   22142103.6424
        50.000          44.000
 09  1  6  0 40 30.0000000  0 12G21G22G18G30G24G14G 5G29G 6G12G31G 9
 107207730.35047  83538479.92047  20400960.5164   20400962.4294   20400960.8704
        55.000          49.000
 127277461.60547  99177234.66847  24220101.6564   24220102.6414   24220101.8524
        43.000          38.000
 123856835.95247  96511792.09647  23569194.5524   23569196.3924   23569195.1974
        46.000          40.000
 122835057.91847  95715610.35147  23374748.9754   23374753.6904   23374748.9304
        47.000          41.000
 113159093.75247  88175884.50847  21533486.7784   21533491.2244   21533486.9694
        52.000          46.000
 115261244.37247  89813955.81847  21933483.9344   21933486.9434   21933484.3794
        50.000          45.000
 124567492.50047  97065553.19247  23704424.7444   23704429.8494   23704425.0754
        45.000          39.000
 117226160.53347  91345052.27447  22307399.4964   22307402.9534   22307399.4024
        51.000          45.000
 140059457.09347  91345014.06047  24749504.9854   24749510.4234   24749505.3674
        42.000          36.000
 128250551.05947  99935479.89247  24405280.2654   24405283.7804   24405279.8804
        44.000          39.000
 134503253.66147  87015500.90047  23692198.6754   23692203.1064   23692198.6054
        46.000          40.000
 116419770.44647  90716692.53947  22153953.7974   22153956.8874   22153953.8144
        50.000          44.000
 09  1  6  0 41  0.0000000  0 12G21G22G18G30G24G14G 5G29G 6G12G31G 9
 107157473.70447  83499318.91047  20391396.9834   20391398.6784   20391397.2524
        54.000          49.000
 127257816.16847  99161926.53447  24216363.8494   24216364.4094   24216363.4464
        44.000          38.000
 123835446.81647  96495125.26647  23565124.2994   23565126.4994   23565124.6254
        47.000          40.000
 122813607.42147  95698895.74247  23370667.5104   23370671.5434   23370666.8264
        48.000          41.000
 113189439.58847  88199530.61947  21539261.4324   21539265.7274   21539261.6464
        52.000          46.000
 115266395.14947  89817969.45747  21934464.4844   21934467.2394   21934464.5044
        51.000          45.000
 124553392.40547  97054566.13747  23701741.8344   23701746.9374   23701742.4354
        45.000          39.000
 117301246.93147  91403561.15147  22321688.0184   22321691.6084   22321687.9854
        50.000          45.000
 140005607.17947  91303053.06047  24739257.8564   24739262.4034   24739258.2994
        43.000          37.000
 128251525.43547  99936239.24947  24405465.7434   24405468.9994   24405465.2694
        45.000          39.000
 134399878.68947  86934949.09747  23672526.9774   23672531.0324   23672526.9674
        46.000          40.000
 116482528.17847  90765594.68347  22165896.2254   22165899.4614   22165896.3044
        50.000          44.000
 09  1  6  0 41 30.0000000  0 12G21G22G18G30G24G14G 5G29G 6G12G31G 9
 107107682.45147  83460520.55047  20381922.0274   20381923.8044   20381922.4384
        55.000          49.000
 127237949.95947  99146446.41847  24212582.7534   24212583.5584   24212583.0694
        43.000          37.000
 123813854.44647  96478300.04047  23561015.6784   23561017.5034   23561016.1164
        47.000          40.000
 122792015.26047  95682070.73247  23366559.2584   23366562.4484   23366558.8994
        48.000          41.000
 113220258.52647  88223545.37947  21545126.0474   21545130.5624   21545126.1554
        52.000          46.000
 115271950.27747  89822298.16347  21935521.2984   21935524.2464   21935521.5834
        51.000          45.000
 124539278.38147  97043568.21747  23699056.0534   23699060.8354   23699056.7364
        46.000          39.000
 117376391.55447  91462115.40747  22335987.5384   22335990.7994   22335987.1194
        50.000          45.000
 139952060.49447  91261328.31147  24729069.0264   24729073.0324   24729068.8544
        42.000          36.000
 128252489.34747  99936990.44847  24405648.7114   24405651.9454   24405648.9694
        46.000          39.000
 134296555.17547  86854437.38247  23652865.2114   23652868.8254   23652865.0424
        46.000          41.000
 116545766.83447  90814871.58147  22177930.0764   22177933.2994   22177930.4484
        50.000          44.000
 09  1  6  0 42  0.0000000  0 12G21G22G18G30G24G14G 5G29G 6G12G31G 9
 107058361.60347  83422088.73747  20372536.5394   20372538.3124   20372536.9234
        54.000          49.000
 127217864.27847  99130795.29647  24208760.6114   24208761.1004   24208760.6654
        43.000          37.000
 123792061.50847  96461318.55747  23556868.6624   23556870.4934   23556868.9364
        48.000          40.000
 122770285.01847  95665138.14647  23362423.6174   23362427.2074   23362423.1704
        47.000          41.000
 113251552.63247  88247930.40147  21551081.0924   21551085.4744   21551081.2754
        52.000          46.000
 115277909.93047  89826942.08647  21936655.3624   21936658.4184   21936655.6134
        50.000          44.000
 124525154.58147  97032562.68447  23696368.5094   23696372.9604   23696369.0184
        46.000          39.000
 117451594.27247  91520714.92247  22350298.0854   22350301.5094   22350297.5814
        50.000          45.000
 139898819.60447  91219841.87447  24718936.9134   24718941.9884   24718936.9944
        42.000          36.000
 128253446.75847  99937736.58747  24405831.1654   24405834.4174   24405830.6834
        44.000          38.000
 134193287.99247  86773969.55947  23633213.8484   23633217.6784   23633213.7414
        47.000          41.000
 116609486.92747  90864523.63247  22190055.7424   22190058.3864   22190055.7134
        50.000          43.000
 09  1  6  0 42 30.0000000  0 12G21G22G18G30G24G14G 5G29G 6G12G31G 9
 107009508.28847  83384021.22747  20363240.0384   20363241.8054   20363240.3244
        54.000          49.000
 127197554.04947  99114969.14047  24204895.6594   24204896.5694   24204895.6184
        43.000          37.000
 123770063.32147  96444177.12047  23552682.1834   23552684.2534   23552682.7944
        47.000          40.000
 122748412.57347  95648094.73247  23358261.1294   23358265.1284   23358261.0214
        47.000          41.000
 113283316.18147  88272681.22647  21557125.5824   21557130.0264   21557125.8224
        52.000          46.000
 115284266.77947  89831895.51547  21937865.1754   21937868.1304   21937865.2524
        50.000          45.000
 124511017.60547  97021546.88447  23693678.3494   23693683.0444   23693679.1784
        46.000          40.000
 117526847.41247  91579353.70847  22364618.2894   22364621.7534   22364618.0884
        50.000          45.000
 139845879.46647  91178589.77547  24708862.6224   24708867.2084   24708862.7084
        42.000          36.000
 128254394.15647  99938474.92047  24406011.3614   24406015.0704   24406011.0854
        44.000          39.000
 134090074.33547  86693543.45647  23613572.7644   23613576.5724   23613572.5264
        46.000          40.000
 116673681.68947  90914545.54847  22202271.5024   22202274.5434   22202271.3984
        50.000          43.000
 09  1  6  0 43  0.0000000  0 12G21G22G18G30G24G14G 5G29G 6G12G31G 9
 106961128.79247  83346322.92447  20354033.7934   20354035.5194   20354034.2134
        54.000          49.000
 127177022.32047  99098970.40947  24200988.9834   24200989.6584   24200988.9594
        44.000          38.000
 123747864.56547  96426879.38447  23548457.5224   23548459.9414   23548457.9404
        47.000          40.000
 122726403.29847  95630944.70747  23354072.9094   23354077.0924   23354072.6264
        48.000          41.000
 113315552.84947  88297800.71647  21563260.2364   21563264.4714   21563260.3904
        53.000          46.000
 115291023.48247  89837160.51847  21939150.7074   21939153.7084   21939151.0814
        50.000          44.000
 124496873.17247  97010525.27847  23690986.8254   23690991.8894   23690987.4744
        45.000          40.000
 117602151.80247  91638032.45447  22378948.6444   22378951.3504   22378948.3704
        50.000          44.000
 139793244.06647  91137575.11147  24698846.3434   24698851.7844   24698846.4004
        42.000          36.000
 128255336.89147  99939209.63247  24406190.4594   24406193.3214   24406190.4924
        45.000          38.000
 133986920.91547  86613164.28847  23593943.0664   23593946.9934   23593942.7714
        45.000          40.000
 116738353.19147  90964938.94247  22214577.8714   22214581.3474   22214577.9864
        49.000          43.000
 09  1  6  0 43 30.0000000  0 12G21G22G18G30G24G14G 5G29G 6G12G31G 9
 106913227.39847  83308997.17847  20344918.3164   20344920.1954   20344918.7564
        54.000          49.000
 127156269.83647  99082799.65147  24197039.4624   24197040.4644   24197039.5084
        43.000          37.000
 123725467.27347  96409426.96147  23544195.6344   23544197.9964   23544196.0604
        47.000          40.000
 122704259.69847  95613690.00147  23349859.4054   23349863.3524   23349859.1004
        48.000          41.000
 113348263.58347  88323289.60547  21569484.9414   21569489.1044   21569485.1774
        53.000          46.000
 115298179.11447  89842736.37447  21940512.3574   21940515.2114   21940512.5814
        50.000          45.000
 124482724.66747  96999500.50447  23688294.1684   23688299.0884   23688294.3744
        45.000          40.000
 117677506.71047  91696750.55247  22393287.7574   22393291.1104   22393287.2784
        50.000          44.000
 139740915.15947  91096799.29147  24688888.5644   24688893.6854   24688888.9424
        42.000          37.000
 128256278.38647  99939943.35247  24406369.2774   24406372.8654   24406369.1834
        44.000          38.000
 133883831.84647  86532835.26647  23574325.4214   23574329.4774   23574324.3664
        45.000          40.000
 116803500.93047  91015703.43147  22226975.2234   22226978.1274   22226974.8974
        49.000          43.000
 09  1  6  0 44  0.0000000  0 12G21G22G18G30G24G14G 5G29G 6G12G31G 9
 106865802.22447  83272042.50147  20335893.6634   20335895.4654   20335894.0934
        55.000          49.000
 127135292.40247  99066453.61347  24193047.8004   24193048.2674   24193047.3574
        44.000          37.000
 123702868.15347  96391817.26747  23539895.3124   23539897.3984   23539895.7164
        47.000          40.000
 122681979.14347  95596328.58847  23345619.6164   23345623.3684   23345619.1034
        47.000          41.000
 113381443.94047  88349144.43147  21575798.9084   21575803.1164   21575799.1234
        52.000          46.000
 115305727.98747  89848618.65247  21941948.7394   21941951.8194   21941948.8684
        50.000          45.000
 124468569.83247  96988470.81747  23685600.3094   23685605.2954   23685600.7534
        45.000          40.000
 117752905.08647  91755502.53747  22407635.6874   22407638.9154   22407635.5224
        50.000          44.000
 139688888.59247  91056259.06647  24678988.7234   24678993.3674   24678988.7214
        42.000          37.000
 128257216.30947  99940674.26947  24406547.7614   24406551.0604   24406547.5634
        43.000          38.000
 133780805.59947  86452555.17947  23554720.1494   23554724.1134   23554718.9384
        45.000          40.000
 116869119.12647  91066834.51647  22239461.7294   22239465.1244   22239461.8164
        50.000          43.000
 09  1  6  0 44 30.0000000  0 12G21G22G18G30G24G14G 5G29G 6G12G31G 9
 106818857.26347  83235462.02147  20326960.3504   20326962.1464   20326960.7024
        54.000          49.000
 127114091.07447  99049933.08947  24189014.0334   24189014.5874   24189013.6104
        44.000          38.000
 123680069.31347  96374051.93947  23535556.7454   23535558.6914   23535557.0934
        47.000          40.000
 122659564.82947  95578862.95047  23341353.6454   23341358.1064   23341353.1894
        48.000          41.000
 113415095.37147  88375366.33347  21582202.5584   21582206.7274   21582202.5704
        52.000          46.000
 115313669.59747  89854806.96247  21943460.0144   21943463.0254   21943460.4114
        50.000          45.000
 124454412.32047  96977439.01947  23682906.2964   23682911.4884   23682906.7984
        45.000          40.000
 117828345.87347  91814287.55847  22421991.4034   22421994.7584   22421991.1414
        49.000          44.000
 139637166.21247  91015955.83847  24669146.0494   24669150.8184   24669146.0144
        42.000          36.000
 128258154.09447  99941405.08847  24406726.8294   24406729.0444   24406726.6134
        44.000          38.000
 133677846.38847  86372327.34247  23535127.5464   23535131.6394   23535126.9524
        46.000          40.000
 116935207.61647  91118332.06747  22252038.2744   22252041.1374   22252038.3724
        50.000          43.000
 09  1  6  0 45  0.0000000  0 12G21G22G18G30G24G14G 5G29G 6G12G31G 9
 106772396.46447  83199258.80447  20318119.1514   20318120.9894   20318119.5654
        54.000          49.000
 127092667.11547  99033239.10347  24184936.6574   24184937.8934   24184936.6004
        43.000          38.000
 123657073.60447  96356133.19547  23531180.9524   23531182.5164   23531181.6654
        47.000          39.000
 122637019.45047  95561295.16447  23337063.7784   23337067.5824   23337063.5764
        48.000          41.000
 113449218.82947  88401956.04347  21588695.7194   21588700.1484   21588695.8744
        52.000          46.000
 115322003.74547  89861301.14347  21945045.9784   21945048.9444   21945046.2364
        50.000          45.000
 124440255.54247  96966407.82647  23680212.5134   23680217.5384   23680213.2724
        45.000          39.000
 117903828.38747  91873105.10547  22436355.1354   22436358.3294   22436354.5364
        49.000          44.000
 139585749.78547  90975891.04847  24659362.0804   24659367.0974   24659361.6904
        42.000          37.000
 128259094.94747  99942138.28047  24406905.6814   24406908.4174   24406905.2444
        44.000          38.000
 133574958.68947  86292155.23547  23515548.5014   23515552.5134   23515548.1034
        45.000          41.000
 117001766.54847  91170196.19647  22264703.7474   22264707.1174   22264703.6074
        49.000          43.000
 09  1  6  0 45 30.0000000  0 12G21G22G18G30G24G14G 5G29G 6G12G31G 9
 106726422.27947  83163434.77447  20309370.3924   20309372.2904   20309370.7204
        54.000          49.000
 127071019.92147  99016371.19547  24180817.1174   24180818.0394   24180817.6704
        44.000          38.000
 123633881.13147  96338061.15947  23526767.7124   23526769.3364   23526768.4154
        47.000          39.000
 122614344.73947  95543626.61147  23332748.7424   23332752.6604   23332748.5534
        48.000          41.000
 113483813.95847  88428913.28547  21595279.1374   21595283.4704   21595279.2134
        52.000          46.000
 115330728.69547  89868099.84947  21946706.2604   21946709.2434   21946706.3974
        50.000          45.000
 124426101.33947  96955378.64447  23677518.7874   23677523.5434   23677518.9474
        45.000          39.000
 117979349.97347  91931953.09847  22450726.5084   22450729.5854   22450726.3454
        49.000          44.000
 139534639.20547  90936064.55347  24649635.8654   24649640.9044   24649635.8794
        42.000          36.000
 128260040.75847  99942875.31347  24407085.5654   24407088.0654   24407085.4174
        44.000          38.000
 133472144.92047  86212040.73347  23495983.5894   23495987.7274   23495982.9634
        45.000          40.000
 117068794.06947  91222425.45447  22277458.5904   22277462.1874   22277458.7804
        49.000          43.000
 09  1  6  0 46  0.0000000  0 12G21G22G18G30G24G14G 5G29G 6G12G31G 9
 106680933.80247  83127989.21247  20300714.3404   20300716.1504   20300714.6734
        54.000          49.000
 127049145.88547  98999326.51147  24176654.8244   24176655.7854   24176655.1294
        44.000          38.000
 123610489.25247  96319833.73247  23522316.0374   23522318.2564   23522316.7894
        46.000          39.000
 122591538.57347  95525855.62147  23328408.9994   23328412.9524   23328408.9584
        47.000          41.000
 113518876.91747  88456235.07247  21601951.4404   21601955.7034   21601951.6184
        52.000          46.000
 115339838.89347  89875198.75047  21948439.9024   21948442.8824   21948440.0474
        51.000          45.000
 124411948.33847  96944350.40747  23674825.8664   23674830.5054   23674826.3564
        45.000          40.000
 118054904.20247  91990826.53047  22465104.1614   22465107.0134   22465104.2514
        49.000          44.000
 139483831.34747  90896473.95647  24639968.1274   24639972.3944   24639967.5284
        42.000          37.000
 128260989.95347  99943614.99347  24407266.0714   24407269.3294   24407265.8224
        43.000          38.000
 133369404.43447  86131983.34247  23476432.8694   23476436.7494   23476432.3534
        46.000          41.000
 117136284.79947  91275015.65647  22290302.2234   22290305.1574   22290302.2504
        49.000          43.000
 09  1  6  0 46 30.0000000  0 12G21G22G18G30G24G14G 5G29G 6G12G31G 9
 106635938.79347  83092928.17747  20292152.0714   20292153.9504   20292152.4014
        55.000          49.000
 127027049.49847  98982108.54347  24172449.5414   24172450.7194   24172449.4124
        44.000          38.000
 123586903.74547  96301455.43347  23517828.1444   23517829.9794   23517828.3094
        47.000          39.000
 122568607.28847  95507987.14347  23324045.0764   23324049.1824   23324044.5894
        46.000          41.000
 113554412.27947  88483924.97247  21608713.4894   21608717.6474   21608713.6234
        52.000          46.000
 115349337.10347  89882600.00347  21950247.5414   21950250.2544   21950247.8774
        51.000          45.000
 124397803.31547  96933328.40047  23672133.6534   23672138.2824   23672133.8044
        45.000          39.000
 118130493.77447  92049727.50447  22479488.3214   22479491.5924   22479488.1244
        49.000          44.000
 139433331.13447  90857123.10947  24630357.0744   24630362.9704   24630357.7374
        42.000          37.000
 128261948.99747  99944362.32747  24407448.6154   24407451.3924   24407448.4174
        44.000          38.000
 133266745.01647  86051989.12347  23456897.3384   23456900.9594   23456897.4624
        46.000          41.000
 117204241.70347  91327969.08647  22303233.2204   22303237.0534   22303233.3094
        49.000          43.000
 09  1  6  0 47  0.0000000  0 12G21G22G18G30G24G14G 5G29G 6G12G31G 9
 106591437.22447  83058251.63147  20283683.8444   20283685.5434   20283684.2044
        55.000          49.000
 127004728.35047  98964715.46847  24168202.3464   24168203.0644   24168202.2164
        44.000          37.000
 123563123.09447  96282925.06247  23513302.6204   23513304.6744   23513303.0134
        47.000          40.000
 122545550.54247  95490020.90947  23319657.4264   23319661.7444   23319657.2454
        47.000          41.000
 113590417.66547  88511981.11747  21615565.1684   21615569.5754   21615565.4004
        52.000          46.000
 115359219.67847  89890300.74947  21952128.2034   21952130.8124   21952128.2714
        51.000          45.000
 124383666.44047  96922312.75747  23669443.2004   23669447.7284   23669443.5934
        45.000          39.000
 118206114.52347  92108652.77647  22493878.3984   22493881.7904   22493877.5064
        49.000          44.000
 139383136.73747  90818010.53347  24620805.8034   24620810.9124   24620805.7384
        41.000          36.000
 128262918.06947  99945117.47847  24407632.5724   24407635.7304   24407632.1604
        44.000          38.000
 133164167.49147  85972058.70447  23437377.6664   23437381.1464   23437377.5344
        47.000          41.000
 117272661.09847  91381282.92247  22316253.5504   22316256.6734   22316253.6994
        50.000          43.000
 09  1  6  0 47 30.0000000  0 12G21G22G18G30G24G14G 5G29G 6G12G31G 9
 106547429.35647  83023959.77947  20275309.2974   20275311.1254   20275309.7304
        54.000          49.000
 126982179.76647  98947145.18447  24163911.5774   24163911.9324   24163911.3474
        44.000          37.000
 123539146.45947  96264241.97647  23508740.1404   23508742.1304   23508740.6424
        47.000          40.000
 122522367.57447  95471956.32147  23315246.0014   23315250.0114   23315246.3654
        47.000          41.000
 113626890.22347  88540401.29647  21622505.4314   21622510.3024   21622505.5744
        52.000          46.000
 115369482.45547  89898297.76047  21954080.8134   21954083.5514   21954081.0284
        51.000          45.000
 124369537.40247  96911303.20447  23666755.0574   23666759.3704   23666755.5464
        45.000          39.000
 118281761.51547  92167598.48647  22508273.7204   22508276.7464   22508273.1744
        49.000          44.000
 139333246.02447  90779134.61647  24611311.9294   24611317.4374   24611312.3034
        42.000          36.000
 128263896.68147  99945880.05747  24407818.7134   24407821.8424   24407818.2944
        43.000          38.000
 133061672.41047  85892192.52547  23417873.2744   23417876.7334   23417873.4444
        47.000          41.000
 117341539.25247  91434954.24247  22329360.5834   22329363.8644   22329360.9074
        50.000          43.000
 09  1  6  0 48  0.0000000  0 12G21G22G18G30G24G14G 5G29G 6G12G31G 9
 106503920.88347  82990057.07447  20267029.8104   20267031.8404   20267030.1114
        54.000          49.000
 126959407.29847  98929400.42047  24159577.7954   24159578.5464   24159577.7274
        43.000          37.000
 123514977.41447  96245408.96747  23504140.8774   23504142.8834   23504141.1964
        47.000          40.000
 122499062.87947  95453796.87347  23310811.4834   23310814.8704   23310810.9234
        48.000          41.000
 113663832.90347  88569187.80447  21629535.3864   21629539.8564   21629535.5264
        52.000          46.000
 115380126.61947  89906591.96147  21956106.5144   21956109.1964   21956106.8794
        51.000          45.000
 124355421.21747  96900303.67047  23664068.4024   23664073.4784   23664068.9994
        45.000          39.000
 118357435.14147  92226564.94647  22522674.1154   22522677.0694   22522673.8104
        49.000          44.000
 139283662.25547  90740497.87447  24601877.1164   24601881.9084   24601877.1724
        42.000          37.000
 128264889.85247  99946653.94947  24408007.9614   24408011.1364   24408007.8724
        43.000          38.000
 132959265.39447  85812394.98047  23398385.7224   23398389.2904   23398385.6684
        47.000          41.000
 117410877.24347  91488983.86147  22342554.9454   22342558.3564   22342555.1164
        50.000          43.000
 09  1  6  0 48 30.0000000  0 12G21G22G18G30G24G14G 5G29G 6G12G31G 9
 106460913.67347  82956544.96547  20258845.8654   20258847.8094   20258846.3104
        54.000          49.000
 126936410.28847  98911480.65947  24155201.7714   24155201.9414   24155201.7404
        44.000          38.000
 123490616.94547  96226426.79547  23499505.3914   23499507.2434   23499505.8344
        47.000          40.000
 122475637.76747  95435543.61747  23306353.9314   23306357.1804   23306353.6304
        47.000          41.000
 113701244.92847  88598340.03647  21636654.7044   21636659.2994   21636654.8524
        52.000          46.000
 115391149.84747  89915181.52647  21958203.8734   21958206.4804   21958204.0954
        51.000          45.000
 124341319.81847  96889315.64447  23661384.9974   23661389.6584   23661385.4284
        46.000          40.000
 118433133.11947  92285550.37547  22537078.8864   22537081.9044   22537078.6604
        49.000          44.000
 139234385.21047  90702100.15947  24592499.5624   24592504.5564   24592499.3994
        41.000          36.000
 128265899.19947  99947440.47347  24408199.6644   24408203.6884   24408199.3304
        43.000          38.000
 132856949.31047  85732668.26447  23378915.5424   23378919.0624   23378915.0364
        46.000          41.000
 117480672.94447  91543370.14547  22355836.9394   22355840.1224   22355837.1484
        50.000          43.000
 09  1  6  0 49  0.0000000  0 12G21G22G18G30G24G14G 5G29G 6G12G31G 9
 106418407.67747  82923423.41647  20250757.2874   20250759.0384   20250757.5994
        54.000          49.000
 126913185.37247  98893383.34147  24150781.8334   24150782.9434   24150782.1774
        44.000          38.000
 123466063.09247  96207293.95247  23494832.7084   23494834.5084   23494833.0304
        47.000          40.000
 122452091.32247  95417195.81447  23301872.8284   23301876.1804   23301872.7054
        47.000          41.000
 113739123.16847  88627855.55047  21643862.7624   21643867.2444   21643862.9004
        52.000          46.000
 115402547.67847  89924063.00447  21960372.9304   21960375.5264   21960373.2734
        51.000          45.000
 124327232.64547  96878338.71647  23658704.4154   23658708.4644   23658704.9554
        46.000          39.000
 118508850.03447  92344550.56847  22551487.0194   22551490.4454   22551486.7944
        49.000          44.000
 139185412.45047  90663939.53547  24583180.5504   24583185.9984   24583180.8404
        42.000          37.000
 128266924.15747  99948239.16447  24408394.8004   24408398.7114   24408394.8394
        42.000          38.000
 132754724.15347  85653012.40847  23359462.7364   23359466.6414   23359462.2034
        46.000          41.000
 117550921.88847  91598109.58347  22369204.4744   22369208.0264   22369204.6954
        49.000          43.000
 09  1  6  0 49 30.0000000  0 12G21G22G18G30G24G14G 5G29G 6G12G31G 9
 106376407.64647  82890696.12647  20242764.9844   20242766.9594   20242765.3844
        54.000          49.000
 126889734.63847  98875110.06447  24146319.2904   24146320.3944   24146319.3734
        44.000          38.000
 123441319.19047  96188013.02547  23490124.5474   23490125.9204   23490124.7534
        47.000          40.000
 122428427.21647  95398756.33047  23297369.8734   23297373.0144   23297369.6194
        47.000          41.000
 113777469.61347  88657735.89747  21651159.8794   21651164.2144   21651159.8704
        52.000          46.000
 115414320.67847  89933236.80547  21962612.8064   21962615.6844   21962613.0914
        50.000          44.000
 124313164.18347  96867376.34247  23656027.4734   23656031.4314   23656027.5574
        46.000          39.000
 118584585.97247  92403565.59047  22565899.1634   22565902.6144   22565898.8844
        49.000          44.000
 139136746.52647  90626017.99247  24573919.8734   24573925.0244   24573920.4054
        41.000          37.000
 128267969.02847  99949053.39647  24408593.7244   24408596.8244   24408593.3474
        43.000          38.000
 132652595.33347  85573431.62347  23340028.1814   23340031.8454   23340027.8604
        46.000          41.000
 117621624.65047  91653202.66247  22382658.6484   22382662.0884   22382658.8474
        49.000          43.000
 09  1  6  0 50  0.0000000  0 12G21G22G18G30G24G14G 5G29G 6G12G31G 9
 106334916.78147  82858365.59847  20234869.3594   20234871.4914   20234869.7274
        54.000          49.000
 126866059.43147  98856661.88747  24141814.8154   24141815.4044   24141814.6564
        44.000          38.000
 123416386.95247  96168585.32647  23485379.2874   23485381.5604   23485379.9784
        47.000          39.000
 122404647.78447  95380226.95447  23292844.4784   23292848.1224   23292843.7254
        47.000          41.000
 113816284.30847  88687981.11447  21658546.0644   21658550.4464   21658546.2414
        52.000          46.000
 115426467.48647  89942701.88647  21964924.3874   21964927.1564   21964924.7184
        50.000          44.000
 124299117.05947  96856430.58447  23653354.4894   23653358.1384   23653354.8724
        46.000          39.000
 118660339.35247  92462594.19347  22580314.8724   22580318.0334   22580314.5664
        50.000          44.000
 139088388.05547  90588336.05147  24564716.5804   24564723.1374   24564717.4674
        42.000          37.000
 128269036.38447  99949885.16847  24408797.1204   24408800.1174   24408796.5374
        43.000          38.000
 132550566.11247  85493928.44547  23320612.5424   23320616.2694   23320612.3054
        46.000          41.000
 117692780.05147  91708648.44747  22396199.5264   22396202.5684   22396199.6814
        49.000          43.000
 09  1  6  0 50 30.0000000  0 12G21G22G18G30G24G14G 5G29G 6G12G31G 9
 106293932.94147  82826430.14847  20227070.3804   20227072.3034   20227070.7404
        54.000          49.000
 126842154.68647  98838034.83547  24137265.1344   24137266.3394   24137265.0634
        43.000          38.000
 123391262.84647  96149008.12547  23480598.4754   23480600.0904   23480599.2264
        47.000          40.000
 122380750.29047  95361605.59247  23288296.7114   23288300.5844   23288296.4314
        47.000          41.000
 113855562.45247  88718587.46447  21666020.3624   21666024.6704   21666020.5354
        52.000          45.000
 115438981.44147  89952453.05847  21967305.7524   21967308.7574   21967306.0854
        50.000          44.000
 124285088.89747  96845499.59247  23650685.1434   23650688.7874   23650685.4444
        46.000          39.000
 118736103.06647  92521630.84347  22594731.9834   22594735.4104   22594732.0904
        49.000          44.000
 139040332.79847  90550890.32547  24555573.2644   24555578.0234   24555573.3644
        43.000          37.000
 128270123.45447  99950732.29547  24409003.7364   24409006.8204   24409003.6614
        43.000          38.000
 132448635.29147  85414501.92847  23301215.9504   23301219.3534   23301215.4174
        47.000          41.000
 117764381.94847  91764442.15647  22409824.7544   22409827.5294   22409824.8064
        49.000          43.000
 09  1  6  0 51  0.0000000  0 12G21G22G18G30G24G14G 5G29G 6G12G31G 9
 106253465.85547  82794897.36247  20219369.8984   20219371.6404   20219370.2874
        54.000          49.000
 126818026.93447  98819233.98947  24132673.6224   24132674.7204   24132673.0664
        44.000          38.000
 123365954.71647  96129287.51647  23475782.7724   23475784.0714   23475783.3624
        47.000          40.000
 122356743.64447  95342899.14547  23283728.2634   23283732.2564   23283727.8404
        48.000          41.000
 113895310.82147  88749560.21547  21673584.4484   21673588.4994   21673584.5544
        52.000          46.000
 115451867.91347  89962494.50647  21969757.8804   21969760.5554   21969758.1494
        50.000          44.000
 124271089.02847  96834590.63547  23648020.6674   23648024.5434   23648021.2194
        45.000          39.000
 118811882.15647  92580679.48347  22609152.4074   22609155.5784   22609152.2674
        49.000          43.000
 138992587.74447  90513686.33547  24546487.1854   24546492.8654   24546487.8404
        43.000          37.000
 128271239.64247  99951602.12347  24409215.6014   24409219.0544   24409215.3934
        43.000          38.000
 132346812.68847  85335159.75147  23281839.5704   23281842.9464   23281839.1574
        47.000          41.000
 117836435.41447  91820587.73047  22423535.7484   22423538.9434   22423535.7184
        49.000          43.000
 09  1  6  0 51 30.0000000  0 12G21G22G18G30G24G14G 5G29G 6G12G31G 9
 106213511.66147  82763764.22547  20211766.7644   20211768.5904   20211767.1814
        54.000          49.000
 126793670.61947  98800255.06647  24128039.2434   24128039.9714   24128038.5964
        45.000          38.000
 123340458.14447  96109420.09747  23470930.7494   23470932.6964   23470931.0734
        47.000          40.000
 122332623.45447  95324104.24147  23279138.6784   23279142.2914   23279138.4804
        48.000          41.000
 113935522.69347  88780894.13347  21681236.3504   21681240.7024   21681236.5144
        52.000          46.000
 115465119.31747  89972820.30947  21972279.6894   21972282.1564   21972279.9754
        51.000          45.000
 124257113.58547  96823700.71547  23645361.3284   23645365.5464   23645361.7514
        46.000          40.000
 118887668.54747  92639733.81647  22623574.1604   22623577.4034   22623573.8684
        49.000          44.000
 138945147.25047  90476719.67447  24537460.0454   24537464.9434   24537460.3394
        43.000          37.000
 128272380.80347  99952491.40947  24409433.1964   24409435.9644   24409433.0324
        43.000          38.000
 132245095.39747  85255899.62547  23262483.5654   23262486.7924   23262483.3924
        47.000          41.000
 117908932.63547  91877079.08847  22437331.3034   22437334.7104   22437331.2294
        48.000          43.000
 09  1  6  0 52  0.0000000  0 12G21G22G18G30G24G14G 5G29G 6G12G31G 9
 106174073.02647  82733032.81747  20204261.9544   20204263.7514   20204262.3434
        54.000          49.000
 126769086.74847  98781098.85047  24123361.1494   24123361.6954   24123361.6254
        45.000          38.000
 123314774.36247  96089406.81547  23466043.4794   23466045.1154   23466043.7084
        48.000          40.000
 122308391.92447  95305222.58947  23274527.4684   23274531.2724   23274527.2654
        47.000          41.000
 113976197.89947  88812589.10047  21688976.5884   21688980.8654   21688976.6084
        52.000          45.000
 115478733.76447  89983428.99847  21974870.5384   21974872.7624   21974870.7564
        50.000          44.000
 124243165.12647  96812831.83847  23642706.6674   23642711.2384   23642706.9574
        46.000          40.000
 118963459.93547  92698792.03047  22637996.5424   22638000.3574   22637996.0984
        49.000          44.000
 138898011.52747  90439990.48447  24528489.9354   24528495.1544   24528490.3734
        43.000          37.000
 128273549.24547  99953401.99647  24409655.4914   24409658.3694   24409655.4254
        43.000          38.000
 132143486.44047  85176723.91547  23243147.9194   23243151.0714   23243147.7314
        47.000          41.000
 117981871.96747  91933914.93747  22451211.3414   22451214.6254   22451211.3624
        49.000          42.000
 09  1  6  0 52 30.0000000  0 12G21G22G18G30G24G14G 5G29G 6G12G31G 9
 106135154.83947  82702706.95947  20196856.0224   20196857.9684   20196856.4064
        54.000          49.000
 126744276.04447  98761765.85147  24118639.8024   24118640.4854   24118639.9244
        45.000          39.000
 123288906.92747  96069250.39447  23461120.7564   23461122.7104   23461120.9494
        47.000          40.000
 122284053.10047  95286257.31747  23269895.8694   23269899.4404   23269895.2074
        47.000          41.000
 114017338.51447  88844646.72447  21696805.4364   21696809.5684   21696805.6754
        52.000          45.000
 115492711.80947  89994321.01547  21977530.2534   21977532.9784   21977530.4274
        51.000          45.000
 124229248.41747  96801987.66647  23640058.4764   23640062.7094   23640058.7534
        46.000          39.000
 119039256.50547  92757854.29347  22652420.2934   22652423.5424   22652419.9804
        49.000          44.000
 138851183.57747  90403501.11247  24519579.3664   24519584.4804   24519579.5594
        43.000          37.000
 128274749.58247  99954337.42247  24409884.0204   24409886.5014   24409883.5014
        43.000          38.000
 132041991.50947  85097637.06647  23223833.8914   23223837.1624   23223833.4044
        47.000          42.000
 118055254.52547  91991096.16347  22465175.7284   22465178.9164   22465176.0494
        49.000          42.000
 09  1  6  0 53  0.0000000  0 12G21G22G18G30G24G14G 5G29G 6G12G31G 9
 106096757.90547  82672787.26747  20189549.5234   20189551.0724   20189549.9364
        54.000          49.000
 126719237.88847  98742255.63047  24113874.5224   24113875.9964   24113875.3094
        44.000          38.000
 123262855.51347  96048950.62347  23456163.5044   23456164.9014   23456163.7814
        47.000          40.000
 122259607.06347  95267208.50347  23265243.8614   23265247.3484   23265243.4164
        47.000          41.000
 114058942.64747  88877065.52747  21704722.4654   21704726.5534   21704722.6854
        52.000          45.000
 115507049.82547  90005493.52347  21980258.6294   21980261.2914   21980258.8594
        51.000          45.000
 124215363.99647  96791168.67247  23637416.1274   23637420.1394   23637416.6224
        45.000          39.000
 119115054.73547  92816917.83847  22666844.1244   22666847.4994   22666844.1884
        49.000          44.000
 138804661.59647  90367250.16247  24510726.6904   24510731.2984   24510726.9844
        42.000          37.000
 128275982.59347  99955298.30447  24410118.3494   24410121.1094   24410117.9774
        43.000          38.000
 131940612.22347  85018640.32747  23204541.9184   23204545.3864   23204541.3894
        47.000          42.000
 118129076.68647  92048619.94347  22479223.9374   22479226.6594   22479223.9904
        49.000          42.000
 09  1  6  0 53 30.0000000  0 12G21G22G18G30G24G14G 5G29G 6G12G31G 9
 106058884.10047  82643275.21347  20182342.1464   20182344.0564   20182342.5134
        54.000          49.000
 126693971.96347  98722567.90047  24109066.7514   24109067.8614   24109066.5434
        45.000          39.000
 123236620.49147  96028507.75247  23451171.1964   23451172.6934   23451171.6764
        47.000          40.000
 122235055.34947  95248077.34747  23260571.5704   23260575.4654   23260571.4214
        47.000          41.000
 114101008.97747  88909844.48747  21712727.4434   21712731.6174   21712727.5534
        52.000          45.000
 115521745.50747  90016944.73347  21983055.3624   21983057.8194   21983055.6204
        51.000          45.000
 124201513.62747  96780376.19647  23634780.5464   23634784.9434   23634781.0684
        45.000          39.000
 119190851.98647  92875980.60547  22681267.7054   22681271.3454   22681267.5924
        49.000          43.000
 138758445.27147  90331237.40047  24501931.0154   24501936.7904   24501931.1914
        43.000          37.000
 128277248.99447  99956285.21947  24410359.3064   24410362.5534   24410359.0454
        43.000          39.000
 131839350.72447  84939735.38447  23185272.2684   23185275.7394   23185272.2374
        47.000          42.000
 118203336.01647  92106484.38147  22493354.4654   22493357.6014   22493354.6744
        49.000          42.000
 09  1  6  0 54  0.0000000  0 12G21G22G18G30G24G14G 5G29G 6G12G31G 9
 106021536.20547  82614172.95247  20175235.2324   20175236.9694   20175235.5834
        55.000          49.000
 126668478.35347  98702702.76247  24104215.8044   24104216.6784   24104215.7774
        46.000          39.000
 123210203.47047  96007923.08847  23446143.9484   23446145.8994   23446144.4484
        48.000          40.000
 122210400.34847  95228865.67947  23255880.0614   23255883.5974   23255879.5404
        48.000          41.000
 114143537.59947  88942983.68147  21720820.3794   21720824.4474   21720820.4584
        52.000          45.000
 115536797.39847  90028673.51047  21985919.2904   21985922.0134   21985919.5754
        50.000          44.000
 124187699.84847  96769612.23447  23632151.7294   23632156.5554   23632152.3754
        46.000          39.000
 119266646.15247  92935040.97647  22695690.9174   22695694.6304   22695690.8034
        49.000          43.000
 138712535.03747  90295463.15247  24493195.6234   24493200.8714   24493195.5034
        42.000          37.000
 128278551.52147  99957300.24847  24410607.2144   24410610.4574   24410606.7184
        43.000          39.000
 131738210.53047  84860924.97247  23166025.5614   23166029.3244   23166025.5944
        46.000          42.000
 118278031.10047  92164688.34847  22507568.6064   22507571.7904   22507568.7464
        49.000          42.000
 09  1  6  0 54 30.0000000  0 12G21G22G18G30G24G14G 5G29G 6G12G31G 9
 105984717.54347  82585483.08347  20168228.8644   20168230.6194   20168229.2804
        54.000          49.000
 126642758.26347  98682661.14447  24099321.8364   24099322.1884   24099321.9224
        46.000          39.000
 123183606.64347  95987198.30747  23441082.9774   23441084.6304   23441083.4524
        47.000          40.000
 122185644.93147  95209575.77247  23251169.0904   23251172.8814   23251168.7194
        47.000          41.000
 114186528.96347  88976483.43847  21729001.4624   21729005.5094   21729001.4084
        52.000          45.000
 115552204.73647  90040679.25547  21988851.3894   21988853.7934   21988851.4924
        51.000          44.000
 124173925.94447  96758879.35747  23629530.9114   23629535.0664   23629531.3404
        45.000          39.000
 119342436.05847  92994098.04447  22710113.3734   22710116.7554   22710113.2194
        49.000          43.000
 138666931.95147  90259928.24547  24484517.1224   24484522.8604   24484516.9104
        42.000          37.000
 128279893.52547  99958346.04247  24410862.5034   24410865.2284   24410862.6414
        43.000          38.000
 131637195.45847  84782212.05347  23146802.6814   23146806.3614   23146802.1114
        46.000          41.000
 118353161.23147  92223231.32547  22521865.5264   22521868.7264   22521865.7164
        49.000          42.000
 09  1  6  0 55  0.0000000  0 12G21G22G18G30G24G14G 5G29G 6G12G31G 9
 105948427.85047  82557205.39547  20161322.9824   20161324.7794   20161323.3724
        54.000          49.000
 126616809.06147  98662441.02047  24094383.6694   24094384.2854   24094384.1924
        45.000          39.000
 123156828.61747  95966332.31447  23435987.2454   23435988.8084   23435987.6504
        47.000          39.000
 122160787.99247  95190206.78447  23246438.6094   23246442.9014   23246438.7244
        48.000          41.000
 114229979.52647  89010341.02047  21737269.6154   21737273.9084   21737269.5504
        52.000          45.000
 115567962.63547  90052958.16447  21991849.8924   21991852.4604   21991850.2604
        51.000          44.000
 124160191.51147  96748177.21747  23626917.1244   23626921.6034   23626917.1544
        45.000          40.000
 119418217.02247  93053148.13147  22724533.9854   22724537.5614   22724533.7944
        48.000          43.000
 138621633.44047  90224630.63147  24475898.1034   24475902.7574   24475897.8744
        43.000          37.000
 128281274.53747  99959422.21947  24411124.7674   24411128.1864   24411124.8884
        44.000          38.000
 131536306.19147  84703597.17047  23127604.2304   23127607.8504   23127603.8104
        47.000          42.000
 118428721.43347  92282109.41747  22536244.0714   22536247.4664   22536244.2624
        48.000          43.000
 09  1  6  0 55 30.0000000  0 12G21G22G18G30G24G14G 5G29G 6G12G31G 9
 105912672.13647  82529343.79347  20154519.0684   20154520.6594   20154519.4534
        54.000          49.000
 126590633.46347  98642044.45747  24089402.5294   24089403.8214   24089402.4344
        45.000          39.000
 123129873.40547  95945328.26747  23430857.1554   23430859.8744   23430857.8024
        47.000          39.000
 122135834.05147  95170762.20447  23241690.1844   23241694.2134   23241689.9894
        47.000          41.000
 114273891.69447  89044558.29847  21745626.0534   21745630.1144   21745626.0684
        52.000          45.000
 115584071.86847  90065510.84247  21994915.5034   21994917.9024   21994915.6484
        50.000          44.000
 124146501.71047  96737509.86147  23624312.2214   23624316.5204   23624312.5184
        46.000          39.000
 119493989.56047  93112191.65547  22738952.9174   22738956.8614   22738953.0214
        49.000          43.000
 138576642.49447  90189572.72247  24467335.8404   24467340.8684   24467335.9184
        42.000          37.000
 128282699.26747  99960532.47247  24411396.2874   24411399.0744   24411395.9614
        43.000          38.000
 131435548.65647  84625084.93547  23108430.5204   23108434.0014   23108430.4274
        47.000          42.000
 118504712.67947  92341323.38947  22550704.7234   22550708.0514   22550704.8094
        49.000          42.000
 09  1  6  0 56  0.0000000  0 12G21G22G18G30G24G14G 5G29G 6G12G31G 9
 105877448.00847  82501896.42647  20147816.0494   20147817.8224   20147816.3584
        54.000          49.000
 126564227.42847  98621468.34447  24084377.5824   24084378.7114   24084377.5554
        45.000          39.000
 123102737.71847  95924183.57547  23425694.1854   23425696.1184   23425694.3784
        47.000          40.000
 122110780.65047  95151240.12547  23236922.6034   23236926.8174   23236922.4474
        47.000          41.000
 114318260.25147  89079131.19947  21754069.0314   21754072.9244   21754069.1074
        52.000          45.000
 115600526.05147  90078332.32247  21998046.3604   21998048.9214   21998046.8114
        50.000          44.000
 124132854.13247  96726875.40647  23621715.2764   23621719.0344   23621715.9344
        46.000          39.000
 119569747.02647  93171223.44547  22753369.5494   22753372.7164   22753369.3674
        49.000          43.000
 138531954.52447  90154750.88547  24458832.3134   24458837.2734   24458832.2974
        42.000          37.000
 128284165.41747  99961674.97547  24411674.5534   24411678.1674   24411674.1074
        43.000          38.000
 131334921.18947  84546674.04047  23089281.7944   23089285.0284   23089281.4354
        47.000          42.000
 118581128.82447  92400868.45747  22565246.2634   22565249.2454   22565246.0134
        48.000          42.000
 09  1  6  0 56 30.0000000  0 12G21G22G18G30G24G14G 5G29G 6G12G31G 9
 105842763.26747  82474869.35847  20141215.7954   20141217.5504   20141216.2094
        54.000          49.000
 126537596.26047  98600716.78647  24079310.2654   24079310.6354   24079310.0184
        45.000          39.000
 123075428.20647  95902903.44947  23420497.3454   23420498.8744   23420497.5894
        48.000          40.000
 122085635.28947  95131646.40047  23232137.5184   23232141.5184   23232136.9444
        47.000          41.000
 114363090.34347  89114063.73447  21762599.8494   21762603.8964   21762600.0694
        52.000          45.000
 115617328.83647  90091425.42147  22001243.7914   22001246.6144   22001243.9374
        50.000          44.000
 124119256.56847  96716279.93147  23619127.4854   23619131.5774   23619128.0324
        45.000          39.000
 119645492.72047  93230246.05747  22767783.2284   22767786.5534   22767782.8184
        49.000          43.000
 138487575.08147  90120169.49447  24450387.0704   24450392.4474   24450387.0894
        41.000          37.000
 128285680.00547  99962855.21847  24411963.4364   24411966.4494   24411962.8224
        43.000          38.000
 131234432.15147  84468371.01547  23070159.4334   23070162.4114   23070158.7314
        48.000          42.000
 118657973.17347  92460747.18947  22579868.9794   22579872.2934   22579868.9534
        47.000          42.000
 09  1  6  0 57  0.0000000  0 12G21G22G18G30G24G14G 5G29G 6G12G31G 9
 105808615.13147  82448260.43347  20134717.4054   20134719.5394   20134717.7364
        54.000          49.000
 126510734.90947  98579785.87447  24074198.2114   24074199.1614   24074198.7434
        45.000          39.000
 123047941.38447  95881485.14447  23415266.7584   23415268.0774   23415267.4114
        49.000          40.000
 122060394.60847  95111978.36747  23227334.4034   23227337.9244   23227334.0154
        47.000          41.000
 114408376.06147  89149351.30447  21771217.3754   21771221.5924   21771217.6674
        52.000          45.000
 115634472.80647  90104784.39547  22004506.3004   22004508.6904   22004506.5144
        50.000          44.000
 124105706.16147  96705721.19947  23616548.8494   23616553.1744   23616549.2664
        46.000          40.000
 119721219.63747  93289254.03047  22782193.5234   22782197.0054   22782193.1854
        49.000          43.000
 138443498.92047  90085824.42647  24441999.5354   24442004.8064   24441999.8054
        42.000          37.000
 128287240.23147  99964071.03147  24412260.3584   24412263.0444   24412260.0774
        43.000          38.000
 131134079.72147  84390174.42447  23051062.8114   23051065.7624   23051062.5884
        48.000          42.000
 118735238.71347  92520954.10547  22594571.8974   22594575.4804   22594571.8854
        47.000          42.000
 09  1  6  0 57 30.0000000  0 12G21G22G18G30G24G14G 5G29G 6G12G31G 9
 105775009.21647  82422074.00747  20128322.7404   20128324.4244   20128323.2274
        54.000          49.000
 126483646.87247  98558678.32647  24069043.6914   24069044.4074   24069043.9024
        46.000          39.000
 123020281.07647  95859931.66647  23410003.4184   23410004.9144   23410003.5514
        48.000          40.000
 122035063.84047  95092240.18947  23222514.4974   23222517.9214   23222514.3324
        47.000          41.000
 114454119.90947  89184995.85847  21779922.3984   21779926.4034   21779922.6334
        52.000          45.000
 115651959.28047  90118410.25347  22007833.6554   22007836.3104   22007834.1094
        51.000          44.000
 124092208.49247  96695203.56547  23613980.4304   23613984.5244   23613980.8074
        45.000          39.000
 119796928.74947  93348248.11947  22796600.4494   22796604.2634   22796600.3274
        49.000          43.000
 138399729.47347  90051718.34147  24433670.3334   24433675.6814   24433670.6904
        41.000          36.000
 128288851.69247  99965326.74947  24412566.9514   24412569.7464   24412566.0424
        43.000          38.000
 131033870.37747  84312089.35247  23031993.3714   23031996.3274   23031993.4884
        48.000          42.000
 118812926.79147  92581490.28147  22609355.8364   22609359.0804   22609355.8784
        48.000          42.000
 09  1  6  0 58  0.0000000  0 12G21G22G18G30G24G14G 5G29G 6G12G31G 9
 105741944.25847  82396309.11447  20122030.3384   20122032.5024   20122030.6024
        54.000          49.000
 126456329.29347  98537391.90347  24063845.2204   24063845.9894   24063845.3084
        45.000          39.000
 122992445.78547  95838241.84547  23404706.2384   23404707.8864   23404706.6524
        48.000          40.000
 122009641.56447  95072430.69147  23217676.2784   23217679.9304   23217676.0674
        47.000          41.000
 114500318.23247  89220994.55647  21788713.5054   21788717.7754   21788713.6644
        52.000          45.000
 115669783.23147  90132299.07447  22011225.5274   22011228.1384   22011225.6984
        50.000          44.000
 124078762.67947  96684726.35047  23611421.3794   23611425.7104   23611421.6574
        45.000          39.000
 119872614.75847  93407224.22047  22811003.1734   22811006.4644   22811002.9264
        48.000          43.000
 138356263.61347  90017848.83647  24425398.5044   24425404.3564   24425399.2294
        41.000          36.000
 128290513.45347  99966621.68247  24412882.8164   24412885.7334   24412883.0754
        44.000          38.000
 130933803.66847  84234115.39447  23012951.2984   23012954.3184   23012950.5814
        47.000          42.000
 118891032.22647  92642351.66747  22624218.9304   22624221.9824   22624218.7754
        48.000          42.000
 09  1  6  0 58 30.0000000  0 12G21G22G18G30G24G14G 5G29G 6G12G31G 9
 105709425.24047  82370969.62047  20115842.4074   20115844.3234   20115842.7964
        54.000          49.000
 126428784.93347  98515928.77947  24058603.7734   24058604.6994   24058603.7744
        46.000          39.000
 122964439.53047  95816418.80447  23399376.8254   23399378.3014   23399377.3284
        48.000          40.000
 121984132.47947  95052553.57647  23212821.9164   23212826.0594   23212821.5204
        47.000          41.000
 114546972.84547  89257348.79147  21797591.6394   21797595.8994   21797591.9284
        52.000          45.000
 115687945.23847  90146451.31147  22014681.7504   22014684.2104   22014681.8184
        50.000          45.000
 124065373.66147  96674293.38047  23608873.7674   23608877.9094   23608874.2434
        46.000          39.000
 119948278.19747  93466182.73047  22825401.5634   22825404.7924   22825401.1314
        49.000          43.000
 138313103.98147  89984217.91647  24417186.4654   24417191.5284   24417186.6504
        42.000          37.000
 128292229.84947  99967959.18847  24413209.7744   24413212.0134   24413209.3254
        43.000          38.000
 130833885.59947  84156257.27947  22993937.6024   22993940.6784   22993937.0664
        48.000          42.000
 118969555.41247  92703538.57847  22639161.3244   22639164.4054   22639161.5604
        48.000          41.000
 09  1  6  0 59  0.0000000  0 12G21G22G18G30G24G14G 5G29G 6G12G31G 9
 105677453.09047  82346056.25647  20109758.2344   20109760.1654   20109758.6634
        54.000          49.000
 126401012.95847  98494288.31947  24053319.2294   24053319.3334   24053319.3914
        46.000          39.000
 122936262.60547  95794462.77347  23394014.9284   23394016.4024   23394015.5484
        47.000          40.000
 121958537.35547  95032609.40147  23207951.4464   23207955.1824   23207951.3474
        47.000          41.000
 114594081.93647  89294057.17347  21806555.9964   21806560.5214   21806556.0534
        51.000          45.000
 115706442.05347  90160864.43747  22018201.4604   22018204.3414   22018201.8534
        50.000          44.000
 124052042.61247  96663905.58847  23606337.1424   23606341.4384   23606337.2094
        46.000          40.000
 120023916.26547  93525121.47247  22839795.1454   22839798.4794   22839794.5424
        49.000          43.000
 138270249.28947  89950824.66347  24409031.1554   24409036.2354   24409031.2724
        43.000          37.000
 128294002.40047  99969340.41947  24413546.6594   24413549.1124   24413546.0314
        42.000          38.000
 130734117.97847  84078516.38847  22974952.3304   22974955.3324   22974952.1604
        48.000          43.000
 119048493.46547  92765048.77547  22654182.6654   22654185.6724   22654182.6704
        47.000          41.000
 09  1  6  0 59 30.0000000  0 12G21G22G18G30G24G14G 5G29G 6G12G31G 9
 105646028.90247  82321569.87747  20103778.5264   20103780.1894   20103778.9024
        54.000          49.000
 126373012.24747  98472469.59047  24047990.6474   24047990.9834   24047990.5854
        46.000          39.000
 122907915.20547  95772373.89347  23388620.6464   23388622.3924   23388621.1934
        48.000          40.000
 121932856.61947  95012598.49147  23203064.5914   23203068.1754   23203064.2934
        47.000          41.000
 114641643.80147  89331118.36647  21815606.8584   21815611.2444   21815607.0444
        52.000          45.000
 115725270.81047  90175536.21747  22021784.4414   22021787.1104   22021784.6144
        50.000          44.000
 124038770.77747  96653563.94547  23603811.5354   23603815.8504   23603812.0504
        46.000          40.000
 120099525.68547  93584037.88147  22854183.0064   22854186.5154   22854182.6074
        48.000          43.000
 138227698.49647  89917668.20747  24400934.5844   24400939.5624   24400934.4484
        43.000          37.000
 128295831.75547  99970765.94047  24413894.2954   24413897.3674   24413894.3424
        43.000          37.000
 130634503.07647  84000894.49247  22955996.3104   22955999.3834   22955995.9024
        48.000          43.000
 119127843.30347  92826879.82447  22669282.3954   22669285.3064   22669282.3444
        47.000          41.000
 09  1  6  1  0  0.0000000  0 12G21G22G18G30G24G14G 5G29G 6G12G31G 9
 105615155.46347  82297512.65147  20097903.4774   20097905.0464   20097903.8994
        54.000          49.000
 126344783.55947  98450473.21547  24042619.0404   24042619.4164   24042618.5234
        46.000          39.000
 122879399.18747  95750153.62747  23383194.2014   23383195.5554   23383194.7294
        47.000          40.000
 121907093.27847  94992523.21147  23198162.1444   23198165.2944   23198161.6164
        48.000          41.000
 114689658.25747  89368532.23547  21824743.7074   21824747.7414   21824743.7114
        52.000          45.000
 115744429.93847  90190465.42947  22025430.2514   22025432.8444   22025430.4624
        50.000          44.000
 124025561.00847  96643270.64647  23601297.8574   23601301.8584   23601298.3354
        46.000          39.000
 120175104.80547  93642930.68047  22868565.4474   22868568.9124   22868564.9264
        48.000          43.000
 138185452.12047  89884748.96947  24392895.5354   24392900.1754   24392895.7414
        43.000          37.000
 128297720.47847  99972237.72547  24414254.0544   24414256.4644   24414253.7814
        43.000          38.000
 130535044.38847  83923394.32747  22937069.9344   22937072.9204   22937069.5874
        48.000          43.000
 119207603.41047  92889030.55847  22684459.8764   22684463.3074   22684459.9514
        46.000          41.000
 09  1  6  1  0 30.0000000  0 12G21G22G18G30G24G14G 5G29G 6G12G31G 9
 105584834.41247  82273885.86347  20092133.4334   20092135.3024   20092133.8394
        54.000          49.000
 126316326.84147  98428299.15947  24037203.7734   24037204.1944   24037203.8284
        46.000          39.000
 122850715.31347  95727802.55347  23377735.6484   23377737.2044   23377735.7674
        47.000          40.000
 121881248.70747  94972384.64847  23193244.1894   23193247.2544   23193243.5474
        48.000          41.000
 114738124.03047  89406297.77647  21833966.0914   21833970.6244   21833966.3314
        51.000          45.000
 115763916.93347  90205650.12047  22029138.1514   22029141.1574   22029138.5134
        50.000          44.000
 124012415.02047  96633027.06347  23598795.4644   23598800.1074   23598796.2244
        46.000          39.000
 120250651.01047  93701797.82947  22882941.2744   22882944.6414   22882941.0644
        48.000          43.000
 138143509.45947  89852066.37647  24384912.9574   24384917.9524   24384912.9744
        42.000          37.000
 128299670.13447  99973757.00347  24414625.7834   24414627.8514   24414625.9104
        44.000          38.000
 130435744.42947  83846017.84447  22918173.7004   22918176.5934   22918173.0934
        48.000          43.000
 119287771.21447  92951498.98647  22699715.5254   22699718.9614   22699715.2584
        47.000          41.000
 09  1  6  1  1  0.0000000  0 12G21G22G18G30G24G14G 5G29G 6G12G31G 9
 105555068.03647  82250691.28447  20086469.1004   20086470.9944   20086469.4054
        54.000          49.000
 126287642.79147  98405947.95547  24031745.5984   24031745.5554   24031745.7824
        46.000          39.000
 122821865.57147  95705322.25347  23372245.7444   23372247.2534   23372245.9924
        47.000          40.000
 121855325.50447  94952184.80547  23188311.1334   23188314.4564   23188310.6344
        48.000          41.000
 114787040.80747  89444414.75047  21843274.6424   21843279.0974   21843274.8364
        51.000          45.000
 115783729.84547  90221088.77647  22032908.8274   22032911.6304   22032909.0474
        50.000          44.000
 123999335.82047  96622835.51947  23596307.2914   23596311.6214   23596307.9094
        46.000          40.000
 120326162.97747  93760638.30647  22897310.4124   22897314.0534   22897310.0194
        48.000          43.000
 138101871.16847  89819620.95247  24376990.8214   24376994.9114   24376990.7004
        44.000          37.000
 128301683.66847  99975326.03247  24415008.9594   24415011.3764   24415008.5684
        44.000          38.000
 130336606.85747  83768767.89647  22899308.2874   22899310.9474   22899308.1624
        48.000          43.000
 119368345.13847  93014283.88247  22715048.0254   22715051.5164   22715048.3674
        47.000          41.000
 09  1  6  1  1 30.0000000  0 12G21G22G18G30G24G14G 5G29G 6G12G31G 9
 105525857.63947  82227929.93847  20080910.5174   20080912.4864   20080910.9364
        54.000          49.000
 126258730.67447  98383419.05047  24026243.0884   24026244.0494   24026243.7464
        45.000          40.000
 122792850.46847  95682713.08647  23366724.2634   23366726.6344   23366725.0394
        48.000          40.000
 121829324.70447  94931924.49547  23183363.1364   23183366.4914   23183363.1274
        48.000          41.000
 114836407.04647  89482881.95547  21852668.9474   21852673.3354   21852669.1044
        52.000          45.000
 115803865.83147  90236779.16647  22036740.4664   22036743.2614   22036740.6144
        50.000          45.000
 123986324.66247  96612696.99847  23593831.2784   23593835.3084   23593831.6004
        45.000          39.000
 120401637.72147  93819449.78147  22911672.7514   22911676.2684   22911672.4254
        48.000          43.000
 138060536.09547  89787411.82547  24369124.5134   24369128.9364   24369124.6804
        43.000          37.000
 128303762.03147  99976945.59647  24415403.9774   24415406.1854   24415403.9984
        44.000          38.000
 130237633.92347  83691646.22847  22880474.1104   22880476.9594   22880473.0364
        48.000          43.000
 119449322.24047  93077382.94047  22730457.8144   22730460.9404   22730457.7704
        47.000          41.000
 09  1  6  1  2  0.0000000  0 12G21G22G18G30G24G14G 5G29G 6G12G31G 9
 105497205.47447  82205603.57447  20075458.2094   20075460.0064   20075458.6184
        54.000          49.000
 126229591.38647  98360713.13747  24020698.4484   24020699.5554   24020698.5434
        46.000          40.000
 122763671.89547  95659976.53647  23361172.1124   23361174.2254   23361172.6464
        49.000          40.000
 121803248.93847  94911605.73747  23178400.6464   23178404.4824   23178400.2024
        47.000          41.000
 114886221.99547  89521698.80947  21862148.3984   21862152.9424   21862148.5244
        51.000          45.000
 115824323.52447  90252720.24447  22040633.3594   22040636.1564   22040633.7004
        50.000          45.000
 123973384.37347  96602613.71547  23591368.1854   23591372.5374   23591369.0044
        45.000          39.000
 120477073.68047  93878231.03147  22926027.4494   22926031.2564   22926026.9234
        47.000          43.000
 138019504.48947  89755439.15647  24361316.2374   24361321.5074   24361316.5944
        43.000          37.000
 128305907.97947  99978617.77747  24415812.2964   24415814.8094   24415812.2894
        45.000          38.000
 130138829.14847  83614655.59347  22861672.3144   22861674.5334   22861671.9494
        49.000          43.000
 119530701.06547  93140795.01547  22745943.6554   22745946.6394   22745943.2844
        46.000          41.000
 09  1  6  1  2 30.0000000  0 12G21G22G18G30G24G14G 5G29G 6G12G31G 9
 105469112.22947  82183712.74047  20070112.0664   20070114.1154   20070112.4894
        54.000          49.000
 126200223.16847  98337828.82947  24015109.7884   24015110.4244   24015109.6484
        45.000          39.000
 122734329.38247  95637112.25247  23355588.5604   23355590.2134   23355588.8934
        48.000          40.000
 121777098.48047  94891228.81447  23173424.6814   23173428.0174   23173424.5514
        48.000          41.000
 114936483.38747  89560863.53047  21871712.8054   21871717.0894   21871713.1524
        51.000          45.000
 115845098.94547  90268908.90447  22044586.8004   22044589.5234   22044587.1054
        50.000          45.000
 123960515.57947  96592586.12547  23588919.6864   23588923.6754   23588920.1104
        46.000          39.000
 120552467.28547  93936979.28647  22940374.6344   22940378.4204   22940374.1744
        47.000          43.000
 137978774.77347  89723701.73647  24353566.1754   24353570.5614   24353566.0554
        43.000          37.000
 128308122.13447  99980343.12447  24416233.6474   24416236.1664   24416233.6954
        44.000          38.000
 130040193.96347  83537797.10447  22842902.8534   22842904.7494   22842902.8444
        49.000          43.000
 119612477.71047  93204517.08247  22761505.0744   22761508.4784   22761504.7874
        47.000          41.000
 09  1  6  1  3  0.0000000  0 12G21G22G18G30G24G14G 5G29G 6G12G31G 9
 105441581.63347  82162260.33147  20064873.3794   20064875.3134   20064873.8124
        54.000          49.000
 126170628.84147  98314768.32647  24009477.8514   24009478.5004   24009477.6484
        46.000          39.000
 122704826.60947  95614123.08647  23349974.3654   23349975.8474   23349974.9914
        48.000          40.000
 121750877.38347  94870796.82047  23168434.6804   23168438.4474   23168434.4324
        48.000          42.000
 114987192.53947  89600377.16647  21881362.4214   21881366.7994   21881362.3124
        51.000          45.000
 115866192.07047  90285345.11947  22048600.7574   22048603.3794   22048601.0034
        50.000          45.000
 123947722.83847  96582617.80047  23586485.3684   23586489.5324   23586485.9524
        46.000          39.000
 120627818.56447  93995694.55647  22954713.5644   22954717.2954   22954712.9934
        48.000          43.000
 137938348.91147  89692201.08847  24345872.9694   24345877.7174   24345872.7014
        42.000          37.000
 128310408.42647  99982124.70247  24416668.4494   24416671.0234   24416668.0984
        45.000          38.000
 129941733.87947  83461075.05347  22824166.8274   22824168.3034   22824166.4004
        50.000          43.000
 119694652.02947  93268549.03747  22777142.5604   22777145.6714   22777142.5424
        47.000          41.000
 09  1  6  1  3 30.0000000  0 12G21G22G18G30G24G14G 5G29G 6G12G31G 9
 105414613.16447  82141245.94547  20059741.3404   20059743.1394   20059741.6774
        54.000          49.000
 126140805.99547  98291529.76847  24003803.0184   24003803.6524   24003803.0114
        46.000          40.000
 122675162.59247  95591008.28147  23344329.1154   23344330.9294   23344329.6084
        48.000          40.000
 121724585.20047  94850309.42247  23163431.5234   23163434.9764   23163431.0644
        47.000          42.000
 115038345.89347  89640236.92347  21891096.8624   21891100.9494   21891096.9694
        52.000          45.000
 115887598.38447  90302025.38347  22052674.3964   22052677.0654   22052674.6104
        51.000          44.000
 123935005.76647  96572708.44247  23584065.3494   23584069.2334   23584065.6964
        46.000          39.000
 120703122.82147  94054373.18947  22969043.4504   22969046.9164   22969043.4364
        48.000          42.000
 137898224.05647  89660934.98847  24338237.5264   24338242.5534   24338237.5684
        42.000          37.000
 128312766.35947  99983962.09847  24417117.2934   24417119.8204   24417116.9884
        45.000          38.000
 129843449.08747  83384489.60347  22805463.7094   22805465.4544   22805463.5164
        49.000          43.000
 119777219.42147  93332887.27147  22792854.6554   22792857.6524   22792854.5594
        47.000          41.000
 09  1  6  1  4  0.0000000  0 12G21G22G18G30G24G14G 5G29G 6G12G31G 9
 105388210.03647  82120672.08747  20054717.0574   20054719.0124   20054717.4284
        54.000          49.000
 126110755.93347  98268114.15047  23998084.7804   23998085.5004   23998084.9474
        46.000          39.000
 122645339.80747  95567769.75247  23338654.3724   23338656.0404   23338654.8004
        48.000          40.000
 121698225.14747  94829769.15447  23158415.2684   23158419.3404   23158415.0084
        48.000          42.000
 115089943.65847  89680442.98247  21900915.5184   21900919.5314   21900915.7554
        52.000          45.000
 115909316.70847  90318948.77147  22056807.3044   22056809.7544   22056807.4424
        50.000          44.000
 123922367.79647  96562860.73247  23581660.5544   23581663.7464   23581660.8634
        46.000          39.000
 120778379.42647  94113014.68347  22983364.4854   22983368.0154   22983364.3184
        48.000          42.000
 137858401.14047  89629904.17047  24330658.7934   24330663.9684   24330658.7924
        43.000          37.000
 128315199.14247  99985857.79447  24417579.9674   24417583.0754   24417580.1144
        44.000          38.000
 129745343.93247  83308044.11547  22786794.5684   22786796.4664   22786793.8804
        49.000          43.000
 119860178.74647  93397530.91947  22808641.1514   22808644.6024   22808641.1304
        47.000          41.000
 09  1  6  1  4 30.0000000  0 12G21G22G18G30G24G14G 5G29G 6G12G31G 9
 105362374.39547  82100540.42047  20049800.7534   20049802.4514   20049801.0844
        54.000          49.000
 126080479.21147  98244521.91247  23992322.9464   23992323.6824   23992322.7334
        46.000          39.000
 122615359.65047  95544408.59647  23332949.2414   23332950.7864   23332949.8394
        47.000          40.000
 121671799.13947  94809177.47947  23153386.9714   23153390.4024   23153386.5344
        48.000          42.000
 115141984.99747  89720994.67647  21910818.3624   21910822.5864   21910818.5864
        51.000          45.000
 115931345.15247  90336113.81147  22060998.7784   22061001.5614   22060998.9564
        50.000          44.000
 123909811.48147  96553076.64947  23579270.7674   23579274.6184   23579271.2484
        46.000          39.000
 120853586.64247  94171617.68647  22997675.8834   22997679.3804   22997675.9034
        47.000          42.000
 137818880.24047  89599108.67747  24323139.4104   24323143.3904   24323139.6014
        43.000          37.000
 128317709.24247  99987813.76047  24418057.4284   24418060.3974   24418057.4404
        45.000          38.000
 129647421.70447  83231741.16547  22768160.6234   22768162.4964   22768160.2274
        49.000          43.000
 119943528.27947  93462478.62047  22824502.0274   22824505.3084   22824501.8574
        47.000          41.000
 09  1  6  1  5  0.0000000  0 12G21G22G18G30G24G14G 5G29G 6G12G31G 9
 105337108.18147  82080852.46847  20044992.7004   20044994.6404   20044993.0584
        54.000          49.000
 126049976.66747  98220753.72747  23986518.9524   23986518.9824   23986519.0804
        45.000          39.000
 122585223.94247  95520926.22447  23327214.2344   23327215.7924   23327214.6724
        47.000          40.000
 121645309.60047  94788536.29247  23148346.3524   23148349.5334   23148345.9184
        49.000          42.000
 115194469.31847  89761891.54547  21920805.9364   21920810.1784   21920806.1074
        51.000          45.000
 115953682.10047  90353519.24347  22065249.5644   22065252.0764   22065249.8094
        50.000          44.000
 123897339.34247  96543358.14847  23576897.4194   23576901.4154   23576897.9754
        46.000          39.000
 120928742.78047  94230180.88947  23011977.8784   23011981.2394   23011977.5194
        47.000          42.000
 137779661.41147  89568548.60347  24315675.3944   24315680.2584   24315675.6144
        42.000          37.000
 128320298.86847  99989831.68547  24418550.5814   24418553.2914   24418550.6874
        44.000          39.000
 129549685.73047  83155583.34147  22749561.7734   22749563.8424   22749561.2954
        48.000          43.000
 120027265.89347  93527728.72147  22840436.6734   22840440.0664   22840436.8844
        47.000          41.000
 09  1  6  1  5 30.0000000  0 12G21G22G18G30G24G14G 5G29G 6G12G31G 9
 105312411.23647  82061608.10247  20040293.0094   20040295.0004   20040293.3754
        54.000          50.000
 126019246.54447  98196808.21547  23980670.8634   23980671.1754   23980670.9714
        45.000          39.000
 122554932.41647  95497322.41647  23321450.1904   23321451.8494   23321450.6334
        47.000          40.000
 121618756.59147  94767845.65447  23143293.5944   23143296.4634   23143293.5884
        49.000          42.000
 115247393.74947  89803131.35947  21930877.3244   21930881.4634   21930877.4874
        52.000          45.000
 115976323.06747  90371161.57447  22069557.9334   22069560.5894   22069558.2984
        50.000          44.000
 123884951.81647  96533705.59847  23574540.6244   23574543.8514   23574540.9424
        47.000          39.000
 121003843.69547  94288701.05747  23026268.8474   23026272.4844   23026268.6124
        48.000          42.000
 137740742.41047  89538222.12547  24308269.3264   24308274.4304   24308269.2034
        42.000          37.000
 128322968.26847  99991911.77047  24419058.6784   24419061.8684   24419058.1204
        44.000          38.000
 129452137.39047  83079571.73247  22730998.7984   22731000.9684   22730998.3584
        48.000          43.000
 120111387.80547  93593278.28047  22856444.6954   22856447.7594   22856444.8674
        47.000          41.000
 09  1  6  1  6  0.0000000  0 12G21G22G18G30G24G14G 5G29G 6G12G31G 9
 105288284.05447  82042807.70647  20035701.7844   20035703.6064   20035702.2124
        54.000          49.000
 125988287.70347  98172684.47047  23974779.4244   23974780.6164   23974779.6184
        45.000          39.000
 122524485.21347  95473597.32247  23315656.2364   23315657.8684   23315656.6524
        47.000          40.000
 121592140.98447  94747106.24547  23138228.7864   23138231.5644   23138228.1984
        48.000          42.000
 115300755.95347  89844712.30447  21941031.5854   21941035.8744   21941031.7434
        51.000          45.000
 115999264.66047  90389038.17447  22073923.6634   22073925.9914   22073923.7644
        50.000          44.000
 123872649.89347  96524119.73147  23572199.0904   23572202.9144   23572199.7294
        46.000          39.000
 121078886.47947  94347175.93347  23040549.2184   23040552.7484   23040548.7064
        48.000          42.000
 137702121.80147  89508128.16047  24300919.8354   24300925.5464   24300919.6804
        43.000          37.000
 128325718.49247  99994054.86247  24419581.7064   24419584.0954   24419581.6494
        43.000          38.000
 129354778.48847  83003707.72547  22712471.7664   22712474.1084   22712471.4434
        48.000          43.000
 120195890.24047  93659124.32447  22872524.9344   22872528.5784   22872525.1684
        47.000          41.000
 09  1  6  1  6 30.0000000  0 12G21G22G18G30G24G14G 5G29G 6G12G31G 9
 105264732.46347  82024455.82347  20031220.0774   20031221.8754   20031220.4634
        54.000          49.000
 125957104.84847  98148386.16647  23968845.5674   23968846.2924   23968845.0754
        44.000          39.000
 122493888.02447  95449755.36147  23309833.6314   23309835.6324   23309834.2034
        46.000          40.000
 121565468.76647  94726322.70547  23133153.0624   23133156.4064   23133152.6414
        48.000          42.000
 115354559.24047  89886636.94547  21951270.1894   21951274.4784   21951270.3904
        51.000          45.000
 116022508.80547  90407150.51847  22078346.8064   22078349.5544   22078346.8104
        51.000          44.000
 123860439.77047  96514605.40747  23569875.6404   23569879.3234   23569876.0924
        46.000          39.000
 121153873.09447  94405607.05947  23054818.7994   23054822.3664   23054818.6324
        47.000          42.000
 137663803.08647  89478269.45847  24293628.3384   24293633.3564   24293628.4994
        42.000          37.000
 128328555.21647  99996265.33147  24420121.2944   24420124.2984   24420121.1014
        44.000          38.000
 129257615.96147  82927996.73447  22693982.4244   22693985.0194   22693982.1504
        49.000          43.000
 120280774.56747  93725267.95647  22888678.0204   22888681.0124   22888677.9114
        47.000          41.000
 09  1  6  1  7  0.0000000  0 12G21G22G18G30G24G14G 5G29G 6G12G31G 9
 105241754.19147  82006550.68047  20026847.3864   20026849.2914   20026847.7894
        54.000          49.000
 125925694.18747  98123910.37747  23962868.4014   23962868.7624   23962868.2884
        46.000          39.000
 122463138.01347  95425794.32447  23303982.0174   23303984.0104   23303982.6784
        47.000          40.000
 121538738.11947  94705493.65147  23128066.1474   23128069.4224   23128066.0934
        48.000          42.000
 115408798.56147  89928901.35347  21961591.5844   21961596.0384   21961591.6404
        51.000          45.000
 116046049.37547  90425493.84047  22082826.5574   22082828.9714   22082826.7614
        50.000          44.000
 123848320.03347  96505161.48447  23567569.0004   23567573.4664   23567569.6524
        46.000          39.000
 121228798.01347  94463990.09447  23069076.6094   23069079.8914   23069076.3514
        47.000          42.000
 137625782.40047  89448642.98247  24286392.9344   24286398.6734   24286393.3294
        43.000          37.000
 128331476.62047  99998541.80947  24420677.2694   24420680.8204   24420677.3144
        43.000          38.000
 129160649.05347  82852438.17447  22675530.0634   22675532.5954   22675529.4344
        48.000          43.000
 120366035.06447  93791704.72147  22904902.2564   22904905.3644   22904902.4704
        47.000          40.000
 09  1  6  1  7 30.0000000  0 12G21G22G18G30G24G14G 5G29G 6G12G31G 9
 105219354.63847  81989096.48747  20022584.9624   20022586.6614   20022585.3604
        54.000          50.000
 125894059.86947  98099260.29747  23956848.7784   23956848.7434   23956848.9044
        46.000          39.000
 122432240.43247  95401718.29647  23298102.2294   23298104.5664   23298102.7294
        47.000          40.000
 121511954.85947  94684623.60047  23122969.6094   23122972.8134   23122969.7164
        48.000          41.000
 115463476.40247  89971507.46547  21971996.3684   21972000.6064   21971996.4324
        51.000          45.000
 116069887.28247  90444068.85847  22087362.9914   22087365.0184   22087363.1124
        51.000          45.000
 123836296.55447  96495792.56847  23565281.4004   23565284.9194   23565281.7484
        46.000          40.000
 121303662.50247  94522326.04147  23083322.9024   23083326.2814   23083322.6094
        47.000          42.000
 137588062.82647  89419251.12347  24279215.4754   24279220.4204   24279215.6824
        42.000          37.000
 128334488.71247 100000888.93047  24421250.0524   24421253.7764   24421250.3454
        43.000          38.000
 129063884.44147  82777037.24147  22657116.3164   22657118.8764   22657115.8184
        49.000          43.000
 120451673.17147  93858435.72647  22921198.7264   22921201.7874   22921198.9654
        47.000          40.000
 09  1  6  1  8  0.0000000  0 12G21G22G18G30G24G14G 5G29G 6G12G31G 9
 105197532.09447  81972091.91147  20018432.3564   20018434.1504   20018432.8204
        54.000          49.000
 125862198.62647  98074433.39447  23950785.6444   23950785.8854   23950785.8724
        46.000          39.000
 122401193.22547  95377525.66247  23292194.2034   23292195.9714   23292195.2124
        47.000          40.000
 121485117.37047  94663711.28647  23117862.1514   23117865.5044   23117861.7704
        48.000          41.000
 115518587.76847  90014451.38547  21982483.3314   21982487.7894   21982483.4794
        51.000          44.000
 116094017.41947  90462871.58647  22091954.6434   22091956.9744   22091954.7454
        51.000          45.000
 123824368.09347  96486497.71847  23563011.9034   23563015.1044   23563012.1604
        46.000          40.000
 121378461.03647  94580610.59447  23097556.5464   23097559.9424   23097556.2624
        47.000          42.000
 137550640.50347  89390090.89047  24272094.4624   24272099.4414   24272094.3204
        43.000          37.000
 128337589.89447 100003305.49847  24421840.4504   24421843.8114   24421840.2794
        43.000          38.000
 128967321.70447  82701793.61647  22638740.9104   22638743.5004   22638740.5594
        49.000          43.000
 120537682.91647  93925456.33547  22937565.8134   22937568.5614   22937566.0894
        46.000          40.000
 09  1  6  1  8 30.0000000  0 12G21G22G18G30G24G14G 5G29G 6G12G31G 9
 105176290.27947  81955539.84947  20014390.0524   20014391.8334   20014390.4344
        54.000          50.000
 125830113.11247  98049431.71347  23944679.8494   23944680.7374   23944680.1924
        46.000          39.000
 122370000.24947  95353219.46547  23286258.5204   23286260.5784   23286258.8374
        47.000          40.000
 121458229.91047  94642760.03647  23112745.7284   23112749.0294   23112745.5034
        48.000          41.000
 115574134.07647  90057734.21747  21993053.5374   21993057.9294   21993053.8234
        51.000          44.000
 116118439.45247  90481901.76747  22096601.9134   22096604.1584   22096601.9704
        50.000          44.000
 123812539.12847  96477280.39747  23560760.2064   23560764.4324   23560760.7894
        45.000          40.000
 121453193.93447  94638844.00947  23111777.7954   23111781.2064   23111777.4564
        47.000          42.000
 137513517.52847  89361163.91147  24265029.3494   24265034.8014   24265029.4264
        42.000          37.000
 128340784.38347 100005794.73047  24422448.2604   24422450.9784   24422447.7644
        43.000          38.000
 128870966.37247  82626711.60347  22620405.1674   22620407.7384   22620404.9294
        49.000          44.000
 120624064.05747  93992766.32547  22954003.3694   22954007.0484   22954003.5874
        46.000          40.000
 09  1  6  1  9  0.0000000  0 12G21G22G18G30G24G14G 5G29G 6G12G31G 9
 105155628.85747  81939440.04847  20010458.2814   20010460.1084   20010458.6254
        54.000          50.000
 125797801.79447  98024254.10347  23938530.8454   23938531.8764   23938531.0634
        45.000          39.000
 122338661.09947  95328799.34347  23280295.1194   23280296.9154   23280295.5724
        47.000          41.000
 121431292.65947  94621769.98547  23107619.9464   23107623.1794   23107619.7194
        48.000          41.000
 115630112.19147  90101353.53447  22003705.8674   22003710.2544   22003705.9484
        51.000          44.000
 116143149.11247  90501156.07447  22101303.7154   22101306.2934   22101303.8634
        50.000          44.000
 123800809.96947  96468140.83747  23558527.8864   23558532.3114   23558528.3834
        46.000          39.000
 121527857.49247  94697023.37647  23125985.6074   23125988.9854   23125985.2864
        47.000          42.000
 137476691.36147  89332468.23247  24258021.4834   24258026.6444   24258021.5214
        42.000          37.000
 128344072.21547 100008356.70347  24423074.4004   24423076.4324   24423074.1344
        42.000          38.000
 128774819.52947  82551792.05147  22602108.7914   22602111.5964   22602108.3914
        49.000          44.000
 120710812.31547  94060362.36447  22970511.6054   22970514.5214   22970511.6164
        46.000          40.000
 09  1  6  1  9 30.0000000  0 12G21G22G18G30G24G14G 5G29G 6G12G31G 9
 105135550.69547  81923794.73347  20006637.4674   20006639.3814   20006637.8984
        54.000          49.000
 125765266.35847  97998901.86247  23932339.6704   23932340.1474   23932339.6054
        45.000          39.000
 122307178.39247  95304267.36747  23274304.3174   23274305.6424   23274304.7644
        47.000          41.000
 121404308.87547  94600743.67347  23102485.1374   23102488.2944   23102484.8914
        48.000          41.000
 115686522.32447  90145309.47847  22014440.5044   22014444.7834   22014440.7574
        51.000          44.000
 116168145.52647  90520633.82447  22106060.2434   22106062.8914   22106060.3564
        50.000          44.000
 123789184.19747  96459081.83047  23556315.8184   23556320.0684   23556316.2974
        46.000          39.000
 121602451.15447  94755148.27947  23140180.1974   23140183.7654   23140179.8524
        47.000          42.000
 137440162.98447  89304004.58147  24251070.5654   24251076.1184   24251070.5154
        42.000          37.000
 128347456.88047 100010994.13247  24423717.7054   24423720.9714   24423717.3604
        42.000          38.000
 128678885.44447  82477038.27847  22583853.3014   22583855.8434   22583852.8624
        49.000          44.000
 120797926.77247  94128243.76947  22987088.5454   22987091.6274   22987088.9074
        47.000          40.000
 09  1  6  1 10  0.0000000  0 12G21G22G18G30G24G14G 5G29G 6G12G31G 9
 105116055.09447  81908603.35947  20002927.5354   20002929.4204   20002927.9264
        54.000          50.000
 125732505.15247  97973373.68847  23926105.6754   23926106.2474   23926105.6604
        45.000          39.000
 122275552.02747  95279623.45847  23268285.9094   23268287.7784   23268286.2734
        47.000          41.000
 121377278.95447  94579681.40847  23097340.7494   23097344.3494   23097340.5534
        47.000          41.000
 115743361.26847  90189599.57747  22025256.6064   22025260.9194   22025256.8004
        51.000          44.000
 116193424.47847  90540331.74147  22110870.8874   22110873.2084   22110870.9314
        50.000          44.000
 123777662.06247  96450103.57347  23554123.2924   23554127.3374   23554123.3174
        45.000          39.000
 121676971.18547  94813215.82147  23154361.2774   23154364.2944   23154361.2734
        47.000          42.000
 137403929.97547  89275771.08847  24244175.8884   24244180.3324   24244176.1594
        43.000          37.000
 128350938.24247 100013706.91247  24424380.3074   24424383.1434   24424380.2164
        42.000          38.000
 128583164.97147  82402450.96347  22565638.1254   22565640.5304   22565638.0774
        49.000          44.000
 120885403.01347  94196407.08747  23003734.7834   23003737.6494   23003735.0034
        47.000          41.000
 09  1  6  1 10 30.0000000  0 12G21G22G18G30G24G14G 5G29G 6G12G31G 9
 105097145.03847  81893868.25847  19999329.1944   19999331.0304   19999329.6254
        54.000          50.000
 125699519.80047  97947670.85747  23919828.6514   23919829.3634   23919828.9514
        46.000          39.000
 122243784.58147  95254869.62247  23262240.3704   23262242.5624   23262240.8604
        48.000          41.000
 121350205.83647  94558585.48847  23092189.4274   23092192.6424   23092188.8954
        48.000          41.000
 115800629.10747  90234223.86747  22036154.3884   22036158.7074   22036154.5414
        51.000          44.000
 116218984.53647  90560248.69047  22115734.6344   22115737.1554   22115734.7674
        50.000          44.000
 123766247.06447  96441208.82347  23551950.7664   23551955.4084   23551951.3804
        45.000          39.000
 121751416.57947  94871225.20147  23168527.5604   23168530.7674   23168527.4344
        47.000          42.000
 137367993.14247  89247768.40247  24237337.0364   24237342.4444   24237337.0014
        42.000          37.000
 128354519.70347 100016497.68947  24425061.8124   24425064.4224   24425061.5254
        43.000          38.000
 128487662.84047  82328033.78947  22547464.5924   22547467.1424   22547463.9454
        49.000          44.000
 120973239.98547  94264851.50547  23020449.1694   23020452.3734   23020449.6814
        47.000          40.000
 09  1  6  1 11  0.0000000  0 12G21G22G18G30G24G14G 5G29G 6G12G31G 9
 105078822.37347  81879590.86347  19995842.6384   19995844.3144   19995843.0624
        54.000          50.000
 125666311.19447  97921794.04147  23913509.3814   23913509.7324   23913509.5854
        45.000          39.000
 122211877.56747  95230007.01247  23256168.8654   23256170.8564   23256169.2674
        47.000          41.000
 121323092.07747  94537457.91847  23087029.6384   23087032.9764   23087029.4744
        48.000          42.000
 115858324.64547  90279181.43247  22047133.1894   22047137.8984   22047133.2894
        51.000          44.000
 116244823.82247  90580383.22047  22120652.0034   22120654.2764   22120652.2564
        51.000          44.000
 123754941.78747  96432399.55347  23549799.1914   23549803.3394   23549799.9584
        45.000          39.000
 121825785.89447  94929175.28947  23182679.4424   23182682.9434   23182679.2744
        47.000          42.000
 137332352.41247  89219996.46547  24230554.6294   24230560.1314   24230555.3104
        43.000          37.000
 128358203.61647 100019368.29447  24425762.9124   24425766.0874   24425762.7074
        43.000          38.000
 128392381.85447  82253788.93447  22529333.1384   22529335.6914   22529332.6104
        49.000          44.000
 121061435.43347  94333575.23447  23037232.5924   23037235.4574   23037232.5074
        46.000          40.000
 09  1  6  1 11 30.0000000  0 12G21G22G18G30G24G14G 5G29G 6G12G31G 9
 105061087.76347  81865771.69347  19992467.8674   19992469.5084   19992468.2634
        54.000          50.000
 125632878.77347  97895742.82247  23907147.0124   23907147.6554   23907147.2514
        46.000          39.000
 122179831.99647  95205036.45747  23250070.8464   23250072.7784   23250071.2094
        47.000          41.000
 121295939.24447  94516299.91947  23081862.3844   23081866.1824   23081862.2274
        47.000          41.000
 115916446.20647  90324470.95547  22058193.3424   22058197.8234   22058193.6054
        51.000          44.000
 116270939.34047  90600733.00147  22125621.4634   22125623.6544   22125621.6154
        50.000          44.000
 123743747.72147  96423676.94747  23547669.2334   23547673.0594   23547669.5974
        45.000          39.000
 121900076.51647  94987064.06347  23196816.4494   23196820.2564   23196815.8464
        47.000          42.000
 137297006.54347  89192454.29047  24223828.9514   24223833.6024   24223829.0204
        43.000          37.000
 128361990.97047 100022319.52347  24426483.8234   24426485.9774   24426483.9034
        43.000          38.000
 128297324.76447  82179718.55047  22511244.0944   22511247.1294   22511243.5964
        49.000          44.000
 121149986.33547  94402575.96747  23054083.0664   23054086.0864   23054083.2294
        47.000          40.000
 09  1  6  1 12  0.0000000  0 12G21G22G18G30G24G14G 5G29G 6G12G31G 9
 105043942.90247  81852412.06547  19989205.2634   19989207.0784   19989205.7044
        54.000          50.000
 125599223.55747  97869517.99547  23900743.4514   23900743.7184   23900743.8534
        46.000          40.000
 122147649.91247  95179959.49547  23243946.4774   23243948.7124   23243947.1224
        47.000          41.000
 121268749.72347  94495113.29547  23076688.6194   23076692.3964   23076688.0844
        48.000          42.000
 115974992.78447  90370091.66547  22069334.6564   22069338.7964   22069334.8664
        51.000          44.000
 116297329.08747  90621296.46947  22130643.1544   22130645.3074   22130643.4284
        50.000          44.000
 123732667.63547  96415043.15447  23545560.7414   23545565.1404   23545561.4244
        46.000          39.000
 121974286.97347  95044890.36447  23210938.2834   23210942.1064   23210937.8744
        47.000          42.000
 137261955.40747  89165141.77447  24217158.2124   24217163.7554   24217158.3264
        42.000          37.000
 128365884.46847 100025353.45747  24427224.6894   24427227.0024   24427224.0474
        43.000          38.000
 128202494.90747  82105825.22947  22493198.7844   22493201.4184   22493198.3724
        49.000          44.000
 121238890.59847  94471852.04047  23071001.0704   23071003.8614   23071001.3014
        46.000          39.000
 09  1  6  1 12 30.0000000  0 12G21G22G18G30G24G14G 5G29G 6G12G31G 9
 105027388.00147  81839512.15047  19986054.8624   19986056.6824   19986055.2364
        54.000          49.000
 125565344.60847  97843118.82547  23894296.3004   23894296.6564   23894296.1504
        46.000          39.000
 122115331.68547  95154776.47447  23237796.5854   23237798.7804   23237797.0894
        47.000          41.000
 121241524.04847  94473898.50647  23071507.5654   23071511.4544   23071507.4424
        48.000          42.000
 116033961.60847  90416041.39547  22080556.2194   22080560.0434   22080556.2234
        51.000          44.000
 116323989.55047  90642070.87647  22135716.4754   22135719.0174   22135716.5454
        50.000          44.000
 123721702.36747  96406498.85247  23543474.2744   23543478.3104   23543474.8324
        45.000          39.000
 122048414.23847  95102651.85247  23225044.5524   23225048.0114   23225044.0944
        47.000          42.000
 137227197.27547  89138057.57347  24210544.9734   24210550.0114   24210544.9294
        43.000          37.000
 128369884.79747 100028470.61347  24427986.2564   24427988.2694   24427985.9474
        43.000          38.000
 128107894.18547  82032110.45447  22475196.7434   22475199.4084   22475196.2024
        50.000          44.000
 121328144.49647  94541400.53947  23087985.5944   23087988.6774   23087985.7004
        45.000          39.000
 09  1  6  1 13  0.0000000  0 12G21G22G18G30G24G14G 5G29G 6G12G31G 9
 105011425.62147  81827073.93547  19983017.4254   19983019.0574   19983017.8254
        54.000          50.000
 125531243.50347  97816546.54847  23887806.8854   23887807.2344   23887806.7284
        45.000          40.000
 122082879.86247  95129489.33547  23231621.4074   23231623.3374   23231621.8484
        47.000          40.000
 121214265.47147  94452658.06847  23066320.4724   23066324.0494   23066320.1514
        48.000          42.000
 116093352.82447  90462320.27147  22091858.0274   22091861.8454   22091858.0334
        51.000          44.000
 116350919.35447  90663055.16847  22140841.0384   22140843.4954   22140841.2964
        50.000          44.000
 123710855.29647  96398046.61647  23541409.8844   23541414.5044   23541410.8384
        45.000          39.000
 122122457.60647  95160347.96047  23239134.4694   23239138.1984   23239134.1304
        47.000          42.000
 137192732.68847  89111202.13247  24203985.9704   24203991.2434   24203986.2344
        42.000          37.000
 128373995.07147 100031673.45647  24428767.9794   24428770.8204   24428767.3444
        43.000          38.000
 128013526.62747  81958577.35947  22457239.1644   22457241.6844   22457238.9314
        50.000          44.000
 121417746.69947  94611220.46047  23105036.4174   23105039.2124   23105036.5444
        46.000          40.000
 09  1  6  1 13 30.0000000  0 12G21G22G18G30G24G14G 5G29G 6G12G31G 9
 104996056.47447  81815097.98247  19980092.7214   19980094.4654   19980093.1584
        54.000          50.000
 125496920.40147  97789801.29147  23881275.0664   23881275.8754   23881275.2884
        46.000          40.000
 122050295.70247  95104099.08047  23225420.5514   23225422.5584   23225420.9644
        47.000          40.000
 121186976.12647  94431393.66847  23061127.6794   23061131.0334   23061127.4204
        48.000          42.000
 116153164.53147  90508926.79647  22103239.5854   22103243.7374   22103239.7834
        51.000          44.000
 116378115.84447  90684247.25847  22146016.2454   22146018.7594   22146016.5244
        50.000          44.000
 123700128.33547  96389687.98847  23539368.6024   23539372.6844   23539368.7834
        45.000          39.000
 122196414.71947  95217976.86147  23253208.0544   23253211.8994   23253207.6754
        47.000          42.000
 137158560.77747  89084574.74547  24197483.7384   24197488.6874   24197483.0824
        42.000          37.000
 128378216.98047 100034963.29547  24429571.6394   24429573.5694   24429571.4174
        44.000          38.000
 127919394.83047  81885227.97647  22439326.5534   22439329.0304   22439326.1854
        50.000          44.000
 121507694.48447  94681309.64047  23122152.8774   23122156.1494   23122152.4584
        45.000          40.000
 09  1  6  1 14  0.0000000  0 12G21G22G18G30G24G14G 5G29G 6G12G31G 9
 104981282.14747  81803585.52247  19977281.4194   19977283.0024   19977281.7504
        54.000          50.000
 125462375.69847  97762883.38847  23874701.5014   23874702.1514   23874701.9144
        46.000          40.000
 122017580.85347  95078606.97547  23219195.4754   23219197.3274   23219195.8834
        47.000          40.000
 121159658.20947  94410107.00147  23055929.1474   23055932.7204   23055929.0934
        48.000          42.000
 116213395.63947  90555860.12947  22114700.7304   22114705.0754   22114700.9564
        50.000          44.000
 116405576.73647  90705645.37947  22151241.9954   22151244.8324   22151242.2454
        50.000          44.000
 123689523.86647  96381424.80747  23537351.0354   23537354.8454   23537351.2054
        46.000          40.000
 122270283.90947  95275537.24447  23267264.9964   23267268.7864   23267264.7974
        47.000          42.000
 137124681.21647  89058175.15747  24191036.1074   24191041.0634   24191035.4254
        42.000          37.000
 128382552.47547 100038341.62847  24430396.2774   24430399.1494   24430396.2004
        43.000          39.000
 127825502.15747  81812064.91947  22421459.3894   22421461.8234   22421458.8094
        50.000          44.000
 121597985.50447  94751666.29047  23139334.3674   23139338.1324   23139334.5724
        45.000          40.000
 09  1  6  1 14 30.0000000  0 12G21G22G18G30G24G14G 5G29G 6G12G31G 9
 104967103.12847  81792536.93747  19974583.1624   19974584.7904   19974583.6444
        54.000          50.000
 125427609.35547  97735792.74047  23868085.7914   23868086.3614   23868085.5814
        46.000          40.000
 121984736.63347  95053014.08147  23212945.4084   23212947.5894   23212945.5984
        48.000          40.000
 121132312.71947  94388798.84947  23050725.8644   23050729.2224   23050725.6604
        48.000          41.000
 116274043.91547  90603118.52847  22126241.9314   22126246.2964   22126241.7974
        50.000          44.000
 116433298.87547  90727247.07247  22156517.1444   22156520.0474   22156517.2324
        49.000          44.000
 123679043.34047  96373258.20347  23535356.9124   23535360.3764   23535357.3324
        46.000          40.000
 122344062.64547  95333027.15747  23281304.3934   23281308.2434   23281303.9964
        46.000          42.000
 137091092.55947  89032002.24147  24184644.1904   24184649.0324   24184643.9034
        42.000          37.000
 128387002.61847 100041809.31047  24431242.9574   24431245.9234   24431242.7374
        43.000          38.000
 127731850.86647  81739089.95047  22403638.4434   22403640.5264   22403637.8664
        50.000          44.000
 121688616.42047  94822287.79047  23156581.0084   23156584.6094   23156581.1874
        45.000          40.000
 09  1  6  1 15  0.0000000  0 12G21G22G18G30G24G14G 5G29G 6G12G31G 9
 104953520.18747  81781952.83247  19971998.2834   19972000.0314   19971998.6484
        54.000          50.000
 125392621.54047  97708529.50747  23861428.0574   23861428.1554   23861427.8634
        46.000          40.000
 121951763.79447  95027320.93747  23206670.8114   23206672.5894   23206671.1984
        47.000          40.000
 121104941.50647  94367470.65947  23045517.0574   23045520.2344   23045516.7924
        48.000          42.000
 116335107.62147  90650700.62947  22137862.0074   22137866.3844   22137862.2044
        50.000          44.000
 116461279.53047  90749050.20347  22161841.3754   22161844.4704   22161841.6474
        50.000          44.000
 123668688.65547  96365189.65547  23533385.8444   23533389.9244   23533386.3404
        46.000          39.000
 122417748.40747  95390444.61847  23295326.1834   23295330.1484   23295325.9784
        46.000          42.000
 137057793.88047  89006055.26347  24178307.8424   24178312.3384   24178308.1904
        42.000          37.000
 128391569.31347 100045367.82247  24432112.2064   24432114.7254   24432112.1394
        44.000          38.000
 127638443.47747  81666305.03247  22385863.4044   22385865.5984   22385863.3294
        50.000          44.000
 121779584.16647  94893171.74247  23173891.5124   23173895.0684   23173891.6924
        46.000          40.000
 09  1  6  1 15 30.0000000  0 12G21G22G18G30G24G14G 5G29G 6G12G31G 9
 104940535.54247  81771834.92947  19969527.4394   19969529.1624   19969527.8444
        54.000          50.000
 125357413.53147  97681094.70147  23854727.8934   23854728.2224   23854727.8794
        46.000          39.000
 121918664.96647  95001529.64547  23200372.7594   23200374.1014   23200372.8744
        47.000          40.000
 121077547.77847  94346124.93747  23040304.3014   23040307.3974   23040303.8374
        48.000          42.000
 116396586.07947  90698605.91647  22149561.1254   22149565.3744   22149561.2004
        51.000          44.000
 116489517.33747  90771053.71447  22167215.0354   22167217.7024   22167215.3144
        50.000          44.000
 123658462.96647  96357221.61847  23531440.2464   23531444.1874   23531440.8054
        46.000          40.000
 122491340.74947  95447789.27947  23309330.5664   23309334.3334   23309330.3994
        47.000          42.000
 137024785.62447  88980334.63647  24172026.7494   24172031.0734   24172026.0764
        42.000          37.000
 128396255.38647 100049019.35847  24433004.0664   24433005.9014   24433003.6774
        43.000          38.000
 127545284.01747  81593713.30947  22368135.6064   22368137.5984   22368135.0204
        50.000          44.000
 121870887.34947  94964317.09447  23191265.9994   23191269.0384   23191266.4984
        46.000          40.000
 09  1  6  1 16  0.0000000  0 12G21G22G18G30G24G14G 5G29G 6G12G31G 9
 104928149.53147  81762183.49947  19967170.3864   19967172.1134   19967170.7994
        54.000          50.000
 125321985.01147  97653488.05647  23847986.1524   23847986.6364   23847986.0334
        46.000          39.000
 121885441.06147  94975640.88447  23194049.7934   23194051.9484   23194050.4784
        47.000          40.000
 121050132.86547  94324762.69447  23035087.4434   23035090.7104   23035086.8734
        48.000          42.000
 116458477.06547  90746832.65647  22161338.7004   22161343.0864   22161339.0974
        50.000          44.000
 116518008.80847  90793254.88647  22172636.8294   22172639.4414   22172636.9134
        50.000          44.000
 123648367.66347  96349355.20347  23529519.0554   23529522.8684   23529519.3914
        46.000          40.000
 122564837.11147  95505059.15347  23323316.4784   23323320.0934   23323316.5254
        47.000          41.000
 136992066.23347  88954839.06547  24165800.2024   24165804.7904   24165800.4664
        42.000          37.000
 128401062.18147 100052764.96347  24433918.3414   24433920.6524   24433918.2984
        43.000          38.000
 127452374.79847  81521316.57147  22350455.3634   22350457.6404   22350454.9774
        50.000          45.000
 121962522.75347  95035721.31747  23208703.6384   23208706.4474   23208703.5904
        45.000          40.000
 09  1  6  1 16 30.0000000  0 12G21G22G18G30G24G14G 5G29G 6G12G31G 9
 104916363.29247  81752999.41547  19964927.5954   19964929.3694   19964928.0164
        54.000          50.000
 125286336.96347  97625710.35647  23841202.1324   23841202.7174   23841201.8314
        46.000          39.000
 121852093.97447  94949656.14747  23187703.9434   23187705.9884   23187704.4824
        47.000          40.000
 121022698.94647  94303385.63947  23029866.7954   23029869.9694   23029866.6954
        48.000          42.000
 116520779.48947  90795380.00547  22173194.5474   22173198.6004   22173194.7154
        50.000          44.000
 116546751.92347  90815652.13847  22178106.3854   22178109.1344   22178106.5004
        50.000          44.000
 123638405.29547  96341592.37547  23527623.2844   23527627.2784   23527623.6134
        46.000          40.000
 122638235.83547  95562252.92847  23337283.8754   23337287.5484   23337284.1804
        46.000          41.000
 136959635.43447  88929568.40147  24159629.0424   24159633.6444   24159628.9154
        43.000          37.000
 128405991.76947 100056606.26747  24434856.4714   24434859.2184   24434856.3234
        43.000          38.000
 127359718.98347  81449117.28947  22332823.5514   22332825.8814   22332823.4224
        50.000          45.000
 122054487.90547  95107382.48547  23226204.1944   23226207.3784   23226204.3984
        44.000          39.000
 09  1  6  1 17  0.0000000  0 12G21G22G18G30G24G14G 5G29G 6G12G31G 9
 104905177.67447  81744283.35147  19962799.0074   19962800.8294   19962799.3504
        54.000          50.000
 125250469.21947  97597761.47347  23834376.9714   23834377.4024   23834377.2134
        46.000          40.000
 121818624.80247  94923576.26447  23181335.1374   23181336.9604   23181335.3474
        47.000          40.000
 120995247.71047  94281995.08147  23024643.0124   23024646.3084   23024642.7174
        48.000          41.000
 116583491.19047  90844246.25747  22185128.2534   22185132.2984   22185128.5484
        50.000          44.000
 116575743.49647  90838242.99547  22183623.3234   22183625.7574   22183623.4234
        50.000          44.000
 123628577.39247  96333934.31447  23525753.0494   23525756.8994   23525752.9854
        46.000          40.000
 122711534.12747  95619368.48047  23351231.9914   23351236.0124   23351231.8724
        46.000          41.000
 136927491.85847  88904521.51547  24153511.8824   24153517.0594   24153512.4674
        43.000          37.000
 128411045.53047 100060544.31847  24435817.7954   24435820.9424   24435817.6424
        43.000          38.000
 127267319.06647  81377117.39447  22315240.4564   22315242.7234   22315239.9974
        50.000          44.000
 122146779.82247  95179298.26647  23243766.7224   23243769.6014   23243766.4124
        45.000          39.000
 09  1  6  1 17 30.0000000  0 12G21G22G18G30G24G14G 5G29G 6G12G31G 9
 104894595.63847  81736037.61047  19960785.3444   19960787.0304   19960785.6864
        54.000          50.000
 125214384.20647  97569643.29047  23827510.6114   23827510.6624   23827511.0244
        47.000          39.000
 121785037.05047  94897403.98447  23174943.9304   23174945.8794   23174944.2734
        47.000          40.000
 120967783.58447  94260594.49147  23019416.5734   23019419.6274   23019416.1414
        48.000          42.000
 116646612.93047  90893432.01847  22197139.9894   22197144.3514   22197140.3794
        50.000          44.000
 116604983.12547  90861027.12947  22189187.4554   22189190.0144   22189187.6324
        50.000          44.000
 123618888.16447  96326384.31247  23523909.5234   23523912.9964   23523909.6554
        46.000          40.000
 122784732.60147  95676406.23747  23365161.4654   23365164.8844   23365161.5154
        46.000          41.000
 136895636.92247  88879699.57447  24147450.0924   24147454.9864   24147449.8214
        43.000          37.000
 128416227.20647 100064582.04447  24436803.7104   24436806.8914   24436803.4414
        43.000          38.000
 127175180.09547  81305320.84647  22297706.8504   22297709.2914   22297706.8404
        50.000          44.000
 122239397.59247  95251467.95647  23261391.4394   23261393.9774   23261391.6404
        44.000          39.000
 09  1  6  1 18  0.0000000  0 12G21G22G18G30G24G14G 5G29G 6G12G31G 9
 104884615.84547  81728261.15347  19958886.1554   19958887.9034   19958886.5114
        54.000          50.000
 125178079.92747  97541354.23047  23820601.8244   23820601.9994   23820602.1854
        46.000          39.000
 121751329.97447  94871138.73247  23168529.7534   23168531.4354   23168530.5224
        47.000          40.000
 120940305.96747  94239183.37947  23014187.5724   23014190.7664   23014186.8814
        48.000          42.000
 116710140.71347  90942934.17847  22209228.8334   22209232.9794   22209228.8864
        51.000          44.000
 116634465.97347  90884000.79747  22194797.5874   22194800.4524   22194797.9404
        50.000          44.000
 123609337.34047  96318942.14847  23522091.4824   23522095.0464   23522091.9874
        46.000          40.000
 122857826.97947  95733362.89847  23379070.6094   23379073.6544   23379070.5744
        46.000          41.000
 136864067.37847  88855099.97947  24141442.2534   24141447.4814   24141443.0494
        43.000          38.000
 128421536.43347 100068719.15447  24437813.8424   24437816.9384   24437813.3924
        44.000          38.000
 127083302.46147  81233727.93747  22280222.6504   22280225.4254   22280222.3134
        49.000          44.000
 122332336.24847  95323887.69247  23279077.2474   23279080.0314   23279076.9494
        45.000          39.000
 09  1  6  1 18 30.0000000  0 12G21G22G18G30G24G14G 5G29G 6G12G31G 9
 104875240.35047  81720955.57647  19957102.1774   19957103.8444   19957102.6464
        54.000          50.000
 125141558.76747  97512896.19947  23813652.2514   23813652.3674   23813652.5134
        46.000          39.000
 121717506.75347  94844782.97747  23162093.5434   23162094.7064   23162093.9764
        47.000          41.000
 120912818.29047  94217764.43947  23008957.1114   23008960.2844   23008956.7214
        48.000          42.000
 116774074.28447  90992752.53747  22221394.7504   22221399.1804   22221395.0294
        50.000          44.000
 116664191.12647  90907163.27047  22200454.3424   22200456.7644   22200454.3424
        50.000          44.000
 123599928.52947  96311610.62847  23520301.3154   23520304.6864   23520302.2714
        46.000          40.000
 122930817.06047  95790238.30247  23392960.1894   23392963.1514   23392960.2384
        47.000          41.000
 136832784.04147  88830723.43347  24135489.8984   24135493.9814   24135489.4204
        44.000          38.000
 128426976.45847 100072958.16747  24438849.9384   24438852.0434   24438849.5794
        44.000          39.000
 126991690.54447  81162342.06647  22262789.6434   22262792.0404   22262788.7554
        50.000          45.000
 122425594.60347  95396556.54947  23296823.3644   23296826.1894   23296823.5714
        45.000          39.000
 09  1  6  1 19  0.0000000  0 12G21G22G18G30G24G14G 5G29G 6G12G31G 9
 104866470.25247  81714121.73247  19955433.2564   19955434.8814   19955433.6744
        54.000          50.000
 125104821.09447  97484269.44047  23806661.1474   23806661.3284   23806661.1644
        46.000          40.000
 121683568.83547  94818337.86847  23155634.6034   23155636.8794   23155635.1004
        48.000          41.000
 120885322.70647  94196339.33947  23003724.7034   23003728.4764   23003724.2864
        48.000          42.000
 116838411.89847  91042885.73247  22233637.8144   22233642.0104   22233637.7884
        50.000          43.000
 116694155.75047  90930512.33847  22206156.1974   22206159.0244   22206156.4594
        50.000          44.000
 123590663.80947  96304391.39347  23518538.1574   23518542.1724   23518538.5214
        46.000          40.000
 123003700.59747  95847030.64747  23406829.8454   23406832.8924   23406829.6624
        47.000          41.000
 136801785.96147  88806569.13247  24129591.2854   24129595.9474   24129591.3164
        43.000          38.000
 128432549.08247 100077300.50647  24439910.1184   24439912.5954   24439909.5004
        44.000          38.000
 126900347.12447  81091165.42547  22245407.8614   22245410.0414   22245407.6264
        50.000          45.000
 122519170.15547  95469472.58047  23314630.2574   23314633.4414   23314630.5664
        45.000          40.000
 09  1  6  1 19 30.0000000  0 12G21G22G18G30G24G14G 5G29G 6G12G31G 9
 104858304.22647  81707758.59447  19953879.2674   19953881.1174   19953879.6524
        54.000          50.000
 125067865.21547  97455472.65247  23799628.3424   23799629.0624   23799628.6054
        45.000          39.000
 121649515.68547  94791802.96447  23149154.8964   23149156.4954   23149155.3454
        47.000          41.000
 120857819.02347  94174907.93447  22998490.7464   22998494.6024   22998490.8344
        48.000          42.000
 116903149.71647  91093330.76947  22245957.2134   22245961.1754   22245957.3164
        50.000          43.000
 116724354.99347  90954044.23347  22211903.3814   22211905.3664   22211903.5644
        50.000          44.000
 123581543.15047  96297284.41947  23516802.3514   23516806.4144   23516802.8974
        46.000          39.000
 123076473.77947  95903737.01147  23420678.0894   23420680.9344   23420677.9144
        47.000          41.000
 136771070.28547  88782634.92147  24123745.7194   24123750.9394   24123745.4624
        43.000          37.000
 128438254.03947 100081745.98747  24440995.4594   24440998.3344   24440995.2964
        44.000          38.000
 126809273.39347  81020198.93247  22228076.9684   22228079.3964   22228077.0294
        50.000          45.000
 122613057.86547  95542631.84947  23332496.6574   23332499.9764   23332496.8984
        46.000          40.000
 09  1  6  1 20  0.0000000  0 12G21G22G18G30G24G14G 5G29G 6G12G31G 9
 104850744.44047  81701867.85447  19952440.6904   19952442.4164   19952441.0634
        54.000          50.000
 125030692.50847  97426506.92847  23792554.4574   23792555.2894   23792554.6374
        46.000          39.000
 121615350.18647  94765180.49447  23142653.3834   23142655.3494   23142653.8324
        48.000          41.000
 120830310.77347  94153472.98547  22993256.3504   22993259.7674   22993256.0344
        48.000          42.000
 116968287.51047  91144087.48747  22258352.5374   22258356.5974   22258352.5344
        50.000          43.000
 116754787.49847  90977757.88647  22217694.2904   22217696.2314   22217694.4964
        50.000          44.000
 123572569.99147  96290292.37647  23515094.9554   23515098.4624   23515095.7464
        46.000          39.000
 123149136.24647  95960357.11347  23434505.4304   23434508.2094   23434505.2464
        47.000          41.000
 136740637.30747  88758920.96547  24117955.0254   24117958.4254   24117955.1784
        43.000          38.000
 128444094.68747 100086297.16947  24442106.4754   24442109.4614   24442106.1624
        43.000          38.000
 126718473.29647  80949445.66047  22210798.2374   22210800.6884   22210798.0204
        50.000          45.000
 122707256.45547  95616033.34847  23350422.2264   23350425.4084   23350422.3954
        46.000          40.000
 09  1  6  1 20 30.0000000  0 12G21G22G18G30G24G14G 5G29G 6G12G31G 9
 104843794.79047  81696452.53847  19951118.3914   19951120.0264   19951118.8414
        54.000          50.000
 124993306.89747  97397375.30647  23785440.4824   23785441.0174   23785440.6384
        45.000          39.000
 121581077.06247  94738474.16047  23136131.4974   23136133.3874   23136131.9394
        48.000          41.000
 120802803.03247  94132038.43447  22988021.4524   22988025.1184   22988021.5754
        48.000          42.000
 117033826.65347  91195156.94047  22270824.0134   22270828.3994   22270824.2244
        49.000          43.000
 116785454.33447  91001654.12847  22223530.0444   22223532.0584   22223530.1934
        50.000          44.000
 123563749.42447  96283419.22847  23513416.6434   23513420.1584   23513417.1564
        46.000          40.000
 123221689.09847  96016891.77347  23448311.6814   23448314.4854   23448311.3144
        46.000          41.000
 136710489.47547  88735429.21447  24112217.3144   24112221.6944   24112217.6804
        43.000          37.000
 128450075.69447 100090957.74047  24443245.5474   24443247.7434   24443245.3374
        44.000          38.000
 126627952.57547  80878910.08947  22193572.5924   22193574.9874   22193572.3474
        50.000          45.000
 122801766.15447  95689677.28147  23368406.7324   23368409.7554   23368406.9434
        45.000          40.000
 09  1  6  1 21  0.0000000  0 12G21G22G18G30G24G14G 5G29G 6G12G31G 9
 104837451.70847  81691509.87947  19949911.2674   19949912.9224   19949911.6324
        54.000          49.000
 124955705.22447  97368075.31247  23778284.9684   23778285.9114   23778285.1154
        46.000          39.000
 121546693.77447  94711681.97947  23129588.9464   23129590.4754   23129589.3094
        48.000          41.000
 120775293.53947  94110602.51447  22982786.8984   22982789.9004   22982786.3724
        48.000          42.000
 117099761.23347  91246534.53447  22283370.9544   22283375.2354   22283371.1034
        49.000          43.000
 116816348.50247  91025727.52147  22229408.8234   22229411.3514   22229409.1184
        50.000          44.000
 123555079.36147  96276663.37347  23511766.5884   23511770.6554   23511767.0924
        45.000          40.000
 123294126.45147  96073336.45447  23462096.0464   23462099.2814   23462095.6734
        46.000          41.000
 136680621.61747  88712155.62847  24106534.3834   24106538.4674   24106534.2214
        42.000          37.000
 128456194.69947 100095725.81547  24444409.6084   24444412.3784   24444409.7764
        44.000          38.000
 126537710.11947  80808591.34647  22176400.0434   22176402.3714   22176399.5604
        51.000          45.000
 122896580.33047  95763558.44947  23386448.8254   23386452.5894   23386449.0164
        45.000          40.000
 09  1  6  1 21 30.0000000  0 12G21G22G18G30G24G14G 5G29G 6G12G31G 9
 104831716.45647  81687040.85547  19948819.8684   19948821.3584   19948820.2204
        54.000          49.000
 124917888.41147  97338607.65947  23771088.9144   23771089.3924   23771088.7224
        46.000          39.000
 121512202.46947  94684805.61947  23123025.1494   23123026.9234   23123025.6374
        48.000          41.000
 120747785.15247  94089167.44447  22977551.8764   22977555.4344   22977551.2654
        48.000          42.000
 117166089.91147  91298219.20647  22295992.8764   22295997.3224   22295993.2394
        49.000          43.000
 116847467.69347  91049976.24447  22235330.5874   22235333.2714   22235330.7374
        50.000          44.000
 123546562.46447  96270026.86047  23510145.9654   23510149.6964   23510145.9504
        45.000          40.000
 123366446.74447  96129689.90847  23475858.1074   23475861.4744   23475857.3154
        46.000          41.000
 136651033.34647  88689099.89047  24100903.3984   24100908.1004   24100903.4094
        43.000          38.000
 128462453.79447 100100603.06147  24445600.3094   24445603.0324   24445600.2524
        44.000          38.000
 126447749.37047  80738492.11947  22159280.8604   22159283.1674   22159280.4554
        50.000          45.000
 122991696.61547  95837675.03447  23404549.0734   23404552.4334   23404548.9484
        45.000          39.000
 09  1  6  1 22  0.0000000  0 12G21G22G18G30G24G14G 5G29G 6G12G31G 9
 104826592.81347  81683048.40847  19947844.8684   19947846.4804   19947845.2814
        54.000          50.000
 124879858.78447  97308974.19547  23763851.7364   23763852.3564   23763851.8034
        45.000          39.000
 121477607.80047  94657848.73847  23116442.1004   23116443.6544   23116442.5164
        48.000          41.000
 120720283.01547  94067737.25147  22972318.6254   22972322.0854   22972318.3984
        48.000          42.000
 117232814.24847  91350212.19147  22308689.7844   22308694.1344   22308689.8834
        49.000          43.000
 116878812.49847  91074400.78647  22241295.4244   22241297.9764   22241295.8464
        50.000          44.000
 123538203.85647  96263513.69547  23508555.3014   23508558.5434   23508555.7624
        46.000          40.000
 123438651.38847  96185953.23147  23489597.8364   23489601.5824   23489597.0934
        45.000          41.000
 136621726.75447  88666263.64247  24095326.1524   24095331.1514   24095326.1604
        43.000          37.000
 128468858.31647 100105593.63547  24446818.8404   24446822.1004   24446818.6744
        43.000          38.000
 126358076.27547  80668617.04547  22142216.6074   22142218.7754   22142216.2784
        51.000          45.000
 123087115.36347  95912027.29947  23422706.6824   23422709.9254   23422706.8664
        45.000          39.000
 09  1  6  1 22 30.0000000  0 12G21G22G18G30G24G14G 5G29G 6G12G31G 9
 104822079.26847  81679531.35947  19946985.9364   19946987.6074   19946986.2984
        54.000          49.000
 124841615.48547  97279174.23747  23756574.5394   23756575.0234   23756575.0244
        46.000          39.000
 121442909.10647  94630810.77547  23109839.1974   23109840.7914   23109839.6384
        48.000          41.000
 120692786.98647  94046311.81247  22967085.9674   22967089.2254   22967085.7794
        48.000          42.000
 117299930.09547  91402510.24147  22321461.4974   22321465.8244   22321461.6604
        49.000          43.000
 116910378.23547  91098997.47347  22247302.1834   22247304.6814   22247302.3504
        49.000          44.000
 123530003.47047  96257123.82847  23506994.6884   23506998.1964   23506995.1104
        46.000          40.000
 123510736.71347  96242123.58747  23503315.3974   23503318.9074   23503314.8704
        46.000          41.000
 136592698.95847  88643644.60347  24089802.6264   24089806.9984   24089802.7494
        43.000          38.000
 128475407.52047 100110696.91247  24448065.2394   24448067.6644   24448065.2344
        42.000          38.000
 126268691.54947  80598966.66747  22125207.2034   22125209.3094   22125206.7514
        51.000          45.000
 123182831.32247  95986611.17047  23440920.7704   23440924.0144   23440920.8034
        45.000          39.000
 09  1  6  1 23  0.0000000  0 12G21G22G18G30G24G14G 5G29G 6G12G31G 9
 104818177.79947  81676491.25747  19946243.4234   19946245.1744   19946243.8104
        54.000          49.000
 124803160.93547  97249209.66147  23749256.9914   23749257.4474   23749256.9714
        46.000          39.000
 121408109.74547  94603694.37547  23103216.7364   23103218.6354   23103217.1274
        48.000          41.000
 120665300.87547  94024894.11247  22961855.7114   22961858.9184   22961855.5184
        48.000          42.000
 117367437.37747  91455113.31047  22334307.9374   22334311.9584   22334308.2124
        49.000          43.000
 116942163.85047  91123765.50947  22253350.8244   22253353.0174   22253351.2134
        50.000          44.000
 123521964.90047  96250860.05947  23505465.1164   23505468.2094   23505465.6544
        46.000          40.000
 123582702.39447  96298200.69547  23517009.9814   23517013.8634   23517009.7704
        45.000          41.000
 136563950.56547  88621243.33847  24084331.2984   24084336.5394   24084330.9524
        43.000          38.000
 128482105.04147 100115915.80947  24449339.3484   24449342.4374   24449339.3644
        43.000          38.000
 126179599.49447  80529544.35647  22108253.4214   22108255.5274   22108252.9724
        50.000          45.000
 123278843.29447  96061425.69947  23459191.2514   23459194.4314   23459191.6194
        45.000          39.000
 09  1  6  1 23 30.0000000  0 12G21G22G18G30G24G14G 5G29G 6G12G31G 9
 104814886.63947  81673926.72347  19945617.0544   19945618.9544   19945617.2714
        54.000          49.000
 124764493.11647  97219078.90847  23741898.5224   23741899.5144   23741898.2754
        45.000          40.000
 121373209.01547  94576499.00147  23096575.7584   23096577.4264   23096576.0134
        47.000          41.000
 120637823.94447  94003483.56147  22956626.8324   22956629.9744   22956626.2104
        48.000          42.000
 117435331.58747  91508017.88447  22347227.9374   22347232.0974   22347228.0474
        49.000          43.000
 116974163.95047  91148700.66747  22259440.0704   22259442.8444   22259440.2874
        50.000          44.000
 123514087.61147  96244721.95647  23503965.3754   23503969.4554   23503966.0994
        46.000          40.000
 123654543.97947  96354181.12247  23530680.7744   23530685.0074   23530680.6004
        45.000          40.000
 136535477.93547  88599056.89447  24078914.2634   24078917.6694   24078914.5744
        43.000          37.000
 128488949.87547 100121249.47247  24450642.8424   24450644.1954   24450642.5044
        43.000          38.000
 126090800.30047  80460350.24447  22091355.5184   22091357.4864   22091355.0024
        51.000          45.000
 123375146.13547  96136466.89347  23477517.0734   23477519.9834   23477516.9144
        45.000          39.000
 09  1  6  1 24  0.0000000  0 12G21G22G18G30G24G14G 5G29G 6G12G31G 9
 104812207.88347  81671839.38447  19945107.4474   19945109.1794   19945107.7564
        54.000          50.000
 124725613.88547  97188783.41747  23734499.9394   23734500.9114   23734499.9394
        46.000          40.000
 121338209.91847  94549226.97347  23089915.3614   23089917.5724   23089915.5664
        48.000          41.000
 120610359.81447  93982082.97447  22951400.6704   22951404.0784   22951400.3214
        48.000          42.000
 117503612.78147  91561224.00247  22360221.6054   22360225.5224   22360221.8444
        49.000          43.000
 117006377.63047  91173802.25447  22265570.2134   22265572.6884   22265570.2704
        50.000          44.000
 123506375.15547  96238712.29347  23502498.2634   23502502.0244   23502498.3854
        46.000          40.000
 123726261.52847  96410064.87047  23544328.0704   23544332.2264   23544327.7104
        45.000          40.000
 136507281.56447  88577085.75747  24073547.8214   24073553.0954   24073547.9024
        43.000          37.000
 128495945.36447 100126700.55247  24451974.0004   24451975.9604   24451973.5364
        43.000          38.000
 126002298.50347  80391387.86947  22074514.1524   22074516.3814   22074513.9764
        51.000          45.000
 123471738.58247  96211733.75247  23495897.8674   23495901.0414   23495897.8894
        46.000          39.000
 09  1  6  1 24 30.0000000  0 12G21G22G18G30G24G14G 5G29G 6G12G31G 9
 104810143.10447  81670230.47147  19944714.4814   19944716.2524   19944714.7924
        54.000          49.000
 124686525.13347  97158324.66847  23727062.2944   23727062.3474   23727062.6024
        47.000          40.000
 121303115.29147  94521880.50547  23083237.2724   23083238.8564   23083237.5964
        48.000          41.000
 120582912.13047  93960695.21047  22946177.6354   22946180.7574   22946177.1894
        49.000          42.000
 117572280.14547  91614731.03447  22373288.1574   22373292.6314   22373288.3504
        49.000          43.000
 117038803.36247  91199069.07947  22271740.5444   22271742.8984   22271740.6934
        49.000          44.000
 123498830.84047  96232833.63347  23501062.5784   23501066.4674   23501062.8504
        46.000          40.000
 123797854.11847  96465851.25547  23557951.6924   23557955.9554   23557951.3914
        45.000          40.000
 136479361.89347  88555330.20047  24068235.5774   24068239.8814   24068235.6624
        43.000          38.000
 128503094.47547 100132271.31247  24453333.8954   24453335.9684   24453333.8524
        43.000          38.000
 125914098.13047  80322660.36547  22057730.3864   22057732.3114   22057729.8264
        51.000          45.000
 123568618.96247  96287224.97147  23514333.8594   23514336.9324   23514333.7934
        46.000          39.000
 09  1  6  1 25  0.0000000  0 12G21G22G18G30G24G14G 5G29G 6G12G31G 9
 104808691.05647  81669099.00947  19944438.2114   19944439.9664   19944438.6964
        54.000          49.000
 124647225.35447  97127701.48547  23719583.4384   23719584.0134   23719583.3554
        46.000          40.000
 121267925.07047  94494459.54447  23076540.4954   23076542.3984   23076540.9104
        48.000          41.000
 120555480.88547  93939320.24147  22940957.8234   22940960.7454   22940957.3024
        48.000          42.000
 117641329.61447  91668535.79747  22386428.1844   22386432.3314   22386428.3984
        50.000          43.000
 117071436.47847  91224497.49847  22277950.4084   22277953.1504   22277950.5754
        50.000          44.000
 123491454.60247  96227085.95047  23499659.0524   23499662.7364   23499659.4994
        46.000          40.000
 123869317.81547  96521537.22147  23571551.0924   23571555.1444   23571550.5944
        45.000          40.000
 136451715.79547  88533787.82547  24062974.5134   24062978.9634   24062974.1964
        42.000          37.000
 128510396.92047 100137961.58247  24454723.5494   24454725.9974   24454723.5194
        43.000          38.000
 125826199.79047  80254168.20847  22041003.9214   22041005.8374   22041003.6054
        52.000          46.000
 123665782.47147  96362936.80947  23532822.9634   23532825.8494   23532823.2484
        45.000          39.000
 09  1  6  1 25 30.0000000  0 12G21G22G18G30G24G14G 5G29G 6G12G31G 9
 104807854.60947  81668447.23247  19944278.9474   19944280.7364   19944279.2634
        54.000          49.000
 124607717.97047  97096916.51247  23712065.6114   23712065.7124   23712065.7434
        47.000          40.000
 121232643.15347  94466967.12847  23069826.7024   23069828.4174   23069827.1724
        47.000          41.000
 120528070.44947  93917961.49347  22935741.8794   22935745.0724   22935741.4094
        49.000          42.000
 117710762.10647  91722639.02947  22399640.6084   22399645.1684   22399640.5094
        49.000          43.000
 117104277.25847  91250087.73947  22284199.7654   22284202.2794   22284200.1814
        50.000          44.000
 123484251.29247  96221473.01047  23498288.4194   23498291.9034   23498288.3114
        46.000          40.000
 123940654.20647  96577124.00147  23585125.7704   23585130.2154   23585125.3924
        45.000          40.000
 136424344.88047  88512459.88147  24057765.9544   24057770.6624   24057766.1864
        43.000          38.000
 128517857.21647 100143774.84247  24456143.7844   24456146.3034   24456143.3684
        43.000          39.000
 125738609.10047  80185915.77747  22024335.8144   22024337.8414   22024335.8834
        51.000          46.000
 123763228.97647  96438869.17347  23551366.8164   23551369.8894   23551366.5054
        44.000          39.000
 09  1  6  1 26  0.0000000  0 12G21G22G18G30G24G14G 5G29G 6G12G31G 9
 104807630.44047  81668272.55447  19944236.4874   19944238.0614   19944236.8224
        54.000          49.000
 124567999.55947  97065967.12047  23704507.3264   23704508.1644   23704507.2714
        47.000          40.000
 121197267.95647  94439402.02847  23063094.9914   23063096.8994   23063095.2634
        47.000          41.000
 120500679.46447  93896617.90347  22930528.8704   22930532.2364   22930528.6744
        48.000          42.000
 117780571.50247  91777035.95847  22412924.8724   22412929.2264   22412924.9704
        49.000          43.000
 117137318.70347  91275834.34947  22290487.3414   22290489.9744   22290487.6034
        49.000          44.000
 123477218.94047  96215993.28947  23496949.5454   23496953.6174   23496949.8804
        45.000          40.000
 124011857.59647  96632607.13547  23598675.3484   23598679.7084   23598674.9344
        45.000          40.000
 136397244.21047  88491342.49747  24052608.4574   24052613.2734   24052608.4934
        42.000          37.000
 128525473.14347 100149709.35047  24457592.7864   24457595.0694   24457592.3814
        44.000          39.000
 125651325.19147  80117902.39347  22007726.0554   22007728.5844   22007725.6384
        51.000          46.000
 123860951.77547  96515016.80947  23569962.8334   23569965.5774   23569962.6814
        44.000          38.000
 09  1  6  1 26 30.0000000  0 12G21G22G18G30G24G14G 5G29G 6G12G31G 9
 104808022.48447  81668578.04547  19944310.9464   19944312.6904   19944311.3494
        54.000          49.000
 124528074.76547  97034856.88247  23696909.9674   23696910.4074   23696909.8064
        47.000          41.000
 121161804.62247  94411768.25047  23056346.7964   23056348.2994   23056346.9254
        47.000          41.000
 120473313.76847  93875294.00347  22925321.5494   22925324.9134   22925321.2364
        49.000          42.000
 117850759.93347  91831728.23047  22426281.5534   22426286.1494   22426281.7774
        50.000          43.000
 117170562.20647  91301738.39947  22296813.6634   22296816.2094   22296813.7774
        50.000          44.000
 123470363.29447  96210651.27347  23495644.8794   23495648.7864   23495645.3334
        46.000          40.000
 124082929.62047  96687987.90847  23612200.0444   23612204.0754   23612199.7454
        45.000          40.000
 136370416.54947  88470437.85547  24047503.2054   24047508.0834   24047503.3884
        43.000          37.000
 128533250.05347 100155769.31947  24459072.3574   24459074.4954   24459071.5314
        42.000          38.000
 125564354.32647  80050132.93147  21991176.1004   21991178.4454   21991175.3934
        51.000          46.000
 123958951.60047  96591380.31847  23588610.6214   23588614.1264   23588611.1234
        43.000          38.000
 09  1  6  1 27  0.0000000  0 12G21G22G18G30G24G14G 5G29G 6G12G31G 9
 104809031.15047  81669364.01747  19944502.7744   19944504.6554   19944503.1284
        54.000          49.000
 124487943.88347  97003586.07347  23689273.2584   23689273.7974   23689272.9334
        48.000          40.000
 121126254.61747  94384066.92647  23049581.5594   23049583.3714   23049582.1844
        48.000          41.000
 120445975.07647  93853991.15547  22920119.3774   22920122.7294   22920119.2234
        48.000          42.000
 117921325.31747  91886714.23747  22439709.7534   22439713.9954   22439709.7684
        49.000          43.000
 117204004.75647  91327797.55847  22303177.6034   22303179.7174   22303177.9434
        50.000          44.000
 123463686.34047  96205448.50147  23494374.7024   23494378.4964   23494375.0184
        46.000          40.000
 124153868.60647  96743265.00247  23625699.4874   23625702.9754   23625699.7194
        46.000          40.000
 136343860.75747  88449745.06447  24042450.0614   24042454.6724   24042450.2254
        44.000          37.000
 128541189.35347 100161955.82547  24460583.1244   24460585.5844   24460582.9004
        43.000          38.000
 125477699.41647  79982609.67047  21974686.3134   21974688.4474   21974685.8444
        51.000          46.000
 124057225.45147  96667957.34147  23607311.8834   23607315.2414   23607311.9594
        44.000          38.000
 09  1  6  1 27 30.0000000  0 12G21G22G18G30G24G14G 5G29G 6G12G31G 9
 104810654.30147  81670628.80247  19944811.8254   19944813.4984   19944812.2344
        54.000          49.000
 124447605.42447  96972153.51247  23681596.9654   23681597.7264   23681597.3884
        47.000          40.000
 121090617.59047  94356297.80847  23042800.4444   23042802.0454   23042801.0514
        48.000          41.000
 120418663.53147  93832709.45247  22914922.0454   22914925.5044   22914921.9454
        48.000          42.000
 117992263.56747  91941990.78347  22453208.8814   22453212.9114   22453208.8604
        49.000          43.000
 117237641.72547  91354008.20147  22309578.3984   22309580.5714   22309578.5874
        50.000          44.000
 123457187.72447  96200384.68147  23493137.8854   23493141.8884   23493137.9074
        47.000          40.000
 124224670.86247  96798435.55747  23639172.9204   23639176.4724   23639173.0494
        46.000          40.000
 136317573.38547  88429261.42747  24037447.7684   24037451.9004   24037447.8944
        43.000          37.000
 128549290.80347 100168268.67747  24462125.2494   24462127.3074   24462124.5334
        43.000          38.000
 125391360.76747  79915332.84347  21958256.6934   21958258.6474   21958256.2964
        51.000          46.000
 124155768.48347  96744744.13147  23626064.8534   23626067.6534   23626064.5044
        44.000          39.000
 09  1  6  1 28  0.0000000  0 12G21G22G18G30G24G14G 5G29G 6G12G31G 9
 104812893.18047  81672373.38047  19945237.8584   19945239.5014   19945238.2014
        54.000          49.000
 124407060.80447  96940560.29347  23673881.9274   23673881.9484   23673881.7524
        48.000          40.000
 121054896.08047  94328462.84847  23036003.0384   23036004.4714   23036003.6174
        48.000          41.000
 120391382.31547  93811451.37847  22909730.5174   22909733.6694   22909730.2494
        49.000          42.000
 118063573.59847  91997557.02747  22466778.5594   22466782.9724   22466778.5734
        49.000          43.000
 117271471.19847  91380368.85247  22316015.7704   22316018.1164   22316015.8444
        49.000          44.000
 123450870.44247  96195462.15947  23491935.7104   23491939.4494   23491936.3144
        46.000          40.000
 124295335.38447  96853498.78747  23652619.7424   23652623.6624   23652619.7864
        45.000          40.000
 136291554.33047  88408986.87547  24032496.4564   24032500.6374   24032497.0154
        42.000          37.000
 128557557.17247 100174710.02147  24463697.8024   24463700.3364   24463697.5944
        44.000          39.000
 125305341.91747  79848305.20647  21941887.8214   21941889.7144   21941887.7934
        51.000          46.000
 124254578.42847  96821738.89747  23644867.2994   23644870.3594   23644867.1914
        44.000          38.000
 09  1  6  1 28 30.0000000  0 12G21G22G18G30G24G14G 5G29G 6G12G31G 9
 104815751.03647  81674600.27647  19945781.6374   19945783.4004   19945781.9924
        54.000          49.000
 124366313.56347  96908809.21247  23666127.9684   23666128.3254   23666127.7464
        48.000          40.000
 121019094.53147  94300565.52947  23029190.0654   23029191.5924   23029190.7664
        48.000          41.000
 120364135.77847  93790220.35247  22904545.6424   22904548.7234   22904545.6394
        49.000          42.000
 118135256.23547  92053413.61747  22480419.2854   22480423.6584   22480419.3954
        49.000          43.000
 117305493.15147  91406879.48547  22322490.0894   22322492.2464   22322490.0314
        49.000          44.000
 123444739.13447  96190684.53447  23490769.1124   23490772.7624   23490769.3884
        46.000          40.000
 124365863.26347  96908455.55047  23666040.4574   23666044.5644   23666040.5574
        44.000          40.000
 136265805.20247  88388922.64047  24027596.6594   24027601.1614   24027596.7694
        43.000          38.000
 128565992.62147 100181283.13247  24465302.9684   24465305.5114   24465303.5274
        44.000          39.000
 125219648.71147  79781531.31447  21925580.7694   21925582.7254   21925580.1024
        51.000          46.000
 124353655.27847  96898941.64747  23663720.7954   23663723.8774   23663720.8724
        44.000          38.000
 09  1  6  1 29  0.0000000  0 12G21G22G18G30G24G14G 5G29G 6G12G31G 9
 104819224.76647  81677307.07047  19946442.6514   19946444.4884   19946443.0564
        54.000          49.000
 124325361.04147  96876898.14247  23658334.8884   23658335.4144   23658335.0374
        47.000          40.000
 120983211.78647  94272604.93647  23022361.6744   23022363.3174   23022362.1354
        48.000          41.000
 120336923.32047  93769015.85647  22899367.5334   22899370.5474   22899367.0134
        49.000          42.000
 118207306.36347  92109556.55847  22494129.7224   22494134.5314   22494130.0064
        48.000          43.000
 117339701.99647  91433535.75447  22328999.6064   22329002.1254   22328999.9364
        49.000          44.000
 123438792.78447  96186051.04847  23489637.5734   23489640.8574   23489637.7744
        46.000          40.000
 124436249.98447  96963302.33247  23679434.6574   23679438.5954   23679434.3014
        45.000          40.000
 136240321.82047  88369065.48247  24022746.7804   24022751.9594   24022746.8584
        43.000          38.000
 128574595.86047 100187986.99947  24466940.4824   24466942.2044   24466940.1024
        44.000          39.000
 125134280.73147  79715010.84047  21909335.7604   21909337.8094   21909335.0784
        52.000          46.000
 124452992.86747  96976347.56847  23682624.1304   23682626.8694   23682624.3324
        45.000          38.000
 09  1  6  1 29 30.0000000  0 12G21G22G18G30G24G14G 5G29G 6G12G31G 9
 104823316.02347  81680495.05747  19947221.3684   19947222.9284   19947221.7874
        54.000          49.000
 124284205.48047  96844828.88247  23650502.8004   23650503.5464   23650502.8244
        46.000          40.000
 120947251.05947  94244583.58347  23015518.3434   23015520.2554   23015518.7214
        48.000          41.000
 120309748.38947  93747840.60247  22894195.9984   22894198.8564   22894195.8524
        48.000          42.000
 118279723.23547  92165985.28147  22507910.1544   22507914.7464   22507910.1654
        48.000          42.000
 117374096.15047  91460336.41947  22335544.6054   22335546.9034   22335544.5784
        49.000          44.000
 123433034.84947  96181564.36747  23488541.7774   23488545.3884   23488542.2954
        47.000          40.000
 124506494.96847  97018038.69247  23692801.8744   23692805.6384   23692801.4574
        45.000          40.000
 136215104.51347  88349415.65747  24017948.4664   24017953.0514   24017948.3674
        43.000          38.000
 128583369.96747 100194824.00347  24468609.6374   24468612.2304   24468609.4604
        43.000          39.000
 125049242.23447  79648747.10447  21893153.4304   21893155.5284   21893153.4004
        52.000          46.000
 124552589.99747  97053955.73947  23701577.1874   23701580.1024   23701577.0524
        44.000          38.000
 09  1  6  1 30  0.0000000  0 12G21G22G18G30G24G14G 5G29G 6G12G31G 9
 104828023.91547  81684163.54347  19948117.1794   19948118.7674   19948117.5864
        54.000          49.000
 124242846.58647  96812601.20947  23642632.6294   23642632.9854   23642632.6414
        47.000          40.000
 120911212.85247  94216501.85447  23008660.7304   23008662.5714   23008661.0834
        48.000          41.000
 120282612.29547  93726695.61747  22889032.0704   22889035.0754   22889031.6074
        49.000          42.000
 118352503.86547  92222697.44647  22521760.0144   22521764.4214   22521760.3864
        49.000          42.000
 117408672.14947  91487278.78147  22342124.3964   22342126.6024   22342124.5834
        50.000          44.000
 123427466.21447  96177225.20347  23487481.9884   23487485.3554   23487482.5884
        46.000          40.000
 124576595.75647  97072662.68147  23706141.6714   23706145.7944   23706141.3344
        44.000          40.000
 136190151.16447  88329971.50247  24013200.1944   24013204.4484   24013200.1414
        44.000          38.000
 128592315.38047 100201794.47947  24470311.6964   24470314.2514   24470311.4564
        43.000          38.000
 124964534.75647  79582741.29747  21877034.1184   21877036.1154   21877033.4974
        51.000          46.000
 124652442.94347  97131763.23947  23720578.1704   23720581.6514   23720578.1514
        44.000          38.000
 09  1  6  1 30 30.0000000  0 12G21G22G18G30G24G14G 5G29G 6G12G31G 9
 104833350.00247  81688313.74147  19949130.7094   19949132.3644   19949131.0394
        54.000          49.000
 124201286.74947  96780216.94847  23634724.1844   23634724.3504   23634724.3254
        47.000          40.000
 120875100.90247  94188362.67847  23001788.5954   23001790.8464   23001788.9834
        48.000          41.000
 120255518.61047  93705583.67647  22883876.4424   22883879.2954   22883875.9984
        48.000          42.000
 118425648.01547  92279692.88247  22535678.5164   22535683.3624   22535678.6884
        48.000          42.000
 117443429.05347  91514362.10647  22348738.2584   22348740.6714   22348738.6034
        50.000          44.000
 123422090.43647  96173036.32247  23486459.3284   23486462.6214   23486459.8314
        46.000          40.000
 124646552.46247  97127174.39847  23719453.8294   23719458.1374   23719453.9044
        46.000          40.000
 136165462.06247  88310733.26947  24008501.9294   24008506.7184   24008501.8414
        43.000          38.000
 128601435.79747 100208901.32147  24472047.1534   24472049.5534   24472046.6754
        43.000          38.000
 124880162.77147  79516996.91647  21860978.5684   21860980.6834   21860978.1114
        52.000          46.000
 124752550.22647  97209768.90847  23739628.1684   23739630.7954   23739627.7164
        43.000          38.000
 09  1  6  1 31  0.0000000  0 12G21G22G18G30G24G14G 5G29G 6G12G31G 9
 104839292.44947  81692944.21947  19950261.3294   19950263.2494   19950261.7074
        54.000          49.000
 124159524.52847  96747674.97947  23626777.0554   23626777.5464   23626777.0234
        47.000          40.000
 120838914.57347  94160165.52347  22994902.3234   22994904.7034   22994902.6644
        48.000          41.000
 120228467.20947  93684504.68947  22878728.9774   22878731.7644   22878728.5144
        49.000          42.000
 118499151.27847  92336968.13147  22549666.1564   22549670.3874   22549666.6124
        49.000          42.000
 117478361.85747  91541582.48947  22355385.5364   22355388.0664   22355385.4854
        49.000          44.000
 123416907.26147  96168997.50847  23485472.8264   23485476.4184   23485473.2504
        46.000          40.000
 124716360.91147  97181570.57947  23732738.4534   23732742.0284   23732738.4704
        46.000          40.000
 136141033.88747  88291698.34547  24003853.4184   24003858.1024   24003853.5474
        43.000          38.000
 128610730.45647 100216143.95747  24473816.3584   24473818.1924   24473816.5574
        44.000          38.000
 124796126.72347  79451514.29747  21844986.9624   21844989.1784   21844986.6214
        52.000          46.000
 124852906.64847  97287968.73647  23758725.1414   23758728.3684   23758725.2834
        45.000          38.000
 09  1  6  1 31 30.0000000  0 12G21G22G18G30G24G14G 5G29G 6G12G31G 9
 104845853.97447  81698057.09147  19951510.0114   19951511.8404   19951510.3514
        54.000          49.000
 124117563.15947  96714977.80447  23618791.7884   23618792.2914   23618791.4744
        47.000          40.000
 120802658.42947  94131913.97147  22988003.2944   22988005.6534   22988003.8754
        48.000          41.000
 120201463.07947  93663462.52147  22873589.7634   22873592.9974   22873589.3564
        48.000          42.000
 118573014.41147  92394523.80647  22563721.9694   22563726.3254   22563722.2084
        49.000          42.000
 117513470.60547  91568939.98647  22362066.7304   22362069.2074   22362066.7414
        49.000          44.000
 123411921.48747  96165112.51547  23484524.2934   23484527.3954   23484524.8284
        46.000          40.000
 124786022.52747  97235852.35247  23745994.6484   23745998.2824   23745994.3464
        45.000          40.000
 136116868.20747  88272867.95647  23999254.6394   23999258.8864   23999254.4694
        43.000          38.000
 128620203.73547 100223525.75847  24475619.3814   24475621.4954   24475619.0694
        44.000          38.000
 124712431.65147  79386297.38047  21829060.3804   21829062.6854   21829060.0124
        52.000          46.000
 124953511.98247  97366362.50447  23777870.0494   23777873.6024   23777870.0444
        44.000          38.000
 09  1  6  1 32  0.0000000  0 12G21G22G18G30G24G14G 5G29G 6G12G31G 9
 104853034.34947  81703652.18647  19952876.4464   19952878.1544   19952876.8574
        54.000          49.000
 124075403.10847  96682125.82847  23610769.1734   23610769.5904   23610769.2474
        47.000          40.000
 120766333.71747  94103609.01347  22981090.8074   22981093.1284   22981091.0144
        48.000          41.000
 120174508.04647  93642458.62647  22868460.5024   22868463.5354   22868460.5634
        49.000          42.000
 118647234.81147  92452357.86647  22577845.4884   22577849.7324   22577845.9334
        48.000          42.000
 117548751.98547  91596431.98647  22368780.2264   22368782.8954   22368780.4654
        49.000          44.000
 123407134.61647  96161382.50447  23483612.8894   23483616.6684   23483613.4154
        46.000          40.000
 124855535.58347  97290018.36747  23759222.6824   23759226.1264   23759222.4454
        45.000          40.000
 136092963.57947  88254240.97347  23994705.9684   23994710.7314   23994706.2454
        43.000          39.000
 128629856.83747 100231047.68647  24477456.1504   24477458.3314   24477456.3314
        44.000          38.000
 124629080.73247  79321348.62847  21813199.5184   21813201.4624   21813198.9494
        52.000          46.000
 125054363.11947  97444947.81447  23797061.4274   23797064.5354   23797061.6674
        44.000          38.000
 09  1  6  1 32 30.0000000  0 12G21G22G18G30G24G14G 5G29G 6G12G31G 9
 104860833.81147  81709729.68347  19954360.8464   19954362.3034   19954361.3384
        54.000          49.000
 124033045.71947  96649120.10647  23602708.8144   23602709.4094   23602708.9594
        47.000          40.000
 120729942.90247  94075252.53847  22974166.0694   22974168.1524   22974166.5264
        48.000          41.000
 120147604.58947  93621494.89247  22863341.1964   22863344.2254   22863340.7204
        48.000          42.000
 118721810.91847  92510469.10447  22592036.9054   22592041.2244   22592037.0094
        49.000          42.000
 117584204.06747  91624057.00847  22375526.6724   22375529.0184   22375526.6654
        49.000          43.000
 123402548.88447  96157809.24647  23482740.3534   23482743.9914   23482740.7914
        46.000          40.000
 124924898.31347  97344067.24347  23772422.0724   23772425.5154   23772421.7084
        45.000          40.000
 136069318.89947  88235816.55347  23990206.3444   23990211.1254   23990206.3784
        43.000          38.000
 128639691.80047 100238711.31947  24479326.9484   24479330.0344   24479326.8214
        43.000          38.000
 124546077.04747  79256670.44847  21797404.6154   21797406.2604   21797404.1224
        52.000          46.000
 125155457.44747  97523722.64647  23816299.1164   23816301.9384   23816299.3394
        45.000          37.000
 09  1  6  1 33  0.0000000  0 12G21G22G18G30G24G14G 5G29G 6G12G31G 9
 104869249.50047  81716287.35947  19955962.3434   19955963.8444   19955962.7594
        54.000          49.000
 123990489.12547  96615959.14747  23594610.5434   23594610.8714   23594610.6794
        47.000          40.000
 120693485.09847  94046843.86747  22967228.5934   22967230.6744   22967229.0104
        49.000          42.000
 120120752.26447  93600571.02847  22858231.6784   22858234.3784   22858231.2304
        49.000          42.000
 118796738.02047  92568853.83847  22606295.1734   22606299.2464   22606295.3344
        48.000          42.000
 117619821.19047  91651810.63147  22382304.1634   22382306.6494   22382304.4004
        49.000          43.000
 123398163.70647  96154392.24447  23481906.3774   23481910.0834   23481906.6144
        46.000          40.000
 124994106.66447  97397995.83147  23785591.9364   23785595.4794   23785591.7454
        45.000          40.000
 136045930.50047  88217591.83847  23985755.4564   23985760.1294   23985755.4004
        44.000          38.000
 128649707.67347 100246515.91847  24481233.3594   24481235.4744   24481233.0254
        44.000          38.000
 124463420.00347  79192262.38547  21781675.2884   21781677.1644   21781674.9054
        52.000          46.000
 125256789.14747  97602682.42847  23835582.1144   23835584.5404   23835581.7144
        45.000          37.000
 09  1  6  1 33 30.0000000  0 12G21G22G18G30G24G14G 5G29G 6G12G31G 9
 104878285.84347  81723328.66547  19957681.7734   19957683.4544   19957682.1414
        54.000          49.000
 123947738.01347  96582646.62247  23586475.2224   23586475.7274   23586475.1604
        47.000          41.000
 120656966.33947  94018387.70947  22960279.3404   22960281.0134   22960279.7454
        49.000          42.000
 120093957.37147  93579691.90047  22853132.1624   22853135.3674   22853131.9634
        49.000          42.000
 118872018.13647  92627513.66247  22620620.4494   22620624.5914   22620620.1804
        48.000          42.000
 117655605.02447  91679694.15747  22389113.8214   22389116.0094   22389113.8324
        49.000          44.000
 123393985.29747  96151136.36747  23481110.7974   23481114.6844   23481111.3364
        46.000          40.000
 125063163.60147  97451806.43747  23798733.0364   23798736.1844   23798732.7094
        46.000          40.000
 136022801.34747  88199569.12647  23981354.3724   23981358.5494   23981354.6124
        44.000          38.000
 128659910.39847 100254466.11547  24483174.7974   24483177.4864   24483174.8654
        43.000          38.000
 124381116.57947  79128129.87947  21766013.1284   21766015.1454   21766012.8594
        52.000          46.000
 125358359.70247  97681828.33947  23854910.3574   23854912.3514   23854910.0654
        44.000          37.000
 09  1  6  1 34  0.0000000  0 12G21G22G18G30G24G14G 5G29G 6G12G31G 9
 104887938.87547  81730850.50547  19959518.6814   19959520.2974   19959519.1064
        54.000          49.000
 123904789.59847  96549180.34547  23578302.3284   23578303.0874   23578302.3474
        47.000          41.000
 120620384.70547  93989882.55747  22953318.0434   22953319.8234   22953318.3964
        49.000          42.000
 120067218.06047  93558856.10047  22848044.4444   22848046.9784   22848044.2104
        49.000          43.000
 118947645.26547  92686443.87947  22635011.8874   22635015.9514   22635012.1904
        48.000          42.000
 117691548.93747  91707702.42347  22395953.5534   22395956.1184   22395953.7434
        49.000          43.000
 123390011.53047  96148039.97047  23480354.5514   23480358.1484   23480354.8614
        46.000          40.000
 125132063.68347  97505494.79847  23811844.0684   23811847.6894   23811843.7674
        44.000          40.000
 135999926.28847  88181744.41147  23977001.4304   23977005.9414   23977001.6424
        43.000          38.000
 128670297.43947 100262559.92147  24485151.4314   24485153.4724   24485150.9254
        43.000          38.000
 124299165.69047  79064272.06747  21750418.4334   21750420.5774   21750417.5364
        51.000          46.000
 125460162.33247  97761155.09747  23874283.0244   23874285.6834   23874282.5294
        44.000          37.000
 09  1  6  1 34 30.0000000  0 12G21G22G18G30G24G14G 5G29G 6G12G31G 9
 104898211.36247  81738855.03747  19961473.2964   19961475.1994   19961473.5924
        54.000          49.000
 123861647.87447  96515563.44047  23570092.5114   23570093.3874   23570092.7054
        47.000          41.000
 120583745.34547  93961332.40847  22946345.4214   22946347.4184   22946345.9004
        48.000          41.000
 120040540.44047  93538068.36047  22842967.5564   22842970.4824   22842967.2174
        50.000          43.000
 119023620.84647  92745645.61347  22649469.4454   22649473.9324   22649469.7894
        48.000          42.000
 117727653.37247  91735835.76147  22402824.1724   22402826.2474   22402824.2384
        50.000          43.000
 123386247.77347  96145107.18147  23479638.4284   23479642.0914   23479638.8714
        46.000          40.000
 125200808.48847  97559062.17247  23824925.7474   23824929.5734   23824925.5764
        45.000          40.000
 135977307.36047  88164119.28247  23972697.3184   23972701.3934   23972697.0074
        44.000          38.000
 128680873.76647 100270801.24347  24487164.3424   24487166.4884   24487164.3844
        44.000          39.000
 124217573.65147  79000693.88447  21734891.8514   21734893.9604   21734891.6194
        52.000          46.000
 125562197.30747  97840662.88947  23893698.3964   23893701.9894   23893699.3104
        43.000          37.000
 09  1  6  1 35  0.0000000  0 12G21G22G18G30G24G14G 5G29G 6G12G31G 9
 104909101.47847  81747340.83847  19963545.6664   19963547.5424   19963546.0364
        54.000          49.000
 123818311.48547  96481794.82947  23561846.1214   23561846.6714   23561846.3264
        47.000          40.000
 120547047.47447  93932736.66647  22939361.9264   22939364.0904   22939362.2494
        48.000          42.000
 120013924.04547  93517328.34147  22837903.3794   22837905.1784   22837903.0694
        50.000          43.000
 119099940.34447  92805115.34147  22663992.6084   22663997.0784   22663992.7184
        48.000          42.000
 117763913.85647  91764090.70247  22409724.5374   22409726.5564   22409724.7104
        50.000          44.000
 123382693.71147  96142337.81247  23478962.0034   23478965.8744   23478962.7184
        46.000          40.000
 125269394.35947  97612505.69547  23837977.2284   23837980.8454   23837977.2704
        45.000          40.000
 135954941.24247  88146691.14247  23968440.5894   23968445.4164   23968441.1694
        43.000          38.000
 128691638.88147 100279189.63847  24489212.7414   24489214.7194   24489212.5214
        43.000          38.000
 124136340.50447  78937395.35847  21719433.6424   21719435.7644   21719433.0954
        52.000          46.000
 125664459.64147  97920347.84647  23913158.5984   23913161.1994   23913159.2044
        42.000          37.000
 09  1  6  1 35 30.0000000  0 12G21G22G18G30G24G14G 5G29G 6G12G31G 9
 104920610.37147  81756308.80447  19965735.7834   19965737.3524   19965736.1684
        54.000          49.000
 123774782.86047  96447876.43347  23553562.7524   23553563.2504   23553562.3734
        47.000          40.000
 120510294.95147  93904098.35247  22932368.5224   22932370.4934   22932368.6104
        48.000          42.000
 119987372.55847  93496638.89347  22832850.0614   22832852.8674   22832849.8814
        49.000          42.000
 119176603.05747  92864852.50247  22678581.1804   22678585.4964   22678581.4474
        48.000          42.000
 117800329.03347  91792466.18347  22416653.8894   22416655.8074   22416654.1194
        50.000          44.000
 123379352.84247  96139734.57247  23478326.0854   23478330.1394   23478326.6804
        47.000          40.000
 125337821.29247  97665825.37147  23850998.2124   23851001.5054   23850998.1804
        45.000          39.000
 135932828.10247  88129460.13747  23964233.1894   23964237.7944   23964233.1374
        43.000          38.000
 128702595.87247 100287727.59747  24491297.4954   24491299.4004   24491297.0664
        44.000          38.000
 124055470.70147  78874379.95847  21704044.6574   21704046.7004   21704044.3314
        52.000          46.000
 125766947.86847  98000208.80447  23932661.1644   23932664.7964   23932661.6394
        42.000          37.000
 09  1  6  1 36  0.0000000  0 12G21G22G18G30G24G14G 5G29G 6G12G31G 9
 104932736.92847  81765758.06747  19968043.3804   19968044.9724   19968043.7384
        54.000          49.000
 123731062.46847  96413808.61147  23545243.1904   23545243.7624   23545243.1844
        46.000          40.000
 120473489.08247  93875418.44647  22925364.5624   22925367.0304   22925364.9584
        48.000          42.000
 119960887.73547  93476001.38547  22827810.1344   22827812.7754   22827809.9474
        49.000          43.000
 119253606.26847  92924854.98247  22693234.2654   22693238.9044   22693234.3704
        48.000          42.000
 117836895.49647  91820959.54547  22423612.5114   22423614.1904   22423612.8604
        50.000          43.000
 123376226.30247  96137298.34647  23477731.5124   23477734.6394   23477732.1454
        47.000          40.000
 125406087.07347  97719019.48847  23863989.2394   23863991.9834   23863988.7434
        45.000          39.000
 135910965.86747  88112424.65447  23960072.5054   23960077.1314   23960072.4234
        43.000          38.000
 128713745.74347 100296415.82047  24493419.2254   24493421.4894   24493419.0064
        45.000          39.000
 123974966.25647  78811649.25747  21688725.2874   21688727.2284   21688724.8754
        52.000          46.000
 125869658.31647  98080242.91847  23952207.0144   23952209.6844   23952206.6144
        42.000          37.000
 09  1  6  1 36 30.0000000  0 12G21G22G18G30G24G14G 5G29G 6G12G31G 9
 104945481.07647  81775688.56947  19970468.5574   19970470.2424   19970468.9674
        54.000          49.000
 123687150.20247  96379591.26847  23536886.6194   23536887.3744   23536886.7814
        47.000          40.000
 120436631.30647  93846698.10947  22918350.8384   22918352.8834   22918351.2144
        49.000          42.000
 119934471.36147  93455417.23447  22822783.5184   22822786.1214   22822783.1364
        49.000          43.000
 119330947.49647  92985120.85847  22707951.9864   22707956.3324   22707952.2634
        49.000          42.000
 117873610.19347  91849568.41647  22430598.9474   22430600.9744   22430599.1764
        49.000          44.000
 123373315.87747  96135030.50447  23477177.5864   23477180.9364   23477177.7814
        46.000          40.000
 125474190.10547  97772086.77247  23876948.5824   23876951.7054   23876948.6484
        45.000          39.000
 135889353.13547  88095583.58247  23955959.9974   23955964.4754   23955960.0914
        44.000          38.000
 128725089.83247 100305255.40347  24495578.2014   24495580.1834   24495577.5464
        44.000          38.000
 123894829.28447  78749204.89147  21673475.5354   21673477.5114   21673474.9474
        52.000          46.000
 125972587.97547  98160447.85047  23971793.3144   23971796.8824   23971793.0774
        41.000          37.000
 09  1  6  1 37  0.0000000  0 12G21G22G18G30G24G14G 5G29G 6G12G31G 9
 104958842.54047  81786100.09947  19973011.1714   19973012.6914   19973011.4994
        54.000          49.000
 123643048.10147  96345226.00847  23528494.8084   23528495.1994   23528494.9074
        47.000          40.000
 120399724.09347  93817939.25347  22911327.3354   22911329.4874   22911327.8934
        48.000          41.000
 119908126.22147  93434888.56747  22817770.1174   22817772.8554   22817769.3434
        49.000          42.000
 119408625.36047  93045649.04947  22722733.5664   22722737.8104   22722733.8254
        48.000          42.000
 117910471.44147  91878291.48847  22437613.2034   22437615.4204   22437613.4334
        49.000          43.000
 123370624.08747  96132933.04247  23476665.2404   23476668.6344   23476665.8014
        46.000          40.000
 125542129.70647  97825026.70647  23889876.9824   23889880.8794   23889876.8834
        44.000          39.000
 135867989.28047  88078936.43747  23951894.4194   23951898.9034   23951894.5704
        44.000          38.000
 128736630.25547 100314247.96647  24497774.2864   24497776.2214   24497773.7234
        43.000          38.000
 123815063.39247  78687049.69347  21658296.6044   21658298.6104   21658296.6634
        52.000          47.000
 126075734.39047  98240821.67747  23991421.5024   23991424.4774   23991421.0764
        42.000          37.000
 09  1  6  1 37 30.0000000  0 12G21G22G18G30G24G14G 5G29G 6G12G31G 9
 104972823.38047  81796994.26647  19975671.4944   19975673.3604   19975671.8684
        54.000          49.000
 123598758.17147  96310714.38147  23520066.5724   23520067.1014   23520066.4764
        47.000          40.000
 120362771.13147  93789144.74947  22904295.1054   22904297.6184   22904295.5154
        47.000          41.000
 119881855.91147  93414418.23647  22812770.8664   22812773.4074   22812770.6994
        49.000          42.000
 119486639.20347  93106439.03347  22737579.0574   22737583.5224   22737579.1114
        48.000          42.000
 117947477.81147  91907127.63647  22444655.4394   22444657.5294   22444655.6114
        50.000          44.000
 123368154.35447  96131008.61647  23476195.2464   23476198.7564   23476195.8094
        46.000          40.000
 125609905.66847  97877839.12147  23902773.8514   23902777.9764   23902773.8064
        44.000          39.000
 135846874.51947  88062483.37847  23947876.4224   23947881.5714   23947876.6164
        44.000          38.000
 128748370.27647 100323396.05347  24500008.2124   24500010.3354   24500008.1514
        42.000          38.000
 123735672.49347  78625186.68547  21643188.9224   21643190.7854   21643188.3794
        52.000          46.000
 126179096.45447  98321363.53147  24011090.6464   24011094.0934   24011090.2874
        42.000          37.000
 09  1  6  1 38  0.0000000  0 12G21G22G18G30G24G14G 5G29G 6G12G31G 9
 104987421.89347  81808369.73147  19978449.5104   19978451.2924   19978449.9454
        54.000          49.000
 123554280.72147  96276056.63847  23511602.8844   23511603.1444   23511602.8494
        47.000          40.000
 120325773.46247  93760315.37747  22897255.0974   22897257.2704   22897255.3264
        48.000          41.000
 119855661.77047  93394007.25147  22807786.1554   22807788.9034   22807785.8324
        49.000          43.000
 119564985.79247  93167488.30047  22752488.1854   22752492.4214   22752488.4644
        49.000          42.000
 117984625.65947  91936074.03047  22451724.2184   22451726.5714   22451724.6934
        49.000          43.000
 123365907.59847  96129257.90947  23475768.0064   23475771.0424   23475768.2604
        46.000          40.000
 125677515.80347  97930522.30947  23915639.6694   23915643.8494   23915639.2644
        43.000          39.000
 135826006.52147  88046222.58047  23943905.7334   23943910.0884   23943905.9334
        43.000          38.000
 128760310.40747 100332700.07747  24502279.3124   24502282.7734   24502278.7434
        43.000          38.000
 123656658.22847  78563617.16847  21628153.0834   21628154.8424   21628152.8884
        52.000          47.000
 126282669.92347  98402070.14147  24030800.2184   24030803.3014   24030799.9924
        42.000          37.000
 09  1  6  1 38 30.0000000  0 12G21G22G18G30G24G14G 5G29G 6G12G31G 9
 105002635.84247  81820224.75947  19981344.6624   19981346.4154   19981345.0484
        54.000          49.000
 123509615.04647  96241252.21947  23503103.0444   23503103.5524   23503103.3494
        47.000          40.000
 120288731.24747  93731451.31447  22890206.2284   22890208.1694   22890206.5004
        48.000          41.000
 119829544.70547  93373656.30347  22802816.2584   22802819.3174   22802816.0304
        48.000          43.000
 119643661.35547  93228793.91347  22767459.8974   22767464.0804   22767460.1514
        48.000          42.000
 118021910.70547  91965127.32147  22458819.4674   22458821.2324   22458819.5474
        49.000          43.000
 123363884.10947  96127681.19047  23475382.7574   23475385.9704   23475383.5514
        46.000          40.000
 125744957.22647  97983074.03847  23928473.8204   23928477.3824   23928473.6404
        44.000          39.000
 135805382.38547  88030151.82347  23939980.9834   23939985.4574   23939981.0684
        43.000          38.000
 128772450.44147 100342159.86747  24504589.8134   24504592.6254   24504589.1614
        43.000          38.000
 123578021.89947  78502342.14747  21613188.9764   21613190.6364   21613188.6164
        52.000          47.000
 126386450.43647  98482938.07247  24050548.7304   24050552.2234   24050549.1284
        43.000          38.000
 09  1  6  1 39  0.0000000  0 12G21G22G18G30G24G14G 5G29G 6G12G31G 9
 105018466.44247  81832560.29347  19984357.1834   19984358.7014   19984357.5204
        54.000          49.000
 123464763.36947  96206302.86747  23494568.3094   23494568.4564   23494568.2564
        47.000          41.000
 120251647.61547  93702554.97747  22883149.4674   22883151.4224   22883149.8614
        48.000          41.000
 119803508.30947  93353368.22147  22797861.6424   22797864.4334   22797861.2764
        49.000          42.000
 119722665.10947  93290355.26147  22782493.6904   22782498.0524   22782493.5804
        48.000          42.000
 118059331.77047  91994286.61347  22465940.6244   22465942.5954   22465940.8174
        50.000          43.000
 123362087.11447  96126280.96347  23475040.6574   23475043.9694   23475041.1694
        46.000          40.000
 125812229.91147  98035494.30647  23941275.4184   23941278.8344   23941275.1744
        44.000          39.000
 135785001.99047  88014270.99547  23936102.1464   23936107.1074   23936102.3024
        43.000          38.000
 128784793.87847 100351778.14847  24506938.9874   24506941.7244   24506938.1984
        43.000          38.000
 123499767.42247  78441364.66947  21598297.8474   21598299.2184   21598297.1554
        52.000          47.000
 126490436.21147  98563965.94047  24070336.9554   24070339.9944   24070337.2154
        42.000          38.000
 09  1  6  1 39 30.0000000  0 12G21G22G18G30G24G14G 5G29G 6G12G31G 9
 105034913.94947  81845376.53647  19987487.1894   19987488.6164   19987487.5974
        54.000          49.000
 123419727.55847  96171210.03747  23485998.3524   23485998.8184   23485998.3784
        47.000          40.000
 120214525.55647  93673628.70247  22876085.4784   22876087.1714   22876085.8444
        48.000          41.000
 119777555.19347  93333145.04247  22792922.6504   22792925.7054   22792922.3654
        48.000          42.000
 119801995.43947  93352171.07347  22797589.9794   22797594.0804   22797590.3404
        48.000          42.000
 118096886.76247  92023550.25147  22473086.7824   22473089.2764   22473086.9524
        49.000          43.000
 123360519.09047  96125059.14747  23474741.9644   23474745.7684   23474742.5444
        46.000          40.000
 125879332.68747  98087782.16047  23954044.7064   23954048.3264   23954044.2024
        44.000          39.000
 135764864.63547  87998579.54447  23932270.3364   23932275.1264   23932270.9124
        43.000          38.000
 128797342.10947 100361556.00847  24509327.1774   24509329.4694   24509326.9464
        43.000          38.000
 123421897.79247  78380687.07347  21583479.6374   21583481.1114   21583479.4324
        53.000          47.000
 126594624.91147  98645151.94047  24090163.2584   24090166.2684   24090163.3354
        43.000          38.000
 09  1  6  1 40  0.0000000  0 12G21G22G18G30G24G14G 5G29G 6G12G31G 9
 105051977.61347  81858672.89547  19990734.2074   19990735.7004   19990734.6164
        54.000          49.000
 123374508.19047  96135974.16647  23477392.8214   23477393.6214   23477393.4864
        46.000          40.000
 120177366.66747  93644673.71947  22869014.4204   22869016.0614   22869014.6424
        48.000          41.000
 119751687.48847  93312988.40747  22788000.0794   22788003.1724   22787999.9594
        49.000          42.000
 119881649.72047  93414239.32547  22812747.5484   22812751.7844   22812747.5384
        48.000          42.000
 118134572.67347  92052915.90647  22480258.1134   22480260.3494   22480258.3944
        49.000          43.000
 123359181.54247  96124016.92047  23474487.3044   23474490.9574   23474487.6354
        46.000          40.000
 125946264.06747  98139936.46147  23966781.1614   23966784.9834   23966781.1234
        44.000          39.000
 135744968.75647  87983076.26447  23928484.6244   23928489.1534   23928484.8454
        43.000          38.000
 128810096.56847 100371494.57047  24511754.7764   24511757.0204   24511754.3634
        43.000          38.000
 123344415.37147  78320311.19047  21568735.2194   21568736.7034   21568734.8914
        53.000          47.000
 126699013.37247  98726493.60847  24110027.5464   24110030.9474   24110027.7414
        45.000          38.000
 09  1  6  1 40 30.0000000  0 12G21G22G18G30G24G14G 5G29G 6G12G31G 9
 105069657.03147  81872449.06347  19994098.3684   19994100.0714   19994098.7994
        54.000          49.000
 123329105.92347  96100595.78147  23468753.3364   23468753.8824   23468753.2044
        46.000          41.000
 120140173.02147  93615691.68347  22861936.5024   22861938.5594   22861936.7824
        48.000          41.000
 119725907.49847  93292900.14547  22783094.8554   22783097.4814   22783094.2284
        49.000          42.000
 119961625.79647  93476558.32047  22827966.5254   22827970.6524   22827966.8104
        48.000          42.000
 118172386.71847  92082381.41547  22487454.0114   22487455.9834   22487454.2834
        49.000          43.000
 123358076.62947  96123155.95647  23474277.1974   23474280.3704   23474277.6184
        47.000          39.000
 126013022.81847  98191956.25047  23979485.3234   23979488.9754   23979484.8334
        45.000          39.000
 135725313.31147  87967760.34047  23924743.6814   23924748.6674   23924743.9594
        43.000          38.000
 128823059.20847 100381595.35947  24514221.1604   24514222.8594   24514220.3774
        43.000          38.000
 123267322.81747  78260239.10347  21554064.9784   21554066.7174   21554064.8134
        53.000          47.000
 126803598.88847  98807988.80347  24129930.0044   24129932.9034   24129930.0054
        43.000          38.000
 09  1  6  1 41  0.0000000  0 12G21G22G18G30G24G14G 5G29G 6G12G31G 9
 105087952.66947  81886705.40347  19997579.8864   19997581.6834   19997580.2524
        54.000          49.000
 123283522.93247  96065076.58647  23460078.9054   23460079.7994   23460078.6554
        46.000          41.000
 120102947.44147  93586684.75447  22854852.7944   22854854.7374   22854853.1414
        48.000          41.000
 119700218.27747  93272882.58347  22778206.1154   22778209.0514   22778205.5894
        48.000          42.000
 120041922.23147  93539126.94747  22843246.3224   22843250.4314   22843246.1334
        48.000          42.000
 118210327.45847  92111945.63247  22494673.5204   22494675.9054   22494673.7894
        49.000          43.000
 123357207.06147  96122478.39647  23474111.7924   23474115.1684   23474112.2894
        47.000          40.000
 126079608.61147  98243841.23947  23992155.7904   23992159.6664   23992155.0474
        44.000          39.000
 135705897.53247  87952631.15047  23921049.2244   23921053.6894   23921049.6774
        42.000          38.000
 128836232.43547 100391860.25047  24516727.9344   24516729.8684   24516727.8214
        43.000          38.000
 123190623.66447  78200473.55047  21539469.6494   21539471.4874   21539468.9534
        53.000          47.000
 126908379.43647  98889636.00447  24149869.0514   24149871.3814   24149869.2094
        43.000          38.000
 09  1  6  1 41 30.0000000  0 12G21G22G18G30G24G14G 5G29G 6G12G31G 9
 105106866.79947  81901443.68947  20001179.2204   20001180.9384   20001179.7084
        54.000          49.000
 123237762.99747  96029419.51747  23451371.1654   23451371.9114   23451371.0764
        47.000          41.000
 120065694.78147  93557656.72647  22847763.7094   22847765.8244   22847764.1164
        49.000          42.000
 119674624.95347  93252939.75347  22773335.7124   22773338.7734   22773334.8814
        49.000          42.000
 120122539.73047  93601945.74447  22858587.2954   22858591.6324   22858587.3294
        47.000          41.000
 118248394.98347  92141608.64147  22501917.9274   22501919.9444   22501918.2184
        49.000          43.000
 123356577.33147  96121987.70847  23473992.0024   23473995.5784   23473992.4554
        46.000          40.000
 126146023.12447  98295592.79647  24004794.0544   24004798.1154   24004793.7644
        44.000          39.000
 135686722.90947  87937689.91347  23917400.0174   23917405.0864   23917400.0234
        43.000          38.000
 128849620.38847 100402292.42947  24519275.1464   24519277.6194   24519274.3944
        43.000          38.000
 123114323.09847  78141018.60147  21524950.1484   21524951.9094   21524950.1374
        53.000          47.000
 127013354.71347  98971434.93547  24169844.9284   24169847.9454   24169845.2104
        43.000          37.000
 09  1  6  1 42  0.0000000  0 12G21G22G18G30G24G14G 5G29G 6G12G31G 9
 105126391.66547  81916657.87347  20004894.7024   20004896.2904   20004895.0544
        54.000          49.000
 123191820.34047  95993620.07247  23442628.4934   23442629.2074   23442628.6294
        47.000          41.000
 120028410.17347  93528603.80647  22840668.7254   22840670.6834   22840669.2344
        49.000          42.000
 119649122.67247  93233067.86847  22768483.1494   22768485.1464   22768482.7894
        49.000          42.000
 120203469.08347  93665007.54347  22873987.4744   22873992.0214   22873987.5364
        47.000          41.000
 118286579.68647  92171362.97147  22509184.1624   22509186.3804   22509184.3504
        49.000          43.000
 123356182.52547  96121680.07847  23473916.6174   23473920.3384   23473917.1214
        46.000          40.000
 126212257.70947  98347204.15047  24017397.9604   24017402.3904   24017397.4484
        44.000          39.000
 135667781.16147  87922930.09947  23913795.9864   23913800.5654   23913796.4454
        43.000          38.000
 128863217.63747 100412887.71847  24521862.6854   24521864.4794   24521862.2004
        43.000          38.000
 123038416.99747  78081871.01247  21510505.6044   21510507.5174   21510505.2074
        53.000          47.000
 127118514.78247  99053377.86347  24189856.2694   24189858.5084   24189856.2954
        43.000          37.000
 09  1  6  1 42 30.0000000  0 12G21G22G18G30G24G14G 5G29G 6G12G31G 9
 105146529.77547  81932349.91447  20008726.6774   20008728.5194   20008727.1274
        54.000          49.000
 123145698.71447  95957681.14947  23433851.8514   23433852.6424   23433851.7024
        47.000          41.000
 119991098.24647  93499529.57547  22833568.6654   22833570.5924   22833568.9844
        49.000          42.000
 119623716.59147  93213270.94547  22763648.3084   22763651.1664   22763648.0154
        49.000          43.000
 120284710.90147  93728312.82047  22889447.4374   22889451.8864   22889447.6154
        47.000          41.000
 118324881.56147  92201208.59447  22516473.0784   22516474.8284   22516473.0424
        49.000          43.000
 123356027.23747  96121559.08947  23473886.9764   23473890.9214   23473887.4384
        46.000          40.000
 126278313.82047  98398676.43447  24029967.7884   24029972.2834   24029967.8364
        44.000          39.000
 135649073.69947  87908352.87547  23910235.6974   23910240.4214   23910235.5744
        43.000          37.000
 128877028.64947 100423649.57347  24524490.6914   24524492.8494   24524490.2514
        43.000          38.000
 122962910.47947  78023034.78647  21496137.3164   21496139.0774   21496136.9314
        53.000          47.000
 127223859.71847  99135464.83647  24209902.0254   24209905.5924   24209902.6854
        42.000          37.000
 09  1  6  1 43  0.0000000  0 12G21G22G18G30G24G14G 5G29G 6G12G31G 9
 105167281.03247  81948519.72647  20012675.6234   20012677.3274   20012676.0444
        54.000          49.000
 123099400.05347  95921604.30947  23425041.5774   23425042.4054   23425041.4934
        48.000          42.000
 119953762.08247  93470436.47547  22826463.7264   22826465.3934   22826464.1914
        49.000          42.000
 119598409.79047  93193551.39647  22758832.6384   22758835.2894   22758832.3224
        49.000          43.000
 120366263.62247  93791860.37547  22904966.1954   22904970.6274   22904966.2654
        47.000          41.000
 118363298.99747  92231144.27747  22523783.5734   22523785.3354   22523783.6984
        49.000          43.000
 123356114.27747  96121626.93847  23473903.5304   23473907.3154   23473904.0494
        45.000          39.000
 126344191.54847  98450009.69047  24042504.0404   24042508.2344   24042503.9794
        44.000          39.000
 135630600.07547  87893957.85447  23906720.5734   23906725.6794   23906721.0514
        41.000          37.000
 128891055.63247 100434579.72347  24527160.5244   24527162.6824   24527160.1204
        44.000          38.000
 122887807.20847  77964512.78247  21481845.5094   21481847.2144   21481845.2944
        53.000          47.000
 127329387.36547  99217694.17847  24229983.9984   24229986.5084   24229983.7664
        42.000          36.000
 09  1  6  1 43 30.0000000  0 12G21G22G18G30G24G14G 5G29G 6G12G31G 9
 105188644.06747  81965166.25147  20016740.9694   20016742.5794   20016741.3334
        54.000          49.000
 123052924.48347  95885389.58247  23416198.1684   23416198.0054   23416198.4364
        48.000          42.000
 119916402.64447  93441325.22947  22819354.7574   22819356.3474   22819354.9954
        50.000          42.000
 119573203.67747  93173910.29647  22754035.8824   22754038.5754   22754035.3864
        50.000          43.000
 120448124.12547  93855647.74147  22920543.7464   22920548.3394   22920543.6074
        46.000          41.000
 118401828.30647  92261167.13247  22531115.2174   22531117.3064   22531115.6804
        49.000          43.000
 123356444.33647  96121884.14247  23473966.2604   23473969.9874   23473966.4714
        45.000          39.000
 126409888.27647  98501201.91947  24055006.3484   24055009.8154   24055006.1804
        44.000          39.000
 135612357.59947  87879742.94447  23903248.7834   23903253.6974   23903248.4894
        41.000          37.000
 128905299.42547 100445678.80647  24529870.2684   24529872.4614   24529870.2424
        43.000          38.000
 122813108.76147  77906306.22047  21467630.8704   21467632.4204   21467630.2684
        53.000          47.000
 127435093.83547  99300062.85447  24250098.6344   24250102.2904   24250099.1734
        41.000          36.000
 09  1  6  1 44  0.0000000  0 12G21G22G18G30G24G14G 5G29G 6G12G31G 9
 105210620.98747  81982291.12947  20020922.8714   20020924.7874   20020923.2374
        54.000          49.000
 123006275.33447  95849039.61547  23407321.0104   23407321.1824   23407321.1554
        47.000          41.000
 119879024.61447  93412199.50347  22812241.8234   22812243.4084   22812242.1554
        50.000          42.000
 119548102.92047  93154351.28547  22749259.4134   22749262.1774   22749259.2394
        50.000          43.000
 120530292.64947  93919675.12247  22936179.1564   22936184.4314   22936179.1014
        47.000          41.000
 118440469.49147  92291277.15947  22538468.4544   22538470.5994   22538468.6474
        49.000          43.000
 123357021.89547  96122334.22047  23474075.9394   23474080.0624   23474076.1704
        45.000          40.000
 126475405.29047  98552254.10347  24067473.4234   24067477.8814   24067473.6024
        44.000          39.000
 135594347.71347  87865709.28847  23899821.7674   23899826.8264   23899821.8804
        43.000          37.000
 128919763.59347 100456949.60147  24532622.4364   24532625.2094   24532622.4134
        43.000          38.000
 122738820.15947  77848419.02047  21453494.1444   21453495.6854   21453493.7694
        53.000          47.000
 127540978.78847  99382570.61447  24270248.1944   24270251.3844   24270248.5484
        39.000          36.000
 09  1  6  1 44 30.0000000  0 12G21G22G18G30G24G14G 5G29G 6G12G31G 9
 105233208.88747  81999892.09247  20025221.0724   20025223.1894   20025221.3894
        54.000          49.000
 122959452.33947  95812554.20247  23398410.4344   23398410.8404   23398410.4984
        47.000          41.000
 119841628.57647  93383059.76147  22805125.5414   22805127.3804   22805125.9654
        49.000          42.000
 119523107.98647  93134874.72947  22744503.3154   22744506.2264   22744503.1904
        49.000          43.000
 120612765.02347  93983939.27047  22951873.6744   22951878.1024   22951873.7424
        47.000          41.000
 118479218.15847  92321470.94547  22545841.9584   22545843.9504   22545842.0644
        49.000          43.000
 123357847.01147  96122977.19947  23474232.9124   23474236.8434   23474233.5184
        45.000          39.000
 126540739.71847  98603164.05447  24079906.6184   24079910.2514   24079905.9524
        45.000          39.000
 135576567.17947  87851854.33847  23896438.2534   23896443.0734   23896438.5244
        43.000          37.000
 128934447.98147 100468392.03247  24535417.1074   24535419.3984   24535417.1164
        43.000          38.000
 122664941.88347  77790851.55847  21439435.4714   21439437.1594   21439435.1384
        53.000          47.000
 127647037.61347  99465213.85147  24290430.9084   24290433.7844   24290430.1974
        39.000          35.000
 09  1  6  1 45  0.0000000  0 12G21G22G18G30G24G14G 5G29G 6G12G31G 9
 105256407.38147  82017968.84347  20029635.6094   20029637.6324   20029635.8804
        54.000          49.000
 122912456.66547  95775934.21647  23389467.7564   23389468.0604   23389467.8594
        48.000          41.000
 119804216.73947  93353907.68147  22798005.8744   22798007.8784   22798006.3654
        49.000          42.000
 119498221.80347  93115482.91247  22739767.1064   22739770.4724   22739766.6134
        49.000          43.000
 120695539.29647  94048438.67847  22967625.1934   22967629.9404   22967624.9804
        47.000          41.000
 118518071.79447  92351746.51947  22553235.4924   22553237.6644   22553235.6784
        49.000          43.000
 123358921.68247  96123814.63647  23474437.6084   23474441.4444   23474437.9224
        45.000          40.000
 126605890.58247  98653931.00047  24092304.0454   24092308.1344   24092303.9474
        44.000          39.000
 135559014.79847  87838177.19047  23893098.5484   23893102.2924   23893098.2484
        44.000          38.000
 128949354.30447 100480007.36547  24538253.3344   24538255.8434   24538253.1374
        42.000          37.000
 122591476.72147  77733606.00547  21425455.4074   21425457.4304   21425455.2134
        53.000          47.000
 127753267.57047  99547990.44247  24310645.1704   24310648.6734   24310644.8274
        38.000          35.000
 09  1  6  1 45 30.0000000  0 12G21G22G18G30G24G14G 5G29G 6G12G31G 9
 105280216.61247  82036521.48947  20034166.4914   20034168.2414   20034166.9254
        54.000          49.000
 122865289.96747  95739180.96847  23380492.2754   23380492.0624   23380492.3834
        48.000          41.000
 119766791.46547  93324745.15147  22790884.4004   22790886.4414   22790884.8624
        49.000          42.000
 119473446.72147  93096177.69147  22735052.3514   22735055.7134   22735051.9364
        48.000          43.000
 120778613.59747  94113171.85947  22983433.7284   22983438.2524   22983434.2234
        48.000          41.000
 118557028.24547  92382102.20947  22560648.5194   22560650.9704   22560648.6724
        49.000          43.000
 123360248.22447  96124848.32647  23474689.9264   23474694.1464   23474690.6194
        45.000          39.000
 126670857.22247  98704554.38447  24104666.9614   24104670.6734   24104667.0424
        43.000          39.000
 135541689.42647  87824676.90747  23889801.8784   23889805.7524   23889802.0384
        44.000          38.000
 128964484.63547 100491797.25247  24541133.3984   24541134.8964   24541133.6924
        43.000          37.000
 122518427.76947  77676684.76647  21411554.6924   21411556.6524   21411554.3684
        53.000          47.000
 127859666.05347  99630898.32547  24330891.5404   24330895.2714   24330892.2694
        38.000          35.000
 09  1  6  1 46  0.0000000  0 12G21G22G18G30G24G14G 5G29G 6G12G31G 9
 105304634.52747  82055548.43147  20038813.1534   20038814.9264   20038813.5784
        54.000          49.000
 122817952.86047  95702294.94247  23371484.2074   23371484.3904   23371484.2724
        48.000          41.000
 119729354.63947  93295573.61347  22783760.4114   22783761.8334   22783760.7644
        49.000          42.000
 119448784.69647  93076960.54047  22730359.4644   22730362.6154   22730358.8734
        49.000          43.000
 120861985.15847  94178136.67547  22999299.0894   22999303.3394   22999299.0544
        47.000          41.000
 118596084.50947  92412535.67147  22568080.7354   22568083.2014   22568081.1104
        49.000          43.000
 123361827.91447  96126079.27447  23474990.7024   23474994.1234   23474991.1374
        45.000          39.000
 126735637.62247  98755032.59647  24116994.3884   24116998.2994   24116993.9094
        44.000          39.000
 135524589.22247  87811352.11147  23886547.6934   23886551.5534   23886547.7254
        44.000          38.000
 128979839.79847 100503762.34447  24544055.0514   24544056.7774   24544054.8374
        42.000          37.000
 122445797.02247  77620089.40147  21397733.5724   21397735.1784   21397733.1914
        53.000          47.000
 127966230.02647  99713935.16847  24351171.3974   24351174.0064   24351171.0734
        39.000          35.000
 09  1  6  1 46 30.0000000  0 12G21G22G18G30G24G14G 5G29G 6G12G31G 9
 105329661.47847  82075049.94847  20043575.5904   20043577.2584   20043575.9734
        54.000          49.000
 122770447.76447  95665278.01047  23362444.3604   23362444.6524   23362444.6194
        48.000          42.000
 119691909.45747  93266395.55847  22776635.1514   22776636.3994   22776635.5234
        49.000          42.000
 119424239.20147  93057834.21147  22725688.8804   22725691.7704   22725688.4414
        49.000          43.000
 120945652.69147  94243332.11747  23015220.5624   23015224.7804   23015220.5024
        47.000          41.000
 118635238.88047  92443045.58247  22575531.9934   22575533.9374   22575532.1584
        49.000          43.000
 123363663.68847  96127509.77947  23475340.0314   23475343.4734   23475340.5814
        46.000          39.000
 126800231.99147  98805365.85147  24129286.1104   24129289.9844   24129285.8404
        44.000          39.000
 135507713.91747  87798202.54347  23883336.5674   23883340.6244   23883336.3964
        43.000          38.000
 128995422.53847 100515904.75647  24547020.1434   24547022.6054   24547020.4114
        43.000          38.000
 122373587.71247  77563822.43347  21383992.6354   21383994.2864   21383992.1624
        53.000          47.000
 128072957.32347  99797099.28947  24371480.4784   24371483.5844   24371480.1774
        39.000          35.000
 09  1  6  1 47  0.0000000  0 12G21G22G18G30G24G14G 5G29G 6G12G31G 9
 105355295.30047  82095024.35047  20048453.5364   20048455.1994   20048453.9294
        54.000          49.000
 122722773.70647  95628129.41947  23353372.2404   23353372.5514   23353372.3884
        48.000          42.000
 119654455.81847  93237210.92347  22769507.7234   22769509.4694   22769508.4374
        49.000          42.000
 119399810.41647  93038798.81647  22721040.3624   22721043.0704   22721039.9294
        50.000          43.000
 121029612.14247  94308755.02747  23031197.4494   23031201.7534   23031197.6824
        47.000          41.000
 118674487.19247  92473628.68647  22583000.3354   22583002.4684   22583000.5864
        49.000          43.000
 123365755.42147  96129139.73647  23475738.2914   23475741.7054   23475738.9284
        46.000          39.000
 126864637.16447  98855551.67947  24141542.2874   24141545.7594   24141541.9914
        44.000          39.000
 135491060.08547  87785225.55347  23880166.7244   23880171.3454   23880166.9524
        44.000          38.000
 129011232.44647 100528224.18547  24550028.6464   24550031.1914   24550028.5124
        42.000          38.000
 122301800.87547  77507884.66747  21370332.1394   21370333.8574   21370331.7294
        53.000          48.000
 128179842.99747  99880386.82547  24391819.5664   24391822.6344   24391819.3314
        40.000          35.000
 09  1  6  1 47 30.0000000  0 12G21G22G18G30G24G14G 5G29G 6G12G31G 9
 105381537.34347  82115472.69347  20053447.1074   20053448.8704   20053447.4544
        54.000          49.000
 122674934.39947  95590852.05647  23344268.3684   23344269.0044   23344268.4654
        48.000          42.000
 119616998.35547  93208023.31847  22762379.3734   22762381.3304   22762379.8574
        49.000          42.000
 119375503.42847  93019858.34647  22716414.8404   22716417.1374   22716414.4484
        50.000          43.000
 121113863.58147  94374405.45447  23047230.0584   23047234.5154   23047230.5194
        47.000          41.000
 118713829.05847  92504284.69747  22590486.6844   22590489.1284   22590486.8604
        48.000          43.000
 123368107.29247  96130972.38847  23476186.1414   23476189.0754   23476186.4914
        45.000          40.000
 126928854.84547  98905591.42247  24153762.6594   24153766.0954   24153762.5954
        44.000          39.000
 135474628.62147  87772421.83747  23877040.1004   23877044.5494   23877040.7744
        44.000          38.000
 129027273.19347 100540723.49347  24553081.2264   24553083.1764   24553080.7454
        43.000          38.000
 122230441.17447  77452279.73947  21356752.7864   21356754.5254   21356752.5604
        53.000          48.000
 128286886.82547  99963797.58347  24412188.9284   24412192.9934   24412189.3294
        41.000          35.000
