     2.11           OBSERVATION DATA    G (GPS)             RINEX VERSION / TYPE
teqc  2008Oct2      gpsops              20090118 00:09:52UTCPGM / RUN BY / DATE
    30.0000                                                 INTERVAL
     1     1                                                WAVELENGTH FACT L1/2
     7    L1    L2    P1    P2    C1    S1    S2            # / TYPES OF OBSERV
Linux 2.4.20-8|Pentium IV|gcc -static|Linux|486/DX+         COMMENT
     2.10           OBSERVATION DATA    GPS                 COMMENT
soc2rnx ver 1.20    gpsops              18-Jan-2009 00:09:48COMMENT
S1, if present, is the SNR for the C/A data stream on L1.   COMMENT
 SNR is mapped to RINEX snr flag value [1,4-9]              COMMENT
    SNR:   >316  >100  >31.6  >10  >3.2    >0 bad=0         COMMENT
L1 & L2:      9     8     7     6     5     4     1         COMMENT
                                                            COMMENT
This data is provided as a public service by NASA/JPL.      COMMENT
No warranty is expressed or implied regarding suitability   COMMENT
for use.  For further information, contact:                 COMMENT
Dave Stowers, NASA/JPL m/s 238-600                          COMMENT
4800 Oak Grove Drive, Pasadena CA 91109 USA                 COMMENT
                                                            COMMENT
Forced Modulo Decimation to 30 seconds                      COMMENT
  2009     1    17     0     0    0.0000000     GPS         TIME OF FIRST OBS
GGN                 JPL                                     OBSERVER / AGENCY
CR519992104         ASH701945B_M    SCIT                    ANT # / TYPE
   -33801.4662 -6377516.5323   -82154.3508                  APPROX POSITION XYZ
        0.0083        0.0000        0.0000                  ANTENNA: DELTA H/E/N
ZR220013847         ASHTECH UZ-12       CQ00                REC # / TYPE / VERS
GLPS                                                        MARKER NAME
42005M002                                                   MARKER NUMBER
                                                            END OF HEADER
 09  1 17  0  0  0.0000000  0 12G14G31G 5G 6G18G30G21G24G 9G12G29G22
 115226627.82847  89786972.00247  21926905.8594   21926910.9024   21926906.0944
        51.000          45.000
 123444716.25347  96190676.52047  23490756.4974   23490761.3964   23490755.5204
        45.000          40.000
 124557183.72647  97057532.52347  23702452.3074   23702459.0644   23702453.4594
        45.000          39.000
 129672081.66847 101043148.22447  24675802.4734   24675810.6574   24675802.4024
        42.000          37.000
 123667896.33247  96364593.68847  23533219.4554   23533220.2824   23533218.5814
        47.000          40.000
 122640069.25047  95563665.55247  23337648.8374   23337653.2364   23337648.9514
        48.000          41.000
 106753549.24247  83184568.89947  20314535.9994   20314539.0774   20314536.5864
        54.000          49.000
 113471246.37147  88419129.48647  21592876.4194   21592882.4254   21592876.4374
        52.000          46.000
 117032381.67647  91194039.46247  22270541.5744   22270546.9774   22270541.1664
        49.000          43.000
 128169206.52947  99872077.90547  24389813.7104   24389819.9744   24389813.3924
        43.000          38.000
 117783428.82747  91779278.66247  22413452.1754   22413456.7074   22413452.1504
        50.000          44.000
 127076445.89747  99020600.25747  24181849.0394   24181851.2304   24181849.2864
        44.000          38.000
 09  1 17  0  0 30.0000000  0 12G14G31G 5G 6G18G30G21G24G 9G12G29G22
 115236135.65647  89794380.72747  21928714.9074   21928719.3044   21928715.2724
        51.000          45.000
 123341986.24147  96110627.22347  23471207.2764   23471211.8994   23471206.8574
        45.000          41.000
 124543106.03547  97046562.91747  23699773.9714   23699780.7984   23699774.6584
        45.000          39.000
 129620904.67547 101003270.02947  24666063.6454   24666071.8194   24666064.1744
        43.000          37.000
 123644639.56847  96346471.53647  23528792.7024   23528795.5804   23528793.0154
        47.000          40.000
 122617412.48347  95546010.95747  23333337.2814   23333342.3574   23333337.3404
        48.000          41.000
 106707911.34547  83149006.91747  20305851.6284   20305854.4934   20305851.9644
        55.000          49.000
 113506018.45247  88446224.61247  21599493.1884   21599499.1334   21599493.3814
        52.000          46.000
 117099503.35647  91246342.09647  22283314.6114   22283319.1694   22283314.6864
        50.000          43.000
 128169977.89447  99872678.99047  24389959.5374   24389965.9854   24389959.7444
        43.000          38.000
 117858671.04347  91837908.95047  22427770.7944   22427775.0304   22427770.3794
        50.000          44.000
 127054775.43647  99003714.27047  24177725.7264   24177727.6704   24177725.9314
        44.000          38.000
 09  1 17  0  1  0.0000000  0 12G14G31G 5G 6G18G30G21G24G 9G12G29G22
 115246029.16047  89802089.97547  21930597.6704   21930601.9434   21930597.9074
        51.000          45.000
 123239334.10847  96030638.60247  23451673.4274   23451678.0324   23451673.3694
        46.000          41.000
 124529032.14047  97035596.27447  23697095.7954   23697102.6104   23697096.3564
        46.000          39.000
 129570031.92947 100963628.90747  24656383.1244   24656391.2064   24656383.4534
        42.000          37.000
 123621184.97547  96328195.22847  23524329.6274   23524332.4394   23524329.9454
        47.000          40.000
 122594626.46447  95528255.65247  23329001.1014   23329006.2964   23329000.9654
        47.000          41.000
 106662762.29847  83113825.85447  20297260.0454   20297262.9604   20297260.4074
        54.000          49.000
 113541260.00747  88473685.56547  21606199.4784   21606205.1854   21606199.6064
        52.000          46.000
 117167089.43847  91299006.60747  22296175.6434   22296180.6534   22296175.8744
        48.000          43.000
 128170753.31247  99873283.24947  24390106.7454   24390113.1204   24390106.3264
        43.000          38.000
 117933951.27347  91896568.86147  22442096.4274   22442100.4594   22442096.4054
        50.000          44.000
 127032880.39147  98986653.25847  24173559.2484   24173560.6264   24173559.5634
        45.000          38.000
 09  1 17  0  1 30.0000000  0 12G14G31G 5G 6G18G30G21G24G 9G12G29G22
 115256307.89847  89810099.40547  21932553.4654   21932557.6784   21932553.5864
        51.000          45.000
 123136764.07347  95950713.94447  23432155.0514   23432159.2844   23432155.0544
        46.000          41.000
 124514965.43647  97024635.22947  23694418.8524   23694425.4404   23694419.5764
        45.000          39.000
 129519464.78047 100924225.90747  24646760.5184   24646768.6534   24646760.5604
        41.000          37.000
 123597534.41147  96309766.23247  23519828.9834   23519831.5554   23519829.3264
        47.000          40.000
 122571713.99047  95510401.79047  23324641.3534   23324646.4414   23324640.4674
        47.000          41.000
 106618106.04247  83079028.78347  20288762.2214   20288765.1814   20288762.6984
        55.000          49.000
 113576971.97947  88501513.08547  21612995.3734   21613000.9204   21612995.5474
        53.000          46.000
 117235139.84447  91352032.90047  22309124.8724   22309130.3214   22309125.0634
        49.000          43.000
 128171536.16147  99873893.28747  24390255.9694   24390262.7904   24390256.0524
        43.000          38.000
 118009268.28447  91955257.41847  22456428.4434   22456432.6774   22456428.9194
        50.000          44.000
 127010761.66947  98969417.94547  24169349.3604   24169351.5754   24169349.5084
        44.000          38.000
 09  1 17  0  2  0.0000000  0 12G14G31G 5G 6G18G30G21G24G 9G12G29G22
 115266969.07847  89818406.84747  21934582.3354   21934586.6174   21934582.5884
        50.000          45.000
 123034277.84747  95870854.59247  23412652.5724   23412656.8294   23412652.7374
        47.000          41.000
 124500907.05847  97013680.66047  23691743.8004   23691750.4074   23691744.1764
        45.000          39.000
 129469202.56847 100885060.53647  24637195.6064   24637204.1614   24637195.8934
        42.000          37.000
 123573687.58147  96291184.29947  23515290.9344   23515293.6544   23515291.4804
        47.000          39.000
 122548675.66547  95492449.89547  23320257.2784   23320262.3574   23320257.5664
        48.000          41.000
 106573943.79347  83044616.65347  20280358.4464   20280361.2964   20280358.8024
        54.000          49.000
 113613153.07647  88529706.14147  21619880.5964   21619886.2394   21619880.8094
        52.000          46.000
 117303651.90647  91405418.94847  22322162.8814   22322167.8464   22322163.0034
        49.000          43.000
 128172326.95447  99874509.52647  24390407.0204   24390413.3544   24390406.5334
        43.000          38.000
 118084618.62747  92013971.97447  22470767.4474   22470771.4554   22470767.1004
        50.000          44.000
 126988418.06247  98952007.43247  24165097.6764   24165100.1114   24165097.9534
        44.000          38.000
 09  1 17  0  2 30.0000000  0 12G14G31G 5G 6G18G30G21G24G 9G12G29G22
 115278011.06547  89827011.01047  21936683.3844   21936687.6544   21936683.4614
        50.000          45.000
 122931878.58247  95791063.00747  23393166.6624   23393170.6054   23393166.3794
        46.000          41.000
 124486859.40547  97002734.47747  23689070.4904   23689077.4524   23689070.9824
        45.000          39.000
 129419245.90947 100846133.24647  24627688.7954   24627697.4244   24627689.4354
        42.000          36.000
 123549645.81347  96272450.46447  23510716.2244   23510718.8414   23510716.4204
        47.000          39.000
 122525513.57347  95474401.52847  23315849.7014   23315854.8994   23315849.5674
        47.000          41.000
 106530278.53647  83010591.78547  20272049.2014   20272052.0284   20272049.5704
        54.000          49.000
 113649803.13047  88558264.62647  21626854.9344   21626860.6704   21626854.9724
        52.000          46.000
 117372624.16047  91459163.58747  22335287.7794   22335292.6164   22335287.9814
        49.000          43.000
 128173128.33447  99875134.02147  24390559.2234   24390565.0004   24390559.0134
        44.000          38.000
 118160000.35647  92072710.97847  22485112.2054   22485116.2424   22485111.6334
        50.000          44.000
 126965849.80047  98934421.87347  24160803.4094   24160804.5074   24160803.2614
        45.000          38.000
 09  1 17  0  3  0.0000000  0 12G14G31G 5G 6G18G30G21G24G 9G12G29G22
 115289431.59647  89835910.15847  21938856.4854   21938860.8704   21938856.7944
        50.000          45.000
 122829568.57747  95711340.97047  23373697.6774   23373701.9244   23373697.0124
        46.000          41.000
 124472824.24747  96991798.01947  23686399.3594   23686406.6294   23686399.7514
        45.000          39.000
 129369594.50647 100807443.80947  24618241.5184   24618249.0904   24618241.8034
        41.000          37.000
 123525409.80747  96253565.27147  23506104.0784   23506106.6544   23506104.6234
        47.000          39.000
 122502228.63847  95456257.44547  23311418.9334   23311423.4014   23311418.2104
        48.000          41.000
 106487112.36647  82976955.82647  20263834.9254   20263837.8894   20263835.2884
        55.000          49.000
 113686921.53947  88587188.05547  21633918.1884   21633923.8944   21633918.3524
        52.000          46.000
 117442054.47047  91513265.14947  22348499.7054   22348504.5894   22348499.7834
        49.000          43.000
 128173942.42347  99875768.40947  24390714.2814   24390720.2084   24390713.8404
        44.000          38.000
 118235410.65947  92131472.24547  22499461.9994   22499466.5294   22499461.6624
        49.000          44.000
 126943056.25447  98916660.74047  24156465.4224   24156467.3874   24156465.4594
        44.000          37.000
 09  1 17  0  3 30.0000000  0 12G14G31G 5G 6G18G30G21G24G 9G12G29G22
 115301227.83747  89845102.05047  21941101.2154   21941105.8134   21941101.2614
        50.000          45.000
 122727350.02347  95631690.19747  23354246.1574   23354250.2834   23354245.1994
        46.000          41.000
 124458802.72747  96980872.19347  23683731.4464   23683737.9184   23683731.8384
        45.000          39.000
 129320247.66547 100768991.71447  24608850.2254   24608859.7164   24608850.7784
        41.000          36.000
 123500979.67247  96234528.78647  23501455.1524   23501458.2974   23501455.5484
        47.000          40.000
 122478821.87747  95438018.44147  23306964.5964   23306969.1904   23306964.5324
        48.000          41.000
 106444446.84347  82943709.97347  20255715.9644   20255718.7614   20255716.3824
        54.000          49.000
 113724506.90347  88616475.34847  21641070.3814   21641076.1914   21641070.4184
        52.000          46.000
 117511940.09347  91567721.49047  22361798.5234   22361803.6024   22361798.7744
        49.000          43.000
 128174769.27847  99876412.73747  24390871.8614   24390877.6914   24390871.8784
        44.000          38.000
 118310846.07347  92190253.08247  22513816.8924   22513821.3274   22513816.7284
        50.000          44.000
 126920036.28047  98898723.14047  24152084.8224   24152086.5254   24152085.3274
        44.000          38.000
 09  1 17  0  4  0.0000000  0 12G14G31G 5G 6G18G30G21G24G 9G12G29G22
 115313400.09647  89854586.95347  21943417.6654   21943421.9874   21943417.9184
        50.000          45.000
 122625227.99347  95552114.65647  23334812.9044   23334817.0624   23334812.4434
        46.000          41.000
 124444799.14847  96969960.35447  23681066.1824   23681073.2574   23681066.7374
        45.000          39.000
 129271207.63247 100730778.70547  24599518.1354   24599526.8114   24599518.1504
        41.000          36.000
 123476358.32447  96215343.32747  23496769.7034   23496772.5104   23496770.0344
        47.000          40.000
 122455297.15647  95419687.51147  23302487.7644   23302492.8674   23302487.5344
        48.000          41.000
 106402286.40947  82910857.69247  20247692.9864   20247695.8594   20247693.3834
        55.000          49.000
 113762560.86447  88646127.78147  21648311.7574   21648317.4104   21648311.8044
        52.000          46.000
 117582281.23747  91622532.78347  22375183.6284   22375188.8014   22375184.0294
        49.000          43.000
 128175613.22847  99877070.38847  24391032.2994   24391038.2604   24391032.6594
        44.000          38.000
 118386306.76147  92249053.60247  22528176.9514   22528181.3294   22528176.6474
        50.000          44.000
 126896791.81947  98880610.67347  24147661.6564   24147663.6714   24147661.4884
        43.000          38.000
 09  1 17  0  4 30.0000000  0 12G14G31G 5G 6G18G30G21G24G 9G12G29G22
 115325944.87547  89864362.12647  21945804.9544   21945809.1304   21945805.2434
        51.000          45.000
 122523204.12347  95472615.60047  23315398.3604   23315402.4954   23315397.9304
        47.000          41.000
 124430814.10347  96959062.95347  23678405.2344   23678411.7944   23678405.6594
        45.000          39.000
 129222473.09047 100692803.70447  24590245.3434   24590252.7934   24590245.2594
        42.000          37.000
 123451545.10747  96196008.35147  23492048.1984   23492050.4354   23492048.6594
        48.000          40.000
 122431654.26447  95401264.51247  23297988.6424   23297993.6414   23297988.0964
        47.000          41.000
 106360632.32347  82878399.97147  20239766.6694   20239769.5364   20239767.1094
        54.000          49.000
 113801081.63947  88676143.95547  21655641.9744   21655647.9224   21655642.1964
        52.000          46.000
 117653074.77747  91677696.61247  22388655.6264   22388660.2924   22388655.6484
        49.000          43.000
 128176474.81547  99877741.77647  24391196.3014   24391202.3214   24391196.4394
        43.000          38.000
 118461788.54147  92307870.56147  22542540.6564   22542544.7984   22542540.5234
        50.000          44.000
 126873321.53147  98862322.21747  24143195.1884   24143197.5854   24143194.8844
        44.000          38.000
 09  1 17  0  5  0.0000000  0 12G14G31G 5G 6G18G30G21G24G 9G12G29G22
 115338860.39647  89874426.19647  21948262.3814   21948266.4894   21948262.5714
        50.000          44.000
 122421281.00147  95393195.04547  23296003.1224   23296007.1774   23296002.7764
        47.000          41.000
 124416849.75047  96948181.65447  23675747.8314   23675754.3194   23675748.1664
        46.000          39.000
 129174044.17047 100655066.85947  24581029.0184   24581037.4944   24581029.1764
        42.000          37.000
 123426541.25847  96176524.84047  23487290.2524   23487292.7304   23487290.5124
        48.000          40.000
 122407894.99647  95382750.82247  23293466.9584   23293472.2764   23293466.5834
        47.000          41.000
 106319486.91947  82846338.62947  20231936.7514   20231939.6224   20231937.0924
        54.000          49.000
 113840068.92647  88706523.65547  21663061.0784   21663066.8524   21663061.2174
        52.000          46.000
 117724318.85547  91733211.52647  22402213.1674   22402217.4504   22402213.1754
        50.000          43.000
 128177356.11447  99878428.55647  24391363.8514   24391369.6894   24391363.6984
        42.000          38.000
 118537289.34647  92366702.35147  22556908.0774   22556911.8594   22556907.7664
        49.000          44.000
 126849625.02347  98843857.49447  24138686.0094   24138688.2024   24138686.2924
        44.000          38.000
 09  1 17  0  5 30.0000000  0 12G14G31G 5G 6G18G30G21G24G 9G12G29G22
 115352144.56747  89884777.52547  21950790.4204   21950794.4714   21950790.6324
        51.000          44.000
 122319461.24547  95313855.04447  23276627.6884   23276631.5154   23276627.3194
        48.000          42.000
 124402908.03847  96937318.01747  23673095.4374   23673101.0714   23673096.0854
        45.000          39.000
 129125920.91747 100617568.22147  24571871.5074   24571879.5514   24571871.8074
        43.000          37.000
 123401347.63447  96156893.43947  23482496.0984   23482498.6194   23482496.5284
        47.000          40.000
 122384020.71447  95364147.51747  23288924.0584   23288929.2534   23288923.9924
        48.000          41.000
 106278852.43947  82814675.40447  20224204.5974   20224207.1584   20224205.0124
        55.000          49.000
 113879521.93547  88737266.25347  21670568.7334   21670574.4074   21670568.9064
        52.000          46.000
 117796011.49547  91789075.96847  22415855.5624   22415860.1324   22415855.7784
        50.000          43.000
 128178258.95947  99879132.11547  24391534.9574   24391541.7894   24391534.9364
        42.000          38.000
 118612806.23747  92425546.67447  22571278.1764   22571282.5584   22571278.0004
        49.000          44.000
 126825701.85547  98825216.14447  24134133.5654   24134135.6034   24134133.4784
        44.000          38.000
 09  1 17  0  6  0.0000000  0 12G14G31G 5G 6G18G30G21G24G 9G12G29G22
 115365795.77647  89895414.86147  21953388.2884   21953392.1214   21953388.5174
        51.000          44.000
 122217748.64047  95234598.54447  23257272.4764   23257276.1794   23257272.3334
        48.000          42.000
 124388991.49247  96926473.99547  23670447.1964   23670453.0184   23670447.4654
        45.000          39.000
 129078103.73547 100580308.07447  24562772.6244   24562780.7974   24562772.9574
        43.000          37.000
 123375965.53847  96137115.17747  23477665.8594   23477668.3104   23477666.1984
        47.000          40.000
 122360033.47047  95345456.17347  23284359.9574   23284364.6244   23284359.0884
        47.000          41.000
 106238731.41747  82783412.28347  20216569.6294   20216572.4124   20216570.0614
        54.000          49.000
 113919440.58747  88768371.68647  21678165.0614   21678170.6084   21678165.2454
        52.000          46.000
 117868151.10347  91845288.69447  22429583.1344   22429587.6274   22429583.1744
        50.000          43.000
 128179185.45947  99879854.10447  24391711.7104   24391717.5184   24391711.0754
        44.000          38.000
 118688337.53147  92484402.21847  22585651.1564   22585655.6734   22585650.9084
        49.000          44.000
 126801552.39547  98806398.44147  24129537.4124   24129539.6444   24129537.2194
        43.000          38.000
 09  1 17  0  6 30.0000000  0 12G14G31G 5G 6G18G30G21G24G 9G12G29G22
 115379811.83847  89906336.49747  21956055.4174   21956059.5444   21956055.4574
        51.000          45.000
 122116145.68747  95155427.48547  23237937.8054   23237941.6514   23237937.4764
        48.000          42.000
 124375101.94647  96915651.02147  23667803.5134   23667810.0974   23667804.1074
        45.000          39.000
 129030592.51647 100543286.37047  24553731.0334   24553739.6654   24553731.3524
        43.000          37.000
 123350395.54747  96117190.49947  23472799.7394   23472802.5354   23472800.4104
        47.000          39.000
 122335935.04747  95326678.19847  23279773.9284   23279778.7964   23279773.8144
        48.000          41.000
 106199126.24847  82752551.11947  20209033.1024   20209035.6804   20209033.4764
        55.000          49.000
 113959824.23247  88799839.44847  21685849.6754   21685855.3894   21685849.8074
        52.000          46.000
 117940735.75647  91901848.20147  22443395.4594   22443400.0104   22443395.2804
        49.000          43.000
 128180137.69547  99880596.14547  24391892.8984   24391898.9404   24391892.7054
        43.000          38.000
 118763880.59747  92543266.93547  22600026.5474   22600030.9494   22600026.4964
        49.000          43.000
 126777176.51547  98787404.32147  24124899.7344   24124901.3914   24124899.1294
        45.000          38.000
 09  1 17  0  7  0.0000000  0 12G14G31G 5G 6G18G30G21G24G 9G12G29G22
 115394190.52447  89917540.70247  21958791.4484   21958795.6414   21958791.5814
        51.000          45.000
 122014654.96747  95076343.91047  23218624.4844   23218628.6264   23218623.8224
        47.000          42.000
 124361241.42047  96904850.65047  23665165.8904   23665172.3714   23665166.3334
        45.000          39.000
 128983387.19247 100506503.02947  24544748.3474   24544756.2964   24544748.5104
        42.000          37.000
 123324638.58347  96097120.12947  23467898.5514   23467901.1364   23467898.6984
        47.000          39.000
 122311726.61747  95307814.51047  23275166.7984   23275171.8774   23275166.5414
        47.000          41.000
 106160038.89547  82722093.44947  20201595.0474   20201597.7444   20201595.5104
        55.000          49.000
 114000672.14747  88831668.98047  21693622.9454   21693628.5324   21693623.0054
        52.000          46.000
 118013763.51147  91958752.98447  22457291.6634   22457296.3874   22457291.9634
        49.000          42.000
 128181117.30547  99881359.49847  24392079.0634   24392084.8474   24392078.4554
        43.000          38.000
 118839432.94547  92602138.88347  22614403.7454   22614408.1884   22614403.8724
        49.000          43.000
 126752573.84747  98768233.49247  24120217.4654   24120219.3264   24120218.2714
        45.000          38.000
 09  1 17  0  7 30.0000000  0 12G14G31G 5G 6G18G30G21G24G 9G12G29G22
 115408929.75947  89929025.85347  21961596.5454   21961600.4584   21961596.7824
        51.000          45.000
 121913279.44647  94997350.10647  23199333.1904   23199337.4284   23199332.3554
        47.000          41.000
 124347411.98347  96894074.53047  23662533.8574   23662540.7514   23662534.4014
        45.000          39.000
 128936487.47847 100469957.84247  24535823.4504   24535831.1114   24535823.1964
        43.000          37.000
 123298695.69447  96076904.90447  23462961.5584   23462964.2464   23462961.9064
        47.000          40.000
 122287409.72347  95288866.28847  23270539.7184   23270544.8474   23270539.0804
        47.000          41.000
 106121471.65647  82692041.06447  20194255.9034   20194258.4844   20194256.2404
        55.000          49.000
 114041983.63647  88863859.73747  21701484.4014   21701489.6594   21701484.5454
        52.000          45.000
 118087232.34047  92016001.46447  22471272.5864   22471277.2224   22471272.8864
        49.000          42.000
 128182125.99247  99882145.55547  24392270.8924   24392277.0954   24392270.5944
        43.000          38.000
 118914992.26147  92661016.26547  22628782.3104   22628786.6444   22628781.7354
        49.000          44.000
 126727744.40747  98748885.94247  24115493.0724   24115494.5474   24115493.2124
        45.000          39.000
 09  1 17  0  8  0.0000000  0 12G14G31G 5G 6G18G30G21G24G 9G12G29G22
 115424027.10147  89940790.04847  21964469.4144   21964473.3984   21964469.5854
        51.000          45.000
 121812021.50347  94918447.92747  23180063.8574   23180068.5354   23180063.8424
        47.000          41.000
 124333615.39947  96883323.98847  23659908.2884   23659915.1214   23659908.7284
        44.000          39.000
 128889893.34547 100433650.76547  24526957.0604   24526964.7584   24526956.9654
        42.000          37.000
 123272567.42247  96056545.19147  23457989.8644   23457992.4414   23457990.2254
        48.000          40.000
 122262986.02247  95269834.86147  23265891.6814   23265897.0984   23265891.5644
        47.000          41.000
 106083426.32247  82662395.35347  20187016.1264   20187018.6594   20187016.5364
        54.000          49.000
 114083757.57047  88896410.84247  21709433.5184   21709439.0784   21709433.6644
        52.000          45.000
 118161139.94147  92073591.85547  22485337.2034   22485341.1694   22485337.1664
        49.000          42.000
 128183165.92047  99882955.94347  24392469.2244   24392475.4354   24392468.6784
        43.000          39.000
 118990555.79447  92719896.92547  22643161.4084   22643166.0464   22643160.7994
        48.000          44.000
 126702687.28847  98729360.99447  24110724.4914   24110726.3414   24110724.5394
        44.000          38.000
 09  1 17  0  8 30.0000000  0 12G14G31G 5G 6G18G30G21G24G 9G12G29G22
 115439481.25547  89952832.27447  21967410.1974   21967414.2854   21967410.4054
        51.000          45.000
 121710885.00147  94839640.38247  23160818.2684   23160822.7984   23160817.9024
        47.000          42.000
 124319854.42447  96872601.19547  23657289.8674   23657296.5424   23657290.3814
        45.000          39.000
 128843605.40047 100397582.28747  24518148.1324   24518156.2104   24518148.1694
        42.000          37.000
 123246255.59247  96036042.49347  23452982.6994   23452985.5784   23452982.9504
        47.000          40.000
 122238457.55347  95250721.78147  23261223.9174   23261229.5424   23261223.5124
        47.000          41.000
 106045906.23747  82633158.93447  20179876.1264   20179878.9574   20179876.4804
        54.000          49.000
 114125994.10247  88929322.41547  21717470.9874   21717476.5934   21717471.3094
        52.000          46.000
 118235484.88347  92131523.02447  22499483.9814   22499489.0074   22499484.2004
        49.000          42.000
 128184239.09247  99883792.23947  24392673.3734   24392678.7244   24392673.2304
        43.000          38.000
 119066121.95647  92778779.64847  22657541.2834   22657545.8544   22657540.9764
        49.000          44.000
 126677403.40847  98709659.31847  24105913.2014   24105914.9584   24105912.8024
        45.000          39.000
 09  1 17  0  9  0.0000000  0 12G14G31G 5G 6G18G30G21G24G 9G12G29G22
 115455290.39447  89965151.11347  21970418.4504   21970422.5014   21970418.8844
        51.000          45.000
 121609873.00847  94760929.85547  23141596.1714   23141600.5744   23141595.4594
        47.000          42.000
 124306131.45147  96861908.02547  23654678.5644   23654684.6754   23654679.1934
        45.000          39.000
 128797623.73847 100361752.49347  24509398.7564   24509406.6944   24509398.1174
        43.000          37.000
 123219761.73447  96015397.91347  23447941.0314   23447943.6464   23447941.6054
        48.000          40.000
 122213826.77947  95231528.99347  23256537.1154   23256542.2454   23256536.6184
        47.000          41.000
 106008913.49247  82604333.42247  20172836.8414   20172839.3744   20172837.2664
        55.000          49.000
 114168692.77347  88962594.09447  21725596.2964   21725601.7674   21725596.3044
        52.000          45.000
 118310265.45147  92189793.62747  22513714.4324   22513718.8574   22513714.2864
        49.000          42.000
 128185347.95747  99884656.34947  24392884.1594   24392890.1004   24392883.6294
        44.000          39.000
 119141688.64547  92837662.77547  22671921.1184   22671925.9894   22671921.0604
        49.000          44.000
 126651892.67947  98689780.88647  24101058.5224   24101060.5134   24101058.6324
        45.000          39.000
 09  1 17  0  9 30.0000000  0 12G14G31G 5G 6G18G30G21G24G 9G12G29G22
 115471450.63147  89977743.53647  21973493.5954   21973497.6084   21973493.6894
        51.000          45.000
 121508986.90447  94682317.42947  23122398.3814   23122402.6254   23122398.1454
        48.000          42.000
 124292447.09647  96851244.92447  23652074.0554   23652081.0814   23652074.4504
        44.000          39.000
 128751946.97247 100326160.25547  24500706.8224   24500714.3514   24500706.2064
        42.000          37.000
 123193085.10447  95994610.93347  23442864.6684   23442867.3384   23442865.1044
        48.000          40.000
 122189093.73047  95212256.50947  23251830.6944   23251835.9564   23251830.3594
        48.000          41.000
 105972448.73147  82575919.33147  20165897.5534   20165900.2324   20165897.8904
        54.000          49.000
 114211851.62247  88996224.35147  21733809.0574   21733814.6534   21733809.1154
        52.000          45.000
 118385478.21147  92248401.01247  22528027.2784   22528031.6694   22528027.3754
        49.000          42.000
 128186493.12047  99885548.74347  24393101.6374   24393108.4034   24393101.3964
        44.000          39.000
 119217252.00747  92896543.29847  22686300.2264   22686305.1814   22686300.0874
        49.000          44.000
 126626153.82447  98669724.70047  24096160.9074   24096162.2884   24096160.9654
        45.000          39.000
 09  1 17  0 10  0.0000000  0 12G14G31G 5G 6G18G30G21G24G 9G12G29G22
 115487960.54847  89990608.43147  21976635.4944   21976639.3034   21976635.8204
        51.000          45.000
 121408230.10147  94603805.75347  23103225.1344   23103228.7284   23103225.0714
        48.000          42.000
 124278803.72447  96840613.77447  23649478.2504   23649484.8234   23649478.9614
        46.000          39.000
 128706575.31447 100290805.78547  24492072.8064   24492080.5264   24492072.8644
        42.000          37.000
 123166226.96247  95973682.50447  23437753.7804   23437756.5414   23437754.0954
        47.000          40.000
 122164260.43647  95192905.91247  23247105.2174   23247110.2764   23247104.9204
        48.000          41.000
 105936514.39447  82547918.55547  20159059.6794   20159062.1584   20159060.0044
        54.000          49.000
 114255470.16347  89030212.81147  21742109.2804   21742115.2424   21742109.3604
        52.000          45.000
 118461121.23247  92307343.65147  22542421.5824   22542426.0694   22542421.6774
        49.000          42.000
 128187676.67547  99886471.03947  24393327.6704   24393333.3594   24393327.1384
        46.000          39.000
 119292809.95047  92955419.61247  22700678.5224   22700683.3054   22700678.1174
        49.000          43.000
 126600186.89447  98649490.79647  24091219.0564   24091220.5114   24091219.0694
        45.000          39.000
 09  1 17  0 10 30.0000000  0 12G14G31G 5G 6G18G30G21G24G 9G12G29G22
 115504819.54047  90003745.33447  21979843.5294   21979847.5704   21979843.6214
        51.000          45.000
 121307606.63647  94525397.98147  23084077.1804   23084080.8054   23084076.9284
        48.000          42.000
 124265205.09247  96830017.46247  23646890.6644   23646896.7714   23646891.3044
        46.000          39.000
 128661510.13447 100255690.11647  24483496.8584   24483504.6484   24483496.9944
        41.000          37.000
 123139189.97047  95952614.71747  23432608.9744   23432611.5894   23432609.3414
        48.000          40.000
 122139330.03947  95173479.66047  23242360.9544   23242366.2234   23242360.6294
        47.000          41.000
 105901114.42047  82520334.17047  20152323.1434   20152325.9004   20152323.6334
        54.000          49.000
 114299548.80247  89064559.79047  21750497.2084   21750503.0644   21750497.4854
        51.000          45.000
 118537194.27447  92366621.38947  22556897.6964   22556901.9474   22556897.7514
        49.000          42.000
 128188902.01447  99887425.89847  24393560.5474   24393566.5944   24393560.1934
        44.000          39.000
 119368361.66647  93014291.07247  22715055.4924   22715060.1794   22715055.1564
        49.000          43.000
 126573993.40147  98629080.32947  24086234.6294   24086236.6814   24086234.8214
        45.000          39.000
 09  1 17  0 11  0.0000000  0 12G14G31G 5G 6G18G30G21G24G 9G12G29G22
 115522023.18247  90017150.80147  21983117.1534   21983121.1714   21983117.2974
        51.000          45.000
 121207117.55647  94447094.92447  23064954.8114   23064958.4104   23064954.0674
        48.000          42.000
 124251651.10947  96819455.94947  23644311.8544   23644317.8934   23644312.2404
        46.000          39.000
 128616749.20847 100220811.53847  24474979.1444   24474986.8324   24474978.6664
        42.000          37.000
 123111973.14247  95931406.80947  23427429.5384   23427432.0364   23427430.1284
        47.000          40.000
 122114301.97447  95153977.30547  23237597.8564   23237603.3334   23237597.6344
        47.000          41.000
 105866248.71547  82493166.08947  20145688.4954   20145691.2064   20145688.9214
        54.000          49.000
 114344085.26347  89099263.51747  21758972.0384   21758977.5974   21758972.1354
        51.000          45.000
 118613692.92547  92426230.77847  22571454.7604   22571459.1434   22571454.8284
        49.000          42.000
 128190169.19147  99888413.36647  24393801.3024   24393807.2534   24393801.1114
        44.000          38.000
 119443902.94047  93073154.40747  22729430.6774   22729435.5714   22729430.3794
        49.000          43.000
 126547571.30347  98608491.74347  24081206.9694   24081208.4464   24081206.7644
        45.000          39.000
 09  1 17  0 11 30.0000000  0 12G14G31G 5G 6G18G30G21G24G 9G12G29G22
 115539570.96847  90030824.42947  21986456.4484   21986460.5084   21986456.7624
        51.000          45.000
 121106767.44347  94368900.14847  23045858.8794   23045862.2124   23045858.4634
        49.000          42.000
 124238145.53647  96808932.15347  23641741.3644   23641747.6974   23641742.0254
        46.000          40.000
 128572294.09347 100186171.23247  24466519.6444   24466527.3204   24466520.1724
        41.000          37.000
 123084579.29647  95910060.94947  23422216.8714   23422219.4584   23422217.2734
        48.000          40.000
 122089179.79147  95134401.59447  23232817.5634   23232822.7454   23232817.0884
        48.000          41.000
 105831921.01047  82466417.23447  20139155.8104   20139159.0984   20139156.1194
        54.000          49.000
 114389080.40047  89134324.65047  21767534.3264   21767539.9994   21767534.3244
        51.000          45.000
 118690616.93447  92486171.60047  22586092.8404   22586097.3764   22586092.7734
        48.000          42.000
 128191481.59447  99889436.08447  24394051.1444   24394057.3354   24394050.9594
        44.000          38.000
 119519433.00847  93132008.99147  22743803.4264   22743808.3154   22743803.3314
        48.000          43.000
 126520922.16447  98587726.23047  24076135.3544   24076136.9194   24076135.4044
        44.000          39.000
 09  1 17  0 12  0.0000000  0 12G14G31G 5G 6G18G30G21G24G 9G12G29G22
 115557461.30447  90044764.98147  21989860.7454   21989864.7874   21989860.7804
        51.000          45.000
 121006559.55247  94290816.19847  23026789.2984   23026793.2104   23026789.2864
        48.000          42.000
 124224691.03647  96798448.15047  23639181.2854   23639187.4704   23639181.7564
        45.000          40.000
 128528145.18347 100151769.58247  24458117.9594   24458125.6434   24458118.3814
        41.000          37.000
 123057010.07147  95888578.43147  23416970.7544   23416973.4464   23416971.3444
        48.000          40.000
 122063965.50247  95114754.11947  23228019.7194   23228024.4224   23228019.4124
        48.000          42.000
 105798133.87747  82440089.60347  20132726.4814   20132729.5474   20132726.7874
        54.000          49.000
 114434533.56647  89169742.69347  21776183.9604   21776189.5484   21776184.0794
        52.000          45.000
 118767964.64547  92546442.56947  22600811.2044   22600816.2344   22600811.2594
        48.000          42.000
 128192841.46347  99890495.76047  24394309.9194   24394316.4854   24394309.7994
        44.000          38.000
 119594950.04347  93190853.43947  22758173.8074   22758178.2564   22758173.5624
        48.000          43.000
 126494046.32347  98566784.07447  24071021.2634   24071022.5644   24071021.1264
        45.000          39.000
 09  1 17  0 12 30.0000000  0 12G14G31G 5G 6G18G30G21G24G 9G12G29G22
 115575689.04447  90058968.44547  21993329.4494   21993333.6084   21993329.5744
        50.000          45.000
 120906493.91147  94212843.07147  23007747.4334   23007751.3224   23007746.3584
        48.000          42.000
 124211286.76547  96788003.28247  23636630.2634   23636636.5334   23636630.4924
        45.000          40.000
 128484299.32547 100117604.05047  24449775.1884   24449782.2324   24449775.1524
        42.000          37.000
 123029263.44247  95866957.69347  23411690.6134   23411693.5394   23411690.9154
        48.000          40.000
 122038658.14047  95095034.12447  23223203.5954   23223208.7704   23223203.3264
        48.000          41.000
 105764886.22447  82414182.34147  20126399.7884   20126402.6204   20126400.1644
        54.000          49.000
 114480440.93647  89205514.66347  21784919.9744   21784925.4664   21784920.1774
        52.000          45.000
 118845730.89047  92607039.67747  22615609.8614   22615614.3914   22615609.9844
        48.000          42.000
 128194248.07147  99891591.86847  24394577.3274   24394583.2174   24394577.0304
        44.000          39.000
 119670448.79647  93249683.63747  22772540.8264   22772545.1424   22772540.2214
        48.000          43.000
 126466940.88847  98545663.01847  24065863.1344   24065864.7544   24065863.3544
        45.000          39.000
 09  1 17  0 13  0.0000000  0 12G14G31G 5G 6G18G30G21G24G 9G12G29G22
 115594254.53647  90073435.09047  21996862.2674   21996866.5064   21996862.4904
        51.000          45.000
 120806575.79647  94134984.91047  22988733.6944   22988737.5624   22988733.1214
        48.000          42.000
 124197937.26047  96777601.10447  23634089.8464   23634096.2814   23634090.4264
        45.000          40.000
 128440758.80847 100083676.43547  24441488.7004   24441497.2434   24441488.7724
        41.000          37.000
 123001342.78347  95845201.31247  23406377.8884   23406380.0584   23406378.0984
        49.000          40.000
 122013261.95147  95075244.91747  23218370.6594   23218375.6194   23218370.5534
        48.000          41.000
 105732182.68447  82388699.06547  20120176.5364   20120179.3944   20120176.8814
        54.000          50.000
 114526804.14947  89241641.84047  21793742.5154   21793748.2634   21793742.6214
        51.000          45.000
 118923915.90247  92667963.10547  22630488.2984   22630492.4024   22630488.3314
        48.000          42.000
 128195705.60147  99892727.63247  24394855.0994   24394860.5164   24394854.7034
        44.000          39.000
 119745929.34647  93308499.63747  22786904.4574   22786908.5424   22786904.1614
        48.000          43.000
 126439608.31447  98524364.95147  24060661.9694   24060663.4244   24060661.3814
        44.000          39.000
 09  1 17  0 13 30.0000000  0 12G14G31G 5G 6G18G30G21G24G 9G12G29G22
 115613155.92947  90088163.47947  22000458.9334   22000463.0534   22000459.3104
        50.000          44.000
 120706808.70447  94057244.42647  22969748.4594   22969752.4294   22969748.4164
        48.000          43.000
 124184645.19647  96767243.69247  23631560.1544   23631566.8294   23631560.5784
        46.000          39.000
 128397523.96147 100049987.01347  24433261.8684   24433269.5104   24433262.1524
        43.000          37.000
 122973249.92147  95823310.77847  23401031.6324   23401034.6294   23401032.1154
        48.000          40.000
 121987779.13147  95055388.20447  23213521.2444   23213526.4364   23213520.9164
        48.000          41.000
 105700025.67447  82363641.65847  20114057.3404   20114059.9214   20114057.8094
        54.000          49.000
 114573623.03347  89278124.07747  21802651.7794   21802657.5484   21802652.0944
        51.000          45.000
 119002517.99047  92729211.52947  22645445.6984   22645449.7424   22645445.7874
        48.000          42.000
 128197216.81947  99893905.23947  24395142.4254   24395148.5974   24395142.1314
        44.000          39.000
 119821390.34247  93367300.41147  22801264.1424   22801268.2824   22801263.9254
        48.000          43.000
 126412049.12547  98502890.30647  24055417.0814   24055419.2844   24055417.5674
        46.000          39.000
 09  1 17  0 14  0.0000000  0 12G14G31G 5G 6G18G30G21G24G 9G12G29G22
 115632387.34347  90103149.02547  22004118.5904   22004122.5904   22004118.7454
        50.000          44.000
 120607192.13447  93979621.20947  22950792.1144   22950796.2964   22950791.5514
        49.000          43.000
 124171409.35947  96756930.09947  23629041.7474   23629048.3964   23629042.3324
        46.000          39.000
 128354591.26847 100016533.02147  24425091.7514   24425098.9534   24425092.1224
        42.000          37.000
 122944982.72247  95801284.39247  23395653.0634   23395655.3434   23395653.0954
        48.000          40.000
 121962208.12647  95035462.76247  23208655.9504   23208660.7514   23208655.5444
        48.000          41.000
 105668413.69347  82339008.95247  20108041.6464   20108044.4494   20108042.0724
        54.000          50.000
 114620893.47547  89314958.18747  21811647.0174   21811653.1704   21811647.0954
        52.000          45.000
 119081531.98347  92790780.92547  22660481.4774   22660485.6774   22660481.7164
        48.000          42.000
 128198780.06047  99895123.39547  24395440.4054   24395445.3174   24395439.9154
        44.000          38.000
 119896825.77347  93426081.26847  22815619.0614   22815623.2844   22815618.6754
        48.000          43.000
 126384259.66747  98481236.26247  24050129.3174   24050130.3504   24050129.4964
        45.000          39.000
 09  1 17  0 14 30.0000000  0 12G14G31G 5G 6G18G30G21G24G 9G12G29G22
 115651950.63347  90118393.17747  22007841.2694   22007845.5184   22007841.4574
        50.000          44.000
 120507732.85347  93902120.55947  22931865.5674   22931869.6004   22931865.1984
        49.000          43.000
 124158235.58847  96746664.85347  23626535.0294   23626541.0594   23626535.5844
        45.000          40.000
 128311964.21947  99983317.24347  24416980.1304   24416987.9504   24416980.1854
        43.000          37.000
 122916545.63147  95779125.62147  23390241.2474   23390243.8554   23390241.5554
        47.000          40.000
 121936554.24047  95015472.74947  23203774.0644   23203778.5064   23203773.8364
        48.000          41.000
 105637352.82747  82314805.67847  20102131.1554   20102133.6984   20102131.5514
        54.000          50.000
 114668618.20147  89352146.28447  21820728.8614   21820734.4754   21820729.0474
        52.000          45.000
 119160959.26447  92852672.36347  22675595.9194   22675600.0734   22675596.0724
        47.000          41.000
 128200400.75547  99896386.31047  24395748.1774   24395753.6784   24395747.9264
        43.000          38.000
 119972237.27747  93484843.47847  22829969.5314   22829973.8034   22829969.2864
        48.000          43.000
 126356244.29847  98459406.17247  24044798.1314   24044799.7154   24044798.0454
        45.000          39.000
 09  1 17  0 15  0.0000000  0 12G14G31G 5G 6G18G30G21G24G 9G12G29G22
 115671842.23847  90133893.16047  22011626.6194   22011630.8164   22011626.8184
        50.000          45.000
 120408432.83947  93824744.00447  22912969.2584   22912973.0104   22912968.8774
        48.000          43.000
 124145124.59847  96736448.54347  23624039.6394   23624046.1034   23624039.9164
        45.000          39.000
 128269641.23747  99950338.37647  24408926.4824   24408933.5614   24408926.5644
        43.000          37.000
 122887939.40047  95756835.05047  23384797.5254   23384799.8174   23384798.0384
        48.000          40.000
 121910817.90047  94995418.48947  23198876.5244   23198881.3224   23198875.9844
        48.000          41.000
 105606843.44247  82291032.13947  20096325.2024   20096327.9974   20096325.6314
        54.000          49.000
 114716794.86647  89389686.55047  21829896.4974   21829902.2724   21829896.6184
        51.000          45.000
 119240796.32847  92914883.10747  22690788.1394   22690792.5964   22690788.2724
        47.000          41.000
 128202079.74947  99897694.64547  24396067.4544   24396073.3074   24396066.9574
        43.000          38.000
 120047621.45147  93543584.38547  22844314.8844   22844318.9224   22844314.5084
        49.000          43.000
 126328001.36847  98437398.72847  24039423.4474   24039425.3004   24039423.1774
        45.000          39.000
 09  1 17  0 15 30.0000000  0 12G14G31G 5G 6G18G30G21G24G 9G12G29G22
 115692058.68547  90149646.25647  22015473.4854   22015477.6454   22015473.7674
        50.000          45.000
 120309292.85347  93747492.15047  22894103.5104   22894107.1314   22894103.1384
        48.000          43.000
 124132077.04147  96726281.67047  23621556.4074   23621563.1264   23621556.9874
        45.000          39.000
 128227620.50147  99917595.02347  24400929.7974   24400937.7314   24400929.5314
        41.000          37.000
 122859163.07947  95734411.94647  23379321.8194   23379324.3034   23379322.3814
        48.000          40.000
 121884999.73147  94975300.46047  23193963.3934   23193968.1224   23193962.8644
        48.000          41.000
 105576886.26847  82267688.89347  20090624.7054   20090627.4704   20090625.0854
        54.000          50.000
 114765421.19247  89427577.19047  21839149.7264   21839155.6114   21839149.7054
        51.000          45.000
 119321039.07347  92977409.96847  22706057.5954   22706062.1274   22706057.6854
        46.000          41.000
 128203817.67647  99899048.89047  24396398.1184   24396404.8514   24396398.1364
        43.000          38.000
 120122974.61547  93602301.14447  22858654.2394   22858658.1694   22858653.8644
        48.000          43.000
 126299529.63847  98415213.01847  24034005.7334   24034006.8674   24034005.6674
        45.000          39.000
 09  1 17  0 16  0.0000000  0 12G14G31G 5G 6G18G30G21G24G 9G12G29G22
 115712600.49547  90165652.89647  22019382.3024   22019386.7884   22019382.5964
        50.000          44.000
 120210319.36247  93670370.01647  22875269.2994   22875272.9474   22875268.6484
        48.000          43.000
 124119098.39147  96716168.47847  23619086.7704   23619093.5744   23619086.9154
        45.000          39.000
 128185905.20747  99885089.70047  24392991.6534   24392998.8624   24392991.2934
        42.000          36.000
 122830220.86847  95711859.56647  23373814.0734   23373816.6424   23373814.6424
        47.000          40.000
 121859104.90447  94955122.71147  23189035.6584   23189040.8254   23189035.7414
        48.000          41.000
 105547485.73647  82244779.39347  20085029.7514   20085032.7204   20085030.1834
        54.000          50.000
 114814499.38847  89465819.94347  21848488.9094   21848494.8104   21848488.9144
        52.000          45.000
 119401688.67147  93040253.87447  22721404.6244   22721409.5604   22721404.7644
        46.000          41.000
 128205619.61347  99900453.02147  24396741.1514   24396747.2574   24396741.4584
        44.000          38.000
 120198297.44447  93660994.26047  22872987.4564   22872991.6714   22872987.2314
        49.000          43.000
 126270832.09847  98392851.35847  24028544.5164   24028545.8154   24028544.9294
        46.000          39.000
 09  1 17  0 16 30.0000000  0 12G14G31G 5G 6G18G30G21G24G 9G12G29G22
 115733462.86047  90181909.31347  22023352.2254   22023356.5284   22023352.2694
        50.000          44.000
 120111512.30147  93593377.56547  22856467.1294   22856470.5024   22856466.8454
        48.000          43.000
 124106187.79647  96706108.31647  23616629.9104   23616636.3164   23616630.3634
        46.000          39.000
 128144492.09847  99852819.81047  24385111.5934   24385118.6224   24385111.4164
        41.000          37.000
 122801111.31947  95689176.79047  23368274.8094   23368276.9044   23368275.2474
        48.000          40.000
 121833132.05747  94934884.15547  23184093.1844   23184098.2414   23184093.0884
        47.000          41.000
 105518641.26747  82222303.18347  20079541.0294   20079543.8054   20079541.4744
        54.000          50.000
 114864025.57147  89504411.77147  21857913.5794   21857919.3864   21857913.8004
        51.000          45.000
 119482740.02847  93103410.83047  22736828.0364   22736832.8634   22736828.2294
        46.000          41.000
 128207484.35747  99901906.08147  24397096.3344   24397102.3304   24397095.9764
        44.000          38.000
 120273584.82747  93719659.75447  22887313.8774   22887318.4784   22887313.8114
        48.000          43.000
 126241906.15747  98370311.71847  24023040.3934   24023041.5474   24023040.4374
        45.000          40.000
 09  1 17  0 17  0.0000000  0 12G14G31G 5G 6G18G30G21G24G 9G12G29G22
 115754645.00147  90198414.90947  22027383.1194   22027387.3484   22027383.3994
        51.000          45.000
 120012876.63047  93516518.66147  22837697.3224   22837700.4974   22837697.5814
        49.000          43.000
 124093349.40147  96696104.41347  23614187.1704   23614193.4104   23614187.7454
        46.000          39.000
 128103382.81147  99820786.70647  24377287.4764   24377295.4604   24377287.1924
        42.000          37.000
 122771837.52847  95666366.04347  23362704.2784   23362706.1524   23362704.6484
        48.000          40.000
 121807084.62647  94914587.47747  23179136.2284   23179141.5014   23179135.8144
        48.000          41.000
 105490356.48447  82200263.10247  20074158.4094   20074161.3184   20074158.8534
        54.000          49.000
 114914000.44547  89543353.23947  21867423.4204   21867429.0944   21867423.4274
        51.000          45.000
 119564192.86747  93166880.61147  22752328.2024   22752332.9194   22752327.7974
        47.000          41.000
 128209416.18147  99903411.39747  24397464.1274   24397469.3324   24397464.0614
        44.000          38.000
 120348836.57947  93778297.47547  22901633.6534   22901638.3244   22901633.2094
        48.000          43.000
 126212753.68547  98347595.54947  24017492.7434   24017494.2044   24017492.8054
        45.000          39.000
 09  1 17  0 17 30.0000000  0 12G14G31G 5G 6G18G30G21G24G 9G12G29G22
 115776142.67647  90215166.37447  22031474.0544   22031478.1194   22031474.4034
        50.000          44.000
 119914413.24147  93439793.99147  22818960.5464   22818963.4614   22818960.3494
        49.000          43.000
 124080583.28647  96686156.84947  23611757.6414   23611764.2434   23611758.3414
        45.000          39.000
 128062575.04347  99788988.52947  24369523.0324   24369530.7024   24369523.3214
        42.000          37.000
 122742399.11347  95643426.98747  23357102.5624   23357104.7724   23357102.7314
        48.000          40.000
 121780962.64347  94894232.72247  23174165.4254   23174170.4274   23174165.4674
        47.000          41.000
 105462631.12447  82178658.92447  20068882.6084   20068885.3794   20068883.0174
        54.000          50.000
 114964420.95547  89582641.95147  21877018.2994   21877023.6074   21877018.6084
        51.000          45.000
 119646042.93247  93230659.93047  22767903.5124   22767908.3744   22767903.7344
        47.000          41.000
 128211414.56747  99904968.58347  24397844.0714   24397849.5284   24397843.8284
        44.000          38.000
 120424048.71347  93836904.33447  22915945.9094   22915950.9234   22915945.6434
        47.000          43.000
 126183372.88147  98324701.46747  24011901.5604   24011902.8234   24011901.4864
        46.000          39.000
 09  1 17  0 18  0.0000000  0 12G14G31G 5G 6G18G30G21G24G 9G12G29G22
 115797954.74247  90232162.81247  22035624.8054   22035628.7234   22035625.1124
        51.000          45.000
 119816126.12147  93363206.67747  22800257.1724   22800259.9724   22800256.5374
        49.000          43.000
 124067892.48847  96676267.96347  23609342.6464   23609349.0564   23609343.0214
        46.000          39.000
 128022069.31747  99757425.74847  24361813.9934   24361822.1654   24361814.0424
        42.000          37.000
 122712797.74947  95620360.98447  23351469.2744   23351472.3834   23351469.4294
        48.000          40.000
 121754769.16647  94873822.24947  23169180.7844   23169185.7284   23169180.4944
        47.000          41.000
 105435467.63347  82157492.57147  20063713.4914   20063716.1914   20063713.9274
        54.000          50.000
 115015287.06647  89622277.88347  21886697.6284   21886703.4814   21886697.7074
        51.000          45.000
 119728288.66747  93294747.56447  22783554.5254   22783559.2844   22783554.7314
        48.000          41.000
 128213482.65347  99906580.09547  24398237.6134   24398243.6964   24398237.5944
        44.000          38.000
 120499219.91347  93895479.29547  22930250.6844   22930255.3384   22930249.9804
        48.000          43.000
 126153764.79347  98301630.28447  24006267.2314   24006268.5524   24006267.4564
        45.000          39.000
 09  1 17  0 18 30.0000000  0 12G14G31G 5G 6G18G30G21G24G 9G12G29G22
 115820078.57147  90249402.19147  22039834.9634   22039838.7414   22039835.1374
        51.000          44.000
 119718017.98147  93286758.81747  22781587.9054   22781590.6494   22781587.0054
        49.000          43.000
 124055279.15947  96666439.44947  23606942.7454   23606948.4464   23606943.2254
        46.000          39.000
 127981865.45847  99726098.16647  24354164.5174   24354172.0184   24354164.7324
        43.000          37.000
 122683034.97047  95597169.19247  23345805.5424   23345808.2544   23345806.0924
        48.000          41.000
 121728505.95347  94853357.42847  23164183.0694   23164188.4394   23164182.5894
        47.000          42.000
 105408867.96647  82136765.56247  20058651.8034   20058654.5764   20058652.1604
        54.000          50.000
 115066597.74047  89662260.23147  21896461.9624   21896467.3854   21896462.2484
        51.000          45.000
 119810927.65647  93359141.63147  22799280.1644   22799284.8224   22799280.2294
        47.000          41.000
 128215622.48547  99908247.50547  24398644.7034   24398650.4044   24398644.4464
        44.000          38.000
 120574347.93947  93954020.61747  22944547.0334   22944551.6864   22944546.8614
        48.000          43.000
 126123929.46747  98278382.02347  24000590.1434   24000591.1904   24000589.8364
        46.000          39.000
 09  1 17  0 19  0.0000000  0 12G14G31G 5G 6G18G30G21G24G 9G12G29G22
 115842512.19347  90266882.96547  22044103.8654   22044107.6884   22044104.0894
        50.000          44.000
 119620092.11947  93210452.99247  22762952.7264   22762955.9824   22762952.4734
        49.000          43.000
 124042745.54447  96656673.02747  23604557.6134   23604563.3604   23604558.1304
        46.000          39.000
 127941963.11747  99695005.56347  24346569.9954   24346578.8374   24346570.0334
        42.000          37.000
 122653112.03647  95573852.61047  23340111.6054   23340114.1624   23340112.2634
        48.000          40.000
 121702174.83447  94832839.71747  23159172.5874   23159177.6644   23159172.4104
        48.000          42.000
 105382834.22047  82116479.53047  20053697.6984   20053700.5564   20053698.0284
        54.000          50.000
 115118352.25847  89702588.43547  21906310.4464   21906315.8794   21906310.6254
        51.000          45.000
 119893957.90847  93423840.58947  22815080.0834   22815084.8334   22815080.2604
        47.000          41.000
 128217835.57547  99909971.99347  24399066.0244   24399071.3354   24399066.3284
        44.000          38.000
 120649430.68547  94012526.64347  22958835.1114   22958839.6034   22958834.6794
        48.000          43.000
 126093867.25447  98254956.96347  23994869.3514   23994870.2344   23994869.4014
        45.000          39.000
 09  1 17  0 19 30.0000000  0 12G14G31G 5G 6G18G30G21G24G 9G12G29G22
 115865253.82947  90284603.75247  22048431.3474   22048435.4254   22048431.6384
        51.000          44.000
 119522351.82647  93134291.77247  22744352.9424   22744356.3944   22744352.6204
        48.000          43.000
 124030294.28647  96646970.79647  23602188.3884   23602194.2424   23602188.9154
        46.000          39.000
 127902362.39747  99664147.96047  24339035.1144   24339042.5454   24339035.0684
        43.000          37.000
 122623030.88147  95550412.73947  23334387.2744   23334389.7914   23334387.8004
        48.000          41.000
 121675778.51347  94812271.18647  23154149.3134   23154154.7214   23154148.9854
        47.000          42.000
 105357368.53347  82096636.13747  20048851.7204   20048854.4914   20048852.1434
        54.000          50.000
 115170549.81647  89743261.85947  21916243.4264   21916248.7274   21916243.6774
        51.000          45.000
 119977377.54447  93488842.94147  22830954.3564   22830959.0284   22830954.5334
        48.000          41.000
 128220125.12347  99911756.06147  24399501.2734   24399506.8024   24399501.2524
        44.000          38.000
 120724466.35647  94070996.00547  22973113.7874   22973118.3644   22973113.5364
        48.000          42.000
 126063578.75447  98231355.56247  23989105.2584   23989106.5364   23989105.1564
        45.000          39.000
 09  1 17  0 20  0.0000000  0 12G14G31G 5G 6G18G30G21G24G 9G12G29G22
 115888299.85247  90302561.72947  22052816.8934   22052820.7034   22052817.3864
        51.000          44.000
 119424799.52247  93058277.03947  22725789.3084   22725792.7764   22725788.8004
        48.000          43.000
 124017926.91347  96637333.91247  23599834.8704   23599840.8654   23599835.4264
        46.000          39.000
 127863062.30647  99633524.61047  24331556.0144   24331563.6464   24331556.0394
        42.000          37.000
 122592791.59747  95526849.64847  23328633.3974   23328635.5374   23328633.8014
        48.000          40.000
 121649317.75947  94791652.44847  23149114.3294   23149118.9764   23149113.9334
        48.000          42.000
 105332471.55147  82077235.89847  20044113.9354   20044116.9684   20044114.2374
        54.000          50.000
 115223188.59347  89784279.09947  21926260.3304   21926265.7294   21926260.2544
        52.000          45.000
 120061183.45647  93554146.30747  22846902.3654   22846906.6004   22846902.3914
        47.000          41.000
 128222491.55447  99913600.03947  24399952.1604   24399957.5144   24399951.9224
        44.000          38.000
 120799452.57147  94129426.81247  22987383.2504   22987387.6454   22987383.2774
        48.000          42.000
 126033063.61847  98207577.58847  23983298.6324   23983299.3404   23983298.4634
        45.000          39.000
 09  1 17  0 20 30.0000000  0 12G14G31G 5G 6G18G30G21G24G 9G12G29G22
 115911649.35547  90320756.17147  22057260.0504   22057263.9414   22057260.2074
        51.000          45.000
 119327438.53047  92982411.38047  22707262.2024   22707265.4534   22707262.0034
        49.000          43.000
 124005646.00247  96627764.42547  23597497.8064   23597503.6384   23597498.1344
        45.000          39.000
 127824062.82847  99603135.52547  24324134.4914   24324142.1644   24324134.3744
        42.000          37.000
 122562396.20247  95503164.92747  23322849.0624   23322851.3964   23322849.8444
        47.000          40.000
 121622795.05847  94770985.44747  23144067.2554   23144071.5554   23144067.0754
        48.000          42.000
 105308145.83047  82058280.79447  20039485.0154   20039487.7774   20039485.3564
        54.000          50.000
 115276267.97747  89825639.65747  21936360.9494   21936366.4434   21936361.0064
        51.000          45.000
 120145373.98647  93619749.37347  22862923.1014   22862927.6374   22862923.2474
        47.000          41.000
 128224937.85947  99915506.24547  24400417.7844   24400422.8774   24400417.6384
        45.000          39.000
 120874387.38647  94187817.58247  23001642.8354   23001646.9294   23001642.6244
        47.000          42.000
 126002322.00847  98183623.11547  23977448.6934   23977449.5634   23977448.5734
        45.000          39.000
 09  1 17  0 21  0.0000000  0 12G14G31G 5G 6G18G30G21G24G 9G12G29G22
 115935298.39747  90339184.03347  22061760.5344   22061764.4114   22061760.8074
        51.000          45.000
 119230270.79447  92906696.30947  22688771.9064   22688775.4084   22688771.7134
        49.000          43.000
 123993452.70047  96618263.17247  23595177.2834   23595183.5224   23595177.2174
        46.000          39.000
 127785362.67947  99572979.63647  24316769.9794   24316777.2564   24316769.6674
        42.000          37.000
 122531845.01747  95479358.80147  23317035.1534   23317037.6724   23317035.4964
        47.000          40.000
 121596211.20947  94750270.78947  23139008.4404   23139013.1694   23139007.9684
        48.000          42.000
 105284391.46047  82039770.90147  20034964.5954   20034967.3954   20034964.9944
        54.000          50.000
 115329785.70447  89867341.78447  21946544.8544   21946550.9364   21946544.8904
        51.000          45.000
 120229945.63247  93685649.39847  22879016.4334   22879021.3214   22879016.8734
        47.000          41.000
 128227464.67447  99917475.20347  24400898.6894   24400904.0664   24400898.2604
        43.000          39.000
 120949267.81047  94246165.94847  23015892.0724   23015896.6234   23015891.7184
        48.000          42.000
 125971353.45447  98159491.79547  23971555.3224   23971556.2094   23971555.5484
        44.000          38.000
 09  1 17  0 21 30.0000000  0 12G14G31G 5G 6G18G30G21G24G 9G12G29G22
 115959246.31447  90357844.78147  22066317.4574   22066321.5974   22066317.6504
        51.000          45.000
 119133301.04747  92831135.51447  22670319.1194   22670322.7044   22670318.5374
        49.000          43.000
 123981350.85247  96608833.19047  23592874.3544   23592880.2784   23592874.9244
        46.000          39.000
 127746963.19347  99543058.03947  24309462.5384   24309470.4724   24309462.5554
        42.000          37.000
 122501141.23147  95455433.77247  23311193.0194   23311194.6874   23311193.4244
        47.000          40.000
 121569570.10547  94729511.52647  23133938.7914   23133943.5124   23133938.7664
        48.000          41.000
 105261212.36547  82021709.27347  20030553.8424   20030556.6894   20030554.1914
        54.000          50.000
 115383742.42947  89909385.99047  21956812.5014   21956818.2734   21956812.5044
        51.000          45.000
 120314897.46747  93751845.68947  22895182.5934   22895186.6564   22895182.5744
        47.000          41.000
 128230075.76947  99919509.83247  24401395.4164   24401401.0374   24401395.2114
        44.000          39.000
 121024093.28247  94304471.50947  23030131.2564   23030135.2344   23030130.7854
        48.000          42.000
 125940159.95747  98135185.21847  23965619.0174   23965620.5214   23965618.4154
        45.000          38.000
 09  1 17  0 22  0.0000000  0 12G14G31G 5G 6G18G30G21G24G 9G12G29G22
 115983489.79247  90376735.83047  22070930.9924   22070934.9524   22070931.4404
        51.000          45.000
 119036531.24247  92755730.52247  22651904.3634   22651907.9154   22651903.8784
        49.000          43.000
 123969341.61247  96599475.35147  23590588.5414   23590595.2134   23590588.9944
        45.000          39.000
 127708862.72747  99513369.44547  24302212.4724   24302220.4294   24302212.6214
        43.000          37.000
 122470285.08547  95431390.00547  23305320.8844   23305323.3854   23305321.1664
        47.000          40.000
 121542872.31947  94708708.09147  23128858.1964   23128862.7174   23128857.8374
        48.000          41.000
 105238608.70147  82004096.03347  20026252.4654   20026255.2674   20026252.8444
        54.000          50.000
 115438135.97847  89951770.58447  21967163.2774   21967169.0634   21967163.3024
        51.000          45.000
 120400226.12547  93818335.60547  22911419.9204   22911424.1444   22911419.7994
        47.000          41.000
 128232772.18447  99921610.95147  24401908.5174   24401913.7434   24401908.5104
        44.000          39.000
 121098860.82947  94362731.91847  23044359.0214   23044363.2114   23044358.7994
        48.000          42.000
 125908740.64147  98110702.68147  23959640.4744   23959641.3724   23959640.4294
        46.000          39.000
 09  1 17  0 22 30.0000000  0 12G14G31G 5G 6G18G30G21G24G 9G12G29G22
 116008025.80547  90395854.82547  22075599.9054   22075603.7734   22075600.2124
        51.000          45.000
 118939963.49447  92680482.98447  22633528.1524   22633531.4594   22633527.9334
        49.000          43.000
 123957426.33647  96590190.75947  23588321.3694   23588327.6104   23588321.7994
        45.000          39.000
 127671060.28447  99483913.06747  24295019.4434   24295026.7674   24295019.0884
        43.000          37.000
 122439277.29147  95407228.08547  23299420.0194   23299422.8274   23299420.1904
        47.000          40.000
 121516119.07247  94687861.43647  23123767.0844   23123771.9294   23123767.0174
        48.000          41.000
 105216581.34447  81986931.86647  20022060.9444   20022063.6564   20022061.3194
        54.000          50.000
 115492964.32647  89994493.97347  21977596.7924   21977602.3634   21977597.1124
        51.000          45.000
 120485928.56247  93885116.79547  22927728.4604   22927732.5594   22927728.6674
        47.000          41.000
 128235554.91347  99923779.34147  24402438.0094   24402443.6614   24402438.0624
        44.000          39.000
 121173567.83447  94420945.16547  23058575.2934   23058579.1074   23058575.1874
        48.000          42.000
 125877094.78947  98086043.59847  23953618.7724   23953619.1984   23953618.3574
        45.000          39.000
 09  1 17  0 23  0.0000000  0 12G14G31G 5G 6G18G30G21G24G 9G12G29G22
 116032852.80847  90415200.56947  22080324.3724   22080328.4264   22080324.6364
        51.000          45.000
 118843601.85447  92605396.04647  22615190.8424   22615194.5184   22615190.3874
        49.000          43.000
 123945608.37947  96580981.97847  23586072.5634   23586078.7404   23586073.0944
        45.000          40.000
 127633556.16547  99454689.13147  24287882.3314   24287889.4374   24287882.0784
        43.000          37.000
 122408119.97747  95382949.65347  23293491.1294   23293493.7644   23293491.6404
        47.000          40.000
 121489313.59047  94666974.05847  23118666.1814   23118670.9594   23118665.7624
        48.000          41.000
 105195132.91547  81970218.81647  20017979.2054   20017982.0824   20017979.5204
        54.000          50.000
 115548227.27847  90037556.01147  21988112.7224   21988118.6884   21988112.7184
        51.000          44.000
 120572003.51747  93952188.25347  22944107.7854   22944112.1814   22944107.8524
        47.000          40.000
 128238427.04947  99926017.39247  24402984.7544   24402990.5534   24402984.2884
        44.000          39.000
 121248213.18747  94479110.36047  23072779.8834   23072784.1474   23072779.9604
        48.000          42.000
 125845224.26447  98061209.44347  23947553.7854   23947555.0494   23947553.7014
        45.000          39.000
 09  1 17  0 23 30.0000000  0 12G14G31G 5G 6G18G30G21G24G 9G12G29G22
 116057968.67747  90434771.39647  22085103.8124   22085107.4974   22085104.0874
        51.000          45.000
 118747449.62147  92530472.28347  22596893.9224   22596897.1754   22596893.3704
        49.000          44.000
 123933890.16947  96571850.93047  23583842.4754   23583848.8754   23583842.9344
        46.000          39.000
 127596350.57847  99425697.80947  24280802.2294   24280809.6104   24280802.4634
        42.000          37.000
 122376815.09447  95358556.23147  23287534.0094   23287536.5094   23287534.2544
        47.000          40.000
 121462458.15447  94646047.76347  23113555.8234   23113560.9834   23113555.4904
        47.000          41.000
 105174265.20647  81953958.27047  20014008.2984   20014010.9304   20014008.7024
        54.000          50.000
 115603924.03647  90080956.08147  21998711.6414   21998717.4694   21998711.9854
        51.000          44.000
 120658448.84947  94019548.31447  22960557.6594   22960562.2164   22960557.8044
        47.000          41.000
 128241391.19347  99928327.13947  24403548.2314   24403554.0244   24403548.4474
        44.000          39.000
 121322795.00247  94537226.04947  23086972.3194   23086976.3874   23086972.1054
        47.000          42.000
 125813128.89147  98036200.10647  23941446.4444   23941447.4594   23941446.5744
        46.000          39.000
 09  1 17  0 24  0.0000000  0 12G14G31G 5G 6G18G30G21G24G 9G12G29G22
 116083369.95047  90454564.61747  22089937.7404   22089941.0364   22089938.1324
        51.000          45.000
 118651508.51847  92455713.02447  22578636.8304   22578639.9074   22578636.4944
        50.000          44.000
 123922272.38347  96562798.12947  23581631.9784   23581637.9324   23581632.5864
        46.000          40.000
 127559441.53847  99396937.55647  24273777.8894   24273785.3224   24273777.7714
        43.000          37.000
 122345362.45447  95334047.66647  23281548.8724   23281551.2234   23281549.4334
        47.000          40.000
 121435553.21647  94625082.89347  23108435.5834   23108441.0024   23108435.3424
        48.000          41.000
 105153978.36347  81938150.35747  20010147.7564   20010150.5994   20010148.1244
        54.000          50.000
 115660051.71147  90124691.93647  22009392.4584   22009398.1004   22009392.5314
        51.000          44.000
 120745260.58047  94087193.88447  22977077.4474   22977081.8024   22977077.6964
        47.000          40.000
 128244447.15347  99930708.39547  24404130.2464   24404135.5144   24404130.0644
        45.000          39.000
 121397309.88847  94595289.58247  23101151.5414   23101156.0804   23101151.3144
        47.000          42.000
 125780807.89547  98011014.93647  23935295.4244   23935296.9884   23935295.8354
        45.000          39.000
 09  1 17  0 24 30.0000000  0 12G14G31G 5G 6G18G30G21G24G 9G12G29G22
 116109055.15347  90474579.08847  22094825.1614   22094828.9054   22094825.4164
        51.000          45.000
 118555782.48047  92381121.35647  22560420.8124   22560423.9854   22560420.6914
        50.000          44.000
 123910758.36947  96553826.20147  23579440.8604   23579447.2714   23579441.1124
        45.000          40.000
 127522829.56547  99368408.78747  24266811.5064   24266819.2014   24266811.4524
        43.000          37.000
 122313764.70147  95309426.02747  23275535.7144   23275538.5244   23275536.3074
        47.000          41.000
 121408601.82547  94604081.82847  23103307.4824   23103311.8534   23103307.3944
        48.000          41.000
 105134275.20947  81922797.25747  20006398.3604   20006401.0984   20006398.6804
        54.000          50.000
 115716610.23347  90168763.51147  22020155.2774   22020160.8794   22020155.4284
        51.000          44.000
 120832437.41447  94155123.95247  22993666.3374   22993670.5744   22993666.3674
        46.000          40.000
 128247598.16647  99933163.72847  24404729.5544   24404735.2724   24404729.6614
        44.000          39.000
 121471756.82447  94653300.18047  23115318.3664   23115322.9234   23115318.0414
        47.000          42.000
 125748262.75247  97985655.11147  23929101.8844   23929103.8794   23929101.8134
        45.000          39.000
 09  1 17  0 25  0.0000000  0 12G14G31G 5G 6G18G30G21G24G 9G12G29G22
 116135021.88147  90494812.93247  22099766.3404   22099770.0884   22099766.5034
        50.000          45.000
 118460274.41447  92306699.53847  22542245.9494   22542249.2984   22542245.5694
        49.000          44.000
 123899350.30747  96544936.83847  23577269.5834   23577276.0774   23577270.2884
        45.000          39.000
 127486514.23847  99340111.16247  24259900.9704   24259908.3674   24259901.1304
        42.000          37.000
 122282023.16547  95284692.34347  23269495.6144   23269498.3854   23269495.9124
        47.000          41.000
 121381605.95747  94583046.10747  23098169.9134   23098174.6134   23098169.2554
        48.000          41.000
 105115156.57847  81907899.63447  20002760.2944   20002762.9234   20002760.6414
        54.000          50.000
 115773598.39647  90213169.88247  22030999.7234   22031005.4014   22031000.0274
        51.000          44.000
 120919977.12247  94223336.77747  23010324.6384   23010329.0624   23010324.6284
        47.000          41.000
 128250846.45547  99935694.89347  24405347.1044   24405353.0114   24405347.1164
        44.000          38.000
 121546133.87247  94711256.31947  23129472.0394   23129476.3444   23129471.4754
        47.000          42.000
 125715493.70847  97960120.83347  23922866.7944   23922867.9594   23922866.9784
        45.000          39.000
 09  1 17  0 25 30.0000000  0 12G14G31G 5G 6G18G30G21G24G 9G12G29G22
 116161266.42747  90515263.25447  22104760.5664   22104764.3814   22104760.7474
        50.000          44.000
 118364986.09647  92232448.96247  22524112.9824   22524116.4894   22524112.5304
        50.000          44.000
 123888049.18947  96536130.80047  23575119.4294   23575125.5234   23575119.5404
        45.000          39.000
 127450493.83147  99312043.35147  24253046.3204   24253052.9364   24253046.3104
        42.000          37.000
 122250138.17247  95259846.87047  23263428.0914   23263431.1294   23263428.6464
        48.000          41.000
 121354566.39247  94561976.31647  23093024.6464   23093029.3344   23093024.2544
        48.000          41.000
 105096622.86147  81893457.79247  19999233.5384   19999236.1094   19999233.9204
        54.000          50.000
 115831013.51147  90257908.93747  22041925.3794   22041931.1454   22041925.7244
        51.000          44.000
 121007875.94647  94291829.45947  23027051.2494   23027055.2594   23027051.2414
        47.000          41.000
 128254192.63747  99938302.34447  24405984.6204   24405990.0064   24405984.3944
        44.000          39.000
 121620437.91447  94769155.56147  23143611.5554   23143615.9874   23143611.3484
        47.000          42.000
 125682500.01347  97934411.50347  23916588.3364   23916589.6434   23916588.2964
        46.000          39.000
 09  1 17  0 26  0.0000000  0 12G14G31G 5G 6G18G30G21G24G 9G12G29G22
 116187788.00647  90535929.44947  22109807.2794   22109811.1664   22109807.5264
        50.000          44.000
 118269922.18747  92158373.23947  22506023.1014   22506026.4014   22506022.5624
        49.000          44.000
 123876858.63347  96527410.91347  23572989.5714   23572995.2734   23572990.2484
        45.000          39.000
 127414769.39647  99284206.18547  24246247.9884   24246256.0304   24246247.9884
        42.000          37.000
 122218112.67447  95234891.92447  23257334.0744   23257336.7224   23257334.7374
        48.000          41.000
 121327486.83447  94540875.37847  23087871.5964   23087876.4194   23087871.4164
        48.000          41.000
 105078677.08647  81879474.08647  19995818.6174   19995821.2104   19995819.0014
        54.000          50.000
 115888855.97847  90302980.99447  22052932.4344   22052938.0914   22052932.5944
        51.000          44.000
 121096132.62247  94360600.97347  23043846.1554   23043850.0434   23043845.9774
        47.000          40.000
 128257640.22847  99940988.79847  24406640.0524   24406645.3484   24406639.4724
        44.000          38.000
 121694668.52747  94826997.58847  23157737.1574   23157741.5114   23157737.1854
        48.000          42.000
 125649283.39847  97908528.45447  23910267.1924   23910268.3124   23910267.5164
        45.000          39.000
 09  1 17  0 26 30.0000000  0 12G14G31G 5G 6G18G30G21G24G 9G12G29G22
 116214583.12647  90556808.80147  22114906.1464   22114910.2284   22114906.4544
        50.000          44.000
 118175084.69447  92084473.94447  22487976.1394   22487979.5264   22487975.8994
        50.000          44.000
 123865779.98447  96518778.22647  23570881.5154   23570887.6684   23570881.8244
        45.000          39.000
 127379339.42047  99256598.45047  24239505.9614   24239513.1544   24239506.3734
        41.000          37.000
 122185947.26947  95209827.96647  23251213.2884   23251216.0614   23251213.7244
        48.000          41.000
 121300368.50547  94519744.25047  23082710.8564   23082715.8434   23082710.5534
        48.000          42.000
 105061319.77547  81865948.92247  19992515.5454   19992518.2224   19992515.9394
        54.000          50.000
 115947123.67947  90348384.39247  22064020.4974   22064026.0954   22064020.8514
        51.000          44.000
 121184743.92347  94429648.81847  23060708.2354   23060712.2744   23060708.0134
        47.000          40.000
 128261190.33147  99943755.12547  24407315.7994   24407321.7924   24407315.7564
        44.000          38.000
 121768822.98047  94884780.27647  23171848.3484   23171852.3584   23171848.4374
        47.000          42.000
 125615843.49147  97882471.43447  23903904.1084   23903904.7964   23903904.1244
        46.000          39.000
 09  1 17  0 27  0.0000000  0 12G14G31G 5G 6G18G30G21G24G 9G12G29G22
 116241649.49647  90577899.51647  22120056.9764   22120060.7274   22120057.0924
        50.000          45.000
 118080476.43547  92010753.26547  22469972.8894   22469976.2794   22469972.2674
        50.000          44.000
 123854815.20247  96510234.26947  23568794.8504   23568801.6184   23568795.2454
        45.000          40.000
 127344203.18147  99229219.65347  24232819.0244   24232827.0734   24232819.3894
        42.000          37.000
 122153643.11947  95184655.87747  23245065.8664   23245068.5864   23245066.3914
        47.000          41.000
 121273213.01347  94498584.14547  23077543.7774   23077548.5314   23077543.4744
        48.000          42.000
 105044552.15947  81852883.26347  19989324.5954   19989327.4614   19989324.9584
        54.000          50.000
 116005814.83647  90394117.76747  22075188.9454   22075194.5734   22075189.0844
        51.000          44.000
 121273707.06947  94498970.84847  23077637.1794   23077640.5534   23077637.3044
        46.000          40.000
 128264844.59147  99946602.63047  24408011.3204   24408016.7534   24408011.4464
        44.000          38.000
 121842898.88047  94942501.73947  23185944.5604   23185948.6114   23185944.4404
        47.000          42.000
 125582179.97147  97856240.16547  23897498.0104   23897499.2094   23897498.6554
        46.000          40.000
 09  1 17  0 27 30.0000000  0 12G14G31G 5G 6G18G30G21G24G 9G12G29G22
 116268985.25147  90599200.14747  22125258.6194   22125262.5494   22125258.6064
        50.000          44.000
 117986101.06747  91937214.06547  22452013.6904   22452017.1094   22452013.6574
        50.000          44.000
 123843967.05747  96501781.17547  23566730.9214   23566736.9354   23566731.0314
        45.000          40.000
 127309360.78847  99202069.77147  24226190.5264   24226196.7074   24226190.4624
        42.000          37.000
 122121202.41047  95159377.39147  23238892.7404   23238895.4574   23238893.2084
        48.000          41.000
 121246023.07547  94477397.20047  23072369.4744   23072374.3174   23072369.3624
        48.000          42.000
 105028376.12847  81840278.58147  19986246.4204   19986249.1974   19986246.7814
        54.000          50.000
 116064928.76847  90440180.57047  22086438.0084   22086443.5064   22086438.0724
        51.000          44.000
 121363020.25147  94568565.62047  23094632.7664   23094636.8824   23094633.1714
        46.000          40.000
 128268605.50247  99949533.25047  24408727.2514   24408732.3944   24408727.0134
        44.000          39.000
 121916895.00447  95000161.04047  23200025.4174   23200030.1914   23200024.9474
        47.000          42.000
 125548294.02547  97829835.56447  23891049.6294   23891050.6464   23891049.3574
        45.000          40.000
 09  1 17  0 28  0.0000000  0 12G14G31G 5G 6G18G30G21G24G 9G12G29G22
 116296587.25047  90620708.23147  22130511.0984   22130515.0394   22130511.0964
        50.000          44.000
 117891960.66847  91863857.94647  22434099.2974   22434102.7734   22434098.7854
        50.000          44.000
 123833237.34847  96493420.38647  23564689.0524   23564694.8684   23564689.5494
        45.000          39.000
 127274811.17147  99175148.07147  24219615.0164   24219622.0094   24219615.0624
        42.000          37.000
 122088626.29747  95133993.38247  23232693.5524   23232696.6094   23232693.9054
        48.000          41.000
 121218799.94047  94456184.37847  23067189.0334   23067193.8624   23067188.8054
        48.000          42.000
 105012791.98847  81828135.11447  19983280.9334   19983283.5784   19983281.2824
        54.000          50.000
 116124463.52147  90486571.29147  22097767.0344   22097772.8424   22097767.2654
        51.000          44.000
 121452680.43747  94638430.78747  23111694.5054   23111698.7274   23111694.8494
        45.000          40.000
 128272474.71947  99952548.24147  24409463.2154   24409468.9144   24409463.1414
        43.000          38.000
 121990808.87447  95057756.25347  23214090.8454   23214095.4504   23214090.7524
        47.000          42.000
 125514185.85547  97803257.80147  23884558.8224   23884560.3284   23884559.0784
        46.000          40.000
 09  1 17  0 28 30.0000000  0 12G14G31G 5G 6G18G30G21G24G 9G12G29G22
 116324453.31647  90642422.09447  22135813.5674   22135817.6974   22135813.7654
        50.000          44.000
 117798059.40447  91790688.17147  22416230.6974   22416234.1324   22416230.0974
        50.000          44.000
 123822628.62547  96485153.86247  23562670.4954   23562676.1254   23562671.2884
        46.000          40.000
 127240554.33947  99148454.49647  24213096.1724   24213103.1114   24213096.4954
        43.000          37.000
 122055916.72147  95108505.38647  23226469.0184   23226472.1344   23226469.5784
        49.000          41.000
 121191546.22247  94434947.74047  23062003.0814   23062007.6844   23062002.9574
        48.000          42.000
 104997801.53247  81816454.26447  19980428.3814   19980431.0334   19980428.7584
        54.000          50.000
 116184418.13847  90533289.18747  22109176.2004   22109181.5884   22109176.2814
        51.000          44.000
 121542685.33147  94708564.55647  23128821.7774   23128826.5554   23128821.5964
        46.000          40.000
 128276454.48447  99955649.39447  24410220.3864   24410226.1264   24410220.1544
        42.000          38.000
 122064638.96847  95115286.19547  23228140.1314   23228144.7314   23228139.9104
        47.000          42.000
 125479856.33747  97776507.56947  23878026.2674   23878027.1514   23878026.2494
        46.000          40.000
 09  1 17  0 29  0.0000000  0 12G14G31G 5G 6G18G30G21G24G 9G12G29G22
 116352580.46347  90664339.39147  22141166.1954   22141169.9284   22141166.4514
        50.000          44.000
 117704399.27047  91717706.29347  22398407.6954   22398411.1144   22398407.7134
        50.000          44.000
 123812142.39247  96476982.78447  23560674.9574   23560680.7144   23560675.4114
        46.000          40.000
 127206588.67647  99121987.80047  24206632.9534   24206639.3894   24206633.0244
        43.000          37.000
 122023074.20747  95082913.79147  23220219.3734   23220221.9124   23220219.9414
        48.000          41.000
 121164263.69847  94413688.66547  23056811.4454   23056815.8414   23056810.9624
        49.000          42.000
 104983405.51247  81805236.60447  19977688.8364   19977691.5904   19977689.3044
        54.000          50.000
 116244790.80447  90580332.82547  22120664.5704   22120670.1334   22120664.6924
        50.000          44.000
 121633032.05947  94778964.68247  23146014.0904   23146018.5864   23146014.5044
        47.000          40.000
 128280546.15547  99958837.72747  24410999.0854   24411004.6874   24410998.7044
        44.000          38.000
 122138382.91047  95172748.99547  23242173.2584   23242177.6804   23242173.2614
        47.000          42.000
 125445304.85547  97749584.39247  23871451.2044   23871452.2564   23871451.4384
        46.000          39.000
 09  1 17  0 29 30.0000000  0 12G14G31G 5G 6G18G30G21G24G 9G12G29G22
 116380966.02247  90686458.04647  22146567.7934   22146571.5964   22146567.9674
        51.000          44.000
 117610982.66947  91644914.19247  22380630.9474   22380634.5464   22380630.6534
        50.000          44.000
 123801780.32847  96468908.44047  23558702.8804   23558708.8284   23558703.6564
        45.000          39.000
 127172913.21247  99095747.23247  24200224.6404   24200230.8674   24200224.3624
        41.000          37.000
 121990099.90047  95057219.52247  23213944.4484   23213947.5334   23213944.6804
        47.000          40.000
 121136953.68847  94392408.16147  23051614.3554   23051618.8144   23051613.9354
        48.000          42.000
 104969604.94947  81794482.94047  19975062.6084   19975065.3574   19975062.9824
        54.000          50.000
 116305579.32047  90627700.50047  22132232.2044   22132237.8424   22132232.4074
        51.000          44.000
 121723717.43447  94849628.69147  23163270.9364   23163275.4044   23163271.0794
        46.000          40.000
 128284750.97047  99962114.22347  24411799.3724   24411804.4914   24411799.3244
        44.000          38.000
 122212038.48247  95230142.93947  23256189.6224   23256194.0704   23256189.1764
        47.000          42.000
 125410531.64547  97722488.41847  23864833.8244   23864835.1934   23864834.0604
        46.000          39.000
 09  1 17  0 30  0.0000000  0 12G14G31G 5G 6G18G30G21G24G 9G12G29G22
 116409609.66347  90708777.80847  22152018.3824   22152022.4994   22152018.6514
        50.000          44.000
 117517814.97447  91572316.04047  22362901.4384   22362905.1684   22362900.8554
        49.000          44.000
 123791547.05247  96460934.44947  23556755.4734   23556761.5224   23556755.9264
        45.000          39.000
 127139529.71747  99069734.19247  24193871.3634   24193878.7904   24193871.4384
        42.000          37.000
 121956997.92147  95031425.76847  23207645.2344   23207648.5264   23207645.8754
        47.000          41.000
 121109620.61747  94371109.69747  23046412.9634   23046417.5024   23046412.8224
        49.000          42.000
 104956402.79247  81784195.56047  19972550.3714   19972552.9894   19972550.7724
        54.000          50.000
 116366784.66447  90675392.98447  22143879.4064   22143884.7204   22143879.6984
        51.000          44.000
 121814741.67847  94920556.73847  23180592.2834   23180596.3724   23180592.3304
        46.000          40.000
 128289073.34747  99965482.32347  24412621.2404   24412627.4084   24412621.2644
        43.000          38.000
 122285605.56847  95287467.92547  23270189.1914   23270193.3584   23270189.0104
        47.000          42.000
 125375539.43747  97695221.80647  23858175.0444   23858176.2124   23858174.7084
        45.000          39.000
 09  1 17  0 30 30.0000000  0 12G14G31G 5G 6G18G30G21G24G 9G12G29G22
 116438506.08247  90731294.52747  22157517.1074   22157521.0464   22157517.2994
        50.000          44.000
 117424896.40447  91499912.01447  22345219.5474   22345223.2184   22345218.9674
        50.000          44.000
 123781441.93047  96453060.34147  23554832.2324   23554838.9784   23554832.8344
        45.000          39.000
 127106434.83247  99043946.02847  24187573.0514   24187580.6454   24187573.3364
        42.000          37.000
 121923767.00147  95005531.53747  23201321.9304   23201324.6424   23201322.4694
        48.000          41.000
 121082263.39747  94349792.43247  23041206.8174   23041211.8494   23041206.5144
        49.000          42.000
 104943797.93247  81774373.61047  19970151.6284   19970154.2284   19970152.0054
        54.000          50.000
 116428402.71747  90723407.05547  22155604.8134   22155610.3334   22155605.0704
        51.000          44.000
 121906098.93347  94991744.28947  23197977.4014   23197980.7344   23197977.4964
        46.000          40.000
 128293512.52547  99968941.43247  24413466.1964   24413472.6954   24413466.1784
        43.000          38.000
 122359079.91147  95344720.65747  23284170.9004   23284175.2654   23284170.5864
        47.000          42.000
 125340325.88547  97667782.72347  23851473.7944   23851475.0774   23851473.7264
        45.000          39.000
 09  1 17  0 31  0.0000000  0 12G14G31G 5G 6G18G30G21G24G 9G12G29G22
 116467654.79547  90754007.85047  22163063.8304   22163067.4934   22163063.9294
        50.000          44.000
 117332231.69647  91427705.80147  22327586.0724   22327589.5304   22327585.7374
        50.000          44.000
 123771469.09447  96445289.31447  23552934.4034   23552941.1584   23552934.7724
        45.000          39.000
 127073629.64147  99018383.59947  24181330.6534   24181338.3144   24181330.9864
        42.000          37.000
 121890410.36447  94979539.34247  23194974.5884   23194977.1614   23194975.1584
        47.000          41.000
 121054886.48347  94328459.82247  23035997.2184   23036002.0774   23035996.8654
        49.000          42.000
 104931792.74047  81765018.93347  19967867.1704   19967869.8464   19967867.5424
        54.000          50.000
 116490433.54347  90771742.77247  22167408.8754   22167414.3944   22167408.9944
        51.000          44.000
 121997788.58447  95063190.84847  23215424.9494   23215428.5434   23215425.1184
        46.000          40.000
 128298072.33347  99972494.52747  24414333.9204   24414340.1234   24414333.8704
        43.000          38.000
 122432461.35047  95401900.99147  23298134.5364   23298139.3784   23298134.5294
        47.000          42.000
 125304893.52747  97640173.15747  23844731.0824   23844732.5294   23844731.6234
        45.000          39.000
 09  1 17  0 31 30.0000000  0 12G14G31G 5G 6G18G30G21G24G 9G12G29G22
 116497051.33647  90776914.28847  22168657.5964   22168661.6814   22168657.8704
        50.000          44.000
 117239822.06347  91355698.35747  22310000.9564   22310004.4784   22310000.3094
        50.000          44.000
 123761628.56347  96437621.38647  23551061.8934   23551068.0774   23551062.4244
        45.000          39.000
 127041111.49947  98993044.86547  24175142.9514   24175149.5924   24175142.4004
        43.000          37.000
 121856927.90247  94953449.10547  23188602.9444   23188605.5864   23188603.4084
        48.000          41.000
 121027489.85547  94307111.83847  23030783.8074   23030788.6164   23030783.4644
        49.000          42.000
 104920386.66747  81756131.10247  19965696.7164   19965699.3364   19965697.1764
        54.000          50.000
 116552873.93347  90820397.61947  22179290.7404   22179296.4584   22179290.9904
        50.000          44.000
 122089806.03847  95134892.83147  23232935.3684   23232938.8724   23232935.5664
        45.000          39.000
 128302752.38247  99976141.33647  24415224.7414   24415230.3694   24415224.6044
        42.000          38.000
 122505746.20347  95459006.07147  23312080.4704   23312085.0404   23312080.0854
        47.000          41.000
 125269240.55447  97612391.66747  23837946.8394   23837948.2514   23837946.9644
        46.000          39.000
 09  1 17  0 32  0.0000000  0 12G14G31G 5G 6G18G30G21G24G 9G12G29G22
 116526695.00647  90800013.28447  22174299.0164   22174302.4254   22174299.2144
        50.000          44.000
 117147672.56247  91283893.62047  22292465.3094   22292468.9744   22292465.2634
        50.000          44.000
 123751924.82247  96430060.05047  23549215.4004   23549221.5034   23549215.9744
        46.000          39.000
 127008882.19647  98967931.18347  24169009.6734   24169017.0894   24169011.0264
        43.000          38.000
 121823323.43047  94927263.80947  23182208.2764   23182211.1684   23182208.9694
        48.000          41.000
 121000078.16447  94285752.13547  23025567.6714   23025572.2434   23025567.1914
        48.000          42.000
 104909583.12047  81747712.76947  19963640.7814   19963643.4434   19963641.1054
        54.000          50.000
 116615724.56647  90869372.13947  22191250.9794   22191256.5274   22191251.0174
        51.000          44.000
 122182151.04447  95206850.04147  23250507.7854   23250511.5484   23250508.0164
        45.000          39.000
 128307557.08547  99979885.27247  24416139.6424   24416144.8334   24416138.9124
        43.000          39.000
 122578934.88547  95516036.19847  23326007.8294   23326012.4024   23326007.7854
        46.000          42.000
 125233369.55747  97584440.28047  23831120.9324   23831122.1274   23831121.1164
        45.000          39.000
 09  1 17  0 32 30.0000000  0 12G14G31G 5G 6G18G30G21G24G 9G12G29G22
 116556583.03147  90823302.69147  22179985.9924   22179989.9884   22179986.2264
        50.000          44.000
 117055785.12247  91212293.09347  22274979.7144   22274983.3114   22274979.2864
        50.000          45.000
 123742359.04347  96422606.21947  23547395.6114   23547401.4444   23547396.3234
        46.000          39.000
 126976939.56347  98943040.89747  24162931.2904   24162938.2764   24162931.5484
        43.000          37.000
 121789597.29947  94900983.71147  23175790.0034   23175792.9544   23175790.6364
        48.000          40.000
 120972652.00647  94264381.14347  23020348.2774   23020353.1124   23020347.9524
        48.000          42.000
 104899381.74647  81739763.66547  19961699.5014   19961702.0884   19961699.9454
        54.000          50.000
 116678982.70047  90918664.19647  22203288.4164   22203294.0084   22203288.5894
        50.000          44.000
 122274819.83547  95279059.55447  23268142.4694   23268145.6674   23268142.5104
        45.000          39.000
 128312487.25147  99983726.98047  24417077.2754   24417083.1154   24417077.0404
        43.000          38.000
 122652024.44747  95572989.09547  23339916.5604   23339920.9514   23339916.5494
        47.000          41.000
 125197280.27247  97556318.81347  23824253.1164   23824254.6724   23824253.7024
        45.000          39.000
 09  1 17  0 33  0.0000000  0 12G14G31G 5G 6G18G30G21G24G 9G12G29G22
 116586712.11947  90846779.93747  22185719.5054   22185723.2214   22185719.5554
        50.000          44.000
 116964162.52547  91140898.93447  22257544.7614   22257548.1644   22257543.9824
        51.000          45.000
 123732933.06547  96415261.31547  23545601.7134   23545607.1284   23545602.2474
        45.000          39.000
 126945282.84947  98918373.38547  24156907.4054   24156914.2804   24156907.4364
        43.000          38.000
 121755750.93547  94874609.91547  23169349.3304   23169352.1574   23169349.6304
        48.000          40.000
 120945213.15647  94243000.26847  23015127.1224   23015131.7054   23015126.8994
        49.000          42.000
 104889783.29447  81732284.37447  19959872.9084   19959875.6494   19959873.2334
        54.000          50.000
 116742646.72047  90968272.52747  22215403.2914   22215409.0574   22215403.5284
        50.000          44.000
 122367809.51947  95351519.10647  23285837.1544   23285841.0514   23285837.3614
        45.000          39.000
 128317544.50647  99987667.72447  24418039.3894   24418045.4064   24418039.0194
        43.000          38.000
 122725012.58747  95629862.96147  23353805.6014   23353809.8884   23353805.6414
        47.000          41.000
 125160972.90947  97528027.41547  23817344.0594   23817345.2304   23817344.2294
        46.000          39.000
 09  1 17  0 33 30.0000000  0 12G14G31G 5G 6G18G30G21G24G 9G12G29G22
 116617080.22947  90870443.43247  22191498.6324   22191502.1594   22191498.8214
        50.000          44.000
 116872808.03847  91069713.69747  22240160.9224   22240164.0374   22240160.7404
        51.000          45.000
 123723649.32447  96408027.27247  23543834.9274   23543840.8154   23543835.5044
        45.000          39.000
 126913911.54147  98893928.28347  24150937.5714   24150944.6674   24150936.9684
        43.000          38.000
 121721786.31747  94848143.97147  23162886.5224   23162888.9814   23162886.8934
        48.000          41.000
 120917764.54247  94221611.78447  23009903.4644   23009908.7014   23009903.0344
        48.000          42.000
 104880789.10747  81725275.94247  19958161.4604   19958163.9514   19958161.8124
        54.000          50.000
 116806715.44947  91018196.21447  22227595.0284   22227600.7944   22227595.2434
        50.000          44.000
 122461117.75147  95424226.88947  23303593.0434   23303596.8884   23303593.2614
        46.000          39.000
 128322731.08447  99991709.25047  24419026.0854   24419031.8564   24419025.3564
        43.000          38.000
 122797898.08947  95686656.85347  23367675.4154   23367679.5794   23367675.2834
        47.000          41.000
 125124448.19847  97499566.64347  23810393.7404   23810394.2034   23810394.0434
        46.000          39.000
 09  1 17  0 34  0.0000000  0 12G14G31G 5G 6G18G30G21G24G 9G12G29G22
 116647684.10547  90894290.64247  22197322.2934   22197325.8444   22197322.4734
        50.000          44.000
 116781723.87747  90998739.11047  22222827.8634   22222831.0654   22222827.7284
        51.000          45.000
 123714509.37847  96400905.26547  23542095.3004   23542101.6704   23542096.1294
        45.000          39.000
 126882824.46347  98869704.64547  24145021.9454   24145028.7764   24145022.0394
        43.000          38.000
 121687704.40547  94821586.64847  23156400.7954   23156403.1724   23156401.4254
        48.000          41.000
 120890307.27847  94200216.56447  23004678.6684   23004683.5604   23004678.4444
        49.000          42.000
 104872399.30147  81718738.45247  19956564.8144   19956567.5624   19956565.3164
        54.000          50.000
 116871186.41847  91068433.33647  22239863.6114   22239869.2494   22239864.0244
        50.000          43.000
 122554741.70647  95497180.69347  23321408.9464   23321413.0934   23321409.3634
        46.000          40.000
 128328048.16747  99995852.44147  24420038.5644   24420043.6484   24420038.1634
        44.000          39.000
 122870678.38647  95743368.77247  23381524.8304   23381528.5904   23381524.5474
        47.000          41.000
 125087706.04247  97470936.42547  23803401.7134   23803403.0884   23803401.9224
        45.000          39.000
 09  1 17  0 34 30.0000000  0 12G14G31G 5G 6G18G30G21G24G 9G12G29G22
 116678522.88747  90918320.89547  22203190.5394   22203194.5154   22203190.7694
        50.000          44.000
 116690914.19847  90927978.39947  22205547.5134   22205550.2734   22205546.7364
        51.000          45.000
 123705516.58347  96393897.92947  23540384.0044   23540389.9314   23540385.0334
        45.000          39.000
 126852021.68047  98845702.55747  24139159.6244   24139167.5844   24139159.3984
        42.000          37.000
 121653508.06347  94794940.15147  23149893.5364   23149895.8774   23149894.0184
        48.000          41.000
 120862844.90547  94178817.34347  22999452.8364   22999457.5684   22999452.4914
        49.000          42.000
 104864616.39147  81712673.87147  19955083.7794   19955086.5124   19955084.1914
        54.000          50.000
 116936059.28047  91118983.61547  22252208.7444   22252214.0734   22252208.9054
        50.000          43.000
 122648679.47747  95570379.02247  23339285.0324   23339288.9554   23339285.1924
        46.000          40.000
 128333499.07647 100000099.94847  24421076.0514   24421080.7654   24421075.6394
        43.000          39.000
 122943352.79747  95799998.18147  23395354.2294   23395357.9294   23395354.0534
        47.000          41.000
 125050748.30747  97442138.23947  23796368.6534   23796370.2374   23796368.4134
        45.000          39.000
 09  1 17  0 35  0.0000000  0 12G14G31G 5G 6G18G30G21G24G 9G12G29G22
 116709592.75547  90942531.22347  22209103.0334   22209106.8324   22209103.2114
        50.000          44.000
 116600381.31847  90857433.37747  22188319.2894   22188322.4164   22188319.0524
        51.000          45.000
 123696672.50147  96387006.45747  23538701.4864   23538707.4184   23538701.9234
        46.000          39.000
 126821502.16547  98821921.19747  24133352.1274   24133359.0324   24133352.1244
        42.000          37.000
 121619198.36147  94768205.31947  23143364.3304   23143367.2264   23143365.0334
        48.000          41.000
 120835378.49347  94157414.98447  22994226.0534   22994230.8654   22994225.9454
        49.000          42.000
 104857440.16047  81707082.02447  19953718.1834   19953720.8204   19953718.5024
        54.000          50.000
 117001331.69347  91169845.24447  22264629.4574   22264635.1374   22264629.7274
        50.000          43.000
 122742927.83347  95643819.36347  23357220.0154   23357223.6674   23357220.1134
        46.000          40.000
 128339085.11847 100004452.77047  24422138.4344   24422143.6224   24422138.1804
        43.000          38.000
 123015919.34447  95856543.53147  23409163.1914   23409167.0194   23409163.2244
        47.000          41.000
 125013574.88647  97413171.96647  23789294.7344   23789296.2274   23789294.7844
        46.000          39.000
 09  1 17  0 35 30.0000000  0 12G14G31G 5G 6G18G30G21G24G 9G12G29G22
 116740889.76847  90966918.55347  22215058.5274   22215062.1694   22215058.7314
        50.000          44.000
 116510126.91647  90787105.35047  22171144.4174   22171147.4474   22171144.0834
        50.000          45.000
 123687977.65247  96380231.29347  23537046.8424   23537052.6694   23537047.4564
        46.000          40.000
 126791263.52647  98798358.67747  24127597.7974   24127605.1744   24127597.8414
        43.000          37.000
 121584775.22747  94741382.11647  23136814.2194   23136816.8604   23136814.6374
        48.000          41.000
 120807908.87047  94136010.11747  22988998.5994   22989003.3234   22988998.3654
        49.000          42.000
 104850870.08947  81701962.50947  19952468.0354   19952470.5674   19952468.3964
        54.000          50.000
 117067000.44747  91221015.70947  22277125.7924   22277131.4194   22277126.2114
        50.000          43.000
 122837482.25247  95717498.20547  23375212.8834   23375216.9654   23375212.9914
        45.000          40.000
 128344806.31047 100008910.91647  24423226.5824   24423232.4364   24423226.3254
        43.000          39.000
 123088374.33747  95913001.96847  23422951.2594   23422954.5364   23422951.1654
        47.000          41.000
 124976184.78747  97384036.85947  23782180.2764   23782180.9634   23782180.4104
        46.000          40.000
 09  1 17  0 36  0.0000000  0 12G14G31G 5G 6G18G30G21G24G 9G12G29G22
 116772413.78647  90991482.77847  22221057.3164   22221061.1884   22221057.6594
        50.000          44.000
 116420156.05147  90716998.26647  22154023.5394   22154026.4774   22154023.0804
        51.000          45.000
 123679436.61447  96373575.98547  23535421.6654   23535427.9304   23535422.1384
        45.000          40.000
 126761306.99647  98775015.99947  24121897.3654   24121904.1354   24121897.0684
        43.000          37.000
 121550242.86347  94714473.79647  23130242.8784   23130245.5824   23130243.2134
        48.000          41.000
 120780440.71047  94114606.39847  22983771.4894   22983776.0774   22983770.8524
        48.000          42.000
 104844909.37647  81697317.82147  19951333.6854   19951336.1214   19951334.0924
        54.000          50.000
 117133066.45847  91272495.72147  22289697.5224   22289703.3524   22289697.4374
        50.000          43.000
 122932342.74847  95791415.52247  23393264.1164   23393268.6954   23393264.1054
        45.000          39.000
 128350666.87847 100013477.66547  24424342.1704   24424347.7774   24424341.4174
        43.000          38.000
 123160718.75647  95969374.23747  23436717.7044   23436721.4964   23436717.7024
        46.000          41.000
 124938580.97447  97354735.22547  23775024.2084   23775025.2874   23775024.2514
        45.000          39.000
 09  1 17  0 36 30.0000000  0 12G14G31G 5G 6G18G30G21G24G 9G12G29G22
 116804162.62247  91016222.18447  22227098.5454   22227102.5034   22227098.7224
        50.000          44.000
 116330471.76547  90647114.48347  22136957.0544   22136960.0714   22136956.6974
        51.000          45.000
 123671051.68447  96367042.28747  23533826.2074   23533831.3864   23533826.9244
        46.000          39.000
 126731632.45847  98751893.03347  24116250.3734   24116257.3534   24116250.6734
        43.000          38.000
 121515603.02947  94687481.71847  23123650.8084   23123653.7334   23123651.4684
        48.000          41.000
 120752976.31047  94093205.59547  22978545.1264   22978550.2714   22978544.6514
        49.000          42.000
 104839558.68847  81693148.48047  19950315.4354   19950317.8884   19950315.9244
        54.000          50.000
 117199528.11847  91324284.03247  22302344.8464   22302350.5664   22302345.1694
        50.000          43.000
 123027506.86947  95865569.43647  23411372.9824   23411377.1224   23411373.5534
        44.000          39.000
 128356668.91947 100018154.65647  24425484.0634   24425489.7424   24425483.9554
        43.000          39.000
 123232950.61447  96025658.80647  23450462.7784   23450466.7654   23450462.4454
        46.000          41.000
 124900764.28147  97325267.69847  23767827.6164   23767828.9264   23767827.5994
        45.000          40.000
 09  1 17  0 37  0.0000000  0 12G14G31G 5G 6G18G30G21G24G 9G12G29G22
 116836131.98847  91041133.43947  22233182.6564   22233186.2064   22233182.7244
        50.000          44.000
 116241075.13547  90577454.85047  22119945.2924   22119948.4664   22119944.6254
        51.000          45.000
 123662823.23147  96360630.53747  23532260.1414   23532265.7354   23532261.2424
        46.000          39.000
 126702236.79847  98728987.38947  24110656.7464   24110663.9464   24110656.2794
        43.000          37.000
 121480855.79147  94660405.95247  23117038.8744   23117041.8764   23117039.2544
        49.000          41.000
 120725516.14547  94071808.09347  22973319.6944   22973324.8064   22973319.5384
        48.000          42.000
 104834817.58147  81689454.13847  19949413.1104   19949415.7944   19949413.4724
        54.000          50.000
 117266381.81547  91376377.82847  22315066.3354   22315072.4834   22315066.3414
        49.000          43.000
 123122970.09647  95939956.43647  23429539.3074   23429542.8244   23429539.0664
        44.000          39.000
 128362812.64247 100022942.04147  24426653.4484   24426658.6814   24426653.1894
        44.000          39.000
 123305066.37747  96081852.90747  23464185.6124   23464190.4114   23464185.2914
        46.000          41.000
 124862733.49847  97295633.35147  23760590.2794   23760591.8814   23760590.5634
        46.000          40.000
 09  1 17  0 37 30.0000000  0 12G14G31G 5G 6G18G30G21G24G 9G12G29G22
 116868320.04447  91066215.10047  22239307.5914   22239311.4074   22239307.8364
        50.000          44.000
 116151970.24547  90508022.54747  22102988.9894   22102992.1854   22102988.5634
        51.000          45.000
 123654754.31347  96354343.10347  23530724.1674   23530730.6274   23530724.4874
        45.000          39.000
 126673120.26247  98706299.22047  24105116.4404   24105122.6054   24105116.9634
        43.000          38.000
 121446003.74147  94633248.51247  23110406.4704   23110409.6144   23110406.8624
        48.000          41.000
 120698063.06347  94050416.11547  22968095.6294   22968100.4124   22968095.0834
        48.000          42.000
 104830687.04847  81686235.57247  19948627.1544   19948629.7364   19948627.5384
        54.000          50.000
 117333626.94247  91428776.62747  22327862.9214   22327868.5864   22327863.0444
        50.000          43.000
 123218730.79247  96014575.22247  23447761.6904   23447765.7844   23447761.2784
        44.000          39.000
 128369100.89347 100027842.05847  24427849.8144   24427855.7204   24427849.7414
        43.000          39.000
 123377065.50447  96137956.13347  23477886.5684   23477891.4524   23477885.8954
        45.000          41.000
 124824490.39847  97265833.56847  23753313.7144   23753314.2054   23753313.7814
        46.000          40.000
 09  1 17  0 38  0.0000000  0 12G14G31G 5G 6G18G30G21G24G 9G12G29G22
 116900722.72847  91091464.00747  22245473.6194   22245477.2144   22245473.7104
        50.000          44.000
 116063158.48147  90438818.65647  22086088.7244   22086091.7014   22086088.4794
        51.000          45.000
 123646845.39647  96348180.34347  23529219.3674   23529225.4814   23529220.0344
        45.000          40.000
 126644280.33447  98683826.60847  24099627.3184   24099634.8834   24099627.1534
        43.000          38.000
 121411047.05947  94606009.54347  23103754.4114   23103757.7904   23103754.9794
        48.000          41.000
 120670617.54447  94029030.03147  22962872.6474   22962877.8254   22962872.5264
        48.000          42.000
 104827166.76747  81683492.52847  19947957.1554   19947959.9704   19947957.5624
        54.000          50.000
 117401260.32747  91481477.97347  22340733.4314   22340738.8974   22340733.5514
        50.000          43.000
 123314784.51847  96089422.34947  23466039.9614   23466044.2344   23466040.0364
        45.000          39.000
 128375533.78647 100032854.76747  24429074.0954   24429079.9834   24429073.4984
        44.000          39.000
 123448944.70047  96193965.89847  23491564.9324   23491570.0444   23491564.0934
        45.000          41.000
 124786033.49047  97235867.17347  23745995.1714   23745996.1494   23745995.8154
        45.000          40.000
 09  1 17  0 38 30.0000000  0 12G14G31G 5G 6G18G30G21G24G 9G12G29G22
 116933340.30447  91116880.35947  22251680.3484   22251684.3394   22251680.5034
        50.000          44.000
 115974645.84847  90369847.84447  22069245.4344   22069248.3604   22069244.9264
        51.000          45.000
 123639101.91447  96342146.47347  23527746.0214   23527751.8314   23527746.5894
        46.000          40.000
 126615719.41647  98661571.38247  24094192.9064   24094199.8824   24094193.1784
        44.000          38.000
 121375990.32647  94578692.60147  23097083.5074   23097086.1884   23097083.9604
        49.000          41.000
 120643184.94347  94007654.00647  22957652.4924   22957657.1804   22957652.0204
        48.000          42.000
 104824260.04547  81681227.58347  19947404.0874   19947406.8354   19947404.4734
        54.000          50.000
 117469283.11147  91534482.73747  22353677.8114   22353683.4104   22353677.9744
        50.000          43.000
 123411131.52647  96164498.01247  23484374.1164   23484377.8374   23484374.2554
        45.000          39.000
 128382116.27047 100037984.04047  24430326.1854   24430331.4414   24430326.1884
        44.000          38.000
 123520705.07547  96249883.07947  23505220.3894   23505225.4384   23505219.8954
        45.000          41.000
 124747366.96047  97205737.43847  23738637.1584   23738638.4784   23738637.3284
        45.000          40.000
 09  1 17  0 39  0.0000000  0 12G14G31G 5G 6G18G30G21G24G 9G12G29G22
 116966167.62447  91142460.14147  22257927.1384   22257931.1414   22257927.4444
        50.000          44.000
 115886431.97247  90301109.83247  22052458.8274   22052461.7404   22052458.3404
        51.000          46.000
 123631522.93347  96336240.81447  23526303.5264   23526309.3574   23526304.1184
        45.000          40.000
 126587433.60847  98639530.53747  24088809.9564   24088817.2154   24088809.9824
        43.000          38.000
 121340832.68647  94551297.03547  23090393.1474   23090396.0534   23090393.6584
        48.000          41.000
 120615764.57247  93986287.51747  22952435.0124   22952439.4484   22952434.6574
        49.000          42.000
 104821964.39747  81679438.80047  19946967.2304   19946969.8634   19946967.5824
        54.000          50.000
 117537690.68047  91587787.33047  22366695.3924   22366700.6444   22366695.5434
        50.000          43.000
 123507766.13647  96239797.77847  23502763.3234   23502767.3534   23502763.0314
        45.000          39.000
 128388847.43347 100043229.13947  24431607.8764   24431612.2824   24431607.6924
        45.000          39.000
 123592342.33947  96305704.32147  23518852.4534   23518857.3164   23518852.4814
        46.000          41.000
 124708488.32347  97175442.42647  23731238.9404   23731240.0134   23731239.1634
        46.000          40.000
 09  1 17  0 39 30.0000000  0 12G14G31G 5G 6G18G30G21G24G 9G12G29G22
 116999202.78247  91168201.87047  22264213.6504   22264217.2014   22264213.9584
        50.000          44.000
 115798521.05347  90232607.88847  22035729.8374   22035732.7694   22035729.5604
        51.000          46.000
 123624111.26947  96330465.51247  23524893.4214   23524898.9194   23524893.7134
        46.000          40.000
 126559422.86347  98617704.01747  24083480.0694   24083486.7104   24083480.1084
        43.000          38.000
 121305576.38647  94523824.57647  23083684.3064   23083686.5634   23083684.3664
        47.000          41.000
 120588359.59047  93964933.01647  22947220.3164   22947224.3204   22947219.7944
        49.000          42.000
 104820281.47947  81678127.46647  19946646.8904   19946649.5234   19946647.2824
        54.000          50.000
 117606482.04447  91641390.99047  22379786.0974   22379791.1324   22379786.2414
        50.000          43.000
 123604686.78447  96315320.44947  23521206.6744   23521210.5074   23521206.6694
        46.000          39.000
 128395729.84947 100048592.11447  24432917.0844   24432922.6874   24432917.1024
        44.000          39.000
 123663855.33747  96361428.73347  23532460.7114   23532465.9034   23532460.9404
        45.000          40.000
 124669399.57647  97144983.68847  23723800.8454   23723801.3874   23723801.1364
        46.000          40.000
 09  1 17  0 40  0.0000000  0 12G14G31G 5G 6G18G30G21G24G 9G12G29G22
 117032444.85747  91194104.83947  22270539.0324   22270542.7364   22270539.4484
        50.000          44.000
 115710917.36347  90164345.33347  22019059.2304   22019062.3794   22019058.9294
        51.000          46.000
 123616870.55547  96324823.42447  23523515.0964   23523520.8684   23523515.7254
        45.000          40.000
 126531687.57047  98596092.15047  24078201.7384   24078209.1664   24078201.7204
        44.000          38.000
 121270224.80547  94496277.87047  23076956.8844   23076959.8724   23076957.4894
        48.000          41.000
 120560973.58947  93943593.30847  22942008.2574   22942012.9854   22942008.1084
        49.000          42.000
 104819213.19047  81677295.06647  19946443.4464   19946446.1074   19946443.7964
        54.000          49.000
 117675657.16647  91695293.67947  22392949.6944   22392954.7594   22392949.9254
        49.000          43.000
 123701892.05947  96391064.90547  23539704.1574   23539707.5924   23539704.4344
        45.000          39.000
 128402766.54147 100054075.29347  24434256.4984   24434261.3684   24434256.4354
        44.000          39.000
 123735243.98347  96417056.25147  23546045.4404   23546050.7584   23546045.2164
        45.000          40.000
 124630102.17247  97114362.36747  23716322.2714   23716323.6404   23716322.2434
        46.000          40.000
 09  1 17  0 40 30.0000000  0 12G14G31G 5G 6G18G30G21G24G 9G12G29G22
 117065889.68747  91220165.78347  22276903.5664   22276907.0824   22276903.8824
        50.000          44.000
 115623622.09947  90096323.11247  22002447.4214   22002450.7024   22002446.8354
        51.000          46.000
 123609801.49847  96319315.08547  23522170.2284   23522176.2464   23522170.7304
        45.000          40.000
 126504225.53047  98574693.19347  24072976.7104   24072983.2684   24072976.7394
        44.000          38.000
 121234778.27947  94468657.19347  23070211.3784   23070214.5554   23070211.7054
        48.000          41.000
 120533607.04147  93922268.74847  22936800.6224   22936805.3454   22936800.3394
        49.000          42.000
 104818758.77047  81676941.00147  19946356.9944   19946359.6064   19946357.4084
        54.000          49.000
 117745212.63647  91749492.74047  22406185.1014   22406190.9244   22406185.2004
        49.000          43.000
 123799377.69947  96467027.80847  23558255.2284   23558258.8884   23558255.0874
        45.000          39.000
 128409958.29947 100059679.30847  24435624.5424   24435629.7364   24435624.5124
        45.000          39.000
 123806505.43547  96472584.65847  23559606.2074   23559611.1174   23559605.9494
        45.000          40.000
 124590595.08347  97083577.65447  23708804.5084   23708805.7264   23708804.3644
        46.000          40.000
 09  1 17  0 41  0.0000000  0 12G14G31G 5G 6G18G30G21G24G 9G12G29G22
 117099534.62447  91246382.65547  22283306.0704   22283309.6204   22283306.2994
        49.000          44.000
 115536638.04147  90028543.39747  21985894.9424   21985898.2244   21985894.3084
        51.000          46.000
 123602906.16647  96313942.10847  23520858.0254   23520864.2054   23520858.0934
        45.000          40.000
 126477035.62247  98553506.30247  24067802.0864   24067809.2004   24067801.9034
        44.000          38.000
 121199238.35047  94440963.73047  23063448.2654   23063451.3164   23063448.6194
        48.000          41.000
 120506262.15747  93900961.08047  22931597.0534   22931601.3614   22931596.6744
        49.000          42.000
 104818918.51647  81677065.50547  19946387.5244   19946389.9604   19946387.8764
        54.000          50.000
 117815146.40847  91803986.59347  22419493.0264   22419498.6534   22419493.2824
        49.000          43.000
 123897140.81347  96543206.93647  23576858.8094   23576862.2004   23576858.7404
        44.000          38.000
 128417306.57647 100065405.28047  24437023.4554   24437028.7044   24437022.9954
        44.000          39.000
 123877637.60747  96528012.32447  23573142.6154   23573147.1884   23573142.2174
        46.000          41.000
 124550879.56947  97052630.52247  23701246.7084   23701247.9404   23701247.0174
        47.000          40.000
 09  1 17  0 41 30.0000000  0 12G14G31G 5G 6G18G30G21G24G 9G12G29G22
 117133377.88347  91272754.05547  22289746.2094   22289749.6674   22289746.5804
        50.000          44.000
 115449969.11947  89961009.23747  21969402.2214   21969405.5474   21969401.7384
        51.000          46.000
 123596187.43647  96308706.74847  23519579.3464   23519585.6034   23519580.0364
        46.000          40.000
 126450117.75847  98532531.38547  24062679.6254   24062686.6714   24062679.6094
        44.000          38.000
 121163608.02347  94413199.82647  23056668.4634   23056671.1494   23056668.7584
        47.000          41.000
 120478942.38147  93879672.96847  22926398.4764   22926402.9364   22926398.3394
        49.000          42.000
 104819693.80547  81677669.65147  19946535.0374   19946537.5984   19946535.4834
        54.000          50.000
 117885457.48247  91858774.43447  22432872.9214   22432878.4764   22432873.2064
        49.000          43.000
 123995179.70347  96619600.94947  23595514.2944   23595518.1164   23595514.4814
        44.000          38.000
 128424814.21147 100071255.42547  24438452.0424   24438457.2744   24438451.6924
        44.000          39.000
 123948639.94447  96583338.84047  23586654.0014   23586658.4244   23586653.5674
        46.000          41.000
 124510957.05747  97021522.09747  23693650.0784   23693650.9694   23693650.0024
        47.000          40.000
 09  1 17  0 42  0.0000000  0 12G14G31G 5G 6G18G30G21G24G 9G12G29G22
 117167415.97347  91299277.26947  22296223.3344   22296227.0024   22296223.4884
        49.000          44.000
 115363617.13047  89893722.03847  21952970.1844   21952973.1424   21952969.8184
        52.000          46.000
 123589646.74147  96303610.09347  23518334.6844   23518341.0204   23518335.1654
        45.000          40.000
 126423470.24047  98511767.12347  24057608.6764   24057615.6364   24057608.6504
        43.000          38.000
 121127887.88347  94385365.93347  23049871.2344   23049874.2574   23049871.3124
        47.000          41.000
 120451648.73147  93858405.21847  22921204.3394   22921208.9494   22921203.8584
        49.000          42.000
 104821084.11047  81678753.03047  19946799.6884   19946802.0854   19946800.0194
        54.000          50.000
 117956143.43847  91913854.40447  22446324.0784   22446329.8124   22446323.9404
        49.000          43.000
 124093490.51547  96696206.84047  23614222.1314   23614226.2164   23614222.3534
        44.000          39.000
 128432482.26547 100077230.56947  24439910.1884   24439916.2404   24439909.8424
        43.000          39.000
 124019510.11447  96638562.34747  23600140.3174   23600144.6254   23600139.8154
        46.000          41.000
 124470827.78147  96990252.54847  23686013.6754   23686014.5814   23686013.4274
        47.000          40.000
 09  1 17  0 42 30.0000000  0 12G14G31G 5G 6G18G30G21G24G 9G12G29G22
 117201646.15347  91325950.16547  22302736.9704   22302740.8294   22302737.1254
        49.000          44.000
 115277584.97947  89826684.06647  21936598.9814   21936601.6654   21936598.9494
        51.000          46.000
 123583285.60647  96298653.36347  23517124.4004   23517130.0604   23517124.5284
        45.000          40.000
 126397091.54647  98491212.32147  24052588.9514   24052595.7884   24052589.2594
        43.000          38.000
 121092079.30647  94357463.14647  23043057.0834   23043059.8464   23043057.5774
        48.000          41.000
 120424383.13447  93837159.32147  22916015.6914   22916020.7464   22916015.2344
        49.000          42.000
 104823089.59447  81680315.77347  19947181.1804   19947183.6464   19947181.6084
        54.000          50.000
 118027201.84447  91969224.58847  22459845.8774   22459851.7764   22459846.1214
        49.000          43.000
 124192070.19047  96773022.24747  23632981.8524   23632985.3864   23632981.7244
        44.000          39.000
 128440312.01747 100083331.73447  24441400.2374   24441406.2004   24441400.1274
        44.000          39.000
 124090245.73047  96693681.03047  23613600.7574   23613605.0544   23613600.3764
        46.000          40.000
 124430491.81547  96958821.93847  23678338.0974   23678338.6714   23678338.4734
        47.000          40.000
 09  1 17  0 43  0.0000000  0 12G14G31G 5G 6G18G30G21G24G 9G12G29G22
 117236067.15247  91352771.75347  22309287.1154   22309290.8664   22309287.3864
        50.000          44.000
 115191876.43347  89759898.25147  21920289.3514   21920291.9754   21920288.7384
        52.000          46.000
 123577107.41647  96293839.18547  23515948.3914   23515954.8274   23515949.0714
        45.000          40.000
 126370981.97747  98470867.24447  24047620.9474   24047627.4034   24047621.1134
        43.000          38.000
 121056185.39047  94329493.85747  23036226.9514   23036229.5194   23036227.1744
        48.000          41.000
 120397148.87247  93815937.84547  22910833.3054   22910838.0714   22910832.8374
        49.000          42.000
 104825711.73247  81682359.02847  19947680.1404   19947682.5894   19947680.4934
        54.000          50.000
 118098632.17947  92024884.59547  22473438.5564   22473444.5304   22473438.4984
        49.000          43.000
 124290917.08747  96850045.88147  23651791.7174   23651795.3144   23651791.5884
        44.000          39.000
 128448306.27447 100089561.06247  24442922.2604   24442927.0024   24442922.0514
        44.000          39.000
 124160846.77147  96748694.84047  23627035.8974   23627039.9984   23627035.5594
        46.000          40.000
 124389951.06447  96927231.75947  23670623.2324   23670624.0444   23670623.2384
        47.000          40.000
 09  1 17  0 43 30.0000000  0 12G14G31G 5G 6G18G30G21G24G 9G12G29G22
 117270676.92847  91379740.44947  22315872.9154   22315876.8334   22315873.0824
        49.000          44.000
 115106495.37447  89693367.62547  21904041.7554   21904044.4834   21904041.3214
        52.000          46.000
 123571114.93147  96289169.70347  23514808.1444   23514814.2574   23514808.4604
        45.000          40.000
 126345141.23947  98450731.65647  24042703.2594   24042710.0834   24042703.3064
        43.000          38.000
 121020208.83147  94301460.16947  23029380.5874   23029383.3074   23029380.7984
        47.000          41.000
 120369948.86647  93794743.04847  22905657.4784   22905661.8514   22905657.0074
        50.000          42.000
 104828951.77947  81684883.76647  19948296.6234   19948299.2074   19948296.8834
        54.000          50.000
 118170433.28247  92080833.50447  22487101.9274   22487107.7024   22487102.1844
        49.000          43.000
 124390029.45647  96927276.39047  23670651.6324   23670655.2024   23670651.7664
        44.000          39.000
 128456468.05447 100095920.93247  24444474.9044   24444480.3254   24444475.1244
        44.000          39.000
 124231311.98647  96803602.82047  23640444.9204   23640448.8434   23640444.9974
        46.000          40.000
 124349206.86447  96895483.05447  23662869.9864   23662870.9404   23662869.6994
        47.000          40.000
 09  1 17  0 44  0.0000000  0 12G14G31G 5G 6G18G30G21G24G 9G12G29G22
 117305470.55147  91406852.40647  22322493.9594   22322497.8374   22322494.0194
        49.000          44.000
 115021442.31947  89627092.59247  21887856.4054   21887859.1774   21887856.3044
        52.000          46.000
 123565308.24747  96284645.01347  23513703.3934   23513709.2334   23513703.6334
        46.000          40.000
 126319566.23847  98430803.12747  24037836.6454   24037843.2964   24037836.4564
        43.000          38.000
 120984149.45047  94273361.96147  23022518.5574   23022521.4484   23022519.0734
        48.000          41.000
 120342783.57147  93773575.30447  22900488.0714   22900492.7394   22900487.5384
        49.000          42.000
 104832807.58547  81687888.31747  19949030.4344   19949032.8854   19949030.9084
        54.000          50.000
 118242601.04347  92137068.12047  22500834.9444   22500841.1734   22500835.1834
        49.000          43.000
 124489402.16047  97004709.75547  23689561.5854   23689565.2204   23689561.3944
        44.000          38.000
 128464796.93647 100102411.00747  24446060.4154   24446065.3744   24446060.0534
        44.000          39.000
 124301637.88547  96858402.23247  23653827.1804   23653831.7454   23653827.1154
        45.000          40.000
 124308258.02447  96863574.86947  23655077.3714   23655078.5234   23655077.6184
        47.000          40.000
 09  1 17  0 44 30.0000000  0 12G14G31G 5G 6G18G30G21G24G 9G12G29G22
 117340447.06147  91434106.87447  22329149.8114   22329153.5184   22329150.0524
        49.000          44.000
 114936721.69247  89561076.57847  21871734.4134   21871737.2954   21871733.7464
        52.000          46.000
 123559690.89147  96280267.83947  23512634.7804   23512640.4904   23512635.2604
        46.000          40.000
 126294257.51147  98411082.09347  24033020.2674   24033027.5884   24033020.0924
        43.000          38.000
 120948010.59947  94245201.81347  23015641.5704   23015644.4514   23015641.8884
        47.000          41.000
 120315656.55047  93752437.39147  22895325.8024   22895330.2504   22895325.4394
        49.000          42.000
 104837281.18947  81691374.26647  19949881.8054   19949884.0884   19949882.1684
        54.000          50.000
 118315135.13847  92193588.19447  22514637.7964   22514644.0394   22514637.7924
        49.000          43.000
 124589033.87347  97082344.93247  23708520.5384   23708524.5444   23708520.7484
        44.000          38.000
 128473295.95347 100109033.66247  24447677.3854   24447682.4624   24447676.9364
        45.000          39.000
 124371824.73547  96913093.30647  23667182.9584   23667187.9144   23667182.6434
        44.000          40.000
 124267106.60347  96831508.82247  23647246.7914   23647247.0414   23647246.5244
        46.000          39.000
 09  1 17  0 45  0.0000000  0 12G14G31G 5G 6G18G30G21G24G 9G12G29G22
 117375603.66947  91461501.67447  22335839.9084   22335843.5794   22335840.0084
        49.000          44.000
 114852335.66047  89495321.29347  21855676.1774   21855679.2194   21855675.6824
        52.000          46.000
 123554264.33847  96276039.33647  23511602.5704   23511607.9624   23511602.6964
        46.000          40.000
 126269213.42547  98391567.26947  24028254.7364   24028261.4274   24028254.8244
        43.000          38.000
 120911793.56447  94216980.75547  23008749.7634   23008752.5244   23008750.2244
        48.000          41.000
 120288569.46947  93731330.60147  22890171.4834   22890175.6164   22890171.0854
        49.000          42.000
 104842372.06147  81695341.20447  19950850.4874   19950852.8784   19950850.9074
        54.000          50.000
 118388033.11647  92250391.80747  22528510.0304   22528515.7624   22528510.1854
        49.000          42.000
 124688921.20147  97160179.28247  23727528.1484   23727532.7564   23727528.5024
        44.000          38.000
 128481966.11947 100115789.70647  24449327.4974   24449332.3934   24449327.1094
        44.000          39.000
 124441869.87347  96967673.94247  23680512.3004   23680517.3764   23680511.6954
        45.000          40.000
 124225753.16647  96799285.38647  23639377.6174   23639377.9094   23639377.6834
        47.000          40.000
 09  1 17  0 45 30.0000000  0 12G14G31G 5G 6G18G30G21G24G 9G12G29G22
 117410936.49547  91489033.80647  22342563.4174   22342566.9484   22342563.6874
        49.000          43.000
 114768286.37947  89429828.40947  21839681.9884   21839685.2034   21839681.4494
        51.000          46.000
 123549029.73947  96271960.41247  23510606.1404   23510611.6874   23510606.7234
        46.000          40.000
 126244431.84047  98372256.99947  24023539.0464   24023545.2854   24023538.9394
        43.000          38.000
 120875499.07747  94188699.33847  23001843.0084   23001845.8454   23001843.5554
        48.000          41.000
 120261523.81647  93710256.09747  22885024.8234   22885028.9644   22885024.6274
        49.000          42.000
 104848079.70447  81699788.74547  19951936.5294   19951939.1294   19951936.8994
        54.000          50.000
 118461292.09047  92307476.71847  22542450.6134   22542456.4154   22542450.4884
        49.000          42.000
 124789060.66747  97238210.12047  23746584.3384   23746588.2894   23746584.3274
        44.000          38.000
 128490808.65247 100122680.02547  24451010.1094   24451015.3364   24451009.8304
        44.000          39.000
 124511771.22547  97022142.55247  23693814.3104   23693818.8394   23693813.5234
        44.000          40.000
 124184197.55947  96766904.40747  23631470.1314   23631470.1784   23631470.0664
        47.000          40.000
 09  1 17  0 46  0.0000000  0 12G14G31G 5G 6G18G30G21G24G 9G12G29G22
 117446444.92447  91516702.77947  22349320.4044   22349324.0314   22349320.6564
        49.000          44.000
 114684578.35947  89364601.44747  21823752.6914   21823756.1724   21823752.0974
        52.000          46.000
 123543990.98247  96268034.08847  23509647.1354   23509652.5584   23509647.8524
        46.000          40.000
 126219913.75147  98353152.06847  24018873.3174   24018880.0874   24018873.3724
        44.000          38.000
 120839130.92347  94160360.51847  22994922.6274   22994925.0944   22994923.0304
        48.000          41.000
 120234523.45247  93689216.87647  22879886.8364   22879891.0314   22879886.4114
        49.000          42.000
 104854406.03547  81704718.37947  19953140.4074   19953142.8964   19953140.7724
        54.000          50.000
 118534911.86247  92364842.76847  22556460.3544   22556465.5584   22556460.6104
        48.000          42.000
 124889451.18547  97316436.57847  23765688.0564   23765691.7864   23765687.9074
        44.000          38.000
 128499827.09147 100129707.42147  24452725.6094   24452730.5994   24452725.2004
        43.000          38.000
 124581528.91247  97076499.21047  23707088.0844   23707093.4754   23707087.8574
        44.000          40.000
 124142442.25647  96734367.82347  23623523.8924   23623524.8244   23623523.9214
        46.000          40.000
 09  1 17  0 46 30.0000000  0 12G14G31G 5G 6G18G30G21G24G 9G12G29G22
 117482124.54147  91544505.14247  22356110.0484   22356113.5414   22356110.3314
        49.000          44.000
 114601212.87247  89299641.39347  21807888.9044   21807892.0944   21807888.4104
        52.000          46.000
 123539148.62347  96264260.82747  23508725.5164   23508731.4624   23508726.0884
        45.000          40.000
 126195656.44047  98334250.33947  24014256.5634   24014263.9424   24014257.1234
        43.000          38.000
 120802689.51647  94131964.61447  22987987.8994   22987990.6524   22987988.5984
        48.000          41.000
 120207569.20047  93668213.58647  22874757.3274   22874761.9444   22874756.9014
        48.000          42.000
 104861349.61047  81710128.98647  19954461.7484   19954464.1304   19954462.1854
        54.000          50.000
 118608888.94447  92422487.24647  22570537.5744   22570543.0204   22570537.5754
        49.000          42.000
 124990088.50947  97394855.35547  23784838.6254   23784842.6574   23784838.7124
        45.000          38.000
 128509021.88347 100136872.25847  24454475.3864   24454480.9554   24454475.0034
        44.000          39.000
 124651139.87647  97130741.54047  23720334.8504   23720339.8714   23720334.4884
        45.000          40.000
 124100486.32847  96701674.88147  23615539.8704   23615541.1394   23615539.6834
        47.000          40.000
 09  1 17  0 47  0.0000000  0 12G14G31G 5G 6G18G30G21G24G 9G12G29G22
 117517974.06547  91572439.90447  22362932.0934   22362935.4814   22362932.2184
        49.000          44.000
 114518193.42347  89234950.97347  21792090.9604   21792093.8364   21792090.6044
        52.000          46.000
 123534505.55747  96260642.84047  23507842.2414   23507847.4244   23507842.4564
        46.000          40.000
 126171659.64447  98315551.58847  24009690.3404   24009697.3984   24009690.2844
        44.000          38.000
 120766177.80847  94103513.93347  22981040.0034   22981042.5654   22981040.3454
        49.000          41.000
 120180664.21047  93647248.68647  22869637.4304   22869642.0874   22869637.3654
        48.000          42.000
 104868911.26747  81716021.20947  19955900.6104   19955902.9104   19955901.0714
        54.000          49.000
 118683222.47747  92480409.47647  22584682.4964   22584687.7214   22584682.7754
        48.000          42.000
 125090970.20147  97473464.55747  23804035.9914   23804039.7854   23804036.0534
        44.000          38.000
 128518395.26047 100144176.23447  24456258.9884   24456264.2994   24456258.2944
        44.000          38.000
 124720603.67347  97184869.19347  23733553.4114   23733558.3104   23733553.4094
        45.000          40.000
 124058332.23447  96668827.54147  23607517.9894   23607519.0164   23607518.3544
        47.000          40.000
 09  1 17  0 47 30.0000000  0 12G14G31G 5G 6G18G30G21G24G 9G12G29G22
 117553989.86847  91600504.24047  22369785.2664   22369789.0784   22369785.7764
        49.000          43.000
 114435522.54147  89170532.18347  21776359.0894   21776362.0394   21776358.7924
        52.000          46.000
 123530063.43247  96257181.45347  23506996.5164   23507002.5684   23506997.2174
        46.000          39.000
 126147921.81347  98297054.63747  24005173.4854   24005179.9804   24005173.6094
        43.000          38.000
 120729596.95547  94075009.37847  22974079.1314   22974081.7294   22974079.3164
        48.000          41.000
 120153810.21147  93626323.52247  22864527.2484   22864531.6494   22864526.9344
        49.000          42.000
 104877090.49047  81722394.65647  19957456.9624   19957459.4324   19957457.3084
        54.000          50.000
 118757909.92347  92538607.48247  22598895.3084   22598900.4784   22598895.4614
        49.000          42.000
 125192093.32447  97552261.90547  23823279.0424   23823282.2764   23823279.1424
        44.000          37.000
 128527948.64347 100151620.47947  24458077.5924   24458082.3604   24458077.3604
        44.000          39.000
 124789918.39447  97238880.68547  23746743.5094   23746748.5554   23746743.2364
        45.000          40.000
 124015979.98747  96635825.78547  23599458.7254   23599460.0954   23599458.9644
        47.000          40.000
 09  1 17  0 48  0.0000000  0 12G14G31G 5G 6G18G30G21G24G 9G12G29G22
 117590170.62647  91628697.10947  22376670.2074   22376673.7504   22376670.2894
        49.000          44.000
 114353203.66447  89106387.67447  21760694.2934   21760696.9584   21760693.9894
        52.000          46.000
 123525825.01147  96253878.79547  23506189.8694   23506196.3374   23506190.2844
        46.000          39.000
 126124442.49747  98278759.12947  24000705.5354   24000712.0774   24000705.2284
        44.000          38.000
 120692949.76047  94046453.12747  22967105.3544   22967108.0894   22967105.7374
        49.000          42.000
 120127010.28847  93605440.48747  22859427.5184   22859431.8004   22859427.3854
        48.000          42.000
 104885888.50647  81729250.27547  19959131.2264   19959133.7334   19959131.6354
        54.000          50.000
 118832950.01147  92597080.27747  22613174.8674   22613180.1364   22613174.8764
        48.000          42.000
 125293455.75947  97631245.73947  23842567.6054   23842570.8714   23842567.2024
        44.000          37.000
 128537684.68947 100159207.06247  24459929.4634   24459935.3344   24459929.5944
        44.000          39.000
 124859082.98147  97292775.19547  23759905.4034   23759909.8734   23759904.7334
        45.000          40.000
 123973430.98847  96602670.73347  23591361.8764   23591362.5004   23591361.9444
        47.000          40.000
 09  1 17  0 48 30.0000000  0 12G14G31G 5G 6G18G30G21G24G 9G12G29G22
 117626513.16947  91657016.04947  22383586.1524   22383589.5414   22383586.3204
        49.000          44.000
 114271239.42147  89042519.49647  21745097.1494   21745099.4984   21745096.6234
        52.000          46.000
 123521791.83747  96250736.08347  23505422.2554   23505428.4094   23505422.9904
        45.000          39.000
 126101220.31647  98260663.98147  23996286.5464   23996292.9534   23996286.6274
        44.000          38.000
 120656237.24847  94017845.98747  22960119.2014   22960121.8904   22960119.5524
        49.000          42.000
 120100265.77847  93584600.63647  22854338.1094   22854342.1934   22854337.6184
        49.000          42.000
 104895304.90347  81736587.74947  19960922.9924   19960925.6224   19960923.4734
        54.000          49.000
 118908340.33447  92655825.97747  22627521.0544   22627526.6834   22627521.2214
        48.000          42.000
 125395054.30847  97710413.53847  23861901.1324   23861904.8544   23861900.8374
        44.000          37.000
 128547604.44647 100166936.78847  24461817.7454   24461822.5584   24461817.3884
        43.000          39.000
 124928095.78247  97346551.42547  23773037.8284   23773042.5794   23773037.8384
        45.000          40.000
 123930686.19547  96569363.09747  23583227.9884   23583228.6144   23583227.8324
        47.000          40.000
 09  1 17  0 49  0.0000000  0 12G14G31G 5G 6G18G30G21G24G 9G12G29G22
 117663013.78047  91685458.15547  22390531.5524   22390535.3924   22390531.8914
        49.000          44.000
 114189631.32847  88978928.83947  21729567.3804   21729570.0854   21729567.2204
        52.000          46.000
 123517965.03247  96247754.16647  23504694.2734   23504700.2924   23504694.5134
        45.000          39.000
 126078253.06847  98242767.46647  23991916.0424   23991922.3854   23991916.0744
        44.000          38.000
 120619461.12147  93989189.28047  22953121.0004   22953123.6414   22953121.4084
        49.000          42.000
 120073578.41047  93563805.30347  22849259.8754   22849264.1604   22849259.6684
        49.000          42.000
 104905338.42247  81744406.09747  19962832.3094   19962834.8394   19962832.7014
        54.000          49.000
 118984077.81047  92714842.18847  22641933.3374   22641938.9944   22641933.7334
        48.000          42.000
 125496885.21147  97789762.40747  23881278.4184   23881282.2794   23881278.7054
        43.000          37.000
 128557708.73947 100174810.32447  24463740.7694   24463745.6324   24463740.8374
        44.000          39.000
 124996954.36947  97400207.50047  23786141.4144   23786145.6824   23786141.4214
        45.000          40.000
 123887745.32347  96535902.67147  23575056.5824   23575057.5654   23575056.6874
        47.000          40.000
 09  1 17  0 49 30.0000000  0 12G14G31G 5G 6G18G30G21G24G 9G12G29G22
 117699670.65947  91714022.03347  22397507.4514   22397510.6134   22397507.6194
        50.000          43.000
 114108383.40347  88915618.83647  21714106.1664   21714108.9594   21714105.7154
        52.000          46.000
 123514347.43547  96244935.28947  23504005.9244   23504011.7634   23504006.3694
        46.000          40.000
 126055540.43947  98225069.37347  23987593.7874   23987600.4194   23987593.6114
        43.000          38.000
 120582623.85347  93960484.92147  22946110.7614   22946113.4954   22946111.1974
        49.000          42.000
 120046951.52147  93543057.09347  22844193.3224   22844197.0614   22844192.8834
        50.000          43.000
 104915990.00947  81752706.05147  19964859.2514   19964861.6864   19964859.6754
        54.000          49.000
 119060161.17547  92774127.92347  22656411.4694   22656417.3914   22656411.5694
        48.000          42.000
 125598946.45647  97869290.74747  23900699.9194   23900703.5284   23900699.9364
        43.000          37.000
 128567999.97647 100182829.51747  24465698.4314   24465703.5754   24465698.3244
        44.000          39.000
 125065658.08547  97453742.89347  23799215.0944   23799219.2164   23799214.8864
        46.000          40.000
 123844610.00547  96502290.72647  23566848.2814   23566849.2784   23566848.1884
        47.000          40.000
 09  1 17  0 50  0.0000000  0 12G14G31G 5G 6G18G30G21G24G 9G12G29G22
 117736482.38847  91742706.56747  22404512.5784   22404515.9654   22404513.0984
        49.000          43.000
 114027499.04247  88852592.13047  21698714.4834   21698717.2824   21698714.0294
        52.000          47.000
 123510942.18547  96242281.89647  23503357.9854   23503363.9974   23503358.3884
        46.000          40.000
 126033082.35147  98207569.61247  23983319.5284   23983326.1834   23983319.8574
        43.000          37.000
 120545728.48847  93931735.29547  22939090.0294   22939092.6674   22939090.5784
        49.000          42.000
 120020388.40047  93522358.55747  22839138.1554   22839142.2074   22839138.0084
        49.000          43.000
 104927260.80747  81761488.51347  19967004.1254   19967006.4184   19967004.4584
        54.000          49.000
 119136589.60447  92833682.53947  22670955.2274   22670961.2564   22670955.3014
        48.000          42.000
 125701236.51447  97948997.38347  23920164.9984   23920168.3864   23920165.2474
        43.000          37.000
 128578481.33447 100190996.89647  24467693.1274   24467698.3094   24467693.3914
        44.000          39.000
 125134206.65547  97507157.38847  23812259.6594   23812263.6794   23812259.4914
        45.000          40.000
 123801282.52347  96468529.04947  23558603.4834   23558604.3214   23558603.6234
        47.000          40.000
 09  1 17  0 50 30.0000000  0 12G14G31G 5G 6G18G30G21G24G 9G12G29G22
 117773443.05147  91771507.15347  22411545.8614   22411549.1904   22411545.9404
        49.000          43.000
 113946977.56847  88789848.19047  21683391.7204   21683394.6404   21683391.4774
        52.000          47.000
 123507747.73447  96239792.77247  23502750.0264   23502755.8884   23502750.5354
        46.000          40.000
 126010874.15447  98190264.58447  23979093.0954   23979099.9584   23979093.5564
        43.000          37.000
 120508773.57947  93902939.27347  22932057.6444   22932060.2534   22932058.0744
        49.000          42.000
 119993887.56647  93501708.56347  22834095.0314   22834099.5054   22834095.1294
        49.000          42.000
 104939146.85047  81770750.38647  19969265.9134   19969268.0394   19969266.3714
        54.000          49.000
 119213357.53247  92893501.69347  22685563.7214   22685569.8854   22685563.9564
        48.000          42.000
 125803748.55647  98028876.97947  23939672.4884   23939675.8884   23939673.1024
        43.000          37.000
 128589150.95247 100199310.94847  24469723.0644   24469728.7894   24469723.2584
        42.000          38.000
 125202595.09747  97560447.09447  23825273.5904   23825277.9284   23825273.2184
        45.000          40.000
 123757759.91147  96434615.31347  23550321.0334   23550322.0774   23550320.9324
        47.000          40.000
 09  1 17  0 51  0.0000000  0 12G14G31G 5G 6G18G30G21G24G 9G12G29G22
 117810554.88347  91800425.52847  22418607.8604   22418611.3924   22418608.0194
        49.000          43.000
 113866826.78647  88727393.10047  21668139.5764   21668142.3144   21668138.9854
        52.000          47.000
 123504771.15247  96237473.41247  23502183.4454   23502189.4024   23502183.9864
        45.000          40.000
 125988919.69847  98173157.27347  23974915.5044   23974922.0034   23974915.8984
        42.000          38.000
 120471766.01247  93874102.22747  22925015.3404   22925017.9094   22925015.5044
        48.000          42.000
 119967456.47547  93481112.91247  22829065.3984   22829069.7554   22829065.1254
        49.000          42.000
 104951653.36847  81780495.73747  19971645.7804   19971648.2064   19971646.2074
        54.000          49.000
 119290467.80247  92953587.61047  22700237.1824   22700243.5114   22700237.3054
        48.000          42.000
 125906485.02547  98108931.44247  23959222.4644   23959225.5284   23959222.8714
        41.000          37.000
 128600015.31147 100207776.77247  24471789.9434   24471795.5984   24471789.4544
        43.000          38.000
 125270827.28547  97613615.05147  23838257.6474   23838261.8234   23838257.7114
        45.000          40.000
 123714048.45347  96400554.41247  23542003.1604   23542004.3954   23542003.3684
        47.000          40.000
 09  1 17  0 51 30.0000000  0 12G14G31G 5G 6G18G30G21G24G 9G12G29G22
 117847810.81547  91829456.19047  22425697.2484   22425700.6314   22425697.4414
        49.000          43.000
 113787045.04147  88665225.58047  21652957.5264   21652960.3454   21652957.3624
        52.000          47.000
 123502010.00047  96235321.92547  23501657.7414   23501663.9044   23501658.2454
        46.000          40.000
 125967213.26947  98156243.25247  23970785.1804   23970791.8504   23970785.1714
        44.000          38.000
 120434703.58847  93845222.44847  22917962.2434   22917965.1794   22917962.7374
        49.000          42.000
 119941093.05647  93460569.98447  22824048.7924   22824053.0384   22824048.4334
        49.000          42.000
 104964775.48947  81790720.78647  19974142.7664   19974145.1144   19974143.0914
        54.000          49.000
 119367914.13947  93013935.40747  22714975.3354   22714980.7384   22714975.7104
        48.000          42.000
 126009438.56247  98189155.06847  23978813.3614   23978817.1934   23978813.5514
        41.000          37.000
 128611071.63647 100216392.16047  24473894.4754   24473899.3094   24473894.0754
        44.000          39.000
 125338897.25347  97666656.60947  23851210.6554   23851214.8044   23851210.4964
        44.000          39.000
 123670144.69547  96366343.68947  23533648.5984   23533649.6714   23533648.7174
        47.000          40.000
 09  1 17  0 52  0.0000000  0 12G14G31G 5G 6G18G30G21G24G 9G12G29G22
 117885212.62247  91858600.51947  22432814.6644   22432817.9384   22432814.8304
        49.000          44.000
 113707639.47647  88603351.17947  21637846.9404   21637850.0004   21637846.4654
        52.000          47.000
 123499470.66147  96233343.27947  23501174.8234   23501180.4724   23501175.3514
        46.000          40.000
 125945758.16247  98139525.03647  23966702.7624   23966709.0264   23966702.8354
        44.000          38.000
 120397592.28947  93816304.57747  22910900.2274   22910903.1674   22910900.7364
        48.000          42.000
 119914803.88347  93440084.91447  22819045.9644   22819050.5044   22819045.3694
        49.000          42.000
 104978517.78347  81801429.08547  19976757.8064   19976760.1034   19976758.1994
        54.000          49.000
 119445698.40147  93074546.51547  22729777.2774   22729782.8224   22729777.3904
        48.000          42.000
 126112610.53947  98269548.89147  23998446.5654   23998449.9864   23998446.2574
        42.000          37.000
 128622326.06847 100225161.92647  24476035.9264   24476040.9364   24476035.8234
        44.000          38.000
 125406807.63147  97719573.81047  23864133.2284   23864137.7424   23864133.0764
        45.000          39.000
 123626053.85447  96331987.16047  23525258.5914   23525259.1964   23525258.5914
        47.000          40.000
 09  1 17  0 52 30.0000000  0 12G14G31G 5G 6G18G30G21G24G 9G12G29G22
 117922753.69047  91887853.35547  22439958.3564   22439961.7884   22439958.7534
        49.000          43.000
 113628608.57847  88541768.72947  21622807.8674   21622810.4364   21622807.7304
        53.000          47.000
 123497150.94047  96231535.74447  23500733.5494   23500738.9504   23500734.1544
        46.000          40.000
 125924549.10547  98122998.54947  23962666.3164   23962672.8824   23962666.5274
        43.000          38.000
 120360430.32247  93787347.21447  22903828.9994   22903831.5874   22903829.4354
        49.000          42.000
 119888587.24247  93419656.36647  22814056.9734   22814061.3034   22814056.3294
        49.000          42.000
 104992875.54047  81812616.96147  19979489.9494   19979492.4234   19979490.3394
        54.000          49.000
 119523814.68247  93135416.33647  22744642.3114   22744647.9074   22744642.2674
        48.000          42.000
 126215994.04847  98350107.54547  24018119.6494   24018123.0844   24018119.8624
        42.000          37.000
 128633776.49547 100234084.44747  24478214.5924   24478219.7994   24478214.5854
        43.000          38.000
 125474553.09147  97772362.50947  23877025.3344   23877029.3914   23877025.0764
        45.000          39.000
 123581772.50547  96297482.19547  23516832.0964   23516832.8714   23516831.9924
        47.000          40.000
 09  1 17  0 53  0.0000000  0 12G14G31G 5G 6G18G30G21G24G 9G12G29G22
 117960433.74847  91917214.49747  22447128.8974   22447131.9214   22447128.9784
        50.000          44.000
 113549957.62447  88480482.32747  21607841.0244   21607843.6274   21607840.3694
        53.000          47.000
 123495055.12147  96229902.67747  23500334.5604   23500339.9384   23500335.1084
        46.000          39.000
 125903587.00147  98106664.50747  23958677.3354   23958683.9964   23958677.4594
        42.000          38.000
 120323221.87247  93758353.65147  22896748.1864   22896750.8424   22896748.6974
        48.000          41.000
 119862447.50947  93399287.75647  22809082.7164   22809087.4054   22809082.5804
        49.000          43.000
 105007850.71747  81824285.94147  19982339.5794   19982342.1074   19982339.9824
        54.000          49.000
 119602263.30847  93196545.12747  22759570.7024   22759575.9584   22759571.0294
        49.000          42.000
 126319588.90747  98430830.89147  24037833.9364   24037836.8604   24037833.4354
        42.000          38.000
 128645426.57947 100243162.50747  24480431.7884   24480436.6124   24480431.4474
        44.000          39.000
 125542134.58347  97825023.43847  23889885.6724   23889889.4494   23889885.3204
        45.000          39.000
 123537304.33547  96262831.66147  23508370.2704   23508370.9114   23508370.5694
        47.000          40.000
 09  1 17  0 53 30.0000000  0 12G14G31G 5G 6G18G30G21G24G 9G12G29G22
 117998249.30847  91946681.21847  22454324.8244   22454328.1584   22454324.8224
        50.000          44.000
 113471688.40147  88419493.38147  21592946.8634   21592949.3454   21592946.5494
        53.000          47.000
 123493184.57547  96228445.17147  23499978.1254   23499983.9254   23499978.9074
        45.000          39.000
 125882870.10047  98090521.52847  23954735.2484   23954741.8384   23954734.6824
        42.000          37.000
 120285968.47447  93729325.06047  22889659.2784   22889661.7324   22889659.6354
        48.000          41.000
 119836386.53047  93378980.50547  22804123.1464   22804127.9454   22804122.8714
        49.000          42.000
 105023442.93447  81836435.73047  19985306.8934   19985309.1034   19985307.2094
        54.000          49.000
 119681041.37247  93257930.61947  22774561.8054   22774566.7174   22774561.8984
        49.000          42.000
 126423391.53047  98511716.12447  24057586.8974   24057589.3264   24057586.7044
        43.000          38.000
 128657277.19947 100252396.85247  24482686.2514   24482691.2294   24482686.1564
        43.000          38.000
 125609550.82047  97877555.57547  23902714.0244   23902718.6974   23902713.6954
        44.000          40.000
 123492649.92847  96228036.00847  23499872.6514   23499873.4114   23499872.7184
        47.000          40.000
 09  1 17  0 54  0.0000000  0 12G14G31G 5G 6G18G30G21G24G 9G12G29G22
 118036198.43447  91976252.02647  22461546.2354   22461549.5154   22461546.5454
        50.000          44.000
 113393804.10447  88358804.37147  21578126.0914   21578128.4594   21578125.7754
        53.000          47.000
 123491541.66147  96227165.01847  23499665.8114   23499671.4584   23499666.2474
        45.000          40.000
 125862397.60147  98074569.01347  23950838.5004   23950846.2304   23950838.5804
        42.000          37.000
 120248672.43447  93700263.22947  22882561.9264   22882564.4724   22882562.4444
        48.000          41.000
 119810407.01947  93358736.75947  22799180.2164   22799184.2834   22799179.9524
        49.000          43.000
 105039651.96847  81849066.15947  19988391.3654   19988393.4594   19988391.7564
        54.000          49.000
 119760147.06247  93319571.42147  22789614.8434   22789620.4264   22789615.0404
        49.000          42.000
 126527399.61247  98592761.46547  24077378.6284   24077381.8154   24077379.1504
        43.000          38.000
 128669330.67447 100261789.24547  24484980.0714   24484985.3914   24484979.5454
        43.000          38.000
 125676800.14847  97929957.66147  23915511.1304   23915516.0534   23915510.6594
        43.000          39.000
 123447810.38847  96193096.11747  23491339.9274   23491340.8224   23491339.6144
        47.000          40.000
 09  1 17  0 54 30.0000000  0 12G14G31G 5G 6G18G30G21G24G 9G12G29G22
 118074277.05847  92005923.73347  22468792.3114   22468795.4694   22468792.4454
        49.000          44.000
 113316305.73747  88298416.08447  21563378.5354   21563381.0044   21563378.0124
        52.000          47.000
 123490126.71647  96226062.51147  23499396.1544   23499402.3924   23499396.5614
        45.000          40.000
 125842166.43347  98058804.54247  23946988.9324   23946995.6604   23946989.0974
        42.000          37.000
 120211334.14347  93671168.49247  22875456.5684   22875459.1474   22875457.0404
        48.000          42.000
 119784509.69447  93338557.03647  22794251.8204   22794256.0474   22794251.1574
        49.000          43.000
 105056475.62547  81862175.51347  19991592.8074   19991595.0654   19991593.2234
        54.000          49.000
 119839576.88947  93381464.78547  22804729.9244   22804735.4034   22804730.3864
        48.000          42.000
 126631608.18647  98673963.03147  24097209.0574   24097211.8914   24097208.8684
        43.000          38.000
 128681586.99747 100271339.72547  24487312.4884   24487317.9424   24487312.2834
        43.000          39.000
 125743879.70647  97982227.45847  23928276.5264   23928280.3424   23928275.9874
        44.000          39.000
 123402785.02047  96158011.40647  23482771.7044   23482772.7834   23482771.6584
        47.000          40.000
 09  1 17  0 55  0.0000000  0 12G14G31G 5G 6G18G30G21G24G 9G12G29G22
 118112484.84447  92035696.08347  22476062.9584   22476066.3434   22476063.0014
        49.000          44.000
 113239198.54747  88238332.61347  21548705.2014   21548707.9514   21548704.8234
        52.000          47.000
 123488944.28147  96225141.15647  23499171.0484   23499177.0964   23499171.3904
        45.000          39.000
 125822178.08347  98043229.27747  23943184.9414   23943192.1424   23943185.1104
        42.000          37.000
 120173958.18447  93642044.38447  22868344.3424   22868346.8724   22868344.7294
        49.000          42.000
 119758699.30547  93318445.07547  22789340.3564   22789344.5274   22789340.4004
        49.000          43.000
 105073916.30747  81875765.67047  19994911.5514   19994913.8674   19994911.8744
        54.000          49.000
 119919331.20447  93443611.00647  22819906.5534   22819912.5484   22819906.6614
        48.000          42.000
 126736017.39847  98755320.94547  24117077.1324   24117080.4324   24117077.2734
        43.000          38.000
 128694050.18247 100281051.34647  24489684.3504   24489689.8164   24489684.0794
        44.000          39.000
 125810790.72347  98034365.92747  23941008.6314   23941013.0584   23941008.7564
        44.000          39.000
 123357577.85247  96122785.03147  23474169.2144   23474169.9574   23474169.5784
        46.000          40.000
 09  1 17  0 55 30.0000000  0 12G14G31G 5G 6G18G30G21G24G 9G12G29G22
 118150817.82147  92065565.99447  22483357.2944   22483360.4954   22483357.5754
        49.000          43.000
 113162483.95347  88178555.04747  21534106.8564   21534109.6884   21534106.0454
        53.000          47.000
 123487994.76447  96224401.31147  23498990.7094   23498996.1264   23498991.3914
        46.000          40.000
 125802429.64247  98027840.96247  23939427.2694   23939433.8424   23939427.1214
        42.000          37.000
 120136545.09347  93612891.35447  22861224.8154   22861227.2814   22861225.2344
        48.000          42.000
 119732976.67147  93298401.49247  22784445.5064   22784449.9934   22784444.9774
        49.000          42.000
 105091971.96647  81889835.02947  19998347.2514   19998349.7574   19998347.6764
        54.000          49.000
 119999406.24947  93506007.14947  22835144.4434   22835150.0014   22835144.6474
        48.000          42.000
 126840622.93347  98836831.83247  24136982.6714   24136986.1244   24136982.9604
        43.000          38.000
 128706720.34547 100290924.27347  24492095.6494   24492100.6224   24492095.3684
        44.000          39.000
 125877530.84447  98086371.23947  23953708.9864   23953713.1064   23953708.7734
        45.000          39.000
 123312188.15447  96087416.44147  23465531.7574   23465532.6524   23465531.8584
        47.000          41.000
 09  1 17  0 56  0.0000000  0 12G14G31G 5G 6G18G30G21G24G 9G12G29G22
 118189273.13347  92095531.23447  22490675.2554   22490678.2094   22490675.5164
        49.000          43.000
 113086164.18147  88119085.14247  21519583.8774   21519586.5104   21519583.8634
        53.000          47.000
 123487280.06147  96223844.42747  23498854.8454   23498860.3904   23498855.4174
        45.000          40.000
 125782919.86547  98012638.61947  23935714.9054   23935721.7224   23935715.3204
        43.000          38.000
 120099097.24247  93583711.23247  22854098.3654   22854101.3064   22854098.8774
        49.000          41.000
 119707344.14847  93278428.11547  22779567.3114   22779572.0444   22779567.0074
        49.000          42.000
 105110642.00347  81904383.12547  20001900.1834   20001902.6024   20001900.6114
        54.000          49.000
 120079799.87547  93568651.51447  22850442.7664   22850448.5534   22850442.8704
        48.000          42.000
 126945421.42147  98918493.08247  24156925.3774   24156928.2274   24156925.5074
        43.000          37.000
 128719599.15747 100300959.76447  24494545.8954   24494550.3724   24494545.6184
        44.000          38.000
 125944098.30147  98138242.02347  23966376.6804   23966380.5684   23966376.4084
        44.000          39.000
 123266617.28947  96051906.68347  23456859.8904   23456860.8414   23456859.7904
        47.000          41.000
 09  1 17  0 56 30.0000000  0 12G14G31G 5G 6G18G30G21G24G 9G12G29G22
 118227850.95647  92125591.94247  22498016.3564   22498019.5124   22498016.4354
        49.000          43.000
 113010244.02847  88059926.62147  21505136.8564   21505139.3084   21505136.2484
        53.000          47.000
 123486804.37847  96223473.78847  23498764.4764   23498770.0014   23498765.0934
        45.000          40.000
 125763649.63947  97997622.92847  23932047.6324   23932053.9134   23932047.3914
        43.000          38.000
 120061618.77847  93554507.24547  22846966.3464   22846969.4334   22846966.8024
        48.000          42.000
 119681806.44647  93258528.64247  22774707.8804   22774712.1114   22774707.7324
        49.000          42.000
 105129928.52747  81919411.60247  20005570.2514   20005572.5414   20005570.6834
        54.000          49.000
 120160512.04847  93631544.11447  22865801.9064   22865807.4584   22865802.0054
        47.000          42.000
 127050412.43647  99000304.34547  24176903.9024   24176907.5604   24176904.4124
        43.000          37.000
 128732690.45847 100311160.84347  24497037.5954   24497041.8044   24497037.6214
        44.000          38.000
 126010494.38847  98189979.25147  23979011.7934   23979015.6054   23979011.0434
        44.000          39.000
 123220868.18247  96016258.03047  23448154.3174   23448155.1554   23448154.0774
        48.000          41.000
 09  1 17  0 57  0.0000000  0 12G14G31G 5G 6G18G30G21G24G 9G12G29G22
 118266542.89047  92155741.56347  22505378.7164   22505381.7744   22505378.9244
        49.000          43.000
 112934721.00647  88001077.55047  21490765.4194   21490767.5704   21490765.0654
        53.000          47.000
 123486564.24947  96223286.69847  23498718.4894   23498724.3174   23498718.9174
        45.000          40.000
 125744612.33247  97982788.73147  23928424.9534   23928432.3494   23928425.3704
        43.000          38.000
 120024106.28847  93525276.74647  22839828.1534   22839831.0344   22839828.5264
        49.000          42.000
 119656360.44647  93238700.62447  22769865.7724   22769869.7324   22769865.5284
        49.000          42.000
 105149825.58947  81934915.82447  20009356.4994   20009358.8084   20009356.8204
        54.000          49.000
 120241535.23247  93694679.06547  22881219.9664   22881225.5884   22881219.9604
        48.000          41.000
 127155587.86447  99082259.30147  24196918.6774   24196921.0794   24196918.4644
        42.000          37.000
 128745990.57047 100321524.60747  24499568.3374   24499573.1144   24499567.9334
        44.000          38.000
 126076712.45647  98241577.74047  23991612.0794   23991616.4844   23991611.3704
        44.000          39.000
 123174936.63947  95980467.22547  23439413.8594   23439414.6064   23439413.9984
        47.000          41.000
 09  1 17  0 57 30.0000000  0 12G14G31G 5G 6G18G30G21G24G 9G12G29G22
 118305351.97847  92185982.48347  22512763.8304   22512766.9114   22512764.1894
        49.000          43.000
 112859603.32247  87942544.33047  21476470.9064   21476472.8954   21476470.5214
        53.000          47.000
 123486567.15747  96223289.01147  23498719.0104   23498724.9674   23498719.3784
        45.000          39.000
 125725812.19347  97968139.34847  23924847.1844   23924853.9514   23924847.2714
        43.000          38.000
 119986567.58247  93496025.82447  22832684.5324   22832687.9274   22832685.0394
        48.000          42.000
 119631013.90547  93218950.10747  22765042.5154   22765046.4654   22765042.2004
        49.000          43.000
 105170338.10847  81950899.62147  20013259.8764   20013262.2534   20013260.2234
        54.000          49.000
 120322872.76847  93758058.95747  22896698.1374   22896703.3384   22896698.0514
        47.000          41.000
 127260950.38747  99164360.06047  24216967.9584   24216971.3334   24216968.0964
        41.000          36.000
 128759506.81147 100332056.80247  24502140.1674   24502144.6504   24502140.2564
        43.000          38.000
 126142756.64947  98293040.75447  24004180.0224   24004184.1764   24004179.7104
        44.000          39.000
 123128829.38447  95944539.49647  23430639.6144   23430641.0614   23430639.5434
        47.000          41.000
 09  1 17  0 58  0.0000000  0 12G14G31G 5G 6G18G30G21G24G 9G12G29G22
 118344272.99947  92216310.60547  22520170.3394   22520173.4194   22520170.6344
        48.000          43.000
 112784890.49347  87884326.58247  21462253.3714   21462255.5724   21462252.8614
        53.000          47.000
 123486812.29847  96223480.06647  23498765.2034   23498771.2244   23498765.8914
        45.000          39.000
 125707245.01047  97953671.49047  23921313.2284   23921320.8184   23921314.0704
        43.000          38.000
 119949001.78447  93466753.79047  22825536.3584   22825539.0854   22825536.8614
        49.000          42.000
 119605766.39047  93199276.75347  22760238.2344   22760241.7664   22760237.7164
        49.000          43.000
 105191462.80347  81967360.44147  20017279.9374   20017282.1294   20017280.3354
        54.000          49.000
 120404519.71047  93821679.95147  22912234.8624   22912240.2374   22912234.8364
        47.000          41.000
 127366494.06647  99246601.97947  24237052.1494   24237055.8754   24237052.1304
        41.000          36.000
 128773237.51447 100342756.11047  24504752.7904   24504757.9274   24504752.1534
        43.000          38.000
 126208623.03647  98344365.23647  24016714.0754   24016717.8114   24016713.4504
        43.000          39.000
 123082544.81747  95908473.58547  23421831.9644   23421832.9744   23421831.8244
        48.000          41.000
 09  1 17  0 58 30.0000000  0 12G14G31G 5G 6G18G30G21G24G 9G12G29G22
 118383302.88747  92246723.56647  22527597.1474   22527600.6204   22527597.4854
        49.000          43.000
 112710584.96347  87826426.20847  21448113.3474   21448115.5634   21448113.0484
        53.000          47.000
 123487301.17847  96223861.06947  23498858.3844   23498864.1064   23498858.7804
        44.000          39.000
 125688909.25747  97939383.96047  23917825.1294   23917830.7944   23917824.9684
        42.000          37.000
 119911410.91147  93437462.20747  22818382.8164   22818385.4054   22818383.4894
        49.000          42.000
 119580620.16047  93179682.33447  22755452.7854   22755456.9254   22755452.3704
        49.000          43.000
 105213198.70047  81984297.52247  20021415.9894   20021418.3984   20021416.3294
        54.000          49.000
 120486473.53947  93885540.06347  22927829.7524   22927835.6224   22927829.8544
        47.000          41.000
 127472215.98647  99328982.77947  24257170.3274   24257173.7994   24257170.4014
        40.000          36.000
 128787184.21347 100353623.72647  24507406.7444   24507411.8604   24507406.3334
        44.000          38.000
 126274309.88147  98395549.80547  24029213.7184   24029217.8034   24029213.3554
        44.000          39.000
 123036083.64647  95872270.07047  23412990.8314   23412992.0274   23412991.0614
        48.000          41.000
 09  1 17  0 59  0.0000000  0 12G14G31G 5G 6G18G30G21G24G 9G12G29G22
 118422440.71847  92277220.64347  22535044.6144   22535048.3024   22535044.8664
        48.000          43.000
 112636691.07247  87768846.59247  21434051.7284   21434054.1474   21434051.2964
        53.000          47.000
 123488037.19847  96224434.63547  23498998.4074   23499004.2444   23498999.1064
        45.000          39.000
 125670804.96147  97925276.80247  23914379.4474   23914385.6754   23914379.5604
        42.000          37.000
 119873798.51047  93408153.85547  22811225.5824   22811228.3034   22811226.0244
        49.000          42.000
 119555579.05247  93160169.82547  22750687.7364   22750691.5194   22750687.4334
        49.000          43.000
 105235546.70347  82001711.56947  20025668.5624   20025671.1434   20025668.8314
        54.000          49.000
 120568733.66147  93949638.85047  22943482.8964   22943489.1614   22943482.8824
        47.000          41.000
 127578114.69447  99411501.33347  24277322.2894   24277325.2854   24277322.1234
        39.000          35.000
 128801350.00347 100364662.08247  24510101.9554   24510107.1224   24510101.7764
        43.000          38.000
 126339818.44147  98446595.45347  24041679.3644   24041683.2304   24041679.5474
        43.000          38.000
 122989448.53847  95835931.03347  23404116.3624   23404118.0154   23404116.4454
        46.000          41.000
 09  1 17  0 59 30.0000000  0 12G14G31G 5G 6G18G30G21G24G 9G12G29G22
 118461683.09047  92307799.18647  22542512.3604   22542515.6934   22542512.4414
        49.000          43.000
 112563210.15747  87711588.78447  21420068.5694   21420071.4514   21420068.0384
        53.000          47.000
 123489020.94847  96225201.25747  23499185.7484   23499190.9614   23499186.5504
        44.000          39.000
 125652929.63947  97911348.06547  23910978.3504   23910984.3534   23910978.0844
        43.000          37.000
 119836165.41447  93378829.37347  22804064.2934   22804066.8554   22804064.7914
        50.000          42.000
 119530643.93847  93140739.91947  22745942.3174   22745946.5374   22745941.9034
        49.000          43.000
 105258504.82747  82019601.03547  20030037.3074   20030039.9534   20030037.6534
        54.000          49.000
 120651296.64647  94013973.63947  22959194.2504   22959200.3764   22959194.3564
        47.000          41.000
 127684186.06247  99494154.40847  24297506.6614   24297510.2554   24297506.4834
        39.000          35.000
 128815735.40447 100375871.56547  24512839.2314   24512844.7814   24512838.6164
        44.000          38.000
 126405145.09747  98497499.37047  24054110.3834   24054114.8634   24054110.5674
        44.000          39.000
 122942639.91047  95799456.77447  23395208.7424   23395210.3354   23395208.8324
        47.000          41.000
 09  1 17  1  0  0.0000000  0 12G14G31G 5G 6G18G30G21G24G 9G12G29G22
 118501027.86447  92338457.51547  22549999.8724   22550002.8204   22549999.9314
        49.000          43.000
 112490145.34347  87654655.20847  21406164.9474   21406167.7354   21406164.5834
        53.000          47.000
 123490255.33847  96226163.16047  23499420.1204   23499426.5454   23499420.4484
        45.000          39.000
 125635282.75047  97897597.32347  23907619.6714   23907625.8374   23907619.9764
        43.000          38.000
 119798515.16447  93349491.53247  22796899.8674   22796901.8084   22796900.3094
        49.000          42.000
 119505818.04547  93121395.11247  22741218.0964   22741222.3754   22741217.3574
        49.000          43.000
 105282073.78647  82037966.46947  20034522.4644   20034524.9514   20034522.8104
        54.000          49.000
 120734161.14447  94078543.37947  22974962.6324   22974968.9824   22974962.4314
        47.000          41.000
 127790428.78847  99576941.02447  24317724.0014   24317727.4654   24317723.2074
        39.000          35.000
 128830342.35547 100387253.70447  24515619.4224   24515623.9094   24515619.5084
        43.000          38.000
 126470290.08047  98548261.73147  24066507.3894   24066511.3584   24066507.1704
        43.000          39.000
 122895659.35347  95762848.53747  23386269.1494   23386269.9764   23386269.2674
        48.000          42.000
 09  1 17  1  0 30.0000000  0 12G14G31G 5G 6G18G30G21G24G 9G12G29G22
 118540473.68647  92369194.58047  22557505.9374   22557508.8994   22557506.1314
        49.000          43.000
 112417500.36647  87598048.77047  21392341.1454   21392343.4604   21392340.6764
        53.000          47.000
 123491743.30047  96227322.66647  23499703.5684   23499709.3094   23499704.1564
        44.000          39.000
 125617864.26647  97884024.55047  23904305.6284   23904311.3894   23904305.6384
        43.000          38.000
 119760850.75647  93320142.66047  22789732.5504   22789734.7994   22789733.0104
        49.000          42.000
 119481105.11347  93102138.32347  22736515.1464   22736519.7524   22736514.6114
        49.000          43.000
 105306253.67047  82056807.95347  20039123.7124   20039126.1364   20039123.9824
        54.000          49.000
 120817326.10847  94143347.24947  22990788.5594   22990794.5684   22990788.6344
        47.000          41.000
 127896840.49847  99659859.31847  24337973.8664   24337976.6974   24337973.8044
        39.000          35.000
 128845174.12247 100398811.02747  24518441.3444   24518445.9124   24518441.0314
        43.000          38.000
 126535253.42047  98598882.53747  24078869.5284   24078873.5524   24078869.1564
        45.000          39.000
 122848509.26247  95726108.20147  23377297.1714   23377297.6914   23377297.2484
        48.000          42.000
 09  1 17  1  1  0.0000000  0 12G14G31G 5G 6G18G30G21G24G 9G12G29G22
 118580014.91747  92400005.98747  22565030.1774   22565033.1804   22565030.2484
        48.000          43.000
 112345274.76947  87541769.13147  21378597.1754   21378599.3624   21378596.7484
        53.000          47.000
 123493483.60147  96228678.79147  23500034.7134   23500040.4684   23500035.1994
        45.000          39.000
 125600669.45247  97870626.07147  23901033.3244   23901039.5264   23901033.5874
        43.000          38.000
 119723170.94447  93290781.78547  22782562.0424   22782564.8134   22782562.2804
        49.000          42.000
 119456504.28247  93082968.87847  22731833.8784   22731838.5574   22731833.6474
        49.000          43.000
 105331040.31247  82076122.23447  20043840.4094   20043842.8214   20043840.7504
        54.000          49.000
 120900785.91247  94208380.86647  23006670.3724   23006676.4264   23006670.1884
        46.000          41.000
 128003415.36647  99742904.74847  24358253.7944   24358256.7704   24358254.6674
        40.000          35.000
 128860228.75447 100410542.00247  24521306.3194   24521311.2084   24521306.0804
        43.000          38.000
 126600030.57947  98649358.27747  24091195.8954   24091200.6284   24091196.0574
        44.000          39.000
 122801187.59047  95689234.16647  23368292.0904   23368292.6944   23368292.0554
        48.000          42.000
 09  1 17  1  1 30.0000000  0 12G14G31G 5G 6G18G30G21G24G 9G12G29G22
 118619651.34847  92430891.58947  22572572.5684   22572575.9484   22572572.6914
        48.000          43.000
 112273473.36847  87485820.03947  21364933.6764   21364936.0274   21364933.4114
        53.000          47.000
 123495480.62947  96230234.97247  23500415.1324   23500420.2524   23500416.0804
        45.000          39.000
 125583699.63747  97857402.91947  23897804.0454   23897809.9764   23897804.2074
        43.000          38.000
 119685480.86047  93261412.90047  22775389.8054   22775392.8944   22775390.2084
        49.000          42.000
 119432020.51447  93063890.65047  22727174.6284   22727179.6264   22727174.4234
        49.000          43.000
 105356435.83947  82095910.96647  20048673.0584   20048675.3184   20048673.4074
        54.000          49.000
 120984540.98347  94273644.55347  23022608.6324   23022614.8614   23022608.6984
        47.000          41.000
 128110152.98747  99826076.99447  24378564.8764   24378568.7384   24378565.6294
        39.000          35.000
 128875510.37747 100422449.87047  24524214.2434   24524218.6284   24524213.8464
        43.000          38.000
 126664623.34747  98699690.34247  24103488.2044   24103492.1184   24103488.6514
        44.000          39.000
 122753698.55447  95652229.72447  23359255.1374   23359256.1544   23359255.0514
        48.000          42.000
 09  1 17  1  2  0.0000000  0 12G14G31G 5G 6G18G30G21G24G 9G12G29G22
 118659379.51247  92461848.66147  22580132.9164   22580135.8024   22580132.9764
        49.000          43.000
 112202098.00147  87430202.92647  21351351.2864   21351353.5744   21351351.2154
        53.000          47.000
 123497735.28347  96231991.90747  23500843.6454   23500848.9034   23500844.4974
        45.000          39.000
 125566952.21747  97844353.05647  23894617.0044   23894623.1464   23894616.5584
        43.000          38.000
 119647781.45947  93232036.77047  22768215.9384   22768218.4624   22768216.1664
        48.000          42.000
 119407655.15747  93044904.70247  22722538.2784   22722542.8854   22722537.8764
        50.000          43.000
 105382438.53447  82116172.81947  20053621.0924   20053623.5054   20053621.4374
        54.000          49.000
 121068587.87847  94339135.64547  23038602.4104   23038608.5814   23038602.4014
        47.000          41.000
 128217049.58647  99909373.13347  24398907.1224   24398910.1484   24398906.6684
        40.000          35.000
 128891019.59747 100434535.07047  24527165.2014   24527170.1424   24527165.1104
        43.000          37.000
 126729029.62847  98749877.07847  24115743.7204   24115748.2834   24115743.6604
        43.000          39.000
 122706042.14547  95615094.87447  23350186.1724   23350187.0534   23350186.5644
        48.000          42.000
 09  1 17  1  2 30.0000000  0 12G14G31G 5G 6G18G30G21G24G 9G12G29G22
 118699197.20647  92492875.48147  22587709.7914   22587712.8524   22587709.8924
        48.000          43.000
 112131150.96447  87374919.56347  21337850.5594   21337852.8244   21337849.8074
        53.000          47.000
 123500249.33447  96233950.96147  23501321.6034   23501328.0304   23501321.8914
        44.000          39.000
 125550425.99047  97831475.55347  23891472.0484   23891477.8474   23891472.2624
        43.000          38.000
 119610074.96947  93202655.10447  22761040.2544   22761043.3944   22761040.6544
        48.000          42.000
 119383410.44347  93026012.76647  22717924.8924   22717929.1224   22717924.4834
        50.000          43.000
 105409047.36847  82136906.98847  20058684.6564   20058686.9944   20058685.0944
        54.000          49.000
 121152924.55347  94404852.52647  23054651.4894   23054657.3384   23054651.7494
        47.000          41.000
 128324102.27647  99992790.88247  24419277.6714   24419281.1864   24419278.3034
        38.000          34.000
 128906757.87547 100446798.77747  24530160.4344   24530165.1414   24530160.1074
        43.000          37.000
 126793248.11347  98799917.47947  24127964.1144   24127968.4704   24127963.9334
        44.000          39.000
 122658219.63447  95577830.59247  23341086.1394   23341086.9084   23341085.9864
        48.000          42.000
 09  1 17  1  3  0.0000000  0 12G14G31G 5G 6G18G30G21G24G 9G12G29G22
 118739101.40447  92523969.72847  22595303.2604   22595305.9754   22595303.3944
        48.000          43.000
 112060634.51047  87319971.73947  21324431.6284   21324434.0704   21324431.3824
        53.000          47.000
 123503024.29647  96236113.33147  23501849.8184   23501855.5494   23501850.2104
        45.000          40.000
 125534119.22047  97818769.05347  23888368.7374   23888375.2834   23888368.9174
        43.000          38.000
 119572363.49347  93173269.55647  22753864.1534   22753867.2834   22753864.7294
        49.000          42.000
 119359288.27647  93007216.30547  22713334.8194   22713339.0424   22713334.4234
        50.000          43.000
 105436261.18247  82158112.56847  20063863.3294   20063865.6194   20063863.8154
        54.000          49.000
 121237548.49647  94470793.27447  23070754.8324   23070760.4914   23070755.1194
        47.000          41.000
 128431308.29247 100076328.10247  24439680.0694   24439682.2704   24439679.2904
        40.000          35.000
 128922726.22747 100459241.74347  24533198.8514   24533203.1004   24533198.1324
        43.000          37.000
 126857277.54047  98849810.58247  24140148.3934   24140152.6194   24140148.0754
        44.000          39.000
 122610232.08847  95540437.72647  23331954.2394   23331954.9634   23331954.1344
        48.000          42.000
 09  1 17  1  3 30.0000000  0 12G14G31G 5G 6G18G30G21G24G 9G12G29G22
 118779091.61947  92555130.98447  22602912.7404   22602915.8984   22602912.9214
        48.000          43.000
 111990553.11747  87265362.91347  21311095.2814   21311097.9094   21311094.6464
        53.000          48.000
 123506064.34347  96238482.23447  23502428.8404   23502434.1034   23502429.2354
        45.000          40.000
 125518032.60147  97806234.09647  23885307.4454   23885313.5284   23885307.4854
        44.000          38.000
 119534651.19347  93143883.35847  22746688.0854   22746690.6064   22746688.5954
        49.000          42.000
 119335293.53947  92988519.15847  22708768.6484   22708772.3584   22708768.3694
        49.000          43.000
 105464081.33747  82179790.61747  20069157.2054   20069159.6914   20069157.6204
        54.000          49.000
 121322459.54847  94536957.73847  23086913.4634   23086918.4204   23086913.6594
        48.000          41.000
 128538666.48547 100159983.92047  24460108.4194   24460111.0234   24460109.0204
        40.000          34.000
 128938928.58847 100471867.04947  24536282.0114   24536286.1144   24536281.7394
        43.000          38.000
 126921118.91447  98899557.15547  24152297.2474   24152301.0794   24152297.0234
        45.000          39.000
 122562082.52947  95502918.61047  23322791.7404   23322792.5704   23322791.7304
        48.000          42.000
 09  1 17  1  4  0.0000000  0 12G14G31G 5G 6G18G30G21G24G 9G12G29G22
 118819162.61547  92586355.18847  22610537.9004   22610541.2434   22610537.9864
        48.000          43.000
 111920906.60947  87211092.95947  21297842.1464   21297844.7274   21297841.6574
        53.000          48.000
 123509368.22147  96241056.73447  23503057.6274   23503063.1354   23503058.3394
        46.000          40.000
 125502161.97247  97793867.43647  23882287.9584   23882293.6854   23882287.5714
        43.000          38.000
 119496937.40647  93114496.00947  22739511.4744   22739513.9984   22739511.9384
        50.000          42.000
 119311425.76947  92969920.93347  22704226.4054   22704230.5154   22704225.9854
        50.000          43.000
 105492504.09247  82201938.22947  20074565.8774   20074568.2564   20074566.2454
        54.000          49.000
 121407652.40147  94603341.79547  23103125.1014   23103130.2414   23103125.0664
        47.000          41.000
 128646171.29447 100243753.96847  24480565.7814   24480568.7704   24480566.0414
        39.000          34.000
 128955363.31547 100484673.43247  24539409.4804   24539413.8104   24539409.3664
        42.000          37.000
 126984768.28347  98949154.11547  24164409.3554   24164413.5614   24164408.8954
        44.000          39.000
 122513769.65347  95465272.23647  23313597.9714   23313598.6604   23313598.1794
        48.000          42.000
 09  1 17  1  4 30.0000000  0 12G14G31G 5G 6G18G30G21G24G 9G12G29G22
 118859313.50347  92617641.64747  22618178.7134   22618181.6874   22618179.0924
        48.000          43.000
 111851699.10947  87157165.08947  21284672.2964   21284674.9534   21284672.1564
        53.000          48.000
 123512939.48247  96243839.58247  23503737.0974   23503742.7314   23503737.4964
        45.000          40.000
 125486507.47747  97781669.19447  23879308.4734   23879314.9264   23879308.3504
        44.000          38.000
 119459226.25747  93085110.71147  22732335.2734   22732337.7044   22732335.5834
        49.000          42.000
 119287688.78547  92951424.61647  22699709.2694   22699713.3734   22699708.9374
        49.000          43.000
 105521530.11547  82224555.91147  20080089.4294   20080091.7414   20080089.7674
        54.000          49.000
 121493126.55347  94669945.03647  23119390.1574   23119395.4114   23119389.9724
        47.000          41.000
 138753828.51857  90327641.33457  24501050.3645   24501055.2475   24501050.2465
        38.000          33.000
 128972033.90947 100497663.60547  24542581.7434   24542585.9194   24542581.2224
        42.000          37.000
 127048226.57547  98998602.19947  24176485.0174   24176489.1034   24176484.7844
        44.000          39.000
 122465296.51847  95427500.98747  23304373.8834   23304374.6764   23304373.8674
        48.000          42.000
 09  1 17  1  5  0.0000000  0 11G14G31G 5G 6G18G30G21G24G12G29G22
 118899539.57847  92648986.69447  22625833.2354   22625836.2424   22625833.6824
        48.000          43.000
 111782930.92047  87103579.53747  21271586.1334   21271588.6764   21271585.4824
        53.000          48.000
 123516777.93047  96246830.63447  23504467.4564   23504472.8714   23504468.1354
        47.000          40.000
 125471065.66547  97769636.67547  23876369.9314   23876376.0754   23876369.9164
        43.000          38.000
 119421517.89447  93055727.58847  22725158.9324   22725161.9464   22725159.6134
        49.000          42.000
 119264083.09947  92933030.61347  22695217.2204   22695221.4524   22695216.9824
        49.000          43.000
 105551156.49047  82247641.40447  20085727.2264   20085729.3654   20085727.6424
        54.000          49.000
 121578877.78247  94736764.17747  23135707.7834   23135713.1774   23135708.0324
        47.000          40.000
 128988939.44447 100510836.83947  24545799.4154   24545803.1724   24545798.6194
        43.000          37.000
 127111490.65447  99047898.92747  24188523.3824   24188527.4664   24188523.0114
        43.000          39.000
 122416662.71147  95389604.54947  23295119.0384   23295120.0284   23295119.0464
        47.000          41.000
 09  1 17  1  5 30.0000000  0 11G14G31G 5G 6G18G30G21G24G12G29G22
 118939840.03647  92680389.70747  22633502.4734   22633504.9204   22633502.4334
        48.000          43.000
 111714605.94547  87050339.34647  21258584.2794   21258586.6814   21258584.1944
        53.000          48.000
 123520886.76447  96250032.38247  23505249.0234   23505254.9554   23505249.7124
        46.000          40.000
 125455836.47347  97757769.85047  23873471.6674   23873478.4884   23873471.9964
        44.000          39.000
 119383816.06747  93026349.57147  22717985.0094   22717987.3374   22717985.0694
        50.000          42.000
 119240612.32747  92914741.73347  22690750.6854   22690755.0194   22690750.5134
        49.000          43.000
 105581383.63847  82271195.02947  20091479.3094   20091481.4134   20091479.7534
        54.000          49.000
 121664904.86147  94803798.28547  23152078.3684   23152083.7024   23152078.4254
        47.000          40.000
 129006083.10547 100524195.59947  24549061.1804   24549065.4844   24549060.9384
        43.000          37.000
 127174560.66847  99097044.44947  24200525.2324   24200529.2584   24200524.7424
        44.000          39.000
 122367870.14147  95351584.41147  23285833.7934   23285834.9124   23285833.8704
        48.000          41.000
 09  1 17  1  6  0.0000000  0 11G14G31G 5G 6G18G30G21G24G12G29G22
 118980214.10847  92711850.07847  22641185.3434   22641187.8914   22641185.4464
        48.000          42.000
 111646728.32147  86997447.73447  21245667.3454   21245669.9694   21245666.7554
        53.000          48.000
 123525269.56347  96253447.58647  23506083.0434   23506088.5044   23506083.4124
        46.000          40.000
 125440820.36047  97746069.04947  23870614.6924   23870620.4464   23870614.7714
        44.000          38.000
 119346124.76247  92996979.74347  22710812.7484   22710815.0544   22710813.0454
        49.000          42.000
 119217280.65347  92896561.23847  22686310.6084   22686315.1554   22686310.5644
        49.000          43.000
 105612212.38047  82295217.42947  20097345.6394   20097347.9104   20097346.0154
        54.000          49.000
 121751207.54147  94871047.12847  23168501.0554   23168506.7724   23168501.2104
        47.000          40.000
 129023467.96647 100537742.30147  24552369.2794   24552372.9174   24552368.8744
        42.000          37.000
 127237437.67647  99146039.56847  24212490.4274   24212494.2844   24212490.1734
        44.000          39.000
 122318922.67947  95313443.57547  23276519.2444   23276520.6314   23276519.2464
        48.000          41.000
 09  1 17  1  6 30.0000000  0 11G14G31G 5G 6G18G30G21G24G12G29G22
 119020656.65947  92743363.80047  22648881.2514   22648883.8824   22648881.5634
        48.000          42.000
 111579298.04047  86944904.70447  21232836.0134   21232838.3654   21232835.6834
        53.000          48.000
 123529925.73047  96257075.82547  23506968.7434   23506974.5764   23506969.1094
        45.000          40.000
 125426013.34747  97734531.19047  23867797.0564   23867802.7714   23867797.0184
        44.000          38.000
 119308443.69747  92967617.91347  22703641.9314   22703644.5294   22703642.3974
        49.000          42.000
 119194088.01947  92878489.08647  22681897.9254   22681901.4434   22681897.5604
        50.000          43.000
 105643639.47047  82319706.07547  20103326.0384   20103328.1584   20103326.4164
        54.000          49.000
 121837781.32747  94938507.21947  23184975.4104   23184981.4424   23184975.5834
        46.000          40.000
 129041093.25247 100551476.36347  24555722.9544   24555727.5354   24555722.7004
        42.000          37.000
 127300118.04447  99194881.47847  24224418.0724   24224422.7124   24224417.9434
        44.000          39.000
 122269819.13447  95275181.12247  23267175.3054   23267176.4754   23267175.2794
        48.000          41.000
 09  1 17  1  7  0.0000000  0 11G14G31G 5G 6G18G30G21G24G12G29G22
 119061166.56747  92774929.99547  22656590.0644   22656592.7254   22656590.2814
        48.000          42.000
 111512318.22947  86892712.68747  21220090.0734   21220092.3524   21220089.7034
        53.000          48.000
 123534857.76947  96260919.01847  23507907.6074   23507913.0114   23507907.6934
        46.000          40.000
 125411414.79747  97723155.78447  23865018.7304   23865025.5344   23865018.8604
        44.000          38.000
 119270776.01647  92938266.51347  22696474.0534   22696476.3234   22696474.4114
        49.000          42.000
 119171037.86347  92860527.96447  22677511.4714   22677515.4934   22677511.0774
        49.000          43.000
 105675664.20347  82344660.41847  20109420.0154   20109422.4214   20109420.3624
        54.000          49.000
 121924624.38147  95006177.13347  23201500.8854   23201506.8874   23201501.4444
        47.000          40.000
 129058961.10847 100565399.42247  24559122.6904   24559127.4694   24559122.2364
        41.000          37.000
 127362601.70647  99243570.11547  24236307.7664   24236312.8324   24236307.8444
        43.000          39.000
 122220561.70047  95236798.76347  23257801.7994   23257802.9334   23257801.9264
        47.000          41.000
 09  1 17  1  7 30.0000000  0 11G14G31G 5G 6G18G30G21G24G12G29G22
 119101739.77447  92806545.53847  22664310.4224   22664313.3744   22664310.6404
        48.000          42.000
 111445790.07347  86840872.60247  21207430.1904   21207432.5044   21207429.7224
        53.000          48.000
 123540066.33247  96264977.68947  23508898.6334   23508904.2074   23508899.2164
        45.000          40.000
 125397022.24547  97711940.87247  23862279.8974   23862285.4254   23862279.8154
        43.000          38.000
 119233123.29947  92908926.77347  22689309.2754   22689311.2924   22689309.5454
        50.000          42.000
 119148131.15947  92842678.61747  22673152.4034   22673156.4704   22673151.9774
        50.000          43.000
 105708284.27547  82370078.65947  20115627.2304   20115629.7354   20115627.5574
        54.000          49.000
 122011733.46947  95074054.35247  23218077.7544   23218083.1544   23218077.9144
        47.000          40.000
 129077071.66647 100579511.60047  24562569.1664   24562574.3604   24562568.9214
        42.000          37.000
 127424886.73447  99292103.96747  24248160.2694   24248165.2474   24248159.9804
        44.000          39.000
 122171150.42647  95198296.51947  23248399.3384   23248400.1854   23248399.1914
        47.000          41.000
 09  1 17  1  8  0.0000000  0 11G14G31G 5G 6G18G30G21G24G12G29G22
 119142375.18647  92838209.54447  22672043.1084   22672046.3594   22672043.2814
        48.000          42.000
 111379717.32447  86789387.37747  21194857.0844   21194859.2784   21194856.7214
        54.000          48.000
 123545554.49147  96269254.24447  23509942.7624   23509948.6864   23509943.0344
        46.000          40.000
 125382835.33247  97700886.20347  23859579.3474   23859586.1034   23859579.5524
        43.000          38.000
 119195488.64447  92879601.10347  22682147.3134   22682149.6824   22682147.8404
        49.000          42.000
 119125371.69247  92824943.98347  22668821.3284   22668825.7234   22668821.1124
        50.000          43.000
 105741500.19747  82395961.19847  20121948.0444   20121950.5684   20121948.4244
        54.000          49.000
 122099107.42847  95142137.96447  23234704.3374   23234709.7104   23234704.5594
        47.000          40.000
 129095427.85847 100593815.19847  24566062.4804   24566067.3284   24566061.9254
        42.000          37.000
 127486973.34547  99340483.22547  24259975.9674   24259979.8084   24259976.1324
        44.000          39.000
 122121588.19847  95159676.65447  23238967.9984   23238968.5924   23238967.7514
        48.000          41.000
 09  1 17  1  8 30.0000000  0 11G14G31G 5G 6G18G30G21G24G12G29G22
 119183069.82947  92869919.70547  22679786.9154   22679790.1514   22679787.2424
        48.000          43.000
 111314101.94147  86738258.54547  21182370.9064   21182373.1004   21182370.8204
        54.000          48.000
 123551323.52747  96273749.64447  23511040.7464   23511046.6764   23511041.1894
        45.000          40.000
 125368852.09747  97689990.23847  23856919.6954   23856924.9344   23856919.4484
        44.000          38.000
 119157874.03947  92850291.05547  22674989.4684   22674992.0134   22674989.8424
        49.000          42.000
 119102761.46247  92807325.65647  22664518.7684   22664522.9894   22664518.5274
        50.000          43.000
 105775310.42947  82422306.83847  20128382.0524   20128384.3544   20128382.4394
        54.000          49.000
 122186743.50047  95210425.81947  23251380.8034   23251386.5344   23251380.8204
        46.000          40.000
 129114030.56147 100608310.87047  24569602.2444   24569606.9764   24569602.3404
        42.000          37.000
 127548860.26347  99388706.87947  24271752.0574   24271755.7804   24271751.7994
        44.000          38.000
 122071876.06147  95120939.97547  23229508.0724   23229508.6564   23229507.8794
        48.000          41.000
 09  1 17  1  9  0.0000000  0 11G14G31G 5G 6G18G30G21G24G12G29G22
 119223820.91347  92901673.84447  22687541.6024   22687544.4654   22687541.9424
        48.000          42.000
 111248946.08047  86687487.77047  21169972.2444   21169974.3634   21169971.6744
        54.000          48.000
 123557375.01147  96278465.14147  23512192.1574   23512197.7694   23512192.7524
        45.000          40.000
 125355070.99447  97679251.80347  23854296.6524   23854302.0224   23854297.0164
        44.000          38.000
 119120281.64447  92820998.31847  22667835.7824   22667838.5434   22667835.9764
        49.000          42.000
 119080302.63747  92789825.30547  22660244.8334   22660249.2514   22660244.2564
        49.000          43.000
 105809713.51047  82449114.43447  20134928.7974   20134930.9944   20134929.2534
        54.000          49.000
 122274638.91847  95278915.75347  23268106.4644   23268112.5594   23268106.5074
        46.000          40.000
 129132881.01947 100622999.62947  24573189.4394   24573194.1674   24573189.0074
        42.000          37.000
 127610546.20447  99436773.91947  24283490.1594   24283494.1654   24283489.8514
        44.000          38.000
 122022014.97847  95082087.25147  23220019.7824   23220020.1294   23220019.7134
        48.000          41.000
 09  1 17  1  9 30.0000000  0 11G14G31G 5G 6G18G30G21G24G12G29G22
 119264626.99247  92933470.84647  22695306.7754   22695309.7724   22695307.0174
        48.000          42.000
 111184252.66247  86637077.34647  21157661.5254   21157663.4054   21157661.3234
        54.000          48.000
 123563711.39047  96283402.64047  23513397.6724   23513403.4954   23513398.1964
        46.000          39.000
 125341491.31447  97668670.29847  23851712.8454   23851718.1934   23851713.0474
        44.000          38.000
 119082714.43847  92791725.20547  22660687.3184   22660689.8294   22660687.5924
        49.000          43.000
 119057998.33047  92772445.34947  22656000.2594   22656004.7184   22656000.0614
        50.000          43.000
 105844708.93147  82476383.59547  20141588.2354   20141590.5314   20141588.5764
        54.000          49.000
 122362792.43147  95347606.80947  23284881.6114   23284887.0284   23284881.8134
        46.000          40.000
 129151981.23547 100637882.99847  24576823.9734   24576828.3154   24576823.7514
        42.000          37.000
 127672031.22547  99484684.41347  24295190.6114   24295194.5164   24295190.1594
        43.000          38.000
 121972007.05747  95043120.09647  23210503.6154   23210503.9684   23210503.8134
        48.000          41.000
 09  1 17  1 10  0.0000000  0 11G14G31G 5G 6G18G30G21G24G12G29G22
 119305484.91247  92965308.21947  22703081.8624   22703084.9904   22703082.1844
        49.000          43.000
 111120023.24147  86587028.47147  21145438.9424   21145441.0744   21145438.3004
        54.000          48.000
 123570333.64247  96288562.88747  23514658.0784   23514663.6144   23514658.7674
        46.000          39.000
 125328110.77847  97658243.99347  23849166.1694   23849171.8224   23849165.6884
        43.000          38.000
 119045174.35847  92762473.22047  22653543.4954   22653545.9734   22653543.9644
        50.000          43.000
 119035850.27947  92755187.14447  22651785.7564   22651789.5304   22651785.4884
        50.000          43.000
 105880294.82147  82504112.85847  20148360.1154   20148362.2774   20148360.5794
        54.000          49.000
 122451201.13147  95416496.71747  23301705.1134   23301710.8924   23301705.3314
        46.000          40.000
 129171331.81847 100652961.47347  24580506.0984   24580510.7604   24580506.1844
        43.000          37.000
 127733313.70447  99532437.06247  24306852.5294   24306855.8124   24306851.9304
        43.000          38.000
 121921853.55247  95004039.48947  23200959.4304   23200960.3484   23200959.6124
        47.000          41.000
 09  1 17  1 10 30.0000000  0 11G14G31G 5G 6G18G30G21G24G12G29G22
 119346391.72847  92997183.70647  22710866.1024   22710869.2094   22710866.2824
        48.000          43.000
 111056259.69747  86537342.62247  21133305.0994   21133307.3254   21133304.8534
        54.000          48.000
 123577242.99647  96293946.83947  23515972.9204   23515978.1144   23515973.4054
        46.000          39.000
 125314927.35747  97647971.26147  23846657.4134   23846662.9114   23846657.3474
        43.000          38.000
 119007663.04347  92733243.65347  22646405.2294   22646407.4614   22646405.4394
        49.000          42.000
 119013860.19547  92738052.04247  22647601.3044   22647605.3834   22647600.8934
        50.000          43.000
 105916469.27147  82532300.74547  20155243.6074   20155246.1214   20155243.9174
        54.000          49.000
 122539861.97447  95485583.10247  23318576.7014   23318582.3064   23318576.9354
        46.000          40.000
 129190933.98547 100668235.97247  24584236.6464   24584240.6764   24584236.4324
        43.000          37.000
 127794392.29047  99580030.83547  24318474.5934   24318478.9074   24318474.8154
        44.000          38.000
 121871555.26247  94964846.07047  23191387.7234   23191388.5614   23191387.6474
        47.000          41.000
 09  1 17  1 11  0.0000000  0 11G14G31G 5G 6G18G30G21G24G12G29G22
 119387345.09647  93029095.47847  22718659.1494   22718661.9944   22718659.0804
        48.000          42.000
 110992964.43747  86488021.66547  21121260.5084   21121262.5404   21121260.0004
        54.000          48.000
 123584441.21447  96299555.87747  23517342.8584   23517347.8144   23517342.9344
        45.000          39.000
 125301939.79747  97637851.18047  23844185.4934   23844191.6264   23844185.5544
        44.000          38.000
 118970183.00447  92704038.46947  22639272.7914   22639275.5524   22639273.3194
        49.000          42.000
 118992030.64147  92721042.03847  22643447.3364   22643451.4934   22643447.2054
        50.000          43.000
 105953231.31547  82560946.49547  20162239.3544   20162241.6954   20162239.7504
        54.000          49.000
 122628772.75747  95554864.24047  23335495.4544   23335501.1904   23335496.2014
        46.000          39.000
 129210788.99547 100683707.48147  24588014.1034   24588019.2254   24588014.5414
        42.000          37.000
 127855266.23747  99627465.16747  24330058.9204   24330062.8534   24330058.8724
        43.000          38.000
 121821113.77947  94925541.04947  23181789.4664   23181789.9714   23181789.6904
        48.000          41.000
 09  1 17  1 11 30.0000000  0 11G14G31G 5G 6G18G30G21G24G12G29G22
 119428344.03747  93061042.75947  22726461.0924   22726463.9814   22726461.2194
        48.000          42.000
 110930141.11747  86439068.45147  21109305.6544   21109307.5734   21109305.3194
        54.000          48.000
 123591931.58547  96305392.56847  23518767.7574   23518773.3044   23518768.1164
        46.000          39.000
 125289148.06947  97627883.66247  23841751.6924   23841757.0784   23841752.2384
        44.000          38.000
 118932738.16247  92674860.69647  22632147.3624   22632149.9104   22632147.8394
        49.000          42.000
 118970365.89047  92704160.44047  22639324.4694   22639328.7894   22639324.1994
        50.000          43.000
 105990581.04147  82590050.18247  20169346.7274   20169348.9754   20169347.1194
        55.000          49.000
 122717932.64347  95624339.48447  23352462.2614   23352467.9654   23352462.2994
        46.000          39.000
 129230899.94347 100699378.43247  24591841.3204   24591845.6964   24591840.7314
        42.000          37.000
 127915936.29947  99674740.61647  24341604.4074   24341607.5704   24341603.8944
        43.000          38.000
 121770531.85047  94886126.60147  23172163.7624   23172164.2064   23172164.0794
        47.000          41.000
 09  1 17  1 12  0.0000000  0 11G14G31G 5G 6G18G30G21G24G12G29G22
 119469383.83747  93093021.86247  22734270.7064   22734273.5524   22734271.0234
        48.000          42.000
 110867789.56747  86390482.84847  21097440.3384   21097442.4104   21097439.9364
        54.000          48.000
 123599713.26147  96311456.25447  23520248.5634   23520254.4754   23520249.2354
        46.000          40.000
 125276547.94747  97618065.46647  23839353.7754   23839359.7224   23839353.6234
        45.000          38.000
 118895328.06147  92645709.99547  22625028.5274   22625030.9374   22625029.1324
        49.000          42.000
 118948865.57247  92687406.98947  22635233.2414   22635237.3774   22635233.1724
        50.000          43.000
 106028514.70947  82619608.88647  20176565.4814   20176567.5884   20176565.9904
        54.000          49.000
 122807336.78147  95694005.05447  23369475.3824   23369481.2984   23369475.0934
        45.000          40.000
 129251265.29547 100715247.66147  24595717.0364   24595721.2124   24595716.6474
        42.000          37.000
 127976399.01147  99721854.48147  24353109.2004   24353113.2724   24353109.0414
        42.000          38.000
 121719808.83747  94846602.22347  23162511.1884   23162512.5394   23162511.1444
        47.000          41.000
 09  1 17  1 12 30.0000000  0 11G14G31G 5G 6G18G30G21G24G12G29G22
 119510463.86447  93125032.32347  22742087.9744   22742090.6684   22742088.1834
        48.000          42.000
 110805913.95347  86342268.11147  21085665.7104   21085668.0134   21085665.3434
        54.000          48.000
 123607789.97547  96317749.82347  23521785.5254   23521791.0334   23521786.0184
        46.000          40.000
 125264140.13047  97608397.10147  23836993.1774   23836998.0294   23836992.9704
        44.000          38.000
 118857957.61947  92616590.20447  22617916.9824   22617919.2824   22617917.2924
        49.000          42.000
 118927534.02447  92670785.04647  22631173.7804   22631177.9384   22631173.3194
        50.000          43.000
 106067033.00747  82649623.14747  20183895.1284   20183897.4454   20183895.4494
        55.000          49.000
 122896984.80147  95763860.68547  23386534.9224   23386540.7614   23386534.4344
        46.000          40.000
 129271888.66147 100731317.90047  24599641.1154   24599645.2274   24599640.5034
        42.000          37.000
 128036655.61147  99768807.77647  24364574.8364   24364579.5454   24364575.0094
        41.000          37.000
 121668948.12247  94806970.53547  23152833.1844   23152833.7994   23152833.0064
        47.000          41.000
 09  1 17  1 13  0.0000000  0 11G14G31G 5G 6G18G30G21G24G12G29G22
 119551581.47747  93157072.06747  22749912.1054   22749914.8614   22749912.2694
        48.000          42.000
 110744515.94647  86294425.53747  21073981.9324   21073984.3224   21073981.3554
        54.000          48.000
 123616162.74947  96324274.11147  23523379.1504   23523384.4104   23523379.7884
        46.000          40.000
 125251922.45647  97598876.91147  23834667.4844   23834673.2604   23834667.3784
        45.000          38.000
 118820628.33247  92587502.47447  22610813.6354   22610816.0334   22610814.0954
        49.000          42.000
 118906373.05847  92654296.03247  22627146.7704   22627150.7364   22627146.4424
        50.000          43.000
 106106133.83647  82680091.32447  20191335.8394   20191338.0964   20191336.3224
        54.000          49.000
 122986873.75447  95833904.04847  23403640.0444   23403645.9974   23403640.5844
        46.000          39.000
 129292770.71347 100747589.73347  24603614.3814   24603619.2654   24603614.7014
        42.000          37.000
 128096704.74447  99815599.40147  24376001.6224   24376006.0734   24376001.6714
        42.000          37.000
 121617950.79147  94767232.39147  23143128.3104   23143128.9924   23143128.5084
        46.000          40.000
 09  1 17  1 13 30.0000000  0 11G14G31G 5G 6G18G30G21G24G12G29G22
 119592733.66147  93189138.74647  22757743.3544   22757746.0194   22757743.3874
        48.000          42.000
 110683597.34047  86246956.52147  21062389.5694   21062391.8054   21062389.0894
        54.000          48.000
 123624832.74447  96331030.01047  23525028.5244   23525034.2374   23525028.9934
        45.000          39.000
 125239892.96747  97589503.34947  23832378.8854   23832384.1704   23832378.9684
        44.000          38.000
 118783342.19547  92558448.36647  22603718.1154   22603720.4774   22603718.8494
        50.000          42.000
 118885384.64647  92637941.48447  22623152.7904   22623156.6124   22623152.6464
        50.000          43.000
 106145815.43547  82711012.05247  20198886.9824   20198889.1154   20198887.2484
        55.000          49.000
 123077000.80947  95904132.92547  23420790.6234   23420796.7264   23420790.8544
        46.000          40.000
 129313912.34647 100764063.81947  24607638.1894   24607641.5944   24607638.0294
        42.000          37.000
 128156545.17647  99862228.39447  24387389.3594   24387393.2764   24387388.9464
        43.000          37.000
 121566817.70547  94727388.48447  23133397.4684   23133398.7074   23133397.5314
        47.000          41.000
 09  1 17  1 14  0.0000000  0 11G14G31G 5G 6G18G30G21G24G12G29G22
 119633916.95947  93221229.67147  22765580.1444   22765582.9124   22765580.1794
        48.000          42.000
 110623159.35247  86199862.01647  21050888.4904   21050890.8074   21050888.1514
        54.000          48.000
 123633800.72247  96338018.08247  23526735.1534   23526740.9504   23526735.8484
        46.000          39.000
 125228049.12447  97580274.45547  23830124.5774   23830130.4664   23830124.6904
        44.000          39.000
 118746100.70547  92529429.04947  22596631.3254   22596633.9054   22596631.8784
        49.000          43.000
 118864570.51447  92621722.72547  22619191.6864   22619196.1794   22619191.4164
        49.000          43.000
 106186075.27547  82742383.35947  20206548.1534   20206550.2624   20206548.5984
        54.000          49.000
 123167362.77747  95974544.87247  23437985.9704   23437992.1574   23437985.7754
        45.000          39.000
 129335313.92747 100780740.46647  24611710.6824   24611714.3134   24611710.2484
        41.000          37.000
 128216175.29347  99908693.49847  24398736.7304   24398740.2514   24398736.3384
        40.000          37.000
 121515549.67047  94687439.40747  23123642.0464   23123642.7894   23123642.2244
        48.000          41.000
 09  1 17  1 14 30.0000000  0 11G14G31G 5G 6G18G30G21G24G12G29G22
 119675130.58347  93253344.22547  22773422.8424   22773425.2694   22773422.9294
        48.000          42.000
 110563205.51647  86153144.77447  21039479.6564   21039481.8794   21039479.2294
        54.000          48.000
 123643070.08247  96345241.02147  23528498.9444   23528504.6954   23528499.2804
        45.000          39.000
 125216391.25347  97571190.46847  23827905.9314   23827912.0914   23827905.9264
        44.000          38.000
 118708908.09947  92500447.83147  22589553.9144   22589556.6574   22589554.4664
        49.000          43.000
 118843934.39147  92605642.70047  22615265.1484   22615268.9864   22615264.9004
        50.000          43.000
 106226913.80047  82774205.58747  20214319.2654   20214321.5624   20214319.6384
        54.000          49.000
 123257959.06647  96045139.39347  23455225.8224   23455231.7944   23455225.8664
        46.000          39.000
 129356978.48647 100797622.02547  24615833.2274   24615837.1184   24615833.0164
        43.000          37.000
 128275595.90047  99954995.35847  24410043.8884   24410047.8644   24410043.5104
        41.000          37.000
 121464149.90947  94647387.69347  23113861.1104   23113861.6624   23113861.0994
        48.000          41.000
 09  1 17  1 15  0.0000000  0 11G14G31G 5G 6G18G30G21G24G12G29G22
 119716372.42947  93285480.77547  22781271.0574   22781273.4574   22781271.2904
        48.000          42.000
 110503738.08247  86106806.54647  21028163.3684   21028165.6914   21028162.9974
        54.000          48.000
 123652642.19147  96352699.86247  23530320.2044   23530326.1154   23530320.5924
        45.000          39.000
 125204917.42647  97562249.89547  23825722.7344   23825728.8164   23825723.0084
        44.000          39.000
 118671766.69147  92471506.51347  22582485.9914   22582488.4254   22582486.4864
        49.000          43.000
 118823478.89247  92589703.40847  22611372.5834   22611376.8824   22611372.1684
        50.000          43.000
 106268329.33947  82806477.44147  20222200.4054   20222202.8624   20222200.7484
        55.000          49.000
 123348786.96447  96115914.39447  23472509.7884   23472515.7924   23472510.0134
        46.000          39.000
 129378907.09747 100814709.35947  24620006.3424   24620010.3554   24620006.4074
        43.000          37.000
 128334806.32847 100001133.45947  24421310.9064   24421315.4894   24421310.7384
        42.000          37.000
 121412619.99647  94607234.55547  23104055.3604   23104055.6044   23104055.2474
        48.000          41.000
 09  1 17  1 15 30.0000000  0 11G14G31G 5G 6G18G30G21G24G12G29G22
 119757639.20247  93317636.74547  22789123.5594   22789126.3774   22789123.8514
        48.000          42.000
 110444758.72747  86060848.64247  21016940.0824   21016942.2014   21016939.7744
        54.000          48.000
 123662518.08547  96360395.42447  23532199.8504   23532205.3964   23532200.1844
        45.000          39.000
 125193625.60847  97553451.14147  23823573.8534   23823579.8534   23823573.6364
        43.000          38.000
 118634678.09347  92442606.33147  22575427.9314   22575430.7164   22575428.5274
        50.000          43.000
 118803205.72147  92573906.19047  22607514.6454   22607518.7244   22607514.5424
        50.000          43.000
 106310319.92047  82839197.37147  20230191.1764   20230193.5044   20230191.6714
        55.000          49.000
 123439843.76747  96186867.76147  23489837.6754   23489843.1514   23489837.9124
        47.000          39.000
 129401100.36847 100832002.92047  24624228.6014   24624233.9884   24624228.6764
        42.000          37.000
 128393805.15947 100047106.67647  24432538.0484   24432542.6114   24432538.0404
        42.000          37.000
 121360960.86747  94566980.72547  23094224.7044   23094225.4604   23094224.8174
        48.000          41.000
 09  1 17  1 16  0.0000000  0 11G14G31G 5G 6G18G30G21G24G12G29G22
 119798927.00947  93349809.11747  22796980.3544   22796982.9204   22796980.4244
        48.000          42.000
 110386267.51047  86015271.10647  21005809.3424   21005811.7094   21005808.8534
        54.000          48.000
 123672697.67647  96368327.62147  23534136.9374   23534142.0864   23534137.3234
        46.000          39.000
 125182512.50747  97544791.64147  23821458.6174   23821464.7784   23821458.9014
        43.000          38.000
 118597643.22347  92413748.01047  22568380.7474   22568383.0094   22568381.3694
        50.000          43.000
 118783115.49947  92558251.53047  22603691.6444   22603695.2374   22603691.3324
        50.000          43.000
 106352882.24347  82872362.82347  20238290.3494   20238292.8264   20238290.7094
        55.000          49.000
 123531125.26247  96257996.23047  23507207.9244   23507213.6684   23507208.0144
        46.000          39.000
 129423557.90247 100849502.38947  24628502.1824   24628506.6344   24628501.9504
        41.000          37.000
 128452589.93147 100092913.08647  24443724.6504   24443727.9234   24443724.8244
        42.000          38.000
 121309172.64147  94526626.29347  23084369.8334   23084370.4804   23084369.7644
        47.000          41.000
 09  1 17  1 16 30.0000000  0 11G14G31G 5G 6G18G30G21G24G12G29G22
 119840236.49547  93381998.35947  22804841.4424   22804843.9444   22804841.6564
        48.000          42.000
 110328269.70047  85970078.04347  20994772.8274   20994774.9324   20994772.5734
        54.000          48.000
 123683185.38947  96376499.94347  23536132.8044   23536138.1604   23536133.4974
        46.000          40.000
 125171579.56947  97536272.54047  23819378.5174   23819384.3914   23819378.2784
        43.000          38.000
 118560666.80047  92384935.23547  22561344.4794   22561346.6684   22561345.0604
        50.000          43.000
 118763213.28747  92542743.37347  22599904.4544   22599908.0574   22599904.0734
        50.000          43.000
 106396017.48047  82905974.69747  20246498.8664   20246501.0714   20246499.2244
        55.000          49.000
 123622631.87447  96329300.09747  23524620.8434   23524626.7544   23524621.1964
        46.000          39.000
 129446283.98347 100867211.12847  24632826.7424   24632831.5914   24632825.7474
        41.000          37.000
 128511162.92347 100138554.45347  24454870.8954   24454874.6754   24454871.0024
        43.000          37.000
 121257259.70247  94486174.70747  23074490.7914   23074491.6054   23074490.8084
        48.000          41.000
 09  1 17  1 17  0.0000000  0 11G14G31G 5G 6G18G30G21G24G12G29G22
 119881563.33847  93414201.12347  22812705.3424   22812708.0844   22812705.5624
        48.000          42.000
 110270765.30347  85925269.46247  20983829.8074   20983832.2284   20983829.4954
        54.000          48.000
 123693980.94547  96384912.10147  23538186.8924   23538192.2174   23538187.5114
        46.000          40.000
 125160823.09647  97527890.93847  23817331.8124   23817337.5264   23817331.8624
        43.000          38.000
 118523750.26147  92356169.12547  22554319.2954   22554321.7154   22554319.8534
        49.000          43.000
 118743499.73047  92527382.21147  22596152.9144   22596156.5744   22596152.3854
        49.000          43.000
 106439722.50547  82940030.56147  20254815.6584   20254817.9064   20254816.1374
        55.000          49.000
 123714359.35347  96400776.07047  23542076.0964   23542081.7114   23542076.5754
        46.000          39.000
 129469277.94147 100885128.57647  24637201.9214   24637207.0754   24637201.9374
        42.000          37.000
 128569521.76847 100184028.97947  24465975.9524   24465979.5944   24465975.7334
        42.000          37.000
 121205221.73947  94445625.69247  23064588.3124   23064588.9274   23064588.3144
        48.000          42.000
 09  1 17  1 17 30.0000000  0 11G14G31G 5G 6G18G30G21G24G12G29G22
 119922905.20447  93446415.60147  22820572.2924   22820575.1434   22820572.4974
        47.000          42.000
 110213756.66747  85880847.18647  20972981.4074   20972983.7934   20972980.8414
        54.000          48.000
 123705086.07847  96393565.49247  23540300.6474   23540305.0794   23540301.1134
        46.000          40.000
 125150241.98347  97519645.98047  23815318.0164   23815323.4824   23815317.7754
        43.000          38.000
 118486896.03347  92327451.57147  22547306.1604   22547308.7224   22547306.3184
        49.000          43.000
 118723977.63147  92512170.23247  22592437.3694   22592441.7214   22592436.8674
        49.000          43.000
 106483995.43947  82974528.94947  20263240.3894   20263242.9084   20263240.7074
        55.000          49.000
 123806305.46747  96472422.41647  23559572.8104   23559578.3524   23559572.7184
        46.000          39.000
 129492540.98747 100903255.70747  24641629.0714   24641633.2534   24641628.5394
        42.000          37.000
 128627665.76247 100229336.08047  24477040.3644   24477044.2064   24477040.1344
        43.000          37.000
 121153060.70747  94404980.78247  23054662.1924   23054663.3804   23054662.1074
        48.000          42.000
 09  1 17  1 18  0.0000000  0 11G14G31G 5G 6G18G30G21G24G12G29G22
 119964261.06447  93478640.99347  22828442.1524   22828444.9204   22828442.1494
        47.000          42.000
 110157246.72047  85836813.50047  20962228.0204   20962230.1154   20962227.6804
        54.000          48.000
 123716503.39547  96402462.14647  23542472.6284   23542477.9224   23542473.0684
        46.000          40.000
 125139835.43947  97511537.06147  23813337.6194   23813343.3664   23813337.7694
        44.000          38.000
 118450107.62147  92298785.29847  22540305.6684   22540307.8884   22540305.9074
        49.000          43.000
 118704649.98347  92497109.76947  22588759.3594   22588763.9744   22588759.2654
        50.000          43.000
 106528835.89947  83009469.56647  20271773.2344   20271775.6904   20271773.6814
        54.000          49.000
 123898468.93047  96544238.12447  23577111.1284   23577116.4744   23577111.2184
        46.000          39.000
 129516075.36547 100921594.27547  24646107.4094   24646111.0814   24646107.1104
        42.000          36.000
 128685595.18647 100274475.96647  24488064.1154   24488068.0074   24488063.9134
        42.000          37.000
 121100779.29447  94364242.06047  23044713.5794   23044714.3684   23044713.4924
        48.000          42.000
 09  1 17  1 18 30.0000000  0 11G14G31G 5G 6G18G30G21G24G12G29G22
 120005627.71747  93510874.76347  22836313.9144   22836317.0754   22836313.7754
        48.000          42.000
 110101236.72147  85793169.38447  20951569.6874   20951571.7424   20951569.2964
        54.000          48.000
 123728233.65147  96411602.64447  23544704.9974   23544710.3754   23544705.5744
        46.000          40.000
 125129601.21747  97503562.40347  23811390.1714   23811395.7654   23811390.1564
        44.000          39.000
 118413386.64247  92270171.55547  22533317.8134   22533319.9584   22533318.1384
        50.000          42.000
 118685518.80847  92482202.38347  22585119.2374   22585123.2184   22585118.6244
        50.000          43.000
 106574241.60847  83044850.63847  20280413.5164   20280415.9934   20280413.8574
        55.000          49.000
 123990846.62247  96616220.75947  23594690.1194   23594695.1484   23594690.1374
        45.000          39.000
 129539881.73747 100940144.76847  24650638.0864   24650641.2104   24650636.9634
        42.000          36.000
 128743308.80547 100319447.71447  24499046.7194   24499049.9394   24499046.2824
        42.000          37.000
 121048378.25847  94323410.12347  23034741.8884   23034742.5844   23034741.6534
        48.000          42.000
 09  1 17  1 19  0.0000000  0 11G14G31G 5G 6G18G30G21G24G12G29G22
 120047002.39447  93543114.79047  22844187.5894   22844190.4064   22844187.7334
        48.000          42.000
 110045728.28247  85749916.09747  20941006.7334   20941008.9084   20941006.4504
        54.000          49.000
 123740277.86547  96420987.80747  23546996.7454   23547002.3184   23546997.4954
        46.000          39.000
 125119537.23147  97495720.41347  23809475.2194   23809480.8904   23809475.1274
        44.000          39.000
 118376734.89947  92241611.76847  22526343.0774   22526345.1064   22526343.3944
        49.000          42.000
 118666585.85047  92467449.46547  22581516.5674   22581520.3774   22581516.3384
        50.000          43.000
 106620210.38847  83080670.46947  20289161.1604   20289163.3864   20289161.5444
        54.000          49.000
 124083435.55947  96688368.00747  23612308.9264   23612313.9954   23612309.0674
        46.000          39.000
 129563960.61447 100958907.60647  24655219.3494   24655223.6814   24655219.1664
        41.000          36.000
 128800805.49147 100364250.42847  24509987.3414   24509991.0374   24509987.0574
        43.000          37.000
 120995858.93847  94282486.00747  23024747.6864   23024748.7284   23024747.5414
        48.000          42.000
 09  1 17  1 19 30.0000000  0 11G14G31G 5G 6G18G30G21G24G12G29G22
 120088382.56347  93575359.11747  22852062.0894   22852064.2994   22852062.2734
        48.000          42.000
 109990723.26647  85707055.08647  20930539.6104   20930541.7724   20930539.2034
        54.000          49.000
 123752637.48147  96430618.72247  23549348.7134   23549354.8324   23549349.3854
        46.000          40.000
 125109641.90347  97488009.84447  23807592.0494   23807597.4094   23807592.4524
        43.000          38.000
 118340154.73647  92213107.77047  22519381.6984   22519384.6744   22519382.2634
        49.000          42.000
 118647853.25647  92452852.67147  22577951.6064   22577955.6814   22577950.9874
        50.000          43.000
 106666740.39747  83116927.61347  20298015.4654   20298017.8534   20298015.7894
        54.000          49.000
 124176233.25647  96760677.93647  23629968.3044   23629972.9014   23629968.3994
        46.000          39.000
 129588313.13647 100977883.65847  24659853.8964   24659857.6314   24659852.9404
        41.000          37.000
 128858084.68347 100408883.67147  24520887.9544   24520891.3314   24520887.3434
        41.000          37.000
 120943223.03447  94241471.05447  23014731.5244   23014732.3974   23014731.6194
        49.000          43.000
 09  1 17  1 20  0.0000000  0 11G14G31G 5G 6G18G30G21G24G12G29G22
 120129767.09247  93607606.83147  22859937.2094   22859939.8524   22859937.0784
        48.000          42.000
 109936224.21047  85664588.33647  20920168.7764   20920171.0524   20920168.4234
        54.000          49.000
 123765314.71147  96440497.10847  23551761.3494   23551766.5234   23551761.8254
        45.000          39.000
 125099914.11147  97480429.81447  23805740.4384   23805745.8784   23805740.3714
        44.000          38.000
 118303649.72547  92184662.33547  22512435.3814   22512437.6914   22512435.7934
        50.000          43.000
 118629324.15547  92438414.44247  22574426.0034   22574429.3934   22574425.7904
        50.000          43.000
 106713830.60547  83153621.28247  20306976.4804   20306979.0164   20306976.8344
        54.000          49.000
 124269238.26947  96833149.39947  23647666.7334   23647671.2994   23647666.8194
        45.000          39.000
 129612941.28647 100997074.49547  24664540.2204   24664543.8684   24664540.1354
        42.000          37.000
 128915146.29547 100453347.38347  24531745.8864   24531749.4534   24531745.5354
        42.000          37.000
 120890473.07147  94200367.21747  23004693.7314   23004694.5854   23004693.9354
        50.000          43.000
 09  1 17  1 20 30.0000000  0 11G14G31G 5G 6G18G30G21G24G12G29G22
 120171152.89547  93639855.53647  22867812.4754   22867815.2164   22867812.7334
        48.000          42.000
 109882232.50647  85622516.91847  20909894.4534   20909896.7914   20909894.0504
        54.000          49.000
 123778310.48647  96450623.73947  23554234.2504   23554239.5424   23554234.7554
        45.000          39.000
 125090351.98747  97472978.86847  23803920.5994   23803926.9364   23803920.6074
        43.000          38.000
 118267221.48947  92156276.71147  22505503.6214   22505505.7344   22505504.3644
        50.000          43.000
 118611000.59347  92424136.36447  22570939.1554   22570942.6854   22570938.8114
        50.000          43.000
 106761478.70947  83190749.66947  20316043.6784   20316046.0734   20316044.1124
        54.000          49.000
 124362447.80147  96905780.23147  23665403.4524   23665408.4624   23665403.6364
        45.000          39.000
 129637845.77747 101016480.66047  24669279.7664   24669283.5814   24669279.5124
        41.000          36.000
 128971989.27347 100497640.73147  24542562.7454   24542566.1254   24542562.6964
        43.000          37.000
 120837610.18847  94159175.39147  22994634.2984   22994634.9844   22994634.2514
        49.000          43.000
 09  1 17  1 21  0.0000000  0 11G14G31G 5G 6G18G30G21G24G12G29G22
 120212536.82747  93672102.79447  22875687.6844   22875690.1444   22875687.8564
        48.000          42.000
 109828749.50147  85580841.89647  20899716.9474   20899719.2094   20899716.7414
        54.000          49.000
 123791625.72547  96460999.27147  23556767.8244   23556773.4434   23556768.4974
        45.000          39.000
 125080953.19747  97465655.21047  23802131.9904   23802137.9274   23802132.1714
        44.000          39.000
 118230872.13347  92127952.55247  22498586.5334   22498588.8324   22498586.9534
        50.000          43.000
 118592884.15447  92410019.68947  22567491.5414   22567495.1324   22567490.9604
        50.000          43.000
 106809682.36747  83228310.96247  20325216.5054   20325219.0534   20325216.7694
        54.000          49.000
 124455858.48647  96978567.79147  23683178.7434   23683184.0784   23683178.7984
        45.000          39.000
 129663026.95347 101036102.45247  24674071.2474   24674075.2664   24674071.1274
        41.000          36.000
 129028612.54947 100541762.88947  24553338.2484   24553340.7274   24553338.5544
        43.000          37.000
 120784635.25147  94117896.24747  22984553.4244   22984554.0304   22984553.4684
        49.000          43.000
 09  1 17  1 21 30.0000000  0 11G14G31G 5G 6G18G30G21G24G12G29G22
 120253918.59547  93704348.36147  22883562.0644   22883565.0454   22883562.5394
        48.000          42.000
 109775778.41947  85539565.76547  20889636.7864   20889638.9684   20889636.3274
        54.000          49.000
 123805263.22747  96471625.95347  23559363.0194   23559368.4374   23559363.3064
        45.000          39.000
 125071717.55247  97458458.66247  23800375.2624   23800380.4224   23800375.4564
        45.000          39.000
 118194605.56747  92099692.90047  22491684.9894   22491687.5034   22491685.5054
        50.000          43.000
 118574978.79447  92396067.48347  22564084.0694   22564088.2224   22564083.5594
        49.000          43.000
 106858441.14347  83266304.80547  20334494.9884   20334497.3714   20334495.3854
        54.000          49.000
 124549469.60047  97051511.52947  23700992.1224   23700997.9204   23700992.1464
        45.000          38.000
 129688487.24247 101055941.71847  24678916.1794   24678919.9024   24678915.9964
        42.000          36.000
 129085016.96247 100585714.49147  24564071.5794   24564074.3854   24564071.3264
        43.000          37.000
 120731551.59647  94076532.38747  22974451.6564   22974452.3224   22974451.8844
        49.000          43.000
 09  1 17  1 22  0.0000000  0 11G14G31G 5G 6G18G30G21G24G12G29G22
 120295292.98047  93736588.17247  22891435.2974   22891438.0394   22891435.6744
        47.000          42.000
 109723318.70047  85498688.10647  20879654.1544   20879656.2124   20879653.7664
        54.000          49.000
 123819221.93147  96482502.89547  23562018.8844   23562024.6084   23562019.1494
        45.000          39.000
 125062640.83747  97451385.96247  23798647.6844   23798652.9554   23798647.9014
        43.000          39.000
 118158421.58647  92071497.60547  22484799.5504   22484801.4954   22484800.0214
        50.000          43.000
 118557284.39947  92382279.66047  22560716.5934   22560721.0494   22560716.4704
        49.000          43.000
 106907750.70147  83304727.83447  20343878.3864   20343880.5984   20343878.6974
        55.000          49.000
 124643276.15847  97124607.56747  23718842.8174   23718848.5764   23718843.0574
        44.000          38.000
 129714225.41047 101075997.53147  24683814.4354   24683817.5734   24683814.0564
        41.000          36.000
 129141199.05147 100629492.88847  24574762.6114   24574765.1014   24574761.9324
        42.000          37.000
 120678358.57347  94035083.30547  22964329.6164   22964330.1044   22964329.5344
        49.000          43.000
 09  1 17  1 22 30.0000000  0 11G14G31G 5G 6G18G30G21G24G12G29G22
 120336660.55947  93768822.68347  22899307.4604   22899310.1464   22899307.7294
        48.000          42.000
 109671375.47547  85458212.91647  20869769.6334   20869771.7954   20869769.3334
        54.000          49.000
 123833506.22847  96493633.54947  23564737.3174   23564742.9094   23564738.1374
        46.000          39.000
 125053724.49647  97444438.21747  23796950.6664   23796956.4304   23796949.9734
        43.000          39.000
 118122325.81447  92043371.05447  22477930.8094   22477932.8404   22477931.3444
        50.000          43.000
 118539806.16947  92368660.28147  22557390.7504   22557394.9504   22557390.4174
        49.000          43.000
 106957612.30747  83343581.02547  20353366.8324   20353368.9294   20353367.2624
        55.000          49.000
 124737278.41447  97197856.10447  23736730.9154   23736736.0874   23736731.2624
        45.000          38.000
 129740245.76447 101096273.23247  24688764.8694   24688769.3254   24688765.2574
        41.000          36.000
 129197161.68347 100673100.26547  24585411.4584   24585414.5924   24585411.2074
        42.000          37.000
 120625060.91447  93993552.68147  22954187.2974   22954187.8874   22954187.4724
        49.000          43.000
 09  1 17  1 23  0.0000000  0 11G14G31G 5G 6G18G30G21G24G12G29G22
 120378018.25647  93801049.49747  22907177.4824   22907179.9304   22907177.6754
        47.000          42.000
 109619948.65447  85418140.11447  20859983.2844   20859985.5404   20859983.0134
        54.000          49.000
 123848116.29347  96505018.07547  23567517.6224   23567522.4064   23567518.3454
        44.000          39.000
 125044965.47947  97437613.06347  23795283.3554   23795289.3114   23795283.7614
        44.000          38.000
 118086319.69147  92015314.34947  22471079.2454   22471081.2904   22471079.6404
        50.000          43.000
 118522545.04247  92355210.07647  22554106.1674   22554110.2494   22554105.7144
        50.000          43.000
 107008022.59947  83382861.76447  20362959.6674   20362961.8334   20362960.1274
        55.000          48.000
 124831472.82947  97271254.39247  23754655.5104   23754660.9124   23754655.5174
        45.000          38.000
 129766547.72347 101116768.37047  24693769.8654   24693774.1404   24693770.0394
        41.000          36.000
 129252903.08847 100716535.27147  24596018.6084   24596021.7744   24596018.1634
        41.000          37.000
 120571659.06747  93951940.88147  22944025.1164   22944026.0674   22944025.3034
        49.000          43.000
 09  1 17  1 23 30.0000000  0 11G14G31G 5G 6G18G30G21G24G12G29G22
 120419363.16447  93833266.34747  22915044.5714   22915047.8594   22915044.7974
        47.000          42.000
 109569039.73347  85378470.86647  20850295.6204   20850297.8594   20850295.1614
        54.000          49.000
 123863053.03647  96516657.13447  23570359.4834   23570365.3584   23570360.0084
        45.000          39.000
 125036361.82347  97430908.98847  23793646.9084   23793652.0244   23793646.7604
        45.000          38.000
 118050404.92147  91987328.83147  22464245.1504   22464246.9274   22464245.4184
        51.000          44.000
 118505503.16147  92341930.71947  22550863.0744   22550867.2374   22550862.6284
        49.000          43.000
 107058979.48447  83422568.42647  20372656.2324   20372658.4614   20372656.6784
        54.000          48.000
 124925856.54547  97344800.17247  23772616.0984   23772621.6804   23772615.9564
        44.000          38.000
 129793131.66247 101137483.23447  24698829.3384   24698833.4624   24698828.7624
        41.000          36.000
 129308422.12347 100759796.95547  24606583.6864   24606586.6704   24606582.9964
        41.000          37.000
 120518154.22647  93910248.83047  22933843.6464   22933844.2644   22933843.5374
        48.000          42.000
 09  1 17  1 24  0.0000000  0 11G14G31G 5G 6G18G30G21G24G12G29G22
 120460692.37747  93865470.95547  22922909.3884   22922912.6054   22922909.7444
        47.000          42.000
 109518649.83547  85339206.05547  20840706.7784   20840708.9754   20840706.6174
        54.000          49.000
 123878317.07447  96528551.23247  23573264.4384   23573269.7234   23573265.3024
        45.000          39.000
 125027910.82447  97424323.84247  23792038.7424   23792043.4364   23792039.0944
        43.000          38.000
 118014583.39047  91959415.96147  22457428.3354   22457430.2904   22457428.9574
        50.000          43.000
 118488681.89347  92328823.27247  22547662.2764   22547666.0104   22547662.1274
        50.000          43.000
 107110480.04747  83462698.73047  20382456.4904   20382458.6864   20382457.0134
        55.000          48.000
 125020426.28947  97418490.91247  23790611.7144   23790617.5014   23790612.2624
        45.000          38.000
 129819998.30947 101158418.42247  24703941.2864   24703945.2424   24703941.8954
        40.000          36.000
 129363717.31447 100802884.22347  24617105.0824   24617108.5134   24617104.8704
        41.000          37.000
 120464547.71347  93868477.54647  22923642.6684   22923643.1734   22923642.4944
        49.000          42.000
 09  1 17  1 24 30.0000000  0 11G14G31G 5G 6G18G30G21G24G12G29G22
 120502007.42447  93897664.52847  22930771.6094   22930774.4104   22930771.7924
        47.000          42.000
 109468784.74947  85300350.18647  20831217.5884   20831219.7994   20831217.1654
        54.000          49.000
 123893913.79447  96540704.56647  23576232.6604   23576237.4284   23576232.8754
        45.000          39.000
 125019615.17747  97417859.75347  23790459.3024   23790465.3014   23790459.3814
        44.000          38.000
 117978861.49747  91931580.73247  22450630.2514   22450632.8694   22450630.5474
        50.000          43.000
 118472087.52347  92315892.62547  22544504.5694   22544508.2504   22544504.0384
        50.000          43.000
 107162526.10947  83503254.10247  20392360.5094   20392362.7154   20392360.9124
        55.000          48.000
 125115183.92647  97492328.06847  23808643.8714   23808649.2424   23808643.6424
        44.000          38.000
 129847153.03947 101179578.07247  24709108.8954   24709113.1454   24709108.1954
        42.000          36.000
 129418792.41347 100845799.93347  24627585.1064   24627589.5454   24627585.5964
        42.000          37.000
 120410845.18447  93826631.45847  22913423.1794   22913423.8904   22913423.1934
        49.000          42.000
 09  1 17  1 25  0.0000000  0 11G14G31G 5G 6G18G30G21G24G12G29G22
 120543300.57847  93929841.04847  22938629.6104   22938631.6904   22938629.6684
        47.000          42.000
 109419440.40947  85261900.09347  20821827.5174   20821829.7514   20821827.0504
        54.000          49.000
 123909839.00447  96553113.86547  23579263.0214   23579268.0634   23579263.4284
        44.000          39.000
 125011467.69947  97411511.12147  23788909.1644   23788915.0794   23788909.2924
        44.000          38.000
 117943236.15647  91903820.73147  22443850.8714   22443853.6704   22443851.1314
        50.000          43.000
 118455716.99347  92303136.39547  22541389.6754   22541393.1394   22541388.9914
        50.000          43.000
 107215110.52547  83544228.96147  20402366.9754   20402369.3514   20402367.4934
        55.000          48.000
 125210121.45447  97566305.39747  23826709.5874   23826715.2144   23826709.5314
        44.000          38.000
 129874590.63647 101200958.12447  24714329.7394   24714333.6454   24714328.9714
        41.000          36.000
 129473641.51347 100888539.54547  24638022.6194   24638026.5144   24638022.3134
        41.000          37.000
 120357042.85847  93784707.58547  22903185.0174   22903185.2894   22903185.1424
        48.000          42.000
 09  1 17  1 25 30.0000000  0 11G14G31G 5G 6G18G30G21G24G12G29G22
 120584571.92647  93962000.57047  22946483.1394   22946485.5684   22946483.2984
        47.000          42.000
 109370620.80347  85223858.88447  20812537.6434   20812539.7524   20812537.4324
        54.000          49.000
 123926096.03147  96565781.72447  23582356.5184   23582361.7694   23582356.6594
        44.000          39.000
 125003468.52647  97405278.03947  23787387.1664   23787392.8734   23787387.6704
        44.000          38.000
 117907712.36047  91876139.85847  22437091.1734   22437093.5884   22437091.6034
        50.000          43.000
 118439574.51147  92290557.88447  22538317.2444   22538320.9014   22538316.9814
        50.000          43.000
 107268233.47547  83585623.46347  20412475.9744   20412478.3784   20412476.3544
        54.000          48.000
 125305238.11847  97640422.32247  23844809.7654   23844815.5984   23844810.2754
        44.000          38.000
 129902314.44947 101222561.19547  24719605.2184   24719609.2514   24719604.7324
        42.000          36.000
 129528266.41447 100931104.45047  24648417.2734   24648421.2814   24648418.5424
        40.000          37.000
 120303144.74547  93742709.07847  22892928.3204   22892928.6264   22892928.4044
        48.000          42.000
 09  1 17  1 26  0.0000000  0 11G14G31G 5G 6G18G30G21G24G12G29G22
 120625819.87247  93994141.86647  22954332.1944   22954335.1864   22954332.4904
        47.000          42.000
 109322328.12847  85186228.26547  20803347.7994   20803349.8884   20803347.3934
        54.000          49.000
 123942686.85247  96578709.71147  23585513.6014   23585518.7604   23585513.9004
        45.000          39.000
 124995616.83247  97399159.88447  23785893.1304   23785898.7574   23785893.2244
        44.000          38.000
 117872293.04947  91848540.38947  22430351.0884   22430353.3344   22430351.7264
        50.000          43.000
 118423663.07147  92278159.38747  22535289.6274   22535293.1504   22535289.3904
        50.000          43.000
 107321893.42847  83627436.40947  20422687.2224   20422689.4964   20422687.7654
        55.000          48.000
 125400532.21347  97714677.51047  23862943.1364   23862948.7314   23862943.0154
        43.000          38.000
 129930325.85647 101244388.39847  24724935.9114   24724938.7744   24724935.7944
        41.000          36.000
 129582666.49647 100973494.18547  24658769.0494   24658773.9414   24658769.4984
        42.000          37.000
 120249153.35647  93700637.87947  22882654.4074   22882654.5744   22882654.5324
        47.000          42.000
 09  1 17  1 26 30.0000000  0 11G14G31G 5G 6G18G30G21G24G12G29G22
 120667042.16347  94026263.16447  22962176.7964   22962179.5104   22962177.0084
        48.000          42.000
 109274564.03847  85149009.53147  20794258.6384   20794260.6674   20794258.3694
        54.000          49.000
 123959612.80047  96591898.81847  23588734.9244   23588739.7434   23588735.3664
        45.000          39.000
 124987910.88547  97393155.30047  23784426.4574   23784432.2434   23784426.6784
        44.000          38.000
 117836980.78847  91821024.36147  22423630.9684   22423633.7394   22423631.3754
        50.000          43.000
 118407984.84747  92265942.62247  22532306.1654   22532309.7444   22532305.9554
        50.000          43.000
 107376088.28847  83669666.17347  20433000.1174   20433002.5444   20433000.3924
        55.000          48.000
 125496001.60447  97789069.30247  23881110.3754   23881116.2274   23881110.2144
        43.000          37.000
 129958626.28247 101266440.75747  24730320.4704   24730325.2444   24730320.4844
        40.000          36.000
 129636841.69247 101015708.66347  24669078.3374   24669082.5874   24669077.4454
        40.000          36.000
 120195070.72247  93658495.59347  22872362.6114   22872363.2814   22872362.5734
        48.000          42.000
 09  1 17  1 27  0.0000000  0 11G14G31G 5G 6G18G30G21G24G12G29G22
 120708235.13447  94058361.62047  22970015.5154   22970017.8244   22970015.7984
        47.000          41.000
 109227328.97947  85112203.02847  20785270.0714   20785272.3124   20785269.6224
        54.000          49.000
 123976873.71847  96605348.94547  23592019.2204   23592024.1614   23592019.8304
        44.000          39.000
 124980347.51347  97387261.80247  23782987.0454   23782992.4024   23782986.7564
        42.000          38.000
 117801776.46947  91793592.43047  22416931.9454   22416934.4584   22416932.3734
        50.000          43.000
 118392541.16047  92253908.60747  22529367.5064   22529371.4304   22529367.2614
        50.000          43.000
 107430814.66747  83712310.10047  20443414.2434   20443416.5494   20443414.7364
        55.000          48.000
 125591642.29547  97863594.56947  23899310.1714   23899315.9564   23899310.8394
        44.000          37.000
 129987215.27147 101288718.01647  24735761.6914   24735764.7104   24735760.4434
        40.000          35.000
 129690790.26847 101057746.53747  24679344.1754   24679347.9984   24679343.9784
        40.000          36.000
 120140897.14147  93616282.42047  22862053.6884   22862054.4564   22862053.7634
        49.000          42.000
 09  1 17  1 27 30.0000000  0 11G14G31G 5G 6G18G30G21G24G12G29G22
 120749398.36547  94090436.89747  22977848.3994   22977850.5974   22977848.6994
        47.000          41.000
 109180626.33547  85075811.39647  20776382.8804   20776384.9604   20776382.5514
        54.000          49.000
 123994472.74747  96619062.54047  23595368.2334   23595373.1744   23595368.5754
        44.000          39.000
 124972926.92647  97381479.57447  23781574.8944   23781580.7934   23781574.9874
        43.000          38.000
 117766684.88647  91766248.35247  22410254.2574   22410256.8244   22410254.6084
        50.000          43.000
 118377335.99447  92242060.47247  22526473.6554   22526477.3744   22526473.4434
        50.000          43.000
 107486072.51847  83755368.16047  20453929.4424   20453931.8094   20453929.8134
        54.000          48.000
 125687453.72347  97938252.86547  23917542.2534   23917548.3524   23917543.0534
        43.000          38.000
 130016095.24947 101311222.00947  24741256.5194   24741259.6804   24741255.9574
        40.000          36.000
 129744513.89747 101099609.15147  24689568.2394   24689571.6784   24689567.3794
        40.000          36.000
 120086636.31147  93574001.26547  22851728.4214   22851728.5554   22851728.6014
        49.000          42.000
 09  1 17  1 28  0.0000000  0 11G14G31G 5G 6G18G30G21G24G12G29G22
 120790529.03647  94122486.80047  22985675.3004   22985677.9314   22985675.4004
        47.000          41.000
 109134456.78047  85039835.15647  20767597.1734   20767599.0684   20767596.7334
        55.000          49.000
 124012410.30747  96633039.91147  23598781.3534   23598786.2124   23598782.3404
        45.000          39.000
 124965646.63947  97375806.66847  23780189.4364   23780195.2214   23780189.7854
        43.000          38.000
 117731707.43747  91738993.20747  22403598.2144   22403600.6754   22403598.7564
        50.000          43.000
 118362370.68247  92230399.22147  22523625.7354   22523630.0124   22523625.5174
        50.000          43.000
 107541858.81247  83798837.99547  20464545.2474   20464547.6134   20464545.5894
        55.000          48.000
 125783432.51747  98013041.59947  23935806.5784   23935812.2404   23935806.3324
        42.000          37.000
 130045266.62847 101333953.06947  24746807.6774   24746811.3834   24746807.2704
        41.000          36.000
 129798011.32747 101141295.48547  24699747.6784   24699751.7104   24699747.4004
        40.000          36.000
 120032289.73847  93531653.29447  22841386.9584   22841387.0284   22841386.8714
        49.000          43.000
 09  1 17  1 28 30.0000000  0 11G14G31G 5G 6G18G30G21G24G12G29G22
 120831624.53147  94154509.31247  22993495.4834   22993498.2674   22993495.5364
        47.000          42.000
 109088821.26547  85004275.05447  20758912.8804   20758914.9294   20758912.5414
        54.000          49.000
 124030687.26747  96647281.76647  23602259.2064   23602263.6314   23602259.7894
        43.000          39.000
 124958504.46847  97370241.38647  23778830.6674   23778835.7264   23778830.7574
        44.000          38.000
 117696846.15247  91711828.56247  22396964.6354   22396966.7824   22396965.1704
        50.000          43.000
 118347647.25847  92218926.47047  22520823.6054   22520827.7934   22520823.5234
        50.000          43.000
 107598170.75947  83842717.42847  20475261.1004   20475263.3594   20475261.5654
        55.000          48.000
 125879575.92447  98087958.60947  23954102.2034   23954108.0714   23954101.4794
        43.000          37.000
 130074729.87047 101356911.57247  24752414.7104   24752418.3694   24752414.0814
        41.000          36.000
 129851281.48447 101182804.72747  24709884.7654   24709889.3894   24709884.7464
        41.000          36.000
 119977858.36247  93489239.23547  22831028.8064   22831029.2764   22831028.7544
        50.000          43.000
 09  1 17  1 29  0.0000000  0 11G14G31G 5G 6G18G30G21G24G12G29G22
 120872682.04847  94186502.22047  23001308.4624   23001310.9604   23001308.5484
        47.000          41.000
 109043721.07347  84969132.09747  20750330.6464   20750332.6914   20750330.4774
        54.000          49.000
 124049304.34347  96661788.63147  23605801.7254   23605806.6054   23605802.4204
        44.000          38.000
 124951498.41647  97364782.16447  23777497.3044   23777502.8164   23777497.3524
        44.000          38.000
 117662103.36447  91684756.26047  22390353.2454   22390355.6394   22390353.7014
        50.000          43.000
 118333167.40347  92207643.51347  22518068.3954   22518072.4014   22518067.8154
        50.000          43.000
 107655005.80647  83887004.47547  20486076.3844   20486078.8154   20486076.8514
        54.000          48.000
 125975881.17147  98163001.71947  23972428.4334   23972433.9714   23972428.7464
        43.000          38.000
 130104485.08147 101380097.54347  24758076.4454   24758079.8004   24758075.4094
        40.000          35.000
 129904323.42647 101224136.14747  24719979.0124   24719982.8884   24719978.4914
        41.000          37.000
 119923343.19047  93446759.88047  22820654.7514   22820655.0374   22820654.9684
        50.000          43.000
 09  1 17  1 29 30.0000000  0 11G14G31G 5G 6G18G30G21G24G12G29G22
 120913705.61847  94218468.68347  23009114.9604   23009117.4624   23009115.1784
        47.000          41.000
 108999163.89347  84934412.25047  20741851.7134   20741853.8004   20741851.0724
        54.000          49.000
 124068268.89547  96676566.27247  23609410.7904   23609415.5124   23609411.2264
        44.000          39.000
 124944632.63947  97359432.25247  23776190.7854   23776195.8674   23776190.8254
        43.000          38.000
 117627487.66547  91657783.00747  22383765.7744   22383768.3094   22383766.4464
        49.000          43.000
 118318939.43447  92196556.81247  22515360.9444   22515364.7884   22515360.7554
        50.000          43.000
 107712367.92447  83931702.22047  20496992.0274   20496994.5364   20496992.4184
        54.000          48.000
 126072351.81947  98238173.73347  23990786.5284   23990792.0314   23990786.4784
        43.000          37.000
 130134539.60947 101403516.79047  24763795.8364   24763799.4154   24763795.4964
        40.000          36.000
 129957143.00647 101265294.29247  24730029.7424   24730033.4924   24730029.9164
        41.000          36.000
 119868752.92247  93404222.00747  22810266.8264   22810266.6454   22810266.6694
        50.000          43.000
 09  1 17  1 30  0.0000000  0 11G14G31G 5G 6G18G30G21G24G12G29G22
 120954682.15647  94250398.48947  23016912.5634   23016914.9714   23016912.9484
        47.000          41.000
 108955139.57047  84900107.62147  20733473.9324   20733476.1154   20733473.5854
        54.000          49.000
 124087570.86747  96691606.83447  23613083.2444   23613088.2744   23613084.1204
        44.000          38.000
 124937894.50447  97354181.81547  23774908.4154   23774913.6474   23774908.5924
        44.000          38.000
 117592990.36847  91630902.00547  22377201.4124   22377203.7284   22377201.8034
        51.000          43.000
 118304954.36447  92185659.38647  22512699.9454   22512703.1514   22512699.3464
        50.000          43.000
 107770243.72447  83976800.23947  20508005.3404   20508007.7074   20508005.7444
        54.000          48.000
 126168974.08047  98313463.88947  24009172.8864   24009177.8304   24009173.2134
        43.000          37.000
 130164882.90047 101427161.06147  24769570.3784   24769573.3524   24769569.7274
        41.000          36.000
 130009728.73847 101306270.23247  24740037.2664   24740039.9674   24740036.8634
        40.000          36.000
 119814078.10047  93361618.25247  22799862.4814   22799862.5934   22799862.5494
        50.000          43.000
 09  1 17  1 30 30.0000000  0 11G14G31G 5G 6G18G30G21G24G12G29G22
 120995615.83547  94282294.91047  23024702.1704   23024704.2204   23024702.5764
        47.000          41.000
 108911656.87847  84866225.04947  20725199.4314   20725201.5314   20725199.0854
        54.000          49.000
 124107218.21847  96706916.51247  23616822.4704   23616827.6664   23616823.2744
        45.000          39.000
 124931289.04947  97349034.73047  23773651.7544   23773656.5274   23773651.6644
        44.000          38.000
 117558620.85747  91604120.56147  22370660.9734   22370663.0424   22370661.1964
        50.000          43.000
 118291221.45147  92174958.44247  22510086.1504   22510090.0404   22510085.8254
        50.000          43.000
 107828637.86147  84022302.15847  20519117.4754   20519119.6924   20519117.8814
        54.000          48.000
 126265752.44447  98388875.70047  24027589.5104   24027594.7004   24027589.0604
        43.000          37.000
 130195522.85347 101451036.44547  24775400.2334   24775403.7284   24775399.6284
        42.000          35.000
 130062087.07847 101347068.96847  24750000.0534   24750003.3304   24749999.8294
        40.000          36.000
 119759327.87247  93318955.74247  22789443.9874   22789444.0084   22789444.0644
        50.000          43.000
 09  1 17  1 31  0.0000000  0 11G14G31G 5G 6G18G30G21G24G12G29G22
 121036502.56447  94314154.74647  23032482.3924   23032484.6914   23032482.7214
        47.000          41.000
 108868714.65847  84832763.61547  20717027.7754   20717029.6344   20717027.2934
        54.000          49.000
 124127209.93747  96722494.51147  23620626.6644   23620632.0654   23620627.5614
        45.000          39.000
 124924812.11347  97343987.81047  23772418.6774   23772424.6834   23772418.7604
        45.000          38.000
 117524379.41447  91577438.91247  22364144.8694   22364147.3394   22364145.2494
        50.000          43.000
 118277740.52747  92164453.85647  22507520.9864   22507524.6564   22507520.9164
        50.000          43.000
 107887545.68347  84068204.34647  20530327.2524   20530329.5314   20530327.6844
        54.000          48.000
 126362682.27947  98464405.53047  24046034.1574   24046039.4694   24046034.2574
        42.000          37.000
 130226457.89347 101475141.82147  24781286.7864   24781289.0654   24781286.9394
        40.000          35.000
 130114215.32847 101387688.42547  24759920.6164   24759923.3764   24759919.6844
        41.000          36.000
 119704501.35047  93276233.78047  22779010.4794   22779010.8484   22779010.4484
        49.000          43.000
 09  1 17  1 31 30.0000000  0 11G14G31G 5G 6G18G30G21G24G12G29G22
 121077340.23847  94345976.35647  23040253.4544   23040255.9304   23040253.7684
        47.000          41.000
 108826314.70347  84799724.72947  20708959.1964   20708961.3064   20708958.7434
        54.000          49.000
 124147547.16747  96738341.75947  23624497.0684   23624501.4774   23624497.4304
        45.000          39.000
 124918462.18247  97339039.85347  23771210.7364   23771216.0664   23771211.0824
        43.000          38.000
 117490268.66947  91550859.10947  22357654.3574   22357656.3404   22357654.9584
        50.000          43.000
 118264514.02747  92154147.51547  22505004.3364   22505007.9084   22505003.7314
        50.000          43.000
 107946965.28747  84114505.32647  20541634.5054   20541636.6714   20541634.8784
        54.000          48.000
 126459761.07947  98540051.44047  24064507.1324   24064512.8554   24064507.7394
        43.000          37.000
 130257688.97847 101499477.84847  24787230.0644   24787233.4624   24787229.4354
        40.000          35.000
 130166113.00347 101428128.22947  24769795.6344   24769798.5964   24769795.3354
        41.000          36.000
 119649600.97447  93233454.28247  22768563.3814   22768563.7734   22768563.2634
        49.000          43.000
 09  1 17  1 32  0.0000000  0 11G14G31G 5G 6G18G30G21G24G12G29G22
 121118130.00547  94377760.62447  23048015.4144   23048018.0064   23048015.3984
        47.000          41.000
 108784461.01147  84767111.50747  20700994.8244   20700996.6634   20700994.5364
        55.000          49.000
 124168234.08347  96754461.49247  23628433.2874   23628438.3404   23628433.6794
        45.000          39.000
 124912240.45747  97334191.80447  23770025.8074   23770031.9484   23770025.9434
        43.000          38.000
 117456294.12347  91524385.43847  22351188.8404   22351191.0494   22351189.3254
        50.000          43.000
 118251547.14547  92144043.49147  22502536.5524   22502540.4254   22502536.3474
        49.000          43.000
 108006897.44747  84161205.71047  20553039.1494   20553041.3354   20553039.3974
        54.000          48.000
 126556989.70147  98615814.08747  24083009.4834   24083014.6354   24083009.9414
        43.000          37.000
 130289220.07347 101524047.63847  24793230.2824   24793232.8294   24793229.8044
        41.000          35.000
 130217783.78647 101468391.24847  24779628.9414   24779632.3004   24779628.4844
        41.000          36.000
 119594631.58147  93190621.00647  22758102.8894   22758103.3274   22758102.8654
        49.000          43.000
 09  1 17  1 32 30.0000000  0 11G14G31G 5G 6G18G30G21G24G12G29G22
 121158865.60047  94409502.69847  23055767.2414   23055769.7614   23055767.5674
        47.000          41.000
 108743150.94747  84734921.87647  20693133.8654   20693135.6394   20693133.4244
        55.000          49.000
 124189267.90847  96770851.51947  23632435.9474   23632441.0384   23632436.4954
        46.000          39.000
 124906141.52747  97329439.41447  23768866.1224   23768871.2764   23768866.5424
        44.000          38.000
 117422454.47947  91498016.89747  22344749.4404   22344751.6384   22344749.8884
        50.000          43.000
 118238838.39347  92134140.60447  22500118.1154   22500121.9394   22500117.6064
        50.000          44.000
 108067335.67747  84208300.42947  20564540.1024   20564542.5744   20564540.5404
        54.000          48.000
 126654361.57847  98691688.40347  24101538.4034   24101543.6844   24101539.0734
        43.000          37.000
 130321047.82947 101548848.58647  24799286.3514   24799290.1564   24799286.4724
        41.000          35.000
 130269222.66447 101508473.57147  24789416.4154   24789420.0184   24789416.6504
        41.000          36.000
 119539591.17747  93147732.39647  22747628.8074   22747629.3834   22747628.9914
        49.000          43.000
 09  1 17  1 33  0.0000000  0 11G14G31G 5G 6G18G30G21G24G12G29G22
 121199548.12147  94441203.41247  23063508.7934   23063510.9974   23063508.9854
        46.000          41.000
 108702389.72947  84703159.92647  20685377.1004   20685379.0264   20685376.8164
        54.000          49.000
 124210652.92547  96787515.22247  23636505.4904   23636509.7874   23636505.6854
        46.000          39.000
 124900166.83447  97324783.86647  23767728.9184   23767734.3364   23767728.8644
        44.000          38.000
 117388755.62747  91471758.05447  22338336.7714   22338339.1894   22338337.1984
        50.000          43.000
 118226393.00247  92124442.92647  22497750.1124   22497753.8954   22497750.0504
        50.000          43.000
 108128281.14547  84255790.39947  20576137.5894   20576139.9694   20576138.1004
        54.000          48.000
 126751877.43847  98767674.90147  24120095.4994   24120100.2974   24120095.4624
        43.000          37.000
 130353176.44347 101573883.97647  24805401.0274   24805403.0074   24805400.6244
        40.000          35.000
 130320432.67547 101548377.53847  24799161.4404   24799164.2824   24799161.4554
        41.000          36.000
 119484485.17147  93104792.66747  22737142.6174   22737142.9644   22737142.6714
        49.000          43.000
 09  1 17  1 33 30.0000000  0 11G14G31G 5G 6G18G30G21G24G12G29G22
 121240172.93047  94472859.14547  23071239.1814   23071241.9134   23071239.3114
        46.000          41.000
 108662175.63347  84671824.30147  20677724.7714   20677726.5934   20677724.5084
        55.000          49.000
 124232387.59647  96804451.36847  23640641.0254   23640646.3094   23640641.3564
        44.000          39.000
 124894311.90947  97320221.60847  23766615.1394   23766620.5844   23766615.5144
        44.000          38.000
 117355197.23947  91445608.66047  22331950.9164   22331952.9134   22331951.3664
        50.000          43.000
 118214210.61247  92114950.18147  22495432.1174   22495435.4554   22495431.5434
        50.000          44.000
 108189728.92147  84303671.78447  20587830.9044   20587833.1134   20587831.2414
        55.000          48.000
 126849532.20747  98843769.64347  24138678.4704   24138683.4284   24138678.1314
        43.000          37.000
 130385603.89947 101599152.24447  24811570.3774   24811574.2054   24811570.9634
        41.000          35.000
 130371411.09847 101588101.02947  24808863.0084   24808864.6314   24808862.1134
        41.000          36.000
 119429312.88447  93061801.27247  22726643.9154   22726644.1514   22726644.0304
        49.000          43.000
 09  1 17  1 34  0.0000000  0 11G14G31G 5G 6G18G30G21G24G12G29G22
 121280738.88147  94504469.00947  23078959.0184   23078961.3854   23078959.3074
        47.000          41.000
 108622510.77747  84640916.64847  20670176.5764   20670178.5624   20670176.0824
        55.000          49.000
 124254473.80847  96821661.42147  23644844.1044   23644849.1484   23644844.5674
        45.000          39.000
 124888576.00347  97315752.10847  23765523.5624   23765528.4754   23765523.3074
        44.000          38.000
 117321782.87047  91419571.49447  22325591.9194   22325594.5084   22325592.4064
        50.000          43.000
 118202294.24847  92105664.72247  22493163.9724   22493167.8784   22493163.6984
        50.000          43.000
 108251677.24047  84351943.19347  20599619.3614   20599621.5254   20599619.8424
        55.000          48.000
 126947324.16547  98919971.28447  24157287.5174   24157292.4854   24157287.5414
        43.000          37.000
 130418331.71947 101624654.55047  24817798.8584   24817802.3224   24817799.3494
        41.000          35.000
 130422158.32447 101627644.39147  24818519.1474   24818521.5324   24818518.9624
        41.000          36.000
 119374077.03047  93018760.36147  22716132.6644   22716133.3514   22716132.6484
        49.000          43.000
 09  1 17  1 34 30.0000000  0 11G14G31G 5G 6G18G30G21G24G12G29G22
 121321245.03047  94536032.28147  23086667.1264   23086669.2584   23086667.4674
        47.000          41.000
 108583397.57547  84610438.86347  20662733.7194   20662735.4594   20662733.5714
        55.000          49.000
 124276913.76647  96839147.15147  23649113.9414   23649119.0794   23649114.0974
        44.000          39.000
 124882958.37447  97311374.76247  23764454.8194   23764459.4934   23764454.5684
        44.000          38.000
 117288516.12247  91393649.34947  22319261.9144   22319264.4184   22319262.3424
        50.000          43.000
 118190647.25547  92096589.17947  22490947.4894   22490951.3284   22490947.1634
        50.000          43.000
 108314125.14147  84400603.89047  20611502.6014   20611505.0654   20611502.9554
        54.000          48.000
 127045252.07947  98996278.84447  24175922.1384   24175927.6294   24175923.2814
        43.000          37.000
 130451362.14847 101650392.64247  24824084.7654   24824087.7874   24824084.5234
        41.000          36.000
 130472675.28747 101667008.35347  24828132.0334   24828135.0014   24828131.9964
        42.000          37.000
 119318780.83847  92975672.43847  22705610.2544   22705610.7184   22705610.3154
        49.000          43.000
 09  1 17  1 35  0.0000000  0 11G14G31G 5G 6G18G30G21G24G12G29G22
 121361687.79247  94567546.17047  23094362.5894   23094364.7894   23094363.0054
        47.000          41.000
 108544836.19147  84580391.06347  20655395.6954   20655397.4674   20655395.1284
        55.000          50.000
 124299707.37147  96856908.42447  23653451.5884   23653456.5374   23653452.0204
        45.000          39.000
 124877456.11747  97307087.32847  23763407.1014   23763411.6984   23763407.6374
        44.000          38.000
 117255398.36347  91367843.31247  22312960.1344   22312962.1624   22312960.5934
        51.000          43.000
 118179270.59747  92087724.26747  22488782.7194   22488786.2104   22488782.3374
        51.000          43.000
 108377068.88647  84449650.95647  20623480.3214   20623482.8044   20623480.5994
        54.000          48.000
 127143312.36347  99072689.56447  24194583.0404   24194587.7894   24194583.6534
        44.000          37.000
 130484694.51247 101676366.02647  24830427.3484   24830430.7014   24830426.9774
        40.000          35.000
 130522960.55147 101706191.73647  24837701.0004   24837704.1234   24837700.6564
        42.000          36.000
 119263425.26047  92932538.23247  22695076.0244   22695076.9864   22695076.2864
        49.000          43.000
 09  1 17  1 35 30.0000000  0 11G14G31G 5G 6G18G30G21G24G12G29G22
 121402065.84347  94599009.61347  23102046.6724   23102048.7234   23102046.8174
        47.000          41.000
 108506827.79947  84550774.15747  20648162.9484   20648164.7454   20648162.6234
        55.000          50.000
 124322855.86447  96874946.23547  23657856.8444   23657861.7844   23657857.4584
        45.000          39.000
 124872067.88747  97302888.74847  23762382.4684   23762386.8144   23762382.8804
        43.000          39.000
 117222432.46147  91342155.59647  22306686.6474   22306688.7284   22306686.9894
        50.000          43.000
 118168166.62247  92079071.84347  22486669.6604   22486673.3244   22486669.4124
        50.000          43.000
 108440506.40947  84499082.77747  20635552.2084   20635554.5644   20635552.6024
        54.000          48.000
 127241502.73747  99149201.66147  24213267.7304   24213272.7474   24213267.8394
        43.000          37.000
 130518329.65947 101702575.34847  24836827.4134   24836829.7194   24836827.5064
        40.000          35.000
 130573014.21347 101745194.65347  24847226.4394   24847228.9234   24847225.7324
        41.000          37.000
 119208012.59347  92889359.54147  22684531.5144   22684532.4034   22684531.8454
        49.000          43.000
 09  1 17  1 36  0.0000000  0 11G14G31G 5G 6G18G30G21G24G12G29G22
 121442376.48347  94630420.52947  23109717.3604   23109719.4614   23109717.4794
        46.000          41.000
 108469373.40147  84521588.94747  20641035.7234   20641037.3624   20641035.4794
        55.000          50.000
 124346359.74147  96893260.99047  23662329.3454   23662333.9374   23662329.6964
        45.000          39.000
 124866791.28747  97298777.16647  23761377.8824   23761382.6074   23761377.1804
        45.000          38.000
 117189620.58747  91316587.89947  22300442.4454   22300444.7484   22300442.9904
        50.000          43.000
 118157337.06547  92070633.24647  22484608.4744   22484612.6944   22484608.3224
        50.000          44.000
 108504434.88947  84548897.17147  20647717.4444   20647719.7534   20647717.8764
        54.000          48.000
 127339820.40947  99225812.96947  24231977.0804   24231981.9924   24231976.6584
        43.000          37.000
 140552286.19557  91729038.06257  24843287.0285   24843289.3655   24843284.7585
        39.000          34.000
 130622835.70647 101784016.65847  24856706.4144   24856709.0684   24856706.8224
        41.000          36.000
 119152544.12747  92846137.37847  22673976.1924   22673976.8524   22673976.5754
        49.000          43.000
 09  1 17  1 36 30.0000000  0 12G14G31G 5G 6G18G30G21G24G16G12G29G22
 121482617.47647  94661777.16047  23117374.7174   23117377.3104   23117374.8374
        46.000          41.000
 108432473.65547  84492835.92847  20634013.6884   20634015.7334   20634013.1414
        55.000          50.000
 124370219.71447  96911853.20047  23666869.8214   23666874.3974   23666870.3764
        45.000          39.000
 124861624.32347  97294750.97947  23760394.6984   23760399.1504   23760395.2624
        43.000          38.000
 117156965.26547  91291142.20247  22294228.5154   22294230.6044   22294228.9974
        51.000          43.000
 118146784.00347  92062410.09547  22482600.4714   22482604.3214   22482599.9954
        50.000          44.000
 108568851.31047  84599091.77647  20659975.4344   20659977.7634   20659975.8704
        54.000          48.000
 127438262.89747  99302521.59047  24250709.8704   24250714.4614   24250710.0944
        44.000          37.000
 140915536.95157  92012079.60357  24912422.8265   24912424.6615   24912422.0255
        41.000          35.000
 140586528.39947  91755720.41547  24849802.4754   24849805.0544   24849801.5744
        41.000          35.000
 130672424.40447 101822657.27147  24866143.2814   24866145.7304   24866143.2404
        40.000          36.000
 119097021.98647  92802873.39247  22663410.7704   22663411.4614   22663410.7324
        50.000          43.000
 09  1 17  1 37  0.0000000  0 12G14G31G 5G 6G18G30G21G24G16G12G29G22
 121522788.51847  94693079.31447  23125019.0704   23125021.3234   23125019.5374
        46.000          41.000
 108396131.88447  84464517.69747  20627097.9074   20627099.8594   20627097.5064
        54.000          49.000
 124394438.78047  96930725.25047  23671478.5784   23671483.0534   23671479.0584
        45.000          39.000
 124856567.29547  97290810.49547  23759431.6604   23759437.0364   23759431.4214
        45.000          39.000
 117124470.77847  91265821.83247  22288045.1524   22288047.3644   22288045.6374
        50.000          44.000
 118136511.43247  92054405.51047  22480645.9414   22480649.6534   22480645.6314
        51.000          44.000
 108633755.54547  84649666.49547  20672326.3014   20672328.6124   20672326.6214
        54.000          48.000
 127536829.32547  99379326.77747  24269466.9684   24269470.8814   24269466.9164
        43.000          36.000
 140847436.30447  91959014.28047  24899461.5784   24899465.6014   24899462.3944
        39.000          34.000
 140621076.70447  91782641.33947  24856376.3094   24856379.0194   24856376.4854
        39.000          35.000
 130721782.24747 101861118.02247  24875535.5444   24875538.4244   24875534.9944
        41.000          36.000
 119041450.04147  92759570.58447  22652835.7854   22652836.4274   22652836.0084
        50.000          43.000
 09  1 17  1 37 30.0000000  0 12G14G31G 5G 6G18G30G21G24G16G12G29G22
 121562885.12247  94724323.47747  23132649.2204   23132651.4554   23132649.5504
        46.000          41.000
 108360346.27647  84436632.83747  20620288.1554   20620290.0024   20620287.8214
        55.000          49.000
 124419015.09447  96949875.67447  23676155.1414   23676160.0514   23676155.7444
        45.000          39.000
 124851615.84347  97286952.23447  23758490.3004   23758495.1524   23758490.4754
        44.000          39.000
 117092136.94747  91240626.66347  22281892.0544   22281894.2734   22281892.3304
        50.000          43.000
 118126518.70147  92046618.98247  22478744.4504   22478747.9054   22478744.2504
        51.000          44.000
 108699142.18447  84700617.11147  20684769.0904   20684771.3794   20684769.5774
        54.000          48.000
 127635514.60847  99456224.56247  24288246.0064   24288249.5824   24288246.0034
        43.000          36.000
 140779099.54847  91905765.00247  24886457.7814   24886461.4974   24886457.5424
        41.000          34.000
 140655929.18047  91809799.23647  24863007.4954   24863010.8544   24863007.8344
        38.000          35.000
 130770906.02547 101899396.38347  24884883.1074   24884885.6014   24884883.0494
        41.000          36.000
 118985827.69847  92716228.49947  22642251.2024   22642251.8794   22642251.1714
        50.000          43.000
 09  1 17  1 38  0.0000000  0 12G14G31G 5G 6G18G30G21G24G16G12G29G22
 121602907.25447  94755509.58847  23140265.0754   23140267.5054   23140265.4124
        47.000          41.000
 108325120.21247  84409183.98547  20613584.7844   20613586.6404   20613584.3214
        55.000          50.000
 124443951.67647  96969306.81247  23680900.3834   23680905.3034   23680900.7354
        45.000          39.000
 124846769.95447  97283176.26247  23757567.4664   23757573.0694   23757567.2994
        45.000          39.000
 117059968.22247  91215560.13747  22275770.5494   22275772.8624   22275771.0284
        50.000          43.000
 118116810.00547  92039053.79247  22476897.0304   22476900.7984   22476896.7914
        50.000          44.000
 108765010.90347  84751943.37347  20697303.2444   20697305.7854   20697303.6694
        54.000          48.000
 127734318.39547  99533214.70547  24307046.8224   24307051.8364   24307047.0864
        43.000          36.000
 140710529.45647  91852333.87847  24873409.2634   24873413.1334   24873410.1844
        40.000          35.000
 120691090.30057 111837199.07557  24869698.8475   24869701.1765   24869697.9355
        40.000          34.000
 130819797.68447 101937493.86347  24894187.2414   24894190.0704   24894186.5554
        41.000          36.000
 118930159.11547  92672850.38047  22631657.8854   22631658.1924   22631657.8554
        49.000          43.000
 09  1 17  1 38 30.0000000  0 12G14G31G 5G 6G18G30G21G24G16G12G29G22
 121642852.89447  94786636.09647  23147866.8164   23147868.6784   23147867.0034
        47.000          41.000
 108290454.21347  84382171.55047  20606988.0894   20606989.7794   20606987.7514
        54.000          49.000
 124469249.26347  96989019.25847  23685714.3144   23685719.2454   23685715.0324
        45.000          39.000
 124842027.95447  97279481.22847  23756665.6194   23756670.7454   23756666.0704
        44.000          39.000
 117027967.16447  91190624.24947  22269680.6644   22269683.3194   22269681.2934
        50.000          43.000
 118107387.37647  92031711.50747  22475104.0664   22475107.2054   22475103.5334
        51.000          44.000
 108831359.00547  84803643.17547  20709928.9774   20709931.3654   20709929.3694
        54.000          48.000
 127833238.10047  99610295.17847  24325871.0334   24325874.5314   24325870.3654
        42.000          36.000
 140641727.20347  91798721.82047  24860315.9884   24860319.7614   24860317.6224
        41.000          35.000
 120726556.76247 111864835.42147  24876447.4334   24876449.9714   24876447.5074
        39.000          34.000
 130868457.11547 101975410.38147  24903446.9974   24903448.9704   24903446.1924
        40.000          36.000
 118874446.32047  92629437.81147  22621056.0894   22621056.2774   22621056.1584
        50.000          43.000
 09  1 17  1 39  0.0000000  0 12G14G31G 5G 6G18G30G21G24G16G12G29G22
 121682717.38647  94817699.37047  23155452.6114   23155454.7114   23155452.9344
        47.000          41.000
 108256346.97647  84355594.51247  20600497.5684   20600499.4174   20600497.1634
        54.000          49.000
 124494906.18447  97009011.71847  23690596.6654   23690601.5514   23690596.7464
        44.000          39.000
 124837385.46547  97275863.73747  23755781.5004   23755787.5094   23755781.7604
        43.000          39.000
 116996133.60147  91165818.87247  22263623.1504   22263625.5434   22263623.6034
        50.000          43.000
 118098250.39547  92024591.80647  22473365.0364   22473368.6844   22473364.8844
        50.000          44.000
 108898181.36347  84855712.53647  20722645.0074   20722647.2734   20722645.3734
        54.000          47.000
 127932268.52447  99687461.90647  24344714.7344   24344719.3204   24344714.9504
        43.000          37.000
 140572690.69947  91744927.21047  24847179.3064   24847182.6474   24847180.0394
        41.000          35.000
 120762328.52547 111892709.64547  24883254.2864   24883257.1564   24883253.7094
        39.000          35.000
 130916881.62847 102013143.85247  24912661.0534   24912663.9444   24912660.8214
        41.000          36.000
 118818688.89847  92585990.47247  22610445.6924   22610445.8744   22610445.7524
        50.000          43.000
 09  1 17  1 39 30.0000000  0 12G14G31G 5G 6G18G30G21G24G16G12G29G22
 121722502.12647  94848700.50947  23163023.3024   23163025.6404   23163023.5584
        47.000          41.000
 108222802.66947  84329456.12247  20594114.2584   20594116.1604   20594113.7984
        55.000          50.000
 124520926.55547  97029287.37747  23695547.3374   23695552.9804   23695547.6814
        44.000          38.000
 124832844.02547  97272324.99547  23754917.9104   23754923.1254   23754917.8854
        44.000          39.000
 116964473.69247  91141148.81347  22257598.5024   22257600.6354   22257599.0384
        50.000          43.000
 118089404.49947  92017698.92847  22471681.6614   22471685.5224   22471681.3744
        50.000          43.000
 108965479.02347  84908152.25947  20735451.3974   20735453.5744   20735451.7704
        54.000          47.000
 128031410.90147  99764715.85447  24363581.0144   24363585.6684   24363581.0644
        43.000          36.000
 140503424.42347  91690953.57147  24833998.3554   24834000.8204   24833999.0414
        40.000          35.000
 120798409.41247 111920824.71747  24890121.2064   24890122.7714   24890119.8884
        39.000          35.000
 130965074.39547 102050696.75447  24921831.9454   24921834.9554   24921831.5024
        41.000          37.000
 118762891.94347  92542512.32347  22599827.9984   22599828.3384   22599828.0464
        50.000          43.000
 09  1 17  1 40  0.0000000  0 12G14G31G 5G 6G18G30G21G24G16G12G29G22
 121762203.54347  94879636.70447  23170578.2704   23170580.6644   23170578.4194
        47.000          41.000
 108189820.97347  84303756.13647  20587838.0644   20587839.9734   20587837.7334
        55.000          50.000
 124547309.99347  97049845.95947  23700568.1214   23700573.6384   23700568.5784
        44.000          38.000
 124828400.61047  97268862.62947  23754072.1044   23754077.4074   23754072.1624
        43.000          39.000
 116932988.43447  91116614.86247  22251606.6534   22251609.4184   22251607.3274
        50.000          43.000
 118080850.38447  92011033.40747  22470053.8044   22470057.4344   22470053.4524
        50.000          43.000
 109033247.67147  84960958.97947  20748347.1284   20748349.5464   20748347.5904
        54.000          47.000
 128130661.26747  99842053.95847  24382467.0744   24382471.8304   24382467.8834
        43.000          36.000
 140433927.85047  91636800.47147  24820772.4094   24820776.6354   24820774.0984
        41.000          35.000
 120834798.66147 111949180.11347  24897044.9674   24897048.0804   24897044.4024
        41.000          35.000
 131013033.78747 102088067.77947  24930957.9924   24930961.0984   24930957.5644
        40.000          36.000
 118707056.39347  92499004.10247  22589202.7294   22589203.1684   22589202.7144
        49.000          43.000
 09  1 17  1 40 30.0000000  0 12G14G31G 5G 6G18G30G21G24G16G12G29G22
 121801819.40047  94910506.23647  23178117.0724   23178119.2604   23178117.5264
        47.000          41.000
 108157402.32347  84278494.88447  20581669.2024   20581670.8894   20581668.8214
        55.000          50.000
 124574056.73447  97070687.63947  23705658.4714   23705663.0064   23705658.9404
        44.000          38.000
 124824052.75647  97265474.72947  23753244.6654   23753250.1274   23753244.5924
        44.000          39.000
 116901679.96147  91092218.65447  22245649.0284   22245651.6414   22245649.2704
        50.000          43.000
 118072589.51847  92004596.39847  22468481.9534   22468485.6044   22468481.6004
        50.000          44.000
 109101484.27847  85014130.33947  20761332.2884   20761334.7024   20761332.7864
        54.000          47.000
 128230016.72247  99919473.94547  24401373.7134   24401378.6544   24401374.1394
        42.000          36.000
 140364201.21047  91582468.13047  24807504.6394   24807506.9354   24807505.2214
        40.000          35.000
 120871496.32447 111977775.82847  24904028.7294   24904030.3194   24904027.9454
        39.000          35.000
 131060759.20547 102125256.49047  24940039.9144   24940043.0374   24940039.6024
        40.000          36.000
 118651184.00647  92455467.18047  22578570.7204   22578570.8014   22578570.7184
        50.000          43.000
 09  1 17  1 41  0.0000000  0 12G14G31G 5G 6G18G30G21G24G16G12G29G22
 121841347.28047  94941307.20747  23185638.5074   23185640.8924   23185638.8014
        46.000          40.000
 108125547.17447  84253672.72247  20575607.4054   20575609.0074   20575607.0474
        55.000          50.000
 124601167.22547  97091812.74647  23710817.2264   23710822.0484   23710817.2674
        44.000          39.000
 124819798.32947  97262159.62147  23752435.1704   23752440.1424   23752435.0024
        44.000          39.000
 116870550.57547  91067961.98147  22239725.2354   22239727.9284   22239725.6554
        49.000          43.000
 118064623.72547  91998389.30847  22466965.9884   22466969.5374   22466965.5834
        50.000          43.000
 109170186.06447  85067664.18347  20774405.8964   20774408.2364   20774406.2184
        54.000          47.000
 128329474.33147  99996973.53047  24420299.7424   24420304.6104   24420299.9644
        41.000          36.000
 140294245.17647  91527956.96547  24794192.1634   24794195.4994   24794192.5144
        40.000          35.000
 120908502.42147 112006611.86247  24911069.6274   24911072.0224   24911068.9124
        38.000          34.000
 131108250.33947 102162262.63047  24949076.7654   24949080.5244   24949076.7314
        40.000          36.000
 118595276.40447  92411902.81947  22567931.9554   22567932.4034   22567931.9244
        50.000          43.000
 09  1 17  1 41 30.0000000  0 12G14G31G 5G 6G18G30G21G24G16G12G29G22
 121880787.45247  94972039.84147  23193143.3624   23193146.1124   23193143.5834
        47.000          41.000
 108094258.66947  84229292.10547  20569653.3044   20569654.9114   20569653.0174
        55.000          50.000
 124628644.43747  97113223.61447  23716046.0414   23716050.6874   23716046.1354
        44.000          38.000
 124815637.91147  97258917.77447  23751643.1524   23751648.5544   23751642.9804
        44.000          39.000
 116839604.60647  91043848.23747  22233836.3444   22233838.9124   22233836.8534
        50.000          43.000
 118056957.23747  91992415.44347  22465507.1134   22465510.9424   22465506.7564
        50.000          44.000
 109239352.31947  85121559.95547  20787567.6024   20787570.0474   20787567.9144
        54.000          47.000
 128429033.84347 100074552.46747  24439245.2894   24439250.5574   24439245.1004
        40.000          36.000
 140224063.35147  91473269.92447  24780836.8934   24780841.1664   24780837.6364
        40.000          35.000
 120945819.80247 112035690.46847  24918170.6644   24918173.3154   24918171.2044
        39.000          34.000
 131155509.00947 102199087.62547  24958070.0534   24958073.3334   24958069.3674
        38.000          36.000
 118539337.91547  92368314.39447  22557287.3374   22557287.5294   22557287.2704
        50.000          44.000
 09  1 17  1 42  0.0000000  0 12G14G31G 5G 6G18G30G21G24G16G12G29G22
 121920134.78747  95002700.12947  23200631.2064   23200633.7684   23200631.4574
        47.000          41.000
 108063534.33147  84205351.09847  20563806.5694   20563808.1114   20563806.2254
        55.000          50.000
 124656485.97047  97134918.38747  23721343.6054   23721348.5414   23721344.5114
        44.000          38.000
 124811566.38847  97255745.18547  23750868.1364   23750873.5794   23750868.2884
        43.000          38.000
 116808841.45647  91019876.95447  22227982.6214   22227985.2974   22227983.1844
        51.000          43.000
 118049588.62947  91986673.69947  22464104.7724   22464108.6574   22464104.3294
        50.000          43.000
 109308977.22547  85175813.11347  20800817.0414   20800819.2304   20800817.5704
        54.000          47.000
 128528689.75247 100152206.54647  24458209.4634   24458213.6794   24458209.0834
        41.000          36.000
 140153652.87747  91418404.69747  24767438.0034   24767441.6194   24767437.9134
        40.000          34.000
 120983446.05447 112065009.73047  24925330.4024   24925333.2244   24925330.7884
        40.000          34.000
 131202531.89147 102235728.91347  24967017.9784   24967021.1424   24967017.1494
        40.000          36.000
 118483367.53047  92324701.10747  22546636.3694   22546636.7024   22546636.5044
        50.000          44.000
 09  1 17  1 42 30.0000000  0 12G14G31G 5G 6G18G30G21G24G16G12G29G22
 121959389.69447  95033288.41547  23208101.3774   23208103.6894   23208101.4984
        47.000          41.000
 108033377.39247  84181852.21747  20558067.7214   20558069.6594   20558067.3224
        55.000          50.000
 124684694.91447  97156899.44647  23726711.4134   23726716.9564   23726712.3544
        44.000          38.000
 124807584.27247  97252642.26647  23750110.6594   23750115.7014   23750110.7054
        44.000          38.000
 116778266.21147  90996052.09747  22222164.0644   22222166.9614   22222164.4434
        50.000          43.000
 118042522.35547  91981167.53347  22462760.0754   22462763.9354   22462759.8314
        50.000          44.000
 109379060.74147  85230423.63247  20814153.2644   20814155.6804   20814153.5904
        54.000          47.000
 128628441.72247 100229935.46147  24477191.4504   24477196.1304   24477191.5524
        42.000          36.000
 140083017.12947  91363363.93447  24753995.9364   24753999.7264   24753996.7854
        41.000          35.000
 121021383.46047 112094571.49347  24932550.2164   24932552.6234   24932549.8424
        38.000          35.000
 131249321.55847 102272188.46447  24975921.8514   24975925.0004   24975922.3214
        40.000          36.000
 118427369.74247  92281066.47547  22535979.9904   22535980.8024   22535979.9854
        50.000          44.000
 09  1 17  1 43  0.0000000  0 12G14G31G 5G 6G18G30G21G24G16G12G29G22
 121998549.98247  95063802.95447  23215553.2064   23215555.3234   23215553.3234
        46.000          41.000
 108003788.41747  84158795.90547  20552437.2144   20552438.8074   20552436.8034
        55.000          50.000
 124713271.66047  97179167.09947  23732149.7734   23732154.1614   23732150.0304
        44.000          38.000
 124803689.57747  97249607.46547  23749369.8194   23749374.1834   23749369.8734
        44.000          38.000
 116747881.19447  90972375.45347  22216382.1064   22216384.7164   22216382.5204
        51.000          43.000
 118035760.25247  91975898.38047  22461473.4454   22461477.0564   22461473.0854
        50.000          44.000
 109449599.57647  85285388.93947  20827576.3194   20827578.8034   20827576.7764
        54.000          47.000
 128728287.04947 100307737.08247  24496191.3534   24496195.5824   24496192.2444
        41.000          36.000
 140012156.86547  91308148.20347  24740512.8994   24740515.8734   24740512.6294
        40.000          35.000
 121059632.35947 112124375.91847  24939827.7104   24939831.2144   24939827.6164
        39.000          35.000
 131295877.46847 102308465.86047  24984781.5634   24984783.8674   24984780.8504
        40.000          36.000
 118371346.39947  92237411.93947  22525319.2504   22525319.7164   22525319.1584
        50.000          44.000
 09  1 17  1 43 30.0000000  0 12G14G31G 5G 6G18G30G21G24G16G12G29G22
 122037613.97447  95094242.46647  23222986.8784   23222988.9164   23222987.1884
        47.000          41.000
 107974768.01247  84136182.64047  20546914.8574   20546916.4174   20546914.4764
        55.000          50.000
 124742217.07147  97201722.02147  23737657.5364   23737662.9924   23737657.9444
        44.000          39.000
 124799880.67647  97246639.53147  23748644.7194   23748649.7854   23748644.3734
        43.000          38.000
 116717688.98047  90948849.04547  22210636.7854   22210639.1974   22210637.4324
        50.000          43.000
 118029304.29047  91970867.78647  22460244.6454   22460248.4474   22460244.2524
        50.000          44.000
 109520591.47247  85340707.28847  20841085.6594   20841088.0314   20841085.9994
        54.000          47.000
 128828223.41747 100385609.66847  24515208.3704   24515212.6204   24515209.0154
        42.000          36.000
 139941073.41947  91252758.57747  24726985.3314   24726988.4674   24726986.0234
        39.000          34.000
 121098193.25347 112154423.48547  24947166.6424   24947169.1034   24947166.0044
        40.000          36.000
 131342199.60847 102344561.09747  24993595.7494   24993598.7874   24993595.9504
        41.000          36.000
 118315299.77447  92193739.26047  22514654.2134   22514654.4854   22514654.2164
        50.000          44.000
 09  1 17  1 44  0.0000000  0 12G14G31G 5G 6G18G30G21G24G16G12G29G22
 122076577.72047  95124603.85947  23230401.6614   23230403.5854   23230401.8994
        47.000          41.000
 107946315.15947  84114011.61947  20541500.1804   20541502.1264   20541499.7564
        55.000          50.000
 124771530.21847  97224563.47447  23743235.7264   23743240.8514   23743235.8304
        44.000          38.000
 124796153.99347  97243735.62847  23747935.6304   23747940.8024   23747935.4624
        44.000          39.000
 116687690.22447  90925473.39847  22204928.1614   22204930.8734   22204928.7794
        51.000          44.000
 118023155.03847  91966076.18047  22459074.4494   22459078.3734   22459074.0744
        50.000          44.000
 109592031.86647  85396375.11947  20854680.4384   20854682.8044   20854680.9614
        54.000          47.000
 128928246.63947 100463549.92947  24534243.0494   24534246.5544   24534242.6104
        42.000          36.000
 139869765.93847  91197194.36747  24713415.3964   24713419.5984   24713415.8404
        39.000          34.000
 121137065.21647 112184713.43247  24954562.7664   24954567.2044   24954562.1184
        39.000          35.000
 131388286.45147 102380472.99247  25002365.8504   25002369.1964   25002366.1374
        40.000          36.000
 118259230.48047  92150048.90647  22503984.4094   22503984.9054   22503984.4424
        50.000          43.000
 09  1 17  1 44 30.0000000  0 12G14G31G 5G 6G18G30G21G24G16G12G29G22
 122115440.23747  95154886.36447  23237796.5044   23237798.9444   23237796.9414
        46.000          41.000
 107918431.39247  84092284.04147  20536194.0664   20536195.9124   20536193.6984
        55.000          50.000
 124801212.47847  97247692.55447  23748884.0864   23748888.6514   23748884.5804
        44.000          38.000
 124792508.37647  97240894.92547  23747241.4774   23747246.9954   23747241.5064
        44.000          39.000
 116657888.63947  90902251.36847  22199257.6654   22199259.4514   22199257.9994
        51.000          43.000
 118017315.03447  91961525.55647  22457963.2244   22457967.1354   22457962.8954
        50.000          43.000
 109663918.89447  85452390.97247  20868360.0044   20868362.6134   20868360.3204
        54.000          47.000
 129028355.08447 100541556.61847  24553292.1944   24553296.3134   24553292.5674
        42.000          36.000
 139798236.05247  91141456.86447  24699804.0394   24699809.0074   24699804.2484
        40.000          35.000
 121176249.08447 112215246.41247  24962019.9734   24962023.2014   24962019.7174
        39.000          35.000
 131434138.66447 102416202.06947  25011090.7644   25011093.9914   25011090.9754
        40.000          36.000
 118203141.28547  92106343.05647  22493310.8694   22493311.2504   22493311.0354
        50.000          43.000
 09  1 17  1 45  0.0000000  0 12G14G31G 5G 6G18G30G21G24G16G12G29G22
 122154202.89247  95185091.06647  23245172.5214   23245175.1604   23245173.0274
        46.000          41.000
 107891121.26447  84071003.45947  20530997.1694   20530998.9484   20530996.8264
        55.000          50.000
 124831267.65547  97271112.20847  23754603.1464   23754608.2014   23754603.3684
        44.000          38.000
 124788945.38347  97238118.58647  23746564.0324   23746568.8474   23746564.2144
        44.000          39.000
 116628289.59147  90879187.17947  22193624.4734   22193627.0364   22193625.0684
        50.000          43.000
 118011789.34847  91957219.85347  22456911.9034   22456915.5824   22456911.7844
        50.000          44.000
 109736252.98347  85508755.18547  20882124.8144   20882127.2664   20882125.2914
        54.000          47.000
 129128549.57647 100619630.36047  24572358.5794   24572362.5684   24572358.8744
        41.000          36.000
 139726488.06247  91085549.40147  24686152.3074   24686155.4354   24686151.3094
        39.000          35.000
 121215748.35747 112246025.16047  24969535.5684   24969539.6464   24969535.0774
        39.000          35.000
 131479759.17947 102451750.58847  25019771.9104   25019775.2544   25019771.7644
        39.000          36.000
 118147037.56747  92062625.88447  22482634.3104   22482635.1274   22482634.1064
        49.000          43.000
 09  1 17  1 45 30.0000000  0 12G14G31G 5G 6G18G30G21G24G16G12G29G22
 122192859.58747  95215213.19647  23252529.1224   23252531.1184   23252529.4084
        46.000          41.000
 107864380.53647  84050166.55447  20525908.6114   20525910.3754   20525908.1954
        55.000          50.000
 124861692.34047  97294819.79047  23760392.7624   23760398.2394   23760393.0804
        43.000          38.000
 124785459.04047  97235401.97847  23745899.9314   23745905.2064   23745900.1814
        44.000          39.000
 116598891.30947  90856279.41547  22188030.5924   22188033.0224   22188030.9434
        50.000          44.000
 118006575.82647  91953157.38347  22455919.8094   22455923.4374   22455919.5074
        50.000          43.000
 109809027.24647  85565462.38547  20895973.4374   20895976.0224   20895973.9434
        54.000          47.000
 129228823.54347 100697766.01847  24591440.3894   24591444.3794   24591440.2434
        42.000          36.000
 139654518.93347  91029469.61147  24672455.9034   24672459.4464   24672455.4244
        40.000          35.000
 121255559.59047 112277047.00747  24977112.6684   24977115.0244   24977111.9664
        39.000          35.000
 131525144.20347 102487115.60847  25028408.5814   25028411.4954   25028407.7714
        40.000          35.000
 118090917.81747  92018896.23147  22471955.0234   22471956.0114   22471955.1364
        50.000          43.000
 09  1 17  1 46  0.0000000  0 12G14G31G 5G 6G18G30G21G24G16G12G29G22
 122231415.51247  95245256.80747  23259865.8874   23259868.1574   23259866.0944
        46.000          41.000
 107838216.89547  84029779.33447  20520929.8024   20520931.5854   20520929.5324
        55.000          50.000
 124892494.12347  97318821.21347  23766254.0424   23766258.9194   23766254.5524
        44.000          38.000
 124782054.71047  97232749.25947  23745252.6454   23745257.7394   23745252.1214
        45.000          39.000
 116569703.52947  90833535.69447  22182475.9654   22182478.6454   22182476.4674
        50.000          44.000
 118001683.59747  91949345.28547  22454988.6324   22454992.1444   22454988.3204
        49.000          43.000
 109882246.00847  85622515.95447  20909906.4374   20909909.0224   20909906.7954
        54.000          47.000
 129329181.63147 100775967.22747  24610537.6774   24610541.3834   24610537.8124
        41.000          36.000
 139582336.62647  90973223.70647  24658719.4504   24658724.1094   24658719.8204
        39.000          35.000
 121295690.01847 112308317.55947  24984748.0844   24984750.7114   24984748.1144
        38.000          35.000
 131570300.73047 102522302.58247  25037001.8264   25037004.2104   25037001.8034
        40.000          35.000
 118034790.54847  91975160.69947  22461274.7904   22461274.9224   22461274.5754
        50.000          44.000
 09  1 17  1 46 30.0000000  0 12G14G31G 5G 6G18G30G21G24G16G12G29G22
 122269858.16747  95275212.13547  23267181.0174   23267183.5414   23267181.4244
        46.000          41.000
 107812620.49147  84009834.10847  20516058.9224   20516060.6334   20516058.3894
        55.000          50.000
 124923662.97647  97343108.67947  23772185.4214   23772190.5654   23772185.6564
        44.000          38.000
 124778719.70947  97230150.56947  23744617.8894   23744622.3964   23744618.1904
        44.000          38.000
 116540717.97847  90810949.56147  22176960.3164   22176962.9214   22176960.9414
        51.000          44.000
 117997103.88947  91945776.69747  22454117.0344   22454120.4864   22454116.5834
        50.000          43.000
 109955896.03747  85679905.57147  20923921.5864   20923924.1924   20923921.9634
        54.000          47.000
 129429610.78447 100854223.77947  24629649.0324   24629652.9754   24629649.2894
        43.000          36.000
 139509931.82947  90916804.47347  24644942.0834   24644945.9434   24644941.7324
        41.000          36.000
 121336129.30847 112339828.79147  24992443.8484   24992445.2294   24992444.0014
        39.000          34.000
 131615217.67247 102557302.86847  25045548.7514   25045551.9024   25045549.3674
        39.000          35.000
 117978647.72147  91931413.04447  22450590.9794   22450591.5434   22450590.9754
        50.000          44.000
 09  1 17  1 47  0.0000000  0 12G14G31G 5G 6G18G30G21G24G16G12G29G22
 122308180.89447  95305074.01547  23274473.7934   23274476.0784   23274474.1584
        46.000          41.000
 107787586.91047  83990327.45047  20511295.3244   20511296.9084   20511294.9784
        55.000          50.000
 124955194.55047  97367678.76747  23778185.7164   23778190.4674   23778186.0814
        44.000          38.000
 124775447.50747  97227600.83547  23743994.9334   23744000.2294   23743994.9954
        44.000          38.000
 116511932.49547  90788519.30847  22171482.8404   22171484.9404   22171483.5164
        51.000          44.000
 117992833.55947  91942449.18747  22453304.3984   22453308.1584   22453304.1114
        50.000          43.000
 110029969.20947  85737624.91647  20938017.3154   20938019.6134   20938017.7524
        54.000          47.000
 129530103.34647 100932529.71747  24648772.2694   24648775.6244   24648772.7104
        42.000          36.000
 139437300.45747  90860208.67747  24631120.8314   24631124.2264   24631120.7584
        41.000          36.000
 121376872.85547 112371577.14647  25000197.2184   25000199.3004   25000196.5844
        40.000          34.000
 141659842.70057  92592065.06457  25054049.8195   25054054.3215   25054049.3385
        39.000          35.000
 117922486.65547  91887651.18647  22439903.9734   22439904.3934   22439903.9284
        51.000          44.000
 09  1 17  1 47 30.0000000  0 12G14G31G 5G 6G18G30G21G24G16G12G29G22
 122346403.82547  95334858.14247  23281747.7844   23281749.6724   23281747.9374
        47.000          41.000
 107763138.78047  83971276.98747  20506643.0074   20506644.6774   20506642.7044
        55.000          50.000
 124987111.59347  97392549.22547  23784259.1094   23784263.7944   23784259.8544
        44.000          38.000
 124772258.34847  97225115.80347  23743387.8484   23743393.3244   23743387.7284
        43.000          38.000
 116483371.68547  90766264.12747  22166047.9074   22166049.8954   22166048.3594
        50.000          44.000
 117988896.70447  91939381.52747  22452555.3064   22452558.9454   22452555.0764
        50.000          43.000
 110104484.90447  85795689.08547  20952196.9904   20952199.3204   20952197.5834
        54.000          47.000
 129630679.01747 101010900.43147  24667911.3744   24667913.9034   24667911.1164
        42.000          36.000
 139364465.86947  90803454.52847  24617259.9064   24617264.5564   24617260.5904
        42.000          36.000
 121417943.07347 112403580.01547  25008012.9174   25008014.3104   25008012.1954
        40.000          35.000
 141704294.13547  92626702.63347  25062508.9854   25062512.4634   25062508.0514
        40.000          36.000
 117866331.87347  91843894.21647  22429218.2214   22429218.6974   22429218.2484
        50.000          44.000
 09  1 17  1 48  0.0000000  0 12G14G31G 5G 6G18G30G21G24G16G12G29G22
 122384510.81647  95364551.92947  23288999.0044   23289001.3784   23288999.2944
        47.000          41.000
 107739262.31647  83952671.97247  20502099.3884   20502100.8794   20502098.9804
        55.000          50.000
 125019400.31247  97417709.31847  23790403.7064   23790408.0594   23790404.4134
        45.000          38.000
 124769136.07847  97222682.88947  23742793.5694   23742799.3394   23742794.0614
        43.000          38.000
 116455023.67147  90744174.76647  22160653.4094   22160655.6744   22160653.7984
        50.000          44.000
 117985280.99547  91936564.11847  22451867.1714   22451870.9854   22451866.9754
        49.000          43.000
 110179426.21147  85854084.89747  20966457.8174   20966460.3224   20966458.1704
        53.000          47.000
 129731321.28847 101089323.05047  24687063.0854   24687066.2914   24687062.3554
        42.000          36.000
 139291414.65647  90746531.59647  24603359.0024   24603363.3084   24603360.4844
        43.000          36.000
 121459325.80747 112435826.37447  25015887.1904   25015889.4904   25015887.0014
        40.000          36.000
 141748509.00647  92661155.85547  25070922.2304   25070926.5274   25070921.9124
        40.000          36.000
 117810170.99247  91800132.51147  22418530.8644   22418531.6124   22418530.7084
        50.000          44.000
