     2.11           OBSERVATION DATA    G (GPS)             RINEX VERSION / TYPE
teqc  2013Mar15     gpsops              20140519 00:23:26UTCPGM / RUN BY / DATE
Linux 2.4.21-27.ELsmp|Opteron|gcc -static|Linux x86_64|=+   COMMENT
BIT 2 OF LLI FLAGS DATA COLLECTED UNDER A/S CONDITION       COMMENT
GLPS                                                        MARKER NAME
42005M002                                                   MARKER NUMBER
GGN                 JPL                                     OBSERVER / AGENCY
ZR220013847         ASHTECH UZ-12       CQ00                REC # / TYPE / VERS
CR519992104         ASH701945B_M    SCIT                    ANT # / TYPE
   -33801.4662 -6377516.5323   -82154.3508                  APPROX POSITION XYZ
        0.0083        0.0000        0.0000                  ANTENNA: DELTA H/E/N
     1     1                                                WAVELENGTH FACT L1/2
     7    L1    L2    P1    P2    C1    S1    S2            # / TYPES OF OBSERV
    30.0000                                                 INTERVAL
                                                            COMMENT
This data is provided as a public service by NASA/JPL.      COMMENT
No warranty is expressed or implied regarding suitability   COMMENT
for use.  For further information, contact:                 COMMENT
Dave Stowers, NASA/JPL m/s 238-600                          COMMENT
4800 Oak Grove Drive, Pasadena CA 91109 USA                 COMMENT
                                                            COMMENT
Forced Modulo Decimation to 30 seconds                      COMMENT
 SNR is mapped to RINEX snr flag value [0-9]                COMMENT
  L1 & L2: min(max(int(snr_dBHz/6), 0), 9)                  COMMENT
pseudorange smoothing corrections not applied               COMMENT
  2014     5    18     0     0    0.0000000     GPS         TIME OF FIRST OBS
                                                            END OF HEADER
 14  5 18  0  0  0.0000000  0 12G20G07G08G10G01G09G02G28G26G17G04G13
  -4615517.75746  -3537599.61646  23676149.2194   23676160.0894   23676149.743
        41.0004         37.0004
 -21993907.48548 -17109357.97748  20619299.5104   20619306.2614   20619299.138
        53.0004         48.0004
 -14179377.34049 -11034605.11248  19895991.9344   19895999.1244   19895992.331
        54.0004         49.0004
  -8288537.78047  -6447947.27246  23872253.0084   23872262.7934   23872252.832
        44.0004         39.0004
  -3991011.71047  -3077656.84446  24142895.5874   24142911.9434   24142895.358
        43.0004         39.0004
 -19839825.36049 -15450621.56948  19997751.4304   19997758.6984   19997751.350
        54.0004         49.0004
  -3243005.15547  -2474432.41046  23771105.0644   23771113.6464   23771105.003
        43.0004         39.0004
  -3260861.54047  -2541824.21946  23472455.2904   23472465.6894   23472455.170
        45.0004         40.0004
   -906361.22846   -686984.27246  24071113.5074   24071129.3964   24071113.646
        41.0004         37.0004
 -12162912.16948  -9407115.50447  22736866.0104   22736876.9174   22736865.670
        49.0004         44.0004
 -25275945.26248 -19636052.71347  21096855.2684   21096862.7294   21096854.759
        52.0004         47.0004
   -902204.18446   -645864.59545  24361344.0734   24361351.2844   24361343.665
        40.0004         35.0004
 14  5 18  0  0 30.0000000  0 12G20G07G08G10G01G09G02G28G26G17G04G13
  -4601095.47146  -3526361.47546  23678893.3064   23678904.1964   23678894.489
        41.0004         36.0004
 -21938940.56048 -17066526.56648  20629759.6184   20629765.6744   20629758.811
        52.0004         48.0004
 -14189263.46149 -11042308.52648  19894110.7384   19894117.7484   19894110.765
        54.0004         49.0004
  -8348245.57147  -6494472.64546  23860890.4874   23860900.2564   23860891.259
        44.0004         39.0004
  -3887890.11547  -2997302.44046  24162519.0204   24162535.6144   24162519.156
        43.0004         39.0004
 -19850749.80849 -15459134.05848  19995672.0704   19995679.8904   19995672.469
        54.0004         49.0004
  -3333737.51547  -2545132.71846  23753839.1704   23753846.9084   23753839.345
        44.0004         39.0004
  -3312662.37647  -2582188.33546  23462598.1794   23462608.3404   23462597.789
        45.0004         40.0004
   -914380.81947   -693233.10246  24069587.0644   24069601.8974   24069587.667
        42.0004         37.0004
 -12120297.15148  -9373908.97947  22744975.1694   22744984.3364   22744974.619
        49.0004         44.0004
 -25340978.13948 -19686727.60747  21084479.6734   21084486.9004   21084479.125
        52.0004         47.0004
   -832697.39746   -591703.25846  24374569.2654   24374576.8054   24374570.537
        40.0004         36.0004
 14  5 18  0  1  0.0000000  0 12G20G07G08G10G01G09G02G28G26G17G04G13
  -4586403.66146  -3514913.34446  23681690.4874   23681699.9524   23681690.317
        41.0004         36.0004
 -21883449.31948 -17023286.59948  20640319.2064   20640325.4704   20640318.604
        52.0004         48.0004
 -14198492.55049 -11049499.96448  19892354.1924   19892361.7844   19892354.713
        54.0004         49.0004
  -8408150.36547  -6541151.52146  23849491.0694   23849501.2654   23849491.052
        44.0004         39.0004
  -3784621.00747  -2916833.07746  24182170.5334   24182186.6434   24182170.566
        43.0004         38.0004
 -19861062.52749 -15467169.88048  19993709.8784   19993717.2504   19993709.958
        54.0004         49.0004
  -3424271.47247  -2615678.42546  23736610.6674   23736619.9144   23736610.914
        43.0004         39.0004
  -3364635.52547  -2622686.72446  23452708.0224   23452717.8114   23452707.909
        45.0004         40.0004
   -922087.98247   -699238.46146  24068119.8144   24068136.6594   24068120.335
        42.0004         37.0004
 -12077667.54648  -9340691.10547  22753087.9734   22753097.0554   22753086.950
        48.0004         44.0004
 -25405574.21048 -19737062.13647  21072187.3044   21072195.6904   21072187.046
        52.0004         47.0004
   -763402.61946   -537707.10045  24387757.8824   24387762.6624   24387756.822
        40.0004         35.0004
 14  5 18  0  1 30.0000000  0 12G20G07G08G10G01G09G02G28G26G17G04G13
  -4571441.39346  -3503254.43046  23684537.7044   23684546.8294   23684537.437
        41.0004         36.0004
 -21827436.24148 -16979639.99448  20650977.5164   20650984.1024   20650977.703
        52.0004         48.0004
 -14207064.25349 -11056179.14848  19890723.0434   19890730.7744   19890723.180
        54.0004         49.0004
  -8468251.53647  -6587983.42446  23838052.3614   23838064.5124   23838054.227
        44.0004         39.0004
  -3681207.18247  -2836250.95546  24201849.9734   24201865.9654   24201849.803
        43.0004         38.0004
 -19870763.42449 -15474728.95748  19991864.0194   19991871.2134   19991864.024
        54.0004         50.0004
  -3514605.23147  -2686068.14346  23719420.8904   23719429.7054   23719420.625
        43.0004         39.0004
  -3416779.48547  -2663318.22546  23442785.5304   23442796.0814   23442784.785
        45.0004         40.0004
   -929484.52847   -705001.78846  24066713.5594   24066729.3624   24066712.595
        42.0004         37.0004
 -12035025.17848  -9307463.27547  22761200.9234   22761211.4394   22761201.446
        48.0004         44.0004
 -25469731.69748 -19787054.90847  21059978.2534   21059986.2324   21059978.082
        52.0004         47.0004
   -694321.52446   -483877.46745  24400902.7334   24400909.6494   24400902.210
        40.0004         35.0004
 14  5 18  0  2  0.0000000  0 12G20G07G08G10G01G09G02G28G26G17G04G13
  -4556207.50946  -3491383.90846  23687437.7414   23687444.9714   23687436.000
        41.0004         36.0004
 -21770903.66148 -16935588.59248  20661735.7564   20661742.1354   20661735.206
        52.0004         48.0004
 -14214978.11449 -11062345.73748  19889217.3064   19889224.4964   19889217.371
        54.0004         49.0004
  -8528548.40747  -6634967.82546  23826580.0114   23826589.7894   23826579.906
        44.0004         39.0004
  -3577651.83447  -2755558.55646  24221557.3034   24221572.2124   24221555.865
        43.0004         38.0004
 -19879852.72149 -15481811.46048  19990134.0824   19990141.3684   19990134.029
        54.0004         49.0004
  -3604736.70947  -2756300.24846  23702269.4524   23702277.7224   23702269.106
        43.0004         39.0004
  -3469092.78647  -2704081.66846  23432830.4104   23432840.1024   23432829.764
        45.0004         41.0004
   -936572.61547   -710524.75846  24065364.4174   24065378.3854   24065363.833
        42.0004         37.0004
 -11992374.29848  -9274228.81247  22769317.5344   22769328.5114   22769317.402
        48.0004         44.0004
 -25533448.65848 -19836704.41447  21047853.5624   21047861.1904   21047853.153
        52.0004         47.0004
   -625455.76146   -430215.62045  24414005.0054   24414013.2684   24414006.381
        40.0004         35.0004
 14  5 18  0  2 30.0000000  0 12G20G07G08G10G01G09G02G28G26G17G04G13
  -4540698.26846  -3479298.81046  23690386.7814   23690398.5594   23690387.519
        41.0004         36.0004
 -21713850.84248 -16891131.80448  20672592.6254   20672599.0894   20672592.241
        52.0004         48.0004
 -14222231.20849 -11067997.43948  19887836.6614   19887844.3854   19887837.115
        54.0004         49.0004
  -8589037.37247  -6682101.89946  23815068.0054   23815078.3054   23815068.938
        44.0004         39.0004
  -3473955.09347  -2674755.96946  24241289.0564   24241304.2034   24241288.892
        42.0004         38.0004
 -19888327.48449 -15488415.10948  19988521.6034   19988528.8674   19988521.445
        54.0004         49.0004
  -3694661.22047  -2826371.07846  23685156.5374   23685165.1304   23685156.934
        44.0004         39.0004
  -3521571.64047  -2744974.12346  23422843.2364   23422853.5284   23422843.657
        45.0004         41.0004
   -943351.26447   -715806.60446  24064073.7354   24064089.3094   24064074.075
        42.0004         37.0004
 -11949713.65348  -9240986.74647  22777436.1724   22777446.2504   22777435.659
        48.0004         44.0004
 -25596720.45448 -19886007.03547  21035812.8824   21035820.8864   21035813.011
        52.0004         47.0004
   -556803.95046   -376720.47945  24427068.6744   24427077.2904   24427070.422
        40.0004         35.0004
 14  5 18  0  3  0.0000000  0 12G20G07G08G10G01G09G02G28G26G17G04G13
  -4524915.03346  -3467000.22146  23693391.1714   23693399.1714   23693391.377
        40.0004         36.0004
 -21656282.72548 -16846273.48448  20683547.5334   20683554.0534   20683546.929
        52.0004         48.0004
 -14228825.36349 -11073135.68548  19886581.9224   19886589.0694   19886582.238
        54.0004         49.0004
  -8649720.03347  -6729386.90146  23803520.4854   23803530.2344   23803521.278
        44.0004         39.0004
  -3370122.35447  -2593847.40446  24261047.9294   24261064.4944   24261047.551
        42.0004         37.0004
 -19896190.44549 -15494542.02748  19987025.2794   19987032.5794   19987025.138
        54.0004         49.0004
  -3784379.26147  -2896281.02446  23668083.6224   23668092.2214   23668083.710
        44.0004         39.0004
  -3574217.08547  -2785996.39846  23412823.9094   23412835.4554   23412824.997
        45.0004         40.0004
   -949824.91747   -720850.80646  24062841.4964   24062856.7994   24062841.557
        42.0004         37.0004
 -11907048.38048  -9207741.08147  22785553.9504   22785565.6674   22785554.633
        48.0004         44.0004
 -25659547.80248 -19934963.33447  21023857.2974   21023865.1234   21023857.171
        52.0004         47.0004
   -488370.13746   -323395.19745  24440092.0934   24440099.1764   24440091.889
        40.0004         35.0004
 14  5 18  0  3 30.0000000  0 12G20G07G08G10G01G09G02G28G26G17G04G13
  -4508856.37946  -3454487.00346  23696444.7124   23696456.0504   23696447.048
        40.0004         36.0004
 -21598201.82548 -16801015.59148  20694600.1604   20694606.2334   20694599.493
        52.0004         48.0004
 -14234759.70449 -11077759.78848  19885452.5224   19885460.0704   19885452.837
        54.0004         49.0004
  -8710594.81947  -6776821.61646  23791937.3694   23791946.4134   23791936.956
        44.0004         39.0004
  -3266156.10747  -2512834.81746  24280831.2324   24280849.4434   24280831.783
        42.0004         37.0004
 -19903441.29949 -15500191.98748  19985645.2764   19985652.2604   19985645.071
        54.0004         49.0004
  -3873888.40947  -2966028.20046  23651050.4784   23651059.1314   23651051.185
        44.0004         39.0004
  -3627027.19347  -2827146.97346  23402775.4784   23402786.1214   23402775.574
        45.0004         40.0004
   -955995.12647   -725658.54046  24061666.9854   24061682.5274   24061668.283
        42.0004         38.0004
 -11864381.20748  -9174493.92847  22793674.3154   22793684.1564   22793673.775
        48.0004         44.0004
 -25721928.47648 -19983571.57147  21011986.6994   21011994.6644   21011986.189
        52.0004         47.0004
   -420155.12546   -270240.43045  24453074.4724   24453078.5574   24453072.766
        40.0004         35.0004
 14  5 18  0  4  0.0000000  0 12G20G07G08G10G01G09G02G28G26G17G04G13
  -4492517.83546  -3441755.69246  23699556.5474   23699566.3504   23699556.313
        40.0004         36.0004
 -21539606.77248 -16755357.05748  20705749.5634   20705756.2204   20705749.194
        52.0004         48.0004
 -14240030.91649 -11081867.17048  19884449.4274   19884456.7154   19884449.889
        54.0004         49.0004
  -8771657.69547  -6824402.89046  23780316.6524   23780327.3534   23780317.196
        44.0004         39.0004
  -3162055.89546  -2431717.83146  24300641.8224   24300658.0354   24300641.146
        41.0004         37.0004
 -19910076.80149 -15505362.44148  19984382.7904   19984389.8774   19984382.795
        54.0004         49.0004
  -3963183.05247  -3035608.22646  23634057.9414   23634065.5804   23634058.777
        44.0004         39.0004
  -3679997.22347  -2868422.17146  23392695.9204   23392705.5074   23392695.681
        45.0004         40.0004
   -961860.27847   -730228.57646  24060550.4684   24060566.3694   24060551.333
        42.0004         38.0004
 -11821711.02648  -9141244.42747  22801795.2854   22801804.4364   22801793.622
        48.0004         44.0004
 -25783857.28748 -20031827.70947  21000201.6574   21000210.2374   21000201.650
        52.0004         47.0004
   -352157.09446   -217254.73045  24466010.8654   24466018.3804   24466011.895
        40.0004         35.0004
 14  5 18  0  4 30.0000000  0 12G20G07G08G10G01G09G02G28G26G17G04G13
  -4475901.15946  -3428807.64346  23702718.4494   23702728.3914   23702718.562
        41.0004         36.0004
 -21480502.80348 -16709301.96348  20716997.2574   20717003.2534   20716996.657
        52.0004         48.0004
 -14244641.21249 -11085459.55048  19883572.2334   19883579.4714   19883572.289
        54.0004         49.0004
  -8832910.04647  -6872131.82446  23768660.2344   23768669.1014   23768660.889
        44.0004         39.0004
  -3057827.33446  -2350500.82946  24320476.1024   24320491.4924   24320475.463
        41.0004         36.0004
 -19916099.80749 -15510055.63248  19983236.1864   19983243.6384   19983236.405
        54.0004         49.0004
  -4052263.94247  -3105021.69646  23617105.9204   23617115.0444   23617107.034
        44.0004         39.0004
  -3733127.72647  -2909822.40046  23382584.2704   23382596.0974   23382585.326
        45.0004         40.0004
   -967425.18747   -734564.64746  24059492.5824   24059507.5974   24059492.743
        42.0004         38.0004
 -11779043.13248  -9107996.71347  22809913.7034   22809923.4254   22809913.162
        49.0004         44.0004
 -25845334.96448 -20079732.30547  20988503.7804   20988510.5214   20988502.702
        52.0004         47.0004
   -284380.30046   -164441.43545  24478909.4864   24478916.9674   24478909.030
        40.0004         35.0004
 14  5 18  0  5  0.0000000  0 12G20G07G08G10G01G09G02G28G26G17G04G13
  -4459005.46946  -3415642.19646  23705932.1654   23705943.7044   23705932.668
        41.0004         36.0004
 -21420892.26348 -16662852.14148  20728340.6784   20728346.7454   20728339.894
        52.0004         48.0004
 -14248590.49349 -11088536.85748  19882820.6284   19882828.1904   19882820.858
        54.0004         49.0004
  -8894351.38847  -6920007.99746  23756969.0024   23756977.9414   23756968.929
        44.0004         39.0004
  -2953473.46446  -2269186.20046  24340334.5824   24340351.0014   24340333.406
        41.0004         36.0004
 -19921510.76349 -15514271.90448  19982206.6684   19982213.7904   19982206.728
        54.0004         50.0004
  -4141129.21947  -3174267.15946  23600195.3124   23600204.7844   23600195.966
        44.0004         39.0004
  -3786417.78647  -2951346.96646  23372443.9704   23372452.7234   23372444.372
        45.0004         40.0004
   -972691.90447   -738668.33646  24058489.9294   24058504.9624   24058490.033
        43.0004         38.0004
 -11736379.91348  -9074752.65447  22818033.2684   22818042.8344   22818031.390
        49.0004         44.0004
 -25906360.01648 -20127284.21647  20976890.1904   20976897.9654   20976890.004
        52.0004         47.0004
   -216826.08046   -111801.56345  24491762.1504   24491773.7224   24491764.578
        40.0004         35.0004
 14  5 18  0  5 30.0000000  0 12G20G07G08G10G01G09G02G28G26G17G04G13
  -4441826.40246  -3402255.94046  23709203.3674   23709212.0464   23709201.910
        40.0004         36.0004
 -21360774.61448 -16616007.17148  20739780.6094   20739787.0014   20739780.360
        52.0004         48.0004
 -14251875.61449 -11091096.63448  19882195.6074   19882202.7094   19882195.633
        54.0004         49.0004
  -8955977.51247  -6968028.17246  23745241.0964   23745252.1334   23745241.520
        44.0004         39.0004
  -2848994.05846  -2187773.74146  24360215.1634   24360232.1344   24360214.898
        41.0004         36.0004
 -19926306.70749 -15518008.94348  19981294.0904   19981301.2424   19981294.157
        54.0004         49.0004
  -4229773.78547  -3243340.64646  23583327.7584   23583334.8584   23583327.840
        44.0004         39.0004
  -3839862.47747  -2992992.01946  23362273.9364   23362283.8814   23362273.803
        45.0004         40.0004
   -977659.21147   -742538.77246  24057544.8294   24057559.5874   24057544.782
        43.0004         38.0004
 -11693721.03448  -9041511.96447  22826149.7524   22826160.1524   22826149.746
        49.0004         44.0004
 -25966927.36248 -20174479.46147  20965364.8284   20965372.6714   20965364.403
        52.0004         47.0004
   -149492.67646    -59333.75245  24504578.7744   24504584.1944   24504577.858
        40.0004         35.0004
 14  5 18  0  6  0.0000000  0 12G20G07G08G10G01G09G02G28G26G17G04G13
  -4424364.63646  -3388649.39946  23712524.6114   23712535.4414   23712525.050
        40.0004         36.0004
 -21300154.03848 -16568770.30348  20751315.8824   20751322.6994   20751315.638
        52.0004         48.0004
 -14254498.02449 -11093140.01048  19881696.2684   19881703.5174   19881696.584
        54.0004         49.0004
  -9017789.14247  -7016192.88446  23733479.4074   23733488.8184   23733479.020
        44.0004         39.0004
  -2744393.74746  -2106267.07046  24380121.2884   24380136.3764   24380119.678
        41.0004         36.0004
 -19930489.61149 -15521268.28848  19980498.2304   19980505.1174   19980497.840
        54.0004         49.0004
  -4318197.78247  -3312242.25246  23566500.8084   23566508.6094   23566500.959
        44.0004         39.0004
  -3893462.46647  -3034758.08146  23352073.7304   23352084.9874   23352073.640
        44.0004         40.0004
   -982330.92347   -746178.84646  24056655.9424   24056670.5354   24056655.091
        42.0004         38.0004
 -11651070.86148  -9008278.05947  22834265.7784   22834276.4124   22834265.722
        49.0004         44.0004
 -26027037.14748 -20221318.17447  20953926.4554   20953933.9004   20953926.029
        52.0004         47.0004
    -82383.34846     -7040.56045  24517347.4564   24517353.6214   24517348.105
        40.0004         35.0004
 14  5 18  0  6 30.0000000  0 12G20G07G08G10G01G09G02G28G26G17G04G13
  -4406619.71846  -3374822.22646  23715902.5824   23715912.6464   23715902.426
        40.0004         36.0004
 -21239033.63248 -16521143.95748  20762947.0674   20762953.4584   20762946.769
        52.0004         48.0004
 -14256457.91349 -11094667.14348  19881323.2194   19881330.6584   19881323.544
        54.0004         49.0004
  -9079785.65247  -7064501.65846  23721680.1114   23721691.2704   23721681.396
        44.0004         39.0004
  -2639675.83346  -2024668.76246  24400047.6114   24400063.3714   24400047.364
        40.0004         36.0004
 -19934060.04649 -15524050.38548  19979818.5884   19979825.7324   19979818.467
        54.0004         49.0004
  -4406398.87147  -3380970.17346  23549716.2584   23549724.6884   23549716.533
        44.0004         39.0004
  -3947216.14447  -3076643.91746  23341844.3864   23341856.2994   23341844.842
        44.0004         40.0004
   -986709.33947   -749590.38646  24055822.1514   24055837.4394   24055821.880
        42.0004         38.0004
 -11608432.23748  -8975053.16347  22842380.4444   22842389.1604   22842379.679
        49.0004         44.0004
 -26086687.76148 -20267799.08547  20942575.2614   20942582.2964   20942574.745
        52.0004         47.0004
    -15499.76646     45076.72245  24530075.2404   24530085.4844   24530076.309
        40.0004         35.0004
 14  5 18  0  7  0.0000000  0 12G20G07G08G10G01G09G02G28G26G17G04G13
  -4388587.46946  -3360771.14645  23719332.0264   23719344.6374   23719333.077
        40.0004         35.0004
 -21177412.62148 -16473127.52648  20774672.9944   20774679.3124   20774672.376
        52.0004         48.0004
 -14257752.27549 -11095675.67548  19881076.9014   19881084.1664   19881077.458
        54.0004         49.0004
  -9141963.06547  -7112951.38346  23709848.7934   23709858.2914   23709849.252
        44.0004         39.0004
  -2534840.16246  -1942978.70346  24419997.6974   24420013.6224   24419996.403
        41.0004         36.0004
 -19937015.33149 -15526353.14148  19979255.8874   19979263.2904   19979256.136
        54.0004         49.0004
  -4494372.35447  -3449520.73046  23532975.3834   23532982.5694   23532975.471
        44.0004         39.0004
  -4001119.00847  -3118645.98246  23331587.1284   23331596.9354   23331587.221
        44.0004         40.0004
   -990793.40847   -752772.57946  24055045.8914   24055058.6734   24055044.393
        42.0004         38.0004
 -11565804.58448  -8941836.82147  22850491.7314   22850502.1714   22850491.383
        49.0004         44.0004
 -26145874.64448 -20313918.64647  20931312.1624   20931320.1914   20931311.965
        52.0004         47.0004
     51159.90746     97019.52146  24542761.8224   24542768.7224   24542760.996
        40.0004         36.0004
 14  5 18  0  7 30.0000000  0 12G20G07G08G10G01G09G02G28G26G17G04G13
  -4370270.58946  -3346498.29345  23722817.7754   23722828.7714   23722818.281
        40.0004         35.0004
 -21115297.44548 -16424726.04248  20786493.4594   20786499.0514   20786492.525
        52.0004         48.0004
 -14258384.65549 -11096168.38048  19880956.7914   19880963.9204   19880956.928
        54.0004         49.0004
  -9204323.90447  -7161544.05146  23697981.5484   23697990.8784   23697982.849
        44.0004         39.0004
  -2429893.50346  -1861202.16246  24439968.2704   24439983.7544   24439967.469
        40.0004         36.0004
 -19939359.47949 -15528179.69548  19978809.7914   19978817.0754   19978809.717
        54.0004         49.0004
  -4582119.91847  -3517895.26546  23516276.9734   23516284.2704   23516278.106
        44.0004         39.0004
  -4055173.19647  -3160765.96546  23321300.5214   23321311.0114   23321301.220
        44.0004         40.0004
   -994588.98447   -755729.96046  24054323.0244   24054338.5224   24054322.042
        42.0004         38.0004
 -11523194.23648  -8908633.93347  22858599.7184   22858610.4964   22858599.796
        49.0004         44.0004
 -26204599.86948 -20359678.47247  20920136.8994   20920144.4624   20920136.399
        52.0004         47.0004
    117590.38146    148783.72745  24555403.3374   24555409.3984   24555402.364
        40.0004         35.0004
 14  5 18  0  8  0.0000000  0 12G20G07G08G10G01G09G02G28G26G17G04G13
  -4351664.62846  -3332000.13445  23726358.7784   23726367.5514   23726359.657
        40.0004         35.0004
 -21052687.03348 -16375938.64748  20798407.3754   20798413.1954   20798407.130
        52.0004         48.0004
 -14258351.31849 -11096142.34348  19880962.6164   19880970.1974   19880963.097
        54.0004         49.0004
  -9266863.61147  -7210276.09746  23686079.7424   23686090.9234   23686080.581
        44.0004         39.0004
  -2324835.00846  -1779338.47946  24459958.7364   24459973.9824   24459959.256
        40.0004         36.0004
 -19941089.30749 -15529527.55148  19978480.8054   19978487.5764   19978480.878
        54.0004         49.0004
  -4669635.71447  -3586089.17446  23499623.8784   23499631.2794   23499624.084
        44.0004         39.0004
  -4109373.39347  -3202999.71546  23310986.5024   23310996.8804   23310986.828
        44.0004         40.0004
   -998094.44147   -758461.27746  24053655.2974   24053670.0724   24053655.556
        42.0004         37.0004
 -11480599.91348  -8875443.55447  22866705.4504   22866716.2554   22866705.371
        49.0004         44.0004
 -26262858.02848 -20405074.35647  20909050.9434   20909058.6584   20909050.651
        52.0004         47.0004
    183794.26046    200371.34346  24568001.5354   24568004.4064   24568000.673
        40.0004         36.0004
 14  5 18  0  8 30.0000000  0 12G20G07G08G10G01G09G02G28G26G17G04G13
  -4332768.85846  -3317276.21045  23729953.7644   23729963.4174   23729954.929
        40.0004         35.0004
 -20989584.10548 -16326767.47548  20810415.5764   20810421.8714   20810414.974
        52.0004         48.0004
 -14257652.43949 -11095597.70248  19881096.0364   19881103.1924   19881096.146
        54.0004         49.0004
  -9329581.20747  -7259146.75946  23674145.1284   23674155.2994   23674146.441
        44.0004         39.0004
  -2219667.63446  -1697389.93746  24479972.7554   24479988.7304   24479972.475
        41.0004         36.0004
 -19942205.17949 -15530397.00148  19978268.5494   19978275.2664   19978268.447
        54.0004         49.0004
  -4756918.06947  -3654101.20546  23483014.9564   23483022.2774   23483014.168
        44.0004         39.0004
  -4163717.96047  -3245345.97846  23300646.0444   23300655.0014   23300645.306
        44.0004         40.0004
  -1001311.77947   -760968.10646  24053041.7884   24053057.6274   24053042.611
        42.0004         38.0004
 -11438024.31948  -8842267.77247  22874807.6664   22874817.8674   22874807.073
        49.0004         44.0004
 -26320647.41348 -20450104.95747  20898053.4464   20898061.3094   20898053.105
        52.0004         47.0004
    249769.95946    251781.17245  24580553.6114   24580561.3384   24580555.095
        40.0004         35.0004
 14  5 18  0  9  0.0000000  0 12G20G07G08G10G01G09G02G28G26G17G04G13
  -4313581.62046  -3302325.15745  23733605.4214   23733614.5094   23733607.158
        40.0004         35.0004
 -20925990.54748 -16277213.99848  20822516.6884   20822523.0074   20822516.585
        52.0004         48.0004
 -14256288.00049 -11094534.43748  19881355.5244   19881362.8424   19881355.851
        54.0004         49.0004
  -9392475.26447  -7308154.90046  23662177.8744   23662187.3334   23662177.809
        44.0004         39.0004
  -2114393.88046  -1615358.50446  24500006.1294   24500020.9784   24500005.034
        41.0004         36.0004
 -19942707.32349 -15530788.21848  19978172.5554   19978179.6154   19978172.767
        54.0004         50.0004
  -4843964.70347  -3721929.55646  23466448.2184   23466457.1974   23466448.982
        44.0004         39.0004
  -4218204.94647  -3287803.20346  23290276.1774   23290286.5314   23290276.856
        45.0004         40.0004
  -1004242.68547   -763251.71446  24052484.9674   24052500.1214   24052484.918
        42.0004         38.0004
 -11395469.56748  -8809108.21847  22882904.9294   22882915.0514   22882905.031
        48.0004         44.0004
 -26377966.02548 -20494768.72247  20887146.2734   20887153.9374   20887145.888
        52.0004         47.0004
    315516.59346    303012.49945  24593062.7314   24593071.0954   24593066.215
        40.0004         35.0004
 14  5 18  0  9 30.0000000  0 12G20G07G08G10G01G09G02G28G26G17G04G13
  -4294104.77246  -3287148.41146  23737311.4434   23737323.7704   23737312.558
        40.0004         36.0004
 -20861911.50448 -16227282.21248  20834710.7124   20834716.8224   20834710.239
        52.0004         48.0004
 -14254260.36249 -11092954.39848  19881741.3734   19881748.4844   19881741.551
        54.0004         49.0004
  -9455547.19147  -7357301.65746  23650175.8054   23650185.1084   23650175.141
        44.0004         39.0004
  -2009019.10346  -1533248.35646  24520057.3764   24520074.2324   24520057.207
        41.0004         37.0004
 -19942598.50449 -15530703.36348  19978193.4714   19978200.0454   19978193.634
        54.0004         50.0004
  -4930776.02947  -3789574.54746  23449929.5064   23449937.6724   23449930.141
        44.0004         39.0004
  -4272835.44547  -3330372.26846  23279880.5874   23279891.7034   23279881.061
        45.0004         40.0004
  -1006891.74147   -765315.71946  24051980.5664   24051995.0264   24051980.732
        42.0004         38.0004
 -11352940.44748  -8775968.64247  22890998.3384   22891008.4434   22890998.170
        48.0004         44.0004
 -26434814.71648 -20539066.31747  20876327.7514   20876335.6294   20876328.047
        52.0004         47.0004
    381030.52046    354062.48745  24605531.3494   24605538.9524   24605532.140
        40.0004         35.0004
 14  5 18  0 10  0.0000000  0 12G20G07G08G10G01G09G02G28G26G17G04G13
  -4274335.01846  -3271743.43746  23741076.7644   23741083.5134   23741075.124
        40.0004         36.0004
 -20797347.40648 -16176972.46748  20846996.7414   20847003.0874   20846996.411
        52.0004         48.0004
 -14251567.35249 -11090855.88448  19882253.9794   19882260.8204   19882253.969
        54.0004         49.0004
  -9518793.51647  -7406584.31146  23638138.6144   23638148.3674   23638139.234
        44.0004         39.0004
  -1903544.07646  -1451060.07846  24540130.8754   24540144.8704   24540129.244
        41.0004         37.0004
 -19941877.09649 -15530141.16248  19978330.5104   19978337.4924   19978330.713
        54.0004         50.0004
  -5017347.80147  -3857032.86546  23433455.6704   23433463.1394   23433456.207
        44.0004         40.0004
  -4327605.32547  -3373049.93546  23269457.7274   23269468.7334   23269458.084
        45.0004         40.0004
  -1009258.82947   -767160.00546  24051530.9704   24051545.1664   24051530.040
        42.0004         38.0004
 -11310437.28248  -8742849.28547  22899086.3834   22899096.2414   22899086.039
        48.0004         44.0004
 -26491189.57348 -20582994.69247  20865600.6304   20865608.1414   20865600.139
        52.0004         47.0004
    446312.39046    404931.64745  24617956.1214   24617961.0434   24617954.979
        40.0004         35.0004
 14  5 18  0 10 30.0000000  0 12G20G07G08G10G01G09G02G28G26G17G04G13
  -4254269.20946  -3256107.76345  23744893.3234   23744902.7764   23744893.226
        40.0004         35.0004
 -20732298.90248 -16126285.25547  20859374.6294   20859380.8064   20859374.310
        52.0004         47.0004
 -14248206.99749 -11088237.36348  19882893.2234   19882900.4624   19882893.325
        54.0004         49.0004
  -9582211.13347  -7456000.44046  23626071.5904   23626081.2494   23626071.202
        44.0004         39.0004
  -1797969.48146  -1368794.21246  24560220.0084   24560236.2044   24560218.899
        41.0004         37.0004
 -19940541.51549 -15529100.38648  19978584.8694   19978591.7104   19978584.751
        54.0004         50.0004
  -5103675.85647  -3924301.27446  23417027.9034   23417035.7954   23417027.631
        44.0004         40.0004
  -4382510.75547  -3415833.21846  23259009.5634   23259018.5214   23259009.822
        45.0004         40.0004
  -1011343.87647   -768784.52146  24051133.1004   24051149.0464   24051133.366
        43.0004         38.0004
 -11267960.39748  -8709750.40647  22907169.7644   22907179.5004   22907169.290
        49.0004         44.0004
 -26547086.81748 -20626550.90247  20854963.4714   20854970.9804   20854963.167
        52.0004         47.0004
    511363.45146    455620.98545  24630333.8944   24630340.0484   24630332.817
        40.0004         35.0004
 14  5 18  0 11  0.0000000  0 12G20G07G08G10G01G09G02G28G26G17G04G13
  -4233909.41146  -3240243.02545  23748768.1064   23748777.4594   23748767.445
        40.0004         35.0004
 -20666771.44748 -16075224.83647  20871844.4114   20871850.3634   20871844.012
        52.0004         47.0004
 -14244182.39249 -11085101.24348  19883659.1584   19883665.9144   19883659.280
        54.0004         49.0004
  -9645802.14047  -7505551.66946  23613969.6644   23613979.2494   23613970.889
        44.0004         39.0004
  -1692301.05346  -1286455.23346  24580327.3294   24580344.5164   24580327.084
        41.0004         37.0004
 -19938595.28149 -15527583.77948  19978955.1504   19978962.2564   19978954.999
        54.0004         50.0004
  -5189761.27547  -3991380.61746  23400646.3044   23400653.6674   23400646.020
        44.0004         40.0004
  -4437553.41947  -3458723.43946  23248535.3084   23248545.5454   23248535.620
        45.0004         40.0004
  -1013151.85547   -770193.13246  24050789.1774   24050803.7924   24050788.873
        43.0004         38.0004
 -11225515.16248  -8676676.19147  22915246.6284   22915256.7954   22915246.100
        48.0004         44.0004
 -26602507.87848 -20669736.05747  20844417.0424   20844424.5474   20844416.669
        52.0004         47.0004
    576179.34146    506127.04545  24642667.8684   24642674.6324   24642666.855
        40.0004         35.0004
 14  5 18  0 11 30.0000000  0 12G20G07G08G10G01G09G02G28G26G17G04G13
  -4213251.25246  -3224145.81145  23752698.6664   23752706.1994   23752698.489
        40.0004         35.0004
 -20600764.20748 -16023790.55547  20884405.2814   20884411.0814   20884404.658
        52.0004         47.0004
 -14239490.21849 -11081444.93748  19884551.5814   19884558.7824   19884552.178
        54.0004         49.0004
  -9709561.49647  -7555234.08146  23601836.5454   23601845.5404   23601837.224
        44.0004         39.0004
  -1586538.11546  -1204042.60046  24600453.1754   24600470.2564   24600452.679
        41.0004         37.0004
 -19936035.39549 -15525588.99648  19979442.0184   19979449.3254   19979442.115
        54.0004         50.0004
  -5275598.52047  -4058266.56546  23384311.7724   23384319.0434   23384312.520
        44.0004         40.0004
  -4492727.34447  -3501715.94246  23238036.4054   23238045.9604   23238035.784
        45.0004         40.0004
  -1014681.25547   -771384.66946  24050497.9784   24050512.1914   24050497.823
        43.0004         38.0004
 -11183100.55548  -8643625.83447  22923316.7704   22923327.5744   22923316.925
        48.0004         43.0004
 -26657447.57348 -20712546.13147  20833962.9604   20833969.9214   20833962.542
        52.0004         47.0004
    640762.64646    556451.88345  24654957.6214   24654963.2104   24654956.962
        40.0004         35.0004
 14  5 18  0 12  0.0000000  0 12G20G07G08G10G01G09G02G28G26G17G04G13
  -4192296.92346  -3207817.78845  23756687.6174   23756695.1934   23756685.933
        40.0004         35.0004
 -20534282.99848 -15971986.94847  20897056.2414   20897062.3854   20897055.536
        52.0004         47.0004
 -14234133.49649 -11077270.80348  19885571.0754   19885578.1134   19885571.210
        54.0004         49.0004
  -9773490.73047  -7605048.86546  23589671.4104   23589680.9034   23589672.193
        44.0004         39.0004
  -1480686.51546  -1121560.88246  24620595.1034   24620612.7044   24620596.290
        41.0004         37.0004
 -19932865.23049 -15523118.67148  19980045.1914   19980052.3234   19980045.233
        54.0004         50.0004
  -5361188.40047  -4124959.76946  23368023.4594   23368031.7534   23368024.922
        44.0004         40.0004
  -4548034.07947  -3544811.93446  23227510.3994   23227521.2234   23227511.736
        45.0004         41.0004
  -1015937.25947   -772363.18046  24050259.3304   24050272.9864   24050258.889
        43.0004         38.0004
 -11140721.89448  -8610603.48947  22931382.2214   22931392.5554   22931381.784
        48.0004         44.0004
 -26711907.04048 -20754981.99447  20823599.2654   20823606.4244   20823598.178
        52.0004         47.0004
    705109.17846    606592.23745  24667202.9904   24667207.9614   24667202.177
        40.0004         35.0004
 14  5 18  0 12 30.0000000  0 12G20G07G08G10G01G09G02G28G26G17G04G13
  -4171046.01746  -3191258.68545  23760729.2224   23760739.0724   23760730.732
        40.0004         35.0004
 -20467331.08648 -15919816.57047  20909796.9174   20909802.4944   20909796.329
        52.0004         47.0004
 -14228113.27349 -11072579.65448  19886716.3914   19886723.8354   19886717.143
        54.0004         49.0004
  -9837589.72847  -7654995.92946  23577473.3064   23577482.6644   23577474.403
        44.0004         39.0004
  -1374749.90246  -1039012.90746  24640754.9374   24640773.2964   24640754.837
        41.0004         36.0004
 -19929086.36549 -15520174.03748  19980764.2954   19980771.3464   19980764.293
        54.0004         50.0004
  -5446529.85847  -4191459.39546  23351783.3454   23351790.7234   23351783.605
        45.0004         40.0004
  -4603472.60747  -3588010.61946  23216960.9184   23216971.1214   23216961.541
        45.0004         40.0004
  -1016922.70747   -773130.87446  24050070.7274   24050084.9474   24050070.820
        43.0004         38.0004
 -11098382.26848  -8577611.56247  22939438.4504   22939448.8364   22939438.415
        48.0004         43.0004
 -26765885.87248 -20797043.33747  20813326.9974   20813334.2644   20813326.979
        52.0004         47.0004
    769216.95746    656546.53945  24679400.8714   24679405.7464   24679401.159
        40.0004         35.0004
 14  5 18  0 13  0.0000000  0 12G20G07G08G10G01G09G02G28G26G17G04G13
  -4149484.34646  -3174457.40045  23764832.8844   23764843.8644   23764833.485
        40.0004         35.0004
 -20399897.40148 -15867270.77147  20922628.9034   20922634.6624   20922628.244
        52.0004         47.0004
 -14221416.14349 -11067361.03948  19887990.9044   19887997.9204   19887990.925
        54.0004         49.0004
  -9901843.55547  -7705063.64946  23565244.9094   23565255.9234   23565247.027
        44.0004         39.0004
  -1268717.38146   -956390.20246  24660932.4924   24660948.9804   24660931.736
        41.0004         36.0004
 -19924685.60649 -15516744.80448  19981601.6094   19981608.6664   19981601.860
        54.0004         50.0004
  -5531607.35147  -4257753.33946  23335593.8524   23335601.3864   23335593.907
        45.0004         40.0004
  -4659027.78147  -3631300.18946  23206389.4814   23206400.0844   23206389.678
        45.0004         40.0004
  -1017625.94947   -773678.65946  24049936.5184   24049951.3784   24049936.447
        43.0004         38.0004
 -11056070.38448  -8544641.24647  22947491.1224   22947501.2304   22947490.108
        48.0004         43.0004
 -26819368.57048 -20838718.09748  20803149.7744   20803157.2284   20803149.545
        52.0004         48.0004
    833098.35546    706324.42145  24691557.4244   24691561.5644   24691556.728
        39.0004         34.0004
 14  5 18  0 13 30.0000000  0 12G20G07G08G10G01G09G02G28G26G17G04G13
  -4127630.51746  -3157428.48845  23768993.2074   23769001.2384   23768992.923
        40.0004         35.0004
 -20332004.76848 -15814367.35447  20935548.5364   20935553.8334   20935547.962
        52.0004         47.0004
 -14214062.48549 -11061630.84648  19889390.4494   19889397.1834   19889390.652
        54.0004         49.0004
  -9966271.05347  -7755266.69046  23552986.0564   23552995.2164   23552986.538
        44.0004         40.0004
  -1162611.87546   -873710.63346  24681124.8584   24681139.1924   24681123.489
        41.0004         36.0004
 -19919683.85249 -15512847.26448  19982553.5614   19982560.5434   19982553.348
        54.0004         50.0004
  -5616438.91747  -4323855.64246  23319450.9544   23319457.6874   23319450.605
        45.0004         40.0004
  -4714717.60847  -3674694.70246  23195791.8964   23195801.9764   23195792.154
        45.0004         40.0004
  -1018069.19647   -774023.86246  24049853.2654   24049868.1144   24049852.332
        43.0004         38.0004
 -11013808.92548  -8511710.22347  22955532.2804   22955543.2384   22955532.379
        48.0004         44.0004
 -26872373.77348 -20880020.76748  20793063.6464   20793070.7804   20793062.473
        52.0004         48.0004
    896732.15046    755909.37345  24703666.8534   24703674.2904   24703666.309
        39.0004         34.0004
 14  5 18  0 14  0.0000000  0 12G20G07G08G10G01G09G02G28G26G17G04G13
  -4105472.53746  -3140162.58345  23773206.7644   23773217.4354   23773209.099
        40.0004         35.0004
 -20263644.62148 -15761099.63947  20948556.9904   20948562.4954   20948556.197
        52.0004         47.0004
 -14206041.16149 -11055380.39248  19890916.5544   19890923.8324   19890916.841
        54.0004         49.0004
 -10030859.54747  -7805595.19746  23540695.5334   23540705.3244   23540695.694
        44.0004         40.0004
  -1056424.64446   -790967.37845  24701329.7514   24701346.9524   24701330.347
        40.0004         35.0004
 -19914070.23149 -15508472.95048  19983621.5464   19983628.3414   19983621.865
        54.0004         50.0004
  -5701011.12447  -4389755.85346  23303357.3724   23303365.1224   23303357.424
        45.0004         40.0004
  -4770528.81347  -3718183.78146  23185171.2654   23185182.7304   23185171.609
        45.0004         40.0004
  -1018243.04947   -774159.13946  24049819.7044   24049832.6394   24049819.467
        43.0004         38.0004
 -10971588.46548  -8478811.13947  22963566.5084   22963576.9584   22963566.646
        48.0004         43.0004
 -26924888.43448 -20920941.20248  20783070.2094   20783077.3624   20783069.805
        52.0004         48.0004
    960128.98946    805309.67145  24715731.5394   24715736.4714   24715730.317
        39.0004         35.0004
 14  5 18  0 14 30.0000000  0 12G20G07G08G10G01G09G02G28G26G17G04G13
  -4083013.43446  -3122662.02245  23777481.8394   23777492.3334   23777483.380
        40.0004         35.0004
 -20194823.29748 -15707472.56447  20961652.6884   20961658.3674   20961652.639
        52.0004         47.0004
 -14197356.75149 -11048613.25348  19892569.2644   19892576.0484   19892569.465
        54.0004         49.0004
 -10095611.52747  -7856051.08346  23528373.4584   23528382.2774   23528373.666
        44.0004         40.0004
   -950162.32846   -708165.58145  24721555.2444   24721568.9534   24721551.454
        40.0004         35.0004
 -19907849.24249 -15503625.35248  19984805.2044   19984812.3114   19984805.189
        54.0004         49.0004
  -5785325.57047  -4455455.21046  23287313.0744   23287319.8724   23287312.737
        45.0004         40.0004
  -4826463.24247  -3761768.88746  23174527.0224   23174537.9004   23174527.957
        45.0004         41.0004
  -1018153.33247   -774089.04946  24049835.7064   24049850.9184   24049835.541
        43.0004         38.0004
 -10929415.38448  -8445948.98347  22971592.7074   22971602.7044   22971591.712
        48.0004         43.0004
 -26976914.91448 -20961481.24048  20773169.5244   20773176.6384   20773169.400
        52.0004         48.0004
   1023283.96646    854521.49945  24727749.8104   24727753.9034   24727747.717
        39.0004         35.0004
 14  5 18  0 15  0.0000000  0 12G20G07G08G10G01G09G02G28G26G17G04G13
  -4060249.60246  -3104923.99645  23781815.1164   23781823.6164   23781814.068
        40.0004         35.0004
 -20125540.90348 -15653486.21947  20974836.1574   20974842.7864   20974836.230
        52.0004         47.0004
 -14188006.85949 -11041327.55248  19894348.3084   19894355.4254   19894348.396
        54.0004         49.0004
 -10160522.99147  -7906631.26046  23516020.6714   23516029.6594   23516021.054
        44.0004         40.0004
   -843825.15646   -625305.48245  24741787.3714   24741801.9094   24741786.436
        40.0004         35.0004
 -19901019.08549 -15498303.08448  19986105.1074   19986111.8914   19986104.951
        54.0004         49.0004
  -5869377.86047  -4520950.29046  23271317.6284   23271325.4694   23271317.911
        45.0004         40.0004
  -4882516.55147  -3805446.62546  23163861.3344   23163870.3134   23163860.996
        46.0004         41.0004
  -1017799.70347   -773813.30746  24049903.9624   24049917.0094   24049903.791
        43.0004         38.0004
 -10887289.21948  -8413123.37347  22979607.4244   22979618.7654   22979608.231
        48.0004         43.0004
 -27028448.98648 -21001637.58348  20763362.9214   20763370.0674   20763362.247
        52.0004         48.0004
   1086198.46146    903545.95145  24739721.1064   24739725.6394   24739720.032
        39.0004         35.0004
 14  5 18  0 15 30.0000000  0 12G20G07G08G10G01G09G02G28G26G17G04G13
  -4037179.49946  -3086947.37445  23786204.6724   23786213.4924   23786204.333
        39.0004         35.0004
 -20055799.46848 -15599142.17547  20988107.7264   20988114.2984   20988107.646
        52.0004         47.0004
 -14177990.57349 -11033522.58848  19896254.4574   19896261.2124   19896254.759
        54.0004         49.0004
 -10225591.78647  -7957334.02046  23503639.1764   23503647.9824   23503638.592
        44.0004         40.0004
   -737415.12446   -542388.58045  24762036.5814   24762052.6384   24762035.834
        39.0004         34.0004
 -19893579.57749 -15492505.99248  19987521.0084   19987527.4184   19987520.808
        54.0004         49.0004
  -5953165.16847  -4586238.89346  23255373.0834   23255380.8374   23255373.250
        45.0004         41.0004
  -4938686.44547  -3849215.21946  23153172.0354   23153182.2634   23153172.285
        46.0004         41.0004
  -1017183.47747   -773332.93946  24050020.8094   24050033.8454   24050020.282
        43.0004         38.0004
 -10845211.56548  -8380335.56747  22987615.6194   22987626.0184   22987615.494
        48.0004         43.0004
 -27079488.35948 -21041408.44448  20753650.8114   20753657.2264   20753650.356
        52.0004         48.0004
   1148872.09546    952382.69945  24751648.2314   24751651.4234   24751645.800
        40.0004         35.0004
 14  5 18  0 16  0.0000000  0 12G20G07G08G10G01G09G02G28G26G17G04G13
  -4013803.37046  -3068732.25145  23790654.0974   23790661.9684   23790652.482
        39.0004         34.0004
 -19985602.97848 -15544443.53747  21001465.3264   21001471.8744   21001465.504
        52.0004         47.0004
 -14167310.06949 -11025200.04848  19898286.7314   19898293.7454   19898286.897
        54.0004         49.0004
 -10290818.29547  -8008159.67946  23491226.1794   23491236.0194   23491226.808
        44.0004         40.0004
 -21111396.20146 -16418218.01345  24782299.8454   24782312.5424   24782297.367
        39.0004         34.0004
 -19885532.92149 -15486235.79848  19989051.9194   19989058.6814   19989051.744
        54.0004         49.0004
  -6036686.68847  -4651320.39546  23239479.6534   23239486.6044   23239480.721
        45.0004         41.0004
  -4994971.85647  -3893073.82346  23142461.3094   23142470.3814   23142460.939
        46.0004         41.0004
  -1016307.94747   -772650.53346  24050187.4274   24050201.0944   24050187.364
        43.0004         38.0004
 -10803186.06548  -8347588.39147  22995612.7944   22995622.6504   22995612.766
        48.0004         43.0004
 -27130032.80448 -21080793.65148  20744031.9894   20744039.1564   20744031.329
        52.0004         48.0004
   1211302.74146   1001030.12545  24763527.0684   24763532.5254   24763525.784
        40.0004         35.0004
 14  5 18  0 16 30.0000000  0 12G20G07G08G10G01G09G02G28G26G17G04G13
  -3990119.78846  -3050277.56445  23795157.8024   23795168.5584   23795159.766
        39.0004         34.0004
 -19914953.24148 -15489391.72547  21014909.6354   21014916.2614   21014909.774
        52.0004         47.0004
 -14155964.89549 -11016359.58448  19900445.6894   19900452.3414   19900445.704
        54.0004         49.0004
 -10356200.08847  -8059106.34846  23478784.4184   23478792.8304   23478785.001
        44.0004         40.0004
 -21004850.45146 -16335195.38545  24802574.9364   24802591.8974   24802572.961
        38.0004         34.0004
 -19876879.35549 -15479492.69148  19990698.9674   19990705.3114   19990698.838
        54.0004         50.0004
  -6119939.70547  -4716192.66646  23223637.5434   23223643.7454   23223637.378
        45.0004         41.0004
  -5051370.34347  -3937020.54247  23131729.3814   23131738.7494   23131728.869
        46.0004         42.0004
  -1015174.57747   -771767.21146  24050401.7264   24050415.7814   24050402.246
        43.0004         38.0004
 -10761214.07848  -8314882.90847  23003600.0974   23003609.4994   23003599.253
        48.0004         43.0004
 -27180080.34248 -21119791.65148  20734508.0604   20734515.3354   20734507.891
        52.0004         48.0004
   1273490.19546   1049488.03745  24775359.6244   24775364.9414   24775360.314
        40.0004         35.0004
 14  5 18  0 17  0.0000000  0 12G20G07G08G10G01G09G02G28G26G17G04G13
  -3966128.54446  -3031583.14945  23799724.0774   23799735.1134   23799725.185
        39.0004         35.0004
 -19843853.75948 -15433989.47247  21028439.7104   21028445.4624   21028439.490
        52.0004         47.0004
 -14143956.40549 -11007002.25048  19902730.7034   19902737.5604   19902731.035
        54.0004         49.0004
 -10421736.62247  -8110173.59446  23466312.8754   23466321.1874   23466313.928
        44.0004         40.0004
 -20898241.34856 -16252123.37755  24822859.5635   24822879.4925   24822859.891
        38.0004         33.0004
 -19867620.07949 -15472277.59948  19992460.3924   19992467.4634   19992460.516
        54.0004         50.0004
  -6202923.16647  -4780854.91246  23207845.0914   23207853.3594   23207845.316
        45.0004         41.0004
  -5107880.70847  -3981054.45247  23120974.7344   23120984.3044   23120975.022
        46.0004         42.0004
  -1013786.18347   -770685.16546  24050666.6164   24050680.7714   24050666.177
        43.0004         38.0004
 -10719298.56548  -8282221.43647  23011576.1444   23011586.4184   23011575.857
        48.0004         43.0004
 -27229629.99148 -21158401.69748  20725079.4504   20725085.9764   20725079.152
        52.0004         48.0004
   1335432.70046   1097755.05945  24787150.0744   24787154.6764   24787147.148
        40.0004         35.0004
 14  5 18  0 17 30.0000000  0 11G20G07G08G10G09G02G28G26G17G04G13
  -3941825.45246  -3012645.74145  23804349.3034   23804359.5054   23804350.234
        39.0004         34.0004
 -19772304.41248 -15378236.66247  21042055.1584   21042061.7494   21042054.746
        52.0004         47.0004
 -14131281.98649 -10997126.01348  19905142.4804   19905149.4594   19905142.909
        54.0004         49.0004
 -10487423.25347  -8161357.78846  23453813.0674   23453821.9534   23453813.887
        45.0004         40.0004
 -19857752.80349 -15464588.74348  19994338.1714   19994344.8804   19994338.024
        54.0004         50.0004
  -6285631.53247  -4845302.77946  23192106.6904   23192114.2304   23192107.206
        45.0004         41.0004
  -5164497.73847  -4025171.46147  23110201.4894   23110212.1854   23110200.917
        46.0004         42.0004
  -1012141.68847   -769403.55246  24050979.4334   24050993.2294   24050978.734
        43.0004         38.0004
 -10677438.46748  -8249603.15947  23019542.1674   23019552.7084   23019541.529
        48.0004         43.0004
 -27278677.01748 -21196620.08048  20715745.2044   20715753.1564   20715744.655
        52.0004         48.0004
   1397132.50146   1145832.96645  24798887.6204   24798892.2854   24798888.354
        40.0004         35.0004
 14  5 18  0 18  0.0000000  0 12G20G07G08G10G01G09G02G28G26G17G04G13
  -3917214.93846  -2993468.79845  23809031.9824   23809044.4694   23809033.367
        39.0004         35.0004
 -19700312.50548 -15322139.01047  21055754.8754   21055760.3514   21055754.787
        52.0004         47.0004
 -14117946.63549 -10986734.76648  19907680.2124   19907687.0684   19907680.375
        54.0004         49.0004
 -10553262.87647  -8212661.20946  23441284.6264   23441293.3064   23441284.968
        45.0004         40.0004
 -20684838.77456 -16085835.72155  24863468.5725   24863485.5685   24863468.885
        38.0004         33.0004
 -19847282.82849 -15456430.25148  19996330.6144   19996337.2994   19996330.668
        54.0004         50.0004
  -6368067.57947  -4909538.45746  23176419.0384   23176425.3794   23176419.816
        45.0004         41.0004
  -5221224.01947  -4069373.60147  23099406.0844   23099416.4814   23099406.749
        46.0004         42.0004
  -1010247.67747   -767927.51446  24051340.2334   24051354.0674   24051339.650
        42.0004         38.0004
 -10635640.69648  -8217033.44447  23027495.4754   23027505.8664   23027495.218
        48.0004         43.0004
 -27327224.64248 -21234449.32448  20706507.5284   20706513.9694   20706507.611
        52.0004         48.0004
   1458584.21246   1193717.54045  24810583.2774   24810588.8734   24810582.512
        39.0004         35.0004
 14  5 18  0 18 30.0000000  0 12G20G07G08G10G01G09G02G28G26G17G04G13
  -3892290.34346  -2974047.09545  23813775.2234   23813785.0524   23813775.233
        39.0004         35.0004
 -19627875.50148 -15265694.51847  21069539.1024   21069544.4284   21069538.268
        52.0004         47.0004
 -14103945.90449 -10975825.03848  19910344.1704   19910351.2424   19910344.367
        54.0004         49.0004
 -10619249.24347  -8264078.98746  23428727.4334   23428736.1734   23428727.648
        45.0004         40.0004
 -20578050.25446 -16002623.89145  24883788.3064   24883807.3344   24883790.264
        38.0004         33.0004
 -19836206.17749 -15447799.02348  19998438.4064   19998444.8234   19998438.199
        54.0004         50.0004
  -6450224.34047  -4973556.50946  23160785.5804   23160791.5314   23160785.719
        45.0004         41.0004
  -5278052.63347  -4113655.48146  23088590.4574   23088601.7064   23088591.702
        46.0004         41.0004
  -1008101.35447   -766254.87846  24051748.4534   24051760.9684   24051747.984
        43.0004         38.0004
 -10593902.42548  -8184510.08547  23035438.9504   23035447.3014   23035437.497
        48.0004         43.0004
 -27375266.36848 -21271884.36548  20697365.2004   20697372.1604   20697364.519
        52.0004         48.0004
   1519791.75046   1241411.82245  24822229.9044   24822234.3284   24822229.169
        40.0004         35.0004
 14  5 18  0 19  0.0000000  0 11G20G07G08G10G09G02G28G26G17G04G13
  -3867054.10946  -2954382.55745  23818579.7154   23818591.0034   23818579.213
        39.0004         34.0004
 -19554999.16048 -15208907.69147  21083407.1864   21083412.9344   21083406.610
        52.0004         47.0004
 -14089283.26149 -10964399.53848  19913133.8754   19913141.3834   19913134.598
        54.0004         49.0004
 -10685383.71847  -8315612.16846  23416141.1534   23416150.4734   23416142.652
        45.0004         40.0004
 -19824526.48049 -15438697.89048  20000660.5814   20000667.3214   20000660.766
        54.0004         50.0004
  -6532102.74347  -5037357.65846  23145204.1814   23145211.3554   23145204.812
        46.0004         41.0004
  -5334984.21347  -4158017.58546  23077758.0304   23077767.4174   23077757.956
        46.0004         41.0004
  -1005707.55747   -764389.39846  24052203.0974   24052216.8974   24052203.526
        43.0004         38.0004
 -10552228.59547  -8152036.93147  23043368.9064   23043378.3254   23043367.933
        47.0004         43.0004
 -27422803.66548 -21308926.33248  20688318.7424   20688326.5084   20688318.698
        52.0004         48.0004
   1580751.51146   1288913.07845  24833829.4264   24833834.2744   24833829.345
        39.0004         35.0004
 14  5 18  0 19 30.0000000  0 12G20G07G08G10G01G09G02G28G26G17G04G13
  -3841503.52146  -2934473.09245  23823439.7834   23823452.8114   23823440.929
        39.0004         34.0004
 -19481684.31048 -15151779.16847  21097358.2774   21097364.3194   21097357.583
        52.0004         47.0004
 -14073957.52249 -10952457.34748  19916050.4244   19916057.8984   19916051.099
        54.0004         49.0004
 -10751663.00847  -8367258.19546  23403529.3764   23403537.6204   23403529.767
        45.0004         40.0004
 -20364313.78246 -15836076.04145  24924465.3214   24924483.4994   24924463.332
        37.0004         33.0004
 -19812242.92349 -15429126.21748  20002998.5754   20003005.0394   20002998.188
        54.0004         50.0004
  -6613698.73347  -5100938.75046  23129675.9304   23129683.7524   23129676.852
        46.0004         41.0004
  -5392014.83047  -4202456.87546  23066905.0104   23066913.9474   23066905.526
        46.0004         41.0004
  -1003066.58647   -762331.32346  24052705.3424   24052719.5264   24052705.679
        43.0004         38.0004
 -10510619.68848  -8119614.36447  23051285.8834   23051296.3214   23051286.222
        48.0004         43.0004
 -27469833.29248 -21345572.72448  20679369.8224   20679376.6634   20679369.318
        52.0004         48.0004
   1641464.58146   1336222.05445  24845382.0394   24845389.0424   24845381.544
        39.0004         35.0004
 14  5 18  0 20  0.0000000  0 12G20G07G08G10G01G09G02G28G26G17G04G13
  -3815639.27146  -2914319.20645  23828361.6984   23828371.5344   23828361.885
        39.0004         34.0004
 -19407935.39648 -15094312.40747  21111391.7344   21111397.5554   21111391.373
        52.0004         47.0004
 -14057970.64849 -10939999.97548  19919093.1434   19919099.6654   19919093.244
        54.0004         49.0004
 -10818087.11347  -8419017.06446  23390889.5184   23390897.4724   23390889.024
        45.0004         40.0004
                 -15752743.89755                  24944828.2835   24944813.094
                        32.0004
 -19799357.85149 -15419085.83548  20005449.8994   20005456.4734   20005450.070
        54.0004         50.0004
  -6695011.78147  -5164299.37046  23114204.0684   23114210.5434   23114203.797
        45.0004         41.0004
  -5449144.25947  -4246973.17746  23056033.7894   23056042.9834   23056033.804
        46.0004         41.0004
  -1000182.07447   -760083.48046  24053254.7464   24053267.9894   24053254.388
        43.0004         38.0004
 -10469079.33448  -8087245.22247  23059191.2454   23059199.9014   23059190.895
        48.0004         43.0004
 -27516355.15948 -21381823.45748  20670516.9634   20670523.5824   20670516.141
        52.0004         48.0004
   1701928.57346   1383336.96445  24856888.8504   24856892.5184   24856887.941
        39.0004         34.0004
 14  5 18  0 20 30.0000000  0 11G20G07G08G10G09G02G28G26G17G04G13
  -3789459.88746  -2893919.78645  23833343.2594   23833353.6084   23833344.571
        39.0004         35.0004
 -19333754.44848 -15036509.00447  21125508.1064   21125513.4394   21125507.512
        51.0004         47.0004
 -14041322.86549 -10927027.61448  19922261.1534   19922267.8694   19922261.270
        54.0004         49.0004
 -10884653.86547  -8470887.08346  23378221.9764   23378229.9124   23378222.296
        45.0004         40.0004
 -19785871.96849 -15408577.28348  20008016.2104   20008023.1404   20008016.189
        54.0004         50.0004
  -6776039.43747  -5227437.61246  23098783.7714   23098791.6204   23098783.673
        45.0004         41.0004
  -5506369.79747  -4291564.35646  23045143.6374   23045153.2794   23045144.417
        46.0004         41.0004
   -997055.61447   -757647.09446  24053848.8544   24053863.7784   24053849.563
        43.0004         38.0004
 -10427608.88448  -8054930.55347  23067083.3034   23067092.4924   23067082.033
        48.0004         43.0004
 -27562367.70548 -21417677.31448  20661760.3314   20661767.9194   20661760.501
        52.0004         48.0004
   1762143.25746   1430257.57845  24868343.8304   24868353.7924   24868346.306
        39.0004         34.0004
 14  5 18  0 21  0.0000000  0 11G20G07G08G10G09G02G28G26G17G04G13
 -22667995.61046 -17604467.16345  23838386.3484   23838397.9064   23838387.467
        39.0004         34.0004
 -19259135.40748 -14978364.22947  21139707.4564   21139713.1764   21139707.097
        51.0004         47.0004
 -14024005.72349 -10913533.67548  19925556.2954   19925563.0434   19925556.157
        54.0004         49.0004
 -10951352.93047  -8522860.21146  23365528.7334   23365537.9144   23365529.512
        45.0004         41.0004
 -19771777.15249 -15397594.24048  20010698.6904   20010705.1894   20010698.478
        54.0004         50.0004
  -6856770.72747  -5290344.91746  23083421.6084   23083427.4974   23083421.904
        46.0004         41.0004
  -5563680.28347  -4336221.73746  23034239.0994   23034247.3344   23034238.636
        46.0004         41.0004
   -993680.37647   -755016.85446  24054491.1064   24054504.3844   24054491.460
        42.0004         38.0004
 -10386201.61748  -8022665.11347  23074961.3834   23074972.8724   23074961.290
        48.0004         43.0004
 -27607860.18648 -21453125.92648  20653104.0664   20653110.7254   20653103.513
        53.0004         48.0004
   1822116.61646   1476990.18545  24879759.0824   24879764.5774   24879759.101
        39.0004         34.0004
 14  5 18  0 21 30.0000000  0 11G20G07G08G10G09G02G28G26G17G04G13
 -22641187.17446 -17583577.54645  23843487.6884   23843499.2314   23843489.559
        39.0004         34.0004
 -19184102.37548 -14919896.86447  21153986.0484   21153992.2434   21153985.532
        51.0004         47.0004
 -14006041.66748 -10899535.65048  19928974.4664   19928981.4034   19928974.841
        53.0004         49.0004
 -11018204.00947  -8574951.77946  23352807.5184   23352816.4634   23352808.357
        45.0004         40.0004
 -19757095.62149 -15386154.02148  20013492.0864   20013498.9214   20013492.061
        54.0004         50.0004
  -6937224.93647  -5353036.30946  23068111.1694   23068117.4624   23068112.212
        46.0004         41.0004
  -5621094.85347  -4380960.23046  23023312.8534   23023321.5384   23023312.644
        45.0004         41.0004
   -990079.82347   -752211.04546  24055176.9234   24055190.6824   24055176.828
        42.0004         38.0004
 -10344880.80448  -7990467.03147  23082825.1174   23082834.2644   23082824.803
        48.0004         43.0004
 -27652852.84448 -21488185.06748  20644542.0864   20644549.2814   20644541.575
        53.0004         48.0004
   1881826.66746   1523517.59445  24891120.8614   24891125.4174   24891121.025
        39.0004         34.0004
 14  5 18  0 22  0.0000000  0 11G20G07G08G10G09G02G28G26G17G04G13
 -22614059.11946 -17562438.90045  23848651.8874   23848661.8144   23848651.681
        39.0004         34.0004
 -19108643.78648 -14861097.89047  21168345.1474   21168350.9314   21168344.788
        51.0004         47.0004
 -13987416.99748 -10885022.85448  19932518.8774   19932525.5264   19932518.878
        53.0004         49.0004
 -11085190.82447  -8627149.11846  23340060.5154   23340069.3514   23340061.698
        45.0004         41.0004
 -19741814.15049 -15374246.31448  20016400.2744   20016406.7434   20016400.195
        54.0004         50.0004
  -7017385.91847  -5415499.21346  23052856.7464   23052863.6784   23052857.112
        46.0004         41.0004
  -5678597.27247  -4425767.15946  23012369.0044   23012379.4034   23012370.343
        46.0004         41.0004
   -986241.56147   -749219.99846  24055905.8604   24055920.0514   24055905.950
        42.0004         38.0004
 -10303634.41548  -7958326.95347  23090673.5744   23090683.2944   23090673.654
        48.0004         43.0004
 -27697329.89748 -21522842.43648  20636078.4084   20636085.1024   20636077.989
        53.0004         48.0004
   1941286.77746   1569850.24145  24902436.8024   24902445.7734   24902436.234
        39.0004         34.0004
 14  5 18  0 22 30.0000000  0 11G20G07G08G10G09G02G28G26G17G04G13
 -22586611.53046 -17541051.26745  23853872.1434   23853886.2994   23853874.438
        38.0004         34.0004
 -19032763.12948 -14801970.04547  21182784.7104   21182790.3304   21182784.276
        51.0004         47.0004
 -13968132.99948 -10869996.30548  19936187.9034   19936194.8974   19936188.563
        53.0004         49.0004
 -11152312.34547  -8679451.42846  23327287.8864   23327297.0254   23327288.628
        45.0004         40.0004
 -19725934.22549 -15361872.28248  20019422.1534   20019428.5764   20019421.911
        54.0004         50.0004
  -7097251.79047  -5477732.17146  23037657.8564   23037665.2494   23037659.072
        46.0004         41.0004
  -5736185.71347  -4470641.12546  23001411.9114   23001422.6574   23001411.595
        46.0004         41.0004
   -982168.34547   -746045.88846  24056681.8934   24056694.8374   24056681.859
        42.0004         38.0004
 -10262464.83548  -7926246.72047  23098508.3944   23098517.9934   23098507.853
        48.0004         43.0004
 -27741290.49548 -21557097.37648  20627712.9364   20627719.5214   20627712.367
        53.0004         48.0004
   2000496.01946   1615987.41245  24913702.7624   24913708.5124   24913703.064
        39.0004         34.0004
 14  5 18  0 23  0.0000000  0 11G20G07G08G10G09G02G28G26G17G04G13
 -22558842.54646 -17519413.14245  23859160.7194   23859169.8974   23859158.547
        38.0004         34.0004
 -18956462.27648 -14742514.76447  21197304.5204   21197310.0334   21197303.896
        51.0004         47.0004
 -13948189.66948 -10854455.99048  19939983.2114   19939989.9924   19939983.498
        53.0004         49.0004
 -11219566.40547  -8731857.01846  23314490.8304   23314497.2014   23314489.984
        45.0004         40.0004
 -19709456.23149 -15349032.22348  20022557.4834   20022563.9384   20022557.703
        54.0004         50.0004
  -7176819.86947  -5539733.07846  23022516.9764   23022524.4864   23022517.793
        46.0004         41.0004
  -5793857.13947  -4515579.75446  22990438.1084   22990445.9704   22990436.725
        46.0004         41.0004
   -977861.48047   -742689.70446  24057500.8564   24057514.4114   24057500.252
        42.0004         38.0004
 -10221373.47848  -7894227.44447  23106327.4064   23106337.7604   23106327.077
        48.0004         43.0004
 -27784732.63348 -21590948.32148  20619445.8834   20619453.0144   20619445.185
        53.0004         48.0004
   2059454.34346   1661929.09045  24924921.1084   24924928.8094   24924922.330
        39.0004         34.0004
 14  5 18  0 23 30.0000000  0 11G20G07G08G10G09G02G28G26G17G04G13
 -22530752.14346 -17497524.61545  23864504.2254   23864513.2104   23864504.350
        38.0004         34.0004
 -18879744.74248 -14682734.80347  21211903.2924   21211908.7144   21211902.954
        51.0004         47.0004
 -13927588.39448 -10838402.99048  19943903.2524   19943910.2774   19943903.740
        53.0004         49.0004
 -11286951.86147  -8784364.99746  23301666.1134   23301674.9984   23301666.772
        45.0004         40.0004
 -19692381.87749 -15335727.46748  20025806.9594   20025813.2824   20025806.447
        54.0004         50.0004
  -7256088.97347  -5601501.01746  23007431.7324   23007439.2474   23007432.622
        46.0004         41.0004
  -5851609.99047  -4560581.84546  22979445.8384   22979455.2164   22979446.561
        46.0004         41.0004
   -973323.70447   -739153.58246  24058363.6744   24058377.7294   24058364.529
        43.0004         38.0004
 -10180362.87047  -7862271.09247  23114132.0584   23114140.9214   23114131.104
        47.0004         43.0004
 -27827655.72448 -21624394.80648  20611278.3524   20611284.4804   20611278.186
        53.0004         48.0004
   2118160.50946   1707674.26045  24936093.8784   24936099.4074   24936093.154
        39.0004         34.0004
 14  5 18  0 24  0.0000000  0 11G20G07G08G10G09G02G28G26G17G04G13
 -22502342.79546 -17475387.53145  23869909.3664   23869921.3254   23869911.647
        38.0004         34.0004
 -18802616.36948 -14622634.69947  21226580.1654   21226585.2304   21226579.647
        51.0004         47.0004
 -13906333.04248 -10821840.32148  19947948.2824   19947954.9004   19947948.580
        53.0004         49.0004
 -11354470.35147  -8836976.62846  23288816.4134   23288826.6944   23288817.674
        45.0004         40.0004
 -19674715.29849 -15321961.24148  20029168.6694   20029174.8514   20029168.648
        54.0004         50.0004
  -7335060.32447  -5663036.94446  22992404.9074   22992411.4384   22992404.789
        46.0004         41.0004
  -5909445.44447  -4605648.28446  22968441.2634   22968450.6794   22968440.971
        46.0004         41.0004
   -968560.29747   -735441.64546  24059271.0384   24059283.2974   24059270.145
        43.0004         38.0004
 -10139437.81847  -7830381.40547  23121919.7004   23121930.0644   23121918.908
        47.0004         43.0004
 -27870061.19348 -21657437.95748  20603208.1334   20603215.0194   20603207.762
        53.0004         48.0004
   2176610.48146   1753219.78445  24947220.8944   24947225.4584   24947216.336
        38.0004         34.0004
 14  5 18  0 24 30.0000000  0 11G20G07G08G10G09G02G28G26G17G04G13
 -22473609.33646 -17452997.91345  23875380.3854   23875391.0044   23875378.526
        39.0004         34.0004
 -18725075.63648 -14562213.27747  21241335.4244   21241340.9834   21241335.282
        51.0004         47.0004
 -13884420.36748 -10804765.45248  19952117.9254   19952124.5944   19952118.308
        53.0004         49.0004
 -11422115.51847  -8889686.97846  23275945.5074   23275953.0814   23275945.165
        45.0004         40.0004
 -19656453.20549 -15307730.97348  20032643.4634   20032650.0054   20032643.650
        54.0004         50.0004
  -7413727.17847  -5724335.60946  22977435.8034   22977441.6804   22977435.472
        46.0004         41.0004
  -5967356.91747  -4650773.97246  22957419.7634   22957430.1624   22957420.448
        46.0004         41.0004
   -963568.96347   -731552.09946  24060219.5914   24060233.7034   24060219.691
        43.0004         38.0004
 -10098596.36547  -7798556.84747  23129691.4424   23129701.7584   23129691.008
        47.0004         43.0004
 -27911943.76548 -21690073.64948  20595238.2784   20595245.4324   20595237.779
        53.0004         48.0004
   2234808.16146   1798568.72845  24958293.9204   24958294.1824   24958290.758
        39.0004         34.0004
 14  5 18  0 25  0.0000000  0 11G20G07G08G10G09G02G28G26G17G04G13
 -22444554.31746 -17430357.72345  23880907.2574   23880915.8934   23880908.182
        39.0004         34.0004
 -18647128.62048 -14501475.27847  21256168.5034   21256173.7974   21256167.893
        51.0004         47.0004
 -13861854.62448 -10787181.70048  19956412.0424   19956418.8454   19956412.186
        53.0004         49.0004
 -11489889.12047  -8942497.41246  23263048.6204   23263057.1324   23263048.801
        45.0004         40.0004
 -19637600.00749 -15293040.10848  20036231.1824   20036237.7184   20036231.056
        54.0004         50.0004
  -7492091.15747  -5785398.26146  22962522.1904   22962528.3524   22962523.280
        46.0004         41.0004
  -6025345.24047  -4695959.54246  22946385.1574   22946393.8864   22946385.402
        46.0004         41.0004
   -958355.08247   -727489.13846  24061212.5154   24061226.2424   24061212.178
        43.0004         38.0004
 -10057843.83147  -7766801.58647  23137446.4904   23137455.9144   23137446.084
        47.0004         43.0004
 -27953305.34048 -21722303.37348  20587367.6454   20587374.5814   20587367.503
        53.0004         48.0004
   2292749.72146   1843718.06545  24969316.9874   24969321.6834   24969316.585
        38.0004         34.0004
 14  5 18  0 25 30.0000000  0 11G20G07G08G10G09G02G28G26G17G04G13
 -22415173.46346 -17407463.63545  23886498.4994   23886508.3714   23886499.134
        39.0004         34.0004
 -18568774.87948 -14440420.34047  21271078.6504   21271084.0344   21271077.916
        51.0004         47.0004
 -13838633.37949 -10769087.17048  19960830.7764   19960837.9184   19960831.148
        54.0004         49.0004
 -11557785.87047  -8995403.79346  23250127.3034   23250136.6074   23250128.384
        45.0004         40.0004
 -19618153.78649 -15277887.14848  20039931.5514   20039938.0264   20039931.582
        54.0004         50.0004
  -7570146.98647  -5846220.81046  22947667.9574   22947675.1474   22947668.553
        46.0004         41.0004
  -6083405.06047  -4741200.82546  22935336.5104   22935347.4364   22935336.878
        46.0004         41.0004
   -952917.52447   -723251.87846  24062247.8904   24062260.5924   24062247.582
        42.0004         38.0004
 -10017178.65247  -7735114.40047  23145184.7994   23145194.1734   23145184.059
        47.0004         42.0004
 -27994141.31648 -21754123.53948  20579596.1904   20579603.8004   20579595.797
        53.0004         48.0004
   2350437.75446   1888669.88945  24980295.8914   24980301.0284   24980294.212
        38.0004         34.0004
 14  5 18  0 26  0.0000000  0 11G20G07G08G10G09G02G28G26G17G04G13
 -22385470.66046 -17384318.64845  23892151.1914   23892161.8364   23892151.542
        39.0004         34.0004
 -18490021.78348 -14379054.22547  21286064.4304   21286069.7334   21286064.369
        51.0004         46.0004
 -13814761.88949 -10750485.95448  19965373.7094   19965379.9864   19965373.883
        54.0004         49.0004
 -11625808.88147  -9048408.55646  23237182.9414   23237192.1394   23237183.789
        45.0004         41.0004
 -19598120.14149 -15262276.45748  20043743.6474   20043750.3294   20043743.846
        54.0004         50.0004
  -7647896.86747  -5906804.94347  22932873.6524   22932879.2914   22932874.780
        46.0004         42.0004
  -6141538.34647  -4786499.35646  22924274.6514   22924283.6764   22924274.400
        46.0004         41.0004
   -947262.81047   -718845.42046  24063323.9234   24063335.9604   24063322.987
        42.0004         38.0004
  -9976606.96147  -7703500.06447  23152904.9994   23152914.4384   23152904.794
        47.0004         43.0004
 -28034455.16648 -21785536.85548  20571925.4244   20571931.9994   20571924.958
        53.0004         48.0004
   2407867.18146   1933420.18845  24991222.3844   24991231.4314   24991222.341
        38.0004         34.0004
 14  5 18  0 26 30.0000000  0 11G20G07G08G10G09G02G28G26G17G04G13
 -22355440.59646 -17360918.69745  23897866.0264   23897874.4504   23897867.228
        39.0004         35.0004
 -18410867.59448 -14317375.57247  21301126.5714   21301132.8784   21301126.376
        51.0004         46.0004
 -13790236.60748 -10731375.29048  19970040.5214   19970047.4544   19970040.810
        53.0004         49.0004
 -11693951.30847  -9101506.37646  23224216.7704   23224223.5424   23224216.598
        45.0004         40.0004
 -19577495.65549 -15246205.36748  20047668.6724   20047675.0354   20047668.578
        54.0004         50.0004
  -7725334.29447  -5967145.60747  22918137.3304   22918143.7924   22918137.574
        46.0004         42.0004
  -6199738.42847  -4831849.94047  22913199.2334   22913207.1274   22913199.489
        46.0004         42.0004
   -941388.55947   -714267.89746  24064441.1764   24064452.9664   24064440.599
        42.0004         38.0004
  -9936126.30547  -7671956.66547  23160608.5414   23160618.0964   23160607.822
        47.0004         43.0004
 -28074240.94648 -21816538.69248  20564354.4554   20564360.4464   20564353.533
        53.0004         48.0004
   2465042.18746   1977972.21345  25002102.3524   25002108.7414   25002103.157
        38.0004         34.0004
 14  5 18  0 27  0.0000000  0 11G20G07G08G10G09G02G28G26G17G04G13
 -22325086.49846 -17337266.23345  23903643.9074   23903653.3154   23903642.654
        39.0004         34.0004
 -18331318.83948 -14255389.45747  21316265.0304   21316269.6094   21316264.600
        51.0004         46.0004
 -13765062.38448 -10711758.95948  19974831.0364   19974837.2354   19974831.196
        53.0004         49.0004
 -11762215.82547  -9154699.33646  23211225.6124   23211232.8084   23211225.840
        45.0004         41.0004
 -19556285.23649 -15229677.71048  20051704.7664   20051711.2134   20051704.417
        54.0004         50.0004
  -7802460.99947  -6027244.14847  22903461.1814   22903466.7384   22903460.953
        46.0004         42.0004
  -6258006.41347  -4877253.44346  22902111.2704   22902120.0984   22902111.286
        46.0004         41.0004
   -935300.70647   -709523.94246  24065599.3534   24065610.3934   24065599.058
        42.0004         37.0004
  -9895742.28647  -7640488.56447  23168292.5024   23168303.5264   23168292.560
        47.0004         43.0004
 -28113501.13548 -21847130.97248  20556882.6814   20556890.1504   20556882.357
        53.0004         48.0004
   2521958.07646   2022322.33645  25012933.8394   25012937.4994   25012933.906
        38.0004         33.0004
 14  5 18  0 27 30.0000000  0 11G20G07G08G10G09G02G28G26G17G04G13
 -22294404.19546 -17313358.01745  23909483.7584   23909492.3294   23909481.193
        39.0004         34.0004
 -18251374.99248 -14193095.47647  21331477.3094   21331482.7484   21331476.758
        51.0004         47.0004
 -13739236.65648 -10691634.96348  19979745.2274   19979752.1594   19979745.556
        53.0004         49.0004
 -11830596.83047  -9207983.06746  23198213.2554   23198221.8974   23198213.409
        45.0004         41.0004
 -19534486.92349 -15212691.95248  20055852.3634   20055859.0154   20055852.778
        54.0004         50.0004
  -7879271.75947  -6087096.49847  22888843.9364   22888850.6474   22888844.764
        47.0004         42.0004
  -6316336.72947  -4922705.51647  22891011.2724   22891020.1874   22891011.445
        46.0004         42.0004
   -928997.87547   -704612.45346  24066797.9704   24066810.6444   24066798.307
        42.0004         37.0004
  -9855453.57947  -7609094.73547  23175960.1404   23175969.9634   23175958.700
        47.0004         42.0004
 -28152231.23648 -21877310.20048  20549513.0254   20549519.5394   20549512.707
        53.0004         48.0004
   2578617.69546   2066472.78045  25023713.7594   25023721.5894   25023715.525
        38.0004         33.0004
 14  5 18  0 28  0.0000000  0 11G20G07G08G10G09G02G28G26G17G04G13
 -22263395.77546 -17289195.68645  23915381.5794   23915393.6314   23915382.187
        39.0004         34.0004
 -18171041.89948 -14130498.19447  21346764.6164   21346769.5564   21346764.408
        51.0004         46.0004
 -13712763.53448 -10671006.50548  19984782.9864   19984789.6834   19984783.236
        53.0004         49.0004
 -11899095.16647  -9261358.22146  23185178.3784   23185185.3654   23185178.509
        45.0004         41.0004
 -19512104.80949 -15195251.28448  20060111.7924   20060118.1104   20060111.738
        54.0004         50.0004
  -7955767.63347  -6146703.48847  22874287.4784   22874292.3654   22874287.304
        47.0004         42.0004
  -6374730.11147  -4968206.73946  22879899.6934   22879907.0294   22879899.428
        46.0004         41.0004
   -922484.91047   -699537.22346  24068037.0204   24068048.7074   24068037.261
        42.0004         37.0004
  -9815264.67747  -7577778.68347  23183607.9984   23183616.2594   23183607.057
        47.0004         43.0004
 -28190432.84548 -21907077.61548  20542243.5744   20542249.7984   20542242.793
        53.0004         48.0004
   2635018.01246   2110421.15245  25034448.7824   25034454.1164   25034448.177
        38.0004         33.0004
 14  5 18  0 28 30.0000000  0 11G20G07G08G10G09G02G28G26G17G04G13
 -22232057.62446 -17264776.42245  23921346.9164   23921354.7314   23921344.886
        39.0004         34.0004
 -18090319.11448 -14067597.25647  21362125.1354   21362130.6834   21362124.636
        51.0004         46.0004
 -13685641.17448 -10649872.15248  19989944.4424   19989950.5684   19989944.598
        53.0004         49.0004
 -11967706.14247  -9314821.14446  23172121.9484   23172129.8554   23172122.347
        45.0004         41.0004
 -19489137.18449 -15177354.37948  20064482.2884   20064488.8624   20064482.251
        54.0004         50.0004
  -8031943.27647  -6206060.94447  22859791.8054   22859797.8354   22859791.611
        47.0004         42.0004
  -6433180.99247  -5013752.77146  22868776.1834   22868785.2554   22868776.391
        46.0004         41.0004
   -915761.11647   -694297.70546  24069315.7814   24069329.6124   24069316.235
        42.0004         37.0004
  -9775174.83947  -7546539.81347  23191236.1634   23191245.5654   23191236.282
        47.0004         43.0004
 -28228101.94148 -21936430.08248  20535074.8604   20535081.6764   20535074.456
        53.0004         48.0004
   2691161.50446   2154169.39845  25045130.9234   25045138.3834   25045131.398
        37.0004         33.0004
 14  5 18  0 29  0.0000000  0 11G20G07G08G10G09G02G28G26G17G04G13
 -22200391.73846 -17240101.81345  23927369.2444   23927382.4494   23927370.230
        39.0004         34.0004
 -18009212.57348 -14004397.28247  21377559.4994   21377564.4134   21377558.894
        51.0004         46.0004
 -13657873.50848 -10628234.96048  19995228.3584   19995234.5564   19995228.677
        53.0004         49.0004
 -12036430.93847  -9368372.76046  23159042.8754   23159052.2384   23159044.474
        45.0004         41.0004
 -19465588.35549 -15159004.58548  20068963.6904   20068969.8834   20068963.611
        54.0004         50.0004
  -8107799.64847  -6265169.62147  22845356.0464   22845362.0744   22845356.675
        47.0004         42.0004
  -6491690.06247  -5059344.14647  22857640.9784   22857651.1194   22857642.346
        46.0004         42.0004
   -908831.52747   -688897.83146  24070635.0994   24070646.7024   24070635.478
        42.0004         38.0004
  -9735188.09847  -7515381.27847  23198845.8554   23198855.8024   23198845.142
        47.0004         43.0004
 -28265240.62448 -21965369.24848  20528007.5124   20528014.4314   20528007.461
        53.0004         48.0004
   2747044.55946   2197714.72145  25055763.7814   25055769.7964   25055764.678
        38.0004         33.0004
 14  5 18  0 29 30.0000000  0 11G20G07G08G10G09G02G28G26G17G04G13
 -22168396.48546 -17215170.52545  23933457.0784   23933469.0984   23933459.458
        39.0004         34.0004
 -17927724.08348 -13940899.68647  21393066.2384   21393071.5414   21393065.628
        51.0004         46.0004
 -13629460.47148 -10606094.88648  20000634.6474   20000641.5114   20000635.035
        53.0004         49.0004
 -12105266.27247  -9422010.51446  23145944.5514   23145952.0264   23145944.987
        45.0004         41.0004
 -19441458.29349 -15140201.88048  20073555.0854   20073561.3564   20073555.025
        54.0004         50.0004
  -8183333.88247  -6324027.27847  22830982.0544   22830988.2244   22830982.441
        46.0004         42.0004
  -6550253.64547  -5104977.99847  22846497.5464   22846506.3074   22846497.996
        46.0004         42.0004
   -901697.02347   -683338.28546  24071993.8294   24072007.0994   24071992.981
        43.0004         38.0004
  -9695305.86447  -7484304.19447  23206434.4634   23206444.6234   23206434.426
        47.0004         42.0004
 -28301846.11248 -21993892.93648  20521041.3524   20521048.5234   20521041.588
        53.0004         48.0004
  -9800691.90646  -7579742.21345  25066353.0814   25066358.2494   25066349.793
        38.0004         33.0004
 14  5 18  0 30  0.0000000  0 11G20G07G08G10G09G02G28G26G17G04G13
 -23711477.59946 -18417571.46345  23939613.7754   23939624.0254   23939613.041
        39.0004         34.0004
 -17845842.75348 -13877095.98847  21408647.4374   21408653.1044   21408646.806
        51.0004         46.0004
 -13600389.68748 -10583442.28448  20006166.8734   20006173.4484   20006167.276
        53.0004         49.0004
 -12174196.84147  -9475722.48346  23132827.1644   23132836.2714   23132827.890
        45.0004         41.0004
 -19416734.82349 -15120936.78448  20078259.7514   20078266.3674   20078259.891
        54.0004         50.0004
  -8258530.49047  -6382621.85547  22816671.7854   22816679.8324   22816671.823
        46.0004         42.0004
  -6608855.80847  -5150641.90047  22835346.9004   22835354.9464   22835346.342
        46.0004         42.0004
   -894346.09547   -677610.09146  24073390.9324   24073404.0634   24073391.326
        43.0004         38.0004
  -9655515.97247  -7453299.07147  23214006.9734   23214016.8904   23214006.115
        47.0004         42.0004
 -28337903.85248 -22021989.80748  20514180.3544   20514186.9044   20514179.444
        53.0004         48.0004
                  -7536591.23445                  25076895.9864   25076888.176
                        33.0004
 14  5 18  0 30 30.0000000  0 11G20G07G08G10G09G02G28G26G17G04G13
 -23678827.07446 -18392129.57945  23945827.5214   23945836.3354   23945828.173
        39.0004         34.0004
 -17763604.04248 -13813013.80947  21424297.1114   21424302.7314   21424296.736
        51.0004         46.0004
 -13570694.72348 -10560303.30648  20011817.5734   20011823.9234   20011817.799
        53.0004         49.0004
 -12243253.08547  -9529532.38546  23119686.1314   23119695.0604   23119686.519
        45.0004         41.0004
 -19391451.69249 -15101235.58848  20083071.1834   20083077.5264   20083071.022
        54.0004         50.0004
  -8333419.46447  -6440976.72747  22802421.8114   22802428.1454   22802421.776
        46.0004         42.0004
  -6667526.38047  -5196359.10947  22824182.4024   22824191.2324   22824181.911
        47.0004         42.0004
   -886813.29247   -671740.18346  24074825.4654   24074836.8654   24074825.080
        43.0004         38.0004
  -9615852.61347  -7422392.52947  23221554.2864   23221564.2034   23221553.649
        47.0004         42.0004
 -28373445.15448 -22049684.26848  20507416.8314   20507423.9194   20507416.739
        53.0004         48.0004
  -9690217.01846  -7493657.74145  25087375.8524   25087375.1054   25087372.857
        37.0004         33.0004
 14  5 18  0 31  0.0000000  0 10G20G07G08G10G09G02G28G26G17G04
 -23645844.32846 -18366428.82645  23952099.4364   23952111.2704   23952102.889
        39.0004         34.0004
 -17680990.69148 -13748639.69847  21440017.3454   21440023.1054   21440017.265
        51.0004         46.0004
 -13540357.00448 -10536663.48148  20017590.4574   20017597.1244   20017591.038
        53.0004         49.0004
 -12312413.28947  -9583423.29046  23106525.3094   23106533.0114   23106526.332
        46.0004         41.0004
 -19365590.66049 -15081084.08148  20087992.4594   20087998.4314   20087992.302
        54.0004         50.0004
  -8407979.22447  -6499075.04747  22788233.1034   22788239.0244   22788234.128
        46.0004         42.0004
  -6726243.09747  -5242112.28947  22813007.5304   22813015.9564   22813008.229
        47.0004         42.0004
   -879081.00247   -665714.82546  24076296.1694   24076307.7264   24076296.058
        43.0004         38.0004
  -9576297.45847  -7391570.30347  23229081.5524   23229091.3634   23229081.054
        47.0004         43.0004
 -28408449.30048 -22076960.16548  20500755.7224   20500762.2094   20500755.120
        53.0004         48.0004
 14  5 18  0 31 30.0000000  0 11G20G07G08G10G09G02G28G26G17G04G13
 -23612527.88546 -18340468.04645  23958443.5114   23958455.3164   23958445.191
        39.0004         34.0004
 -17598005.02448 -13683975.47347  21455808.9814   21455814.9414   21455808.896
        51.0004         46.0004
 -13509377.20848 -10512523.33448  20023485.9694   20023492.3324   20023486.200
        53.0004         49.0004
 -12381674.62747  -9637393.00646  23093345.7214   23093352.2364   23093346.060
        46.0004         41.0004
 -19339152.39449 -15060482.78048  20093023.2084   20093029.5394   20093023.340
        54.0004         50.0004
  -8482207.42147  -6556915.01747  22774106.6404   22774113.6164   22774107.407
        47.0004         42.0004
  -6785002.90547  -5287899.04247  22801826.1014   22801835.4884   22801826.510
        47.0004         42.0004
   -871150.69147   -659535.17146  24077805.3134   24077816.7694   24077805.317
        43.0004         38.0004
  -9536852.01247  -7360833.56747  23236587.9634   23236597.1574   23236587.046
        47.0004         43.0004
 -28442914.64948 -22103816.21948  20494196.9174   20494203.2184   20494196.835
        53.0004         48.0004
 -11156220.47046  -8635997.96045  25108191.7464   25108202.9234   25108194.526
        38.0004         33.0004
 14  5 18  0 32  0.0000000  0 11G20G07G08G10G09G02G28G26G17G04G13
 -23578875.80546 -18314245.74345  23964844.0234   23964859.4964   23964847.573
        39.0004         34.0004
 -17514648.64448 -13619022.38147  21471671.8024   21471676.5064   21471670.785
        51.0004         46.0004
 -13477755.30048 -10487882.84148  20029503.2384   20029510.0504   20029503.326
        53.0004         49.0004
 -12451033.83547  -9691438.99246  23080146.6254   23080154.3184   23080147.139
        46.0004         41.0004
 -19312136.98849 -15039431.75948  20098164.1514   20098170.3094   20098164.145
        54.0004         50.0004
  -8556100.73047  -6614494.03947  22760046.5254   22760053.0014   22760046.968
        47.0004         42.0004
  -6843801.95947  -5333716.38247  22790637.9114   22790644.4974   22790637.351
        47.0004         42.0004
   -863023.02647   -653201.71746  24079352.1324   24079364.4474   24079351.787
        43.0004         38.0004
  -9497516.77347  -7330182.71247  23244072.5684   23244082.7364   23244072.134
        47.0004         42.0004
 -28476838.76548 -22130250.54148  20487741.4864   20487748.4014   20487741.384
        53.0004         48.0004
 -11101900.61846  -8593670.72845  25118533.3604   25118536.0034   25118531.005
        38.0004         33.0004
 14  5 18  0 32 30.0000000  0 11G20G07G08G10G09G02G28G26G17G04G13
 -23544892.09146 -18287765.01745  23971312.4234   23971322.6174   23971313.925
        39.0004         34.0004
 -17430928.75048 -13553786.03347  21487602.3084   21487607.2364   21487602.329
        51.0004         46.0004
 -13445496.75548 -10462746.27248  20035642.2004   20035648.5424   20035642.288
        53.0004         49.0004
 -12520493.26847  -9745563.06646  23066929.2604   23066936.0944   23066929.232
        46.0004         41.0004
 -19284550.08449 -15017935.41548  20103413.4444   20103420.0004   20103413.707
        54.0004         50.0004
  -8629661.20047  -6671813.70447  22746047.8004   22746053.7324   22746048.423
        47.0004         42.0004
  -6902642.13247  -5379565.76747  22779439.2244   22779449.3734   22779440.258
        47.0004         42.0004
   -854704.37847   -646719.46346  24080934.5444   24080946.3394   24080933.948
        43.0004         38.0004
  -9458297.33947  -7299622.09747  23251535.4184   23251545.3744   23251535.517
        47.0004         43.0004
 -28510224.77948 -22156265.55648  20481387.9184   20481394.7374   20481387.796
        53.0004         48.0004
 -11047843.98546  -8551548.61845  25128818.4504   25128822.1474   25128816.605
        38.0004         34.0004
 14  5 18  0 33  0.0000000  0 11G20G07G08G10G09G02G28G26G17G04G13
 -23510572.98846 -18261022.96345  23977843.3994   23977856.0474   23977844.683
        39.0004         34.0004
 -17346845.23948 -13488266.34247  21503602.7874   21503609.0384   21503602.605
        50.0004         46.0004
 -13412599.91648 -10437112.32948  20041901.8684   20041908.5094   20041902.070
        53.0004         49.0004
 -12590048.15647  -9799761.52646  23053692.4884   23053700.3134   23053693.503
        46.0004         41.0004
 -19256390.58749 -14995992.89948  20108772.2694   20108778.5664   20108772.217
        54.0004         50.0004
  -8702884.12847  -6728870.36647  22732114.0884   22732120.0434   22732114.410
        47.0004         42.0004
  -6961518.05047  -5425443.00747  22768236.1794   22768244.9064   22768236.606
        47.0004         42.0004
   -846194.21047   -640087.95746  24082554.4124   24082567.0474   24082553.625
        43.0004         38.0004
  -9419192.65547  -7269150.89547  23258977.3874   23258987.1174   23258976.941
        47.0004         43.0004
 -28543069.12348 -22181858.49648  20475138.2804   20475144.7284   20475138.251
        53.0004         48.0004
                  -8509629.58645                  25139061.2114   25139055.088
                        33.0004
 14  5 18  0 33 30.0000000  0 11G20G07G08G10G09G02G28G26G17G04G13
 -23475920.88046 -18234021.45045  23984440.0714   23984445.2704   23984439.521
        39.0004         34.0004
 -17262404.06548 -13422467.94947  21519671.4904   21519676.8804   21519671.182
        50.0004         46.0004
 -13379069.58548 -10410984.75648  20048282.4324   20048289.3254   20048282.832
        53.0004         49.0004
 -12659699.44647  -9854035.10846  23040439.3814   23040446.2834   23040439.523
        46.0004         41.0004
 -19227662.93449 -14973607.65748  20114238.9674   20114245.1904   20114238.803
        54.0004         50.0004
  -8775770.82847  -6785665.01947  22718244.0004   22718250.1124   22718244.545
        47.0004         42.0004
  -7020430.11047  -5471348.39347  22757025.7684   22757035.5744   22757026.041
        47.0004         42.0004
   -837497.55147   -633311.14546  24084208.5904   24084220.1504   24084207.830
        43.0004         38.0004
  -9380207.42547  -7238772.78147  23266396.3514   23266405.4494   23266395.321
        47.0004         43.0004
 -28575373.70248 -22207030.84148  20468990.6264   20468997.5344   20468990.238
        53.0004         48.0004
 -10940516.06246  -8467916.34245  25149243.2244   25149248.3484   25149240.965
        38.0004         33.0004
 14  5 18  0 34  0.0000000  0 11G20G07G08G10G09G02G28G26G17G04G13
 -23440933.33946 -18206758.52345  23991097.9054   23991109.7644   23991097.071
        39.0004         34.0004
 -17177606.19248 -13356391.61547  21535807.6964   21535812.9014   21535807.986
        50.0004         46.0004
 -13344904.78348 -10384362.78948  20054783.6414   20054789.9984   20054783.880
        53.0004         49.0004
 -12729443.09747  -9908380.66446  23027166.6244   23027174.3254   23027167.171
        46.0004         41.0004
 -19198366.48849 -14950779.20548  20119813.8644   20119820.1574   20119813.701
        54.0004         50.0004
  -8848316.97147  -6842194.31247  22704439.2594   22704444.3214   22704439.227
        47.0004         42.0004
  -7079373.74147  -5517278.38947  22745809.6474   22745817.2554   22745809.298
        47.0004         42.0004
   -828614.36247   -626388.98746  24085899.2064   24085911.7744   24085898.968
        43.0004         38.0004
  -9341341.04147  -7208487.26947  23273792.4434   23273802.5164   23273791.259
        47.0004         43.0004
 -28607135.39248 -22231780.15748  20462946.7994   20462953.2444   20462946.518
        53.0004         48.0004
 -10887246.10446  -8426407.21345  25159376.9164   25159381.3564   25159376.360
        38.0004         33.0004
 14  5 18  0 34 30.0000000  0 11G20G07G08G10G09G02G28G26G17G04G13
 -23405612.39146 -18179235.79245  23997818.5294   23997827.9954   23997818.801
        39.0004         34.0004
 -17092457.12248 -13290041.62047  21552010.5514   21552016.6004   21552010.818
        50.0004         46.0004
 -13310109.85648 -10357249.82148  20061404.8434   20061411.3064   20061405.183
        53.0004         49.0004
 -12799279.84847  -9962798.77846  23013876.8994   23013884.6444   23013877.478
        46.0004         41.0004
 -19168505.71749 -14927511.01948  20125496.1174   20125501.9754   20125495.900
        54.0004         50.0004
  -8920523.73547  -6898459.14747  22690697.6914   22690703.7414   22690698.361
        47.0004         42.0004
  -7138349.14347  -5563233.14747  22734585.3034   22734594.9374   22734586.677
        47.0004         42.0004
   -819549.76547   -619325.46746  24087622.9844   24087635.5544   24087623.042
        43.0004         38.0004
  -9302598.52947  -7178298.27747  23281164.0934   23281174.7744   23281163.942
        47.0004         43.0004
 -28638356.19948 -22256108.00548  20457005.6094   20457012.2994   20457005.108
        53.0004         48.0004
 -10834241.69846  -8385105.06645  25169462.4374   25169472.8864   25169464.491
        38.0004         33.0004
 14  5 18  0 35  0.0000000  0 11G20G07G08G10G09G02G28G26G17G04G13
 -23369954.89146 -18151450.81845  24004601.8094   24004614.3204   24004603.762
        39.0004         34.0004
 -17006957.21648 -13223418.24947  21568281.8434   21568286.8734   21568281.279
        50.0004         46.0004
 -13274683.47748 -10329644.80848  20068146.1754   20068152.9284   20068146.744
        53.0004         49.0004
 -12869204.72847 -10017285.55447  23000570.3254   23000578.7854   23000571.336
        46.0004         42.0004
 -19138079.42449 -14903802.16548  20131285.8044   20131292.1434   20131286.015
        54.0004         50.0004
  -8992386.32847  -6954455.80847  22677023.3364   22677028.7084   22677023.752
        47.0004         42.0004
  -7197351.06147  -5609208.57847  22723358.7854   22723367.0334   22723358.492
        47.0004         42.0004
   -810303.07247   -612120.06146  24089382.2514   24089394.2664   24089382.925
        43.0004         38.0004
  -9263978.31447  -7148204.59447  23288513.1504   23288523.9784   23288512.724
        47.0004         42.0004
 -28669032.31748 -22280011.41748  20451168.2334   20451174.4994   20451167.776
        53.0004         48.0004
                  -8344007.87245                  25179509.9304   25179501.583
                        32.0004
 14  5 18  0 35 30.0000000  0 11G20G07G08G10G09G02G28G26G17G04G13
 -23333961.03946 -18123403.79145  24011452.8864   24011464.4274   24011453.632
        39.0004         34.0004
 -16921109.88348 -13156524.15047  21584618.1794   21584621.9674   21584616.978
        50.0004         46.0004
 -13238627.61848 -10301549.29748  20075007.4144   20075014.0224   20075007.484
        53.0004         49.0004
 -12939216.24247 -10071839.83947  22987247.7564   22987256.6154   22987248.714
        46.0004         42.0004
 -19107089.69549 -14879654.27248  20137183.0064   20137189.0744   20137183.008
        54.0004         50.0004
  -9063903.55447  -7010183.34847  22663413.6454   22663418.6344   22663413.635
        47.0004         42.0004
  -7256377.56347  -5655203.15847  22712126.1904   22712134.6514   22712126.443
        47.0004         42.0004
   -800876.99347   -604774.87146  24091176.0134   24091188.1614   24091176.486
        43.0004         38.0004
  -9225482.76947  -7118208.05647  23295838.9074   23295849.2004   23295838.439
        47.0004         42.0004
 -28699163.81548 -22303490.46348  20445434.2284   20445440.9194   20445433.916
        53.0004         48.0004
                  -8303116.13245                  25189491.0074   25189487.045
                        32.0004
 14  5 18  0 36  0.0000000  0 11G20G07G08G10G09G02G28G26G17G04G13
 -23297629.82346 -18095093.82945  24018367.6684   24018378.6834   24018367.055
        38.0004         34.0004
 -16834917.38848 -13089361.09447  21601019.4144   21601024.2644   21601019.620
        50.0004         46.0004
 -13201943.34648 -10272964.11348  20081988.6494   20081994.4754   20081988.683
        53.0004         49.0004
 -13009311.88547 -10126459.68647  22973909.5804   22973916.8754   22973909.573
        46.0004         42.0004
 -19075537.75449 -14855068.29348  20143187.0824   20143193.5704   20143187.064
        54.0004         50.0004
  -9135073.15847  -7065640.01647  22649870.1564   22649875.9574   22649871.192
        47.0004         42.0004
  -7315425.75747  -5701214.63647  22700889.2884   22700897.6314   22700889.396
        47.0004         42.0004
   -791273.18647   -597291.17846  24093004.5324   24093015.8314   24093003.710
        43.0004         38.0004
  -9187113.04547  -7088309.56447  23303140.0154   23303150.1684   23303140.027
        47.0004         42.0004
 -28728749.28148 -22326544.02348  20439804.4834   20439810.7274   20439803.810
        53.0004         48.0004
 -10676808.53346  -8262429.73045  25199420.0434   25199426.8554   25199422.178
        37.0004         33.0004
 14  5 18  0 36 30.0000000  0 11G20G07G08G10G09G02G28G26G17G04G13
 -23260963.13846 -18066522.50845  24025346.7914   24025355.4454   24025345.065
        38.0004         34.0004
 -16748385.29548 -13021933.42247  21617486.0304   21617490.6394   21617485.640
        50.0004         45.0004
 -13164634.44548 -10243892.20148  20089087.9384   20089094.5094   20089088.193
        53.0004         49.0004
 -13079492.05447 -10181145.39947  22960554.1404   22960560.9834   22960554.725
        46.0004         42.0004
 -19043427.78849 -14830047.49148  20149297.4924   20149303.7284   20149297.479
        54.0004         50.0004
  -9205895.67147  -7120826.22347  22636393.7424   22636398.5744   22636393.645
        47.0004         43.0004
  -7374495.32547  -5747242.77147  22689648.8754   22689656.3784   22689648.877
        47.0004         42.0004
   -781496.22347   -589672.57846  24094863.7584   24094876.0764   24094864.250
        43.0004         38.0004
  -9148873.22947  -7058512.29947  23310416.8204   23310426.8294   23310416.901
        47.0004         43.0004
 -28757790.27848 -22349173.32448  20434277.7984   20434284.6674   20434277.379
        53.0004         48.0004
 -10624860.62046  -8221950.80445  25209309.2484   25209314.4534   25209307.431
        37.0004         32.0004
 14  5 18  0 37  0.0000000  0 11G20G07G08G10G09G02G28G26G17G04G13
 -23223959.12646 -18037688.34245  24032384.4734   24032402.1174   24032386.323
        39.0004         34.0004
 -16661515.20448 -12954242.36947  21634017.0474   21634022.3664   21634016.624
        50.0004         46.0004
 -13126701.68448 -10214334.16648  20096306.4034   20096312.5504   20096306.481
        53.0004         49.0004
 -13149753.54647 -10235894.47247  22947184.0344   22947191.5464   22947184.443
        46.0004         42.0004
 -19010760.28449 -14804592.24348  20155513.4424   20155519.8344   20155513.747
        54.0004         50.0004
  -9276368.09847  -7175739.64447  22622982.5464   22622987.5714   22622983.137
        47.0004         43.0004
  -7433582.62947  -5793284.71447  22678405.1824   22678413.6374   22678405.054
        47.0004         42.0004
   -771547.26447   -581919.95446  24096757.2714   24096769.6104   24096757.170
        43.0004         38.0004
  -9110763.55747  -7028816.43847  23317669.4464   23317679.7674   23317668.694
        47.0004         42.0004
 -28786284.85448 -22371376.83948  20428855.3084   20428861.9714   20428854.857
        53.0004         48.0004
 -10573177.83046  -8181678.46345  25219143.7964   25219148.3284   25219141.958
        37.0004         33.0004
 14  5 18  0 37 30.0000000  0 11G20G07G08G10G09G02G28G26G17G04G13
 -23186617.33146 -18008590.94345  24039491.3874   24039505.8014   24039492.521
        39.0004         34.0004
 -16574309.92248 -12886290.13347  21650611.3294   21650615.9644   21650611.279
        50.0004         46.0004
 -13088146.41848 -10184291.06448  20103643.0894   20103649.6424   20103643.231
        53.0004         49.0004
 -13220094.05847 -10290705.13147  22933798.6874   22933805.1594   22933799.266
        46.0004         42.0004
 -18977536.61149 -14778703.62348  20161835.8984   20161842.1824   20161835.717
        54.0004         50.0004
  -9346488.33947  -7230378.61547  22609638.8004   22609643.8334   22609639.507
        47.0004         43.0004
  -7492684.63947  -5839338.13147  22667157.1444   22667165.3904   22667157.887
        47.0004         42.0004
   -761428.20147   -574034.76946  24098683.8804   24098694.9544   24098682.283
        43.0004         38.0004
  -9072785.74147  -6999223.32647  23324895.9144   23324905.0754   23324895.619
        47.0004         42.0004
 -28814232.12748 -22393153.89148  20423537.3904   20423544.0384   20423537.307
        53.0004         48.0004
 -10521760.34646  -8141612.83145  25228925.4294   25228935.2344   25228928.008
        37.0004         33.0004
 14  5 18  0 38  0.0000000  0 11G20G07G08G10G09G02G28G26G17G04G13
 -23148936.36846 -17979229.24345  24046661.5454   24046672.6304   24046661.398
        39.0004         34.0004
 -16486771.55148 -12818078.34947  21667269.7254   21667273.8044   21667268.664
        50.0004         45.0004
 -13048969.21348 -10153763.33148  20111098.3164   20111104.6034   20111098.621
        53.0004         48.0004
 -13290510.58047 -10345575.01147  22920398.2984   22920405.7444   22920398.557
        46.0004         42.0004
 -18943757.77749 -14752382.40848  20168263.5934   20168269.6744   20168263.914
        54.0004         50.0004
  -9416253.73247  -7284741.10447  22596362.5874   22596367.9124   22596363.559
        47.0004         43.0004
  -7551798.02047  -5885400.40947  22655908.8284   22655917.1634   22655909.212
        47.0004         42.0004
   -751140.20047   -566017.94046  24100640.3344   24100652.5324   24100640.099
        43.0004         38.0004
  -9034940.23047  -6969733.30247  23332097.1084   23332107.6004   23332097.471
        47.0004         42.0004
 -28841630.47048 -22414503.20448  20418322.9054   20418329.9464   20418322.827
        53.0004         49.0004
                  -8101753.30345                  25238668.6594   25238661.940
                        33.0004
 14  5 18  0 38 30.0000000  0 11G20G07G08G10G09G02G28G26G17G04G13
 -23110916.36046 -17949603.37445  24053898.5804   24053911.0314   24053898.729
        39.0004         34.0004
 -16398903.54948 -12749609.71747  21683989.8174   21683994.5994   21683989.115
        50.0004         45.0004
 -13009172.05848 -10122752.52348  20118671.2354   20118677.7514   20118671.363
        53.0004         48.0004
 -13361001.11947 -10400502.57547  22906983.7294   22906991.3134   22906984.908
        46.0004         42.0004
 -18909425.91249 -14725630.25748  20174796.6804   20174803.2344   20174796.767
        54.0004         50.0004
  -9485662.67147  -7338825.83347  22583154.4194   22583160.3324   22583154.832
        47.0004         43.0004
  -7610920.45547  -5931469.74347  22644658.6014   22644665.6894   22644658.458
        47.0004         42.0004
   -740685.80247   -557871.45046  24102629.7844   24102641.6474   24102629.880
        43.0004         38.0004
  -8997228.92547  -6940347.86547  23339274.7194   23339284.0514   23339273.742
        47.0004         42.0004
 -28868479.42848 -22435424.42348  20413214.1254   20413221.1484   20413214.294
        53.0004         49.0004
 -10419719.43546  -8062100.38745  25248345.7244   25248349.4344   25248346.411
        37.0004         33.0004
 14  5 18  0 39  0.0000000  0 11G20G07G08G10G09G02G28G26G17G04G13
 -23072559.24746 -17919714.80645  24061196.6814   24061208.1514   24061197.068
        39.0004         35.0004
 -16310711.37548 -12680888.48547  21700771.9534   21700776.8544   21700771.928
        50.0004         45.0004
 -12968759.34448 -10091262.05948  20126361.3924   20126367.9034   20126361.949
        53.0004         48.0004
 -13431566.09947 -10455488.15047  22893555.5744   22893561.8434   22893556.819
        46.0004         42.0004
 -18874545.35049 -14698450.55248  20181434.3254   20181440.6844   20181434.401
        54.0004         49.0004
  -9554715.79047  -7392633.29247  22570014.0634   22570019.9474   22570015.471
        47.0004         43.0004
  -7670051.69347  -5977545.94047  22633405.9474   22633413.3444   22633406.055
        47.0004         42.0004
   -730069.77847   -549599.03346  24104649.8094   24104661.3014   24104649.437
        43.0004         38.0004
  -8959656.09247  -6911070.32747  23346423.9814   23346434.5254   23346423.762
        47.0004         42.0004
 -28894781.06148 -22455919.16248  20408209.3284   20408215.5504   20408208.859
        53.0004         49.0004
 -10369099.48246  -8022656.26045  25257982.4134   25257981.7214   25257977.530
        37.0004         33.0004
 14  5 18  0 39 30.0000000  0 11G20G07G08G10G09G02G28G26G17G04G13
 -23033863.19546 -17889562.14645  24068563.1044   24068570.7034   24068562.268
        39.0004         34.0004
 -16222196.62648 -12611915.88447  21717615.9244   21717620.5734   21717615.553
        50.0004         45.0004
 -12927731.31948 -10059292.12948  20134168.6434   20134175.1454   20134169.117
        53.0004         48.0004
 -13502201.96847 -10510528.96247  22880114.4934   22880121.5564   22880114.719
        46.0004         42.0004
 -18839116.58149 -14670843.67248  20188176.3504   20188182.3694   20188176.123
        54.0004         50.0004
  -9623410.54047  -7446161.50547  22556941.8624   22556947.6914   22556941.852
        47.0004         43.0004
  -7729188.05747  -6023626.14147  22622153.0504   22622160.9474   22622152.477
        47.0004         42.0004
   -719292.95147   -541201.30446  24106699.7834   24106711.8344   24106699.901
        42.0004         38.0004
  -8922221.84747  -6881900.78447  23353547.8114   23353557.1364   23353547.551
        47.0004         42.0004
 -28920532.94848 -22475985.52548  20403309.0904   20403315.2914   20403308.520
        53.0004         49.0004
                  -7983419.82645                  25267568.1664   25267559.392
                        33.0004
 14  5 18  0 40  0.0000000  0 10G20G07G08G10G09G02G28G26G17G04
 -22994826.52446 -17859144.03345  24075988.6164   24075998.2534   24075988.321
        39.0004         34.0004
 -16133360.44748 -12542692.81847  21734520.5824   21734526.3644   21734520.344
        50.0004         45.0004
 -12886088.18948 -10026842.90348  20142093.4624   20142099.8704   20142093.403
        53.0004         48.0004
 -13572905.09747 -10565622.18447  22866660.4844   22866667.1944   22866660.972
        46.0004         42.0004
 -18803139.89149 -14642809.84348  20195022.3324   20195028.5984   20195022.312
        54.0004         49.0004
  -9691743.45348  -7499407.78047  22543938.6894   22543943.5854   22543939.138
        48.0004         43.0004
  -7788325.43147  -6069707.13047  22610899.0274   22610907.9974   22610899.267
        47.0004         42.0004
   -708355.98247   -532678.80246  24108780.7854   24108794.3944   24108781.053
        42.0004         38.0004
  -8884926.59247  -6852839.53247  23360644.5144   23360654.1604   23360644.344
        47.0004         42.0004
 -28945733.42048 -22495622.22148  20398513.5704   20398519.5134   20398513.205
        53.0004         49.0004
 14  5 18  0 40 30.0000000  0 10G20G07G08G10G09G02G28G26G17G04
 -22955449.91446 -17828461.05645  24083481.8004   24083492.6104   24083482.562
        39.0004         34.0004
 -16044207.31548 -12473222.78747  21751485.8604   21751491.7324   21751485.768
        50.0004         45.0004
 -12843832.96048  -9993916.71048  20150134.1574   20150140.6954   20150134.363
        53.0004         48.0004
 -13643674.38147 -10620766.96147  22853192.8444   22853200.0494   22853193.439
        46.0004         42.0004
 -18766618.20449 -14614351.34048  20201971.9904   20201978.2674   20201972.119
        54.0004         50.0004
  -9759713.82748  -7552371.53747  22531003.8824   22531009.4594   22531005.358
        48.0004         43.0004
  -7847461.92247  -6115787.41447  22599643.3884   22599654.3844   22599645.862
        47.0004         42.0004
   -697262.12647   -524034.03746  24110892.0334   24110903.1784   24110891.964
        42.0004         38.0004
  -8847772.48947  -6823888.26947  23367714.5864   23367724.2734   23367714.808
        47.0004         42.0004
 -28970382.70448 -22514829.41848  20393822.2614   20393829.0324   20393822.051
        53.0004         49.0004
 14  5 18  0 41  0.0000000  0 10G20G07G08G10G09G02G28G26G17G04
 -22915733.03146 -17797512.90445  24091038.3244   24091049.5084   24091039.932
        39.0004         34.0004
 -15954739.82248 -12403507.79147  21768511.2584   21768516.0964   21768510.417
        50.0004         45.0004
 -12800967.27148  -9960514.83448  20158290.8844   20158297.4134   20158291.447
        53.0004         48.0004
 -13714507.50247 -10675961.47947  22839713.6214   22839720.4974   22839713.779
        46.0004         42.0004
 -18729553.24449 -14585469.50848  20209025.4164   20209031.3544   20209025.249
        54.0004         49.0004
  -9827319.79248  -7605051.35647  22518139.5894   22518143.9694   22518139.206
        48.0004         43.0004
  -7906594.91747  -6161864.99447  22588391.9534   22588400.6934   22588393.075
        47.0004         42.0004
   -686013.40447   -515268.58746  24113031.1124   24113043.7584   24113032.341
        42.0004         37.0004
  -8810760.62747  -6795047.86047  23374757.3734   23374767.9094   23374757.546
        47.0004         42.0004
 -28994480.20948 -22533606.65648  20389237.2634   20389243.2054   20389236.908
        53.0004         49.0004
 14  5 18  0 41 30.0000000  0 10G20G07G08G10G09G02G28G26G17G04
 -22875675.28356 -17766299.18555  24098662.2455   24098672.8855   24098663.585
        39.0004         34.0004
 -15864961.12548 -12333550.31147  21785595.3914   21785600.6914   21785595.243
        50.0004         45.0004
 -12757493.41248  -9926639.06448  20166563.8114   20166570.1784   20166564.083
        53.0004         48.0004
 -13785402.57347 -10731204.27847  22826222.0674   22826230.2014   22826222.961
        46.0004         42.0004
 -18691947.27549 -14556166.10948  20216181.4854   20216187.3994   20216181.410
        54.0004         50.0004
  -9894559.64148  -7657445.89047  22505343.2554   22505349.1364   22505344.609
        48.0004         43.0004
  -7965721.67147  -6207937.70347  22577142.3364   22577149.8254   22577141.837
        47.0004         43.0004
   -674612.34447   -506384.43946  24115202.6014   24115213.8784   24115201.482
        42.0004         38.0004
  -8773893.55047  -6766320.25747  23381772.7284   23381783.4304   23381772.822
        47.0004         42.0004
 -29018025.50448 -22551953.60348  20384756.3124   20384762.7814   20384755.871
        53.0004         49.0004
 14  5 18  0 42  0.0000000  0 10G20G07G08G10G09G02G28G26G17G04
 -22835279.44246 -17734821.99445  24106351.4154   24106360.1204   24106349.585
        39.0004         34.0004
 -15774877.11148 -12263354.90747  21802737.6564   21802742.0184   21802737.201
        50.0004         45.0004
 -12713415.66748  -9892292.73248  20174951.6314   20174958.0834   20174952.119
        53.0004         48.0004
 -13856359.98247 -10786495.64447  22812720.3404   22812727.9344   22812720.292
        46.0004         42.0004
 -18653804.68749 -14526444.57048  20223439.8814   20223445.7974   20223439.674
        54.0004         50.0004
  -9961434.52848  -7709556.03947  22492617.9634   22492622.3094   22492618.060
        48.0004         43.0004
  -8024842.70847  -6254005.95247  22565891.7804   22565898.6834   22565891.450
        47.0004         43.0004
   -663063.84547   -497385.41746  24117400.5054   24117411.0744   24117399.487
        42.0004         38.0004
  -8737174.96147  -6737708.36647  23388761.0914   23388771.0794   23388760.418
        47.0004         43.0004
 -29041020.93848 -22569872.08848  20380380.7144   20380386.9694   20380380.327
        53.0004         49.0004
 14  5 18  0 42 30.0000000  0 10G20G07G08G10G09G02G28G26G17G04
 -22794540.64546 -17703077.56145  24114104.5894   24114117.4094   24114103.033
        39.0004         34.0004
 -15684486.22948 -12192920.39147  21819937.8884   21819943.4334   21819938.034
        50.0004         45.0004
 -12668731.65748  -9857473.99048  20183454.4494   20183461.0764   20183455.009
        53.0004         48.0004
 -13927373.10347 -10841830.42747  22799206.5504   22799213.1494   22799207.333
        46.0004         42.0004
 -18615123.00549 -14496302.95648  20230800.7214   20230806.9004   20230800.689
        54.0004         50.0004
 -10027938.18248  -7761376.91347  22479961.5364   22479967.3974   22479963.005
        48.0004         43.0004
  -8083950.67047  -6300064.01547  22554642.5804   22554650.8474   22554643.756
        47.0004         43.0004
   -651365.46947   -488269.59346  24119623.9304   24119637.0444   24119625.296
        42.0004         38.0004
  -8700601.85547  -6709209.82147  23395720.3414   23395730.0734   23395720.189
        47.0004         42.0004
 -29063461.43848 -22587358.15948  20376110.4204   20376116.8304   20376109.808
        53.0004         49.0004
 14  5 18  0 43  0.0000000  0 10G20G07G08G10G09G02G28G26G17G04
 -22753461.11546 -17671067.63445  24121920.0974   24121929.9764   24121920.172
        39.0004         35.0004
 -15593793.79748 -12122250.90047  21837196.2364   21837201.5484   21837196.043
        50.0004         45.0004
 -12623445.61148  -9822186.12748  20192072.3004   20192078.4194   20192072.488
        53.0004         48.0004
 -13998442.01747 -10897208.69647  22785681.5504   22785688.4814   22785683.134
        47.0004         42.0004
 -18575906.56549 -14465744.64548  20238262.9424   20238269.3354   20238263.097
        54.0004         49.0004
 -10094071.52548  -7812909.23747  22467377.7994   22467381.6484   22467378.089
        48.0004         43.0004
  -8143045.27147  -6346111.66647  22543398.6414   22543405.4964   22543398.007
        47.0004         43.0004
   -639522.01247   -479040.72246  24121878.5684   24121889.5364   24121878.984
        42.0004         38.0004
  -8664178.12447  -6680827.67547  23402651.4564   23402660.9784   23402651.363
        47.0004         42.0004
 -29085348.77848 -22604413.19848  20371945.0594   20371951.5184   20371944.744
        53.0004         49.0004
 14  5 18  0 43 30.0000000  0 10G20G07G08G10G09G02G28G26G17G04
 -22712039.46546 -17638791.12645  24129802.8144   24129813.7964   24129802.415
        39.0004         34.0004
 -15502801.66148 -12051347.87747  21854511.0344   21854516.8024   21854511.363
        50.0004         45.0004
 -12577558.16948  -9786429.63848  20200804.1334   20200810.7494   20200804.358
        53.0004         48.0004
 -14069563.46347 -10952627.89147  22772149.5464   22772155.3454   22772148.943
        47.0004         42.0004
 -18536156.31749 -14434770.38148  20245827.6894   20245833.5274   20245827.606
        54.0004         50.0004
 -10159831.80748  -7864150.85847  22454863.8044   22454868.5134   22454864.389
        48.0004         43.0004
  -8202122.72147  -6392145.96447  22532156.5244   22532163.7214   22532155.656
        47.0004         43.0004
   -627534.43247   -469699.55046  24124160.3484   24124171.4864   24124159.881
        42.0004         38.0004
  -8627904.32947  -6652562.37647  23409554.3124   23409564.2754   23409553.623
        47.0004         42.0004
 -29106681.81048 -22621036.30948  20367885.9814   20367892.0244   20367885.605
        53.0004         49.0004
 14  5 18  0 44  0.0000000  0 10G20G07G08G10G09G02G28G26G17G04
 -22670277.41646 -17606249.30745  24137749.7264   24137760.4044   24137748.869
        39.0004         35.0004
 -15411514.95648 -11980215.31447  21871883.0914   21871888.2174   21871882.629
        49.0004         45.0004
 -12531073.22848  -9750207.56848  20209650.0904   20209656.2404   20209650.225
        53.0004         48.0004
 -14140736.95647 -11008087.63947  22758604.6014   22758611.4664   22758604.904
        47.0004         42.0004
 -18495876.19149 -14403383.22348  20253492.4164   20253498.5354   20253492.178
        54.0004         49.0004
 -10225219.25048  -7915101.96547  22442422.0304   22442425.6274   22442421.335
        48.0004         43.0004
  -8261182.13247  -6438166.20347  22520916.8154   22520924.0634   22520917.026
        47.0004         43.0004
   -615407.08947   -460249.48346  24126468.2974   24126479.5884   24126467.524
        42.0004         38.0004
  -8591783.70947  -6624416.42247  23416427.7144   23416437.7244   23416427.539
        47.0004         42.0004
 -29127461.76348 -22637228.44848  20363930.9884   20363937.9124   20363930.624
        53.0004         49.0004
 14  5 18  0 44 30.0000000  0 10G20G07G08G10G09G02G28G26G17G04
 -22628173.00746 -17573440.79845  24145760.8234   24145769.9914   24145761.561
        39.0004         35.0004
 -15319934.80348 -11908854.10247  21889310.5844   21889315.4794   21889309.972
        49.0004         45.0004
 -12483991.18648  -9713520.22848  20218609.5294   20218615.8484   20218609.673
        53.0004         48.0004
 -14211958.43347 -11063584.78947  22745051.0314   22745057.2884   22745052.015
        47.0004         42.0004
 -18455066.52049 -14371583.43748  20261258.1044   20261264.2544   20261258.102
        54.0004         49.0004
 -10290230.27548  -7965759.76347  22430049.8044   22430054.1814   22430049.808
        48.0004         43.0004
  -8320219.30947  -6484169.10547  22509682.5874   22509690.8944   22509682.279
        47.0004         43.0004
   -603140.15447   -450690.61546  24128799.8034   24128811.3934   24128801.320
        42.0004         38.0004
  -8555815.96147  -6596389.59047  23423272.4364   23423282.3114   23423271.594
        47.0004         42.0004
 -29147686.44448 -22652987.90748  20360082.7934   20360089.2054   20360082.617
        53.0004         49.0004
 14  5 18  0 45  0.0000000  0 10G20G07G08G10G09G02G28G26G17G04
 -22585726.60546 -17540365.72645  24153837.1444   24153849.0034   24153839.625
        39.0004         34.0004
 -15228064.99648 -11837267.18247  21906793.0754   21906797.2024   21906792.012
        49.0004         45.0004
 -12436314.72648  -9676369.70448  20227681.8544   20227688.4524   20227682.151
        53.0004         48.0004
 -14283226.39847 -11119118.17447  22731487.9754   22731497.2854   22731489.923
        47.0004         42.0004
 -18413730.07049 -14339373.17148  20269124.0064   20269130.3524   20269124.265
        54.0004         49.0004
 -10354864.19548  -8016123.71647  22417749.7054   22417754.8344   22417749.979
        48.0004         43.0004
  -8379231.70748  -6530152.71947  22498452.8024   22498461.7524   22498452.739
        48.0004         43.0004
   -590736.67347   -441025.36146  24131161.3654   24131173.6054   24131160.793
        42.0004         38.0004
  -8520003.24047  -6568483.56847  23430086.9664   23430098.0244   23430086.718
        47.0004         42.0004
 -29167356.20048 -22668314.96148  20356339.6044   20356346.0484   20356339.251
        53.0004         49.0004
 14  5 18  0 45 30.0000000  0 10G20G07G08G10G09G02G28G26G17G04
 -22542937.14746 -17507023.36545  24161982.2034   24161990.3504   24161982.783
        39.0004         34.0004
 -15135907.59248 -11765456.16147  21924329.1264   21924333.9434   21924329.049
        49.0004         45.0004
 -12388045.17148  -9638757.03048  20236867.2054   20236874.1114   20236867.683
        53.0004         48.0004
 -14354537.83047 -11174685.39647  22717918.5524   22717925.8024   22717919.484
        47.0004         42.0004
 -18371868.07949 -14306753.39248  20277090.2334   20277096.3954   20277090.270
        54.0004         49.0004
 -10419118.42848  -8066191.81347  22405523.1474   22405527.5254   22405523.217
        48.0004         43.0004
  -8438216.21848  -6576114.59847  22487227.6814   22487234.7944   22487228.276
        48.0004         43.0004
   -578198.03847   -431254.79246  24133547.9734   24133559.6044   24133547.978
        42.0004         38.0004
  -8484345.99047  -6540698.68247  23436872.2794   23436881.5374   23436871.587
        46.0004         42.0004
 -29186469.97848 -22683208.78548  20352702.0404   20352708.6334   20352701.792
        53.0004         49.0004
 14  5 18  0 46  0.0000000  0 10G20G07G08G10G09G02G28G26G17G04
 -22499808.74446 -17473416.89245  24170187.4174   24170201.0854   24170188.132
        39.0004         34.0004
 -15043469.95648 -11693426.78247  21941919.4984   21941924.6014   21941919.314
        49.0004         45.0004
 -12339188.81348  -9600687.10948  20246164.5024   20246170.5824   20246164.411
        53.0004         48.0004
 -14425894.49847 -11230287.89547  22704340.5974   22704347.3224   22704340.542
        47.0004         42.0004
 -18329486.79849 -14273728.97448  20285155.2024   20285161.1814   20285155.084
        54.0004         49.0004
 -10482995.54148  -8115966.03547  22393366.5234   22393372.0304   22393367.711
        48.0004         44.0004
  -8497173.82948  -6622055.52247  22476008.8404   22476017.4674   22476009.381
        48.0004         43.0004
   -565530.63847   -421383.87946  24135956.8894   24135968.0924   24135957.306
        42.0004         38.0004
  -8448850.09947  -6513039.54847  23443626.7754   23443636.6724   23443627.100
        46.0004         42.0004
 -29205031.68248 -22697672.42348  20349170.2934   20349176.6854   20349169.873
        53.0004         49.0004
 14  5 18  0 46 30.0000000  0 10G20G07G08G10G09G02G28G26G17G04
 -22456333.37046 -17439540.04945  24178462.6024   24178474.5924   24178461.209
        38.0004         34.0004
 -14950746.81048 -11621174.91947  21959565.2994   21959568.9134   21959563.895
        49.0004         45.0004
 -12289739.44848  -9562155.10048  20255574.4534   20255580.6574   20255574.756
        53.0004         48.0004
 -14497285.91147 -11285917.45347  22690754.2914   22690761.9124   22690755.444
        47.0004         42.0004
 -18286580.27549 -14240295.27448  20293319.5684   20293325.9834   20293319.746
        54.0004         49.0004
 -10546485.84048  -8165438.86047  22381283.9064   22381290.0974   22381285.106
        48.0004         44.0004
  -8556093.94548  -6667967.22247  22464797.0914   22464805.7144   22464796.787
        48.0004         43.0004
   -552728.57647   -411408.03746  24138394.0624   24138405.3904   24138394.413
        42.0004         38.0004
  -8413508.53347  -6485500.64947  23450352.1394   23450361.8294   23450352.221
        46.0004         42.0004
 -29223032.84648 -22711699.27548  20345744.8834   20345750.9834   20345744.398
        53.0004         49.0004
 14  5 18  0 47  0.0000000  0 10G20G07G08G10G09G02G28G26G17G04
 -22412520.20346 -17405399.99945  24186800.1884   24186808.0054   24186801.495
        38.0004         34.0004
 -14857751.04848 -11548710.62547  21977259.9644   21977265.7054   21977260.330
        49.0004         45.0004
 -12239709.24648  -9523170.49248  20265094.8234   20265100.8654   20265094.969
        53.0004         48.0004
 -14568719.40847 -11341579.81647  22677162.0974   22677168.4044   22677162.051
        47.0004         42.0004
 -18243160.15249 -14206461.36848  20301582.2074   20301588.3394   20301582.349
        54.0004         49.0004
 -10609597.66748  -8214616.76847  22369275.5294   22369279.8934   22369275.748
        48.0004         43.0004
  -8614983.61948  -6713855.19647  22453589.8074   22453600.1084   22453590.565
        48.0004         43.0004
   -539803.69947   -401336.50546  24140853.1524   24140865.3314   24140852.640
        42.0004         38.0004
  -8378332.51947  -6458090.76647  23457045.8544   23457056.4404   23457045.816
        46.0004         42.0004
 -29240482.76848 -22725296.59048  20342423.8554   20342430.2364   20342423.596
        53.0004         49.0004
 14  5 18  0 47 30.0000000  0 10G20G07G08G10G09G02G28G26G17G04
                                                                  24195201.890

 -14764475.95548 -11476028.68447  21995010.9714   21995015.2954   21995010.035
        49.0004         45.0004
 -12189090.58948  -9483727.35048  20274727.0544   20274733.4544   20274727.487
        53.0004         48.0004
 -14640183.31447 -11397265.87747  22663561.7904   22663568.7034   22663562.984
        47.0004         42.0004
 -18199219.23649 -14172221.65248  20309944.2144   20309950.0414   20309944.246
        54.0004         49.0004
 -10672319.83448  -8263491.04147  22357339.3084   22357344.0694   22357339.612
        48.0004         44.0004
  -8673830.85348  -6759710.11547  22442392.2744   22442399.2714   22442392.249
        48.0004         43.0004
   -526748.78147   -391163.63146  24143337.0004   24143347.7274   24143337.746
        42.0004         38.0004
  -8343313.79147  -6430803.44947  23463709.1224   23463720.1524   23463709.471
        46.0004         42.0004
 -29257371.95848 -22738456.97048  20339210.1814   20339216.4964   20339209.725
        53.0004         49.0004
 14  5 18  0 48  0.0000000  0 10G20G07G08G10G09G02G28G26G17G04
                                                                  24203670.761

 -14670933.79448 -11403138.63347  22012810.2784   22012815.6864   22012809.878
        49.0004         44.0004
 -12137894.70148  -9443834.41548  20284469.3384   20284475.5764   20284469.430
        53.0004         48.0004
 -14711684.29647 -11452980.82747  22649955.4494   22649964.0914   22649956.732
        47.0004         43.0004
 -18154768.98349 -14137585.04648  20318402.5804   20318408.6414   20318402.646
        54.0004         49.0004
 -10734659.98248  -8312067.65347  22345475.5554   22345480.9614   22345476.277
        48.0004         44.0004
  -8732641.26848  -6805536.33347  22431200.2624   22431208.7734   22431200.794
        48.0004         43.0004
   -513575.27947   -380898.37346  24145844.5684   24145855.2104   24145843.815
        43.0004         38.0004
  -8308462.97947  -6403646.97947  23470341.5624   23470351.2374   23470341.582
        46.0004         42.0004
 -29273709.07448 -22751187.16848  20336101.3014   20336107.5044   20336101.014
        53.0004         49.0004
 14  5 18  0 48 30.0000000  0  9G07G08G10G09G02G28G26G17G04
 -14577105.54248 -11330025.65247  22030666.2874   22030670.5794   22030665.222
        49.0004         44.0004
 -12086101.69648  -9403476.19648  20294325.2394   20294331.6064   20294325.533
        53.0004         48.0004
 -14783197.38747 -11508705.20947  22636347.2414   22636354.3704   22636348.105
        47.0004         43.0004
 -18109789.15849 -14102535.78948  20326962.0874   20326967.9374   20326962.126
        54.0004         49.0004
 -10796594.09648  -8360327.86247  22333690.9924   22333695.4344   22333691.519
        48.0004         44.0004
  -8791390.00048  -6851314.49147  22420020.9634   22420030.0964   22420021.125
        48.0004         43.0004
   -500262.88047   -370524.87046  24148378.2844   24148388.4194   24148377.337
        43.0004         38.0004
  -8273759.10247  -6376604.99747  23476946.5224   23476955.4434   23476945.114
        46.0004         42.0004
 -29289471.63048 -22763469.65448  20333101.6554   20333108.1524   20333101.066
        53.0004         49.0004
 14  5 18  0 49  0.0000000  0  9G07G08G10G09G02G28G26G17G04
 -14483031.81248 -11256721.39447  22048567.8654   22048571.1184   22048566.389
        49.0004         44.0004
 -12033751.56448  -9362683.85148  20304287.3144   20304293.1834   20304287.390
        53.0004         48.0004
 -14854758.41747 -11564466.95447  22622730.0124   22622737.3364   22622730.480
        47.0004         43.0004
 -18064319.96849 -14067105.20948  20335614.4644   20335620.4874   20335614.563
        54.0004         49.0004
 -10858158.62648  -8408300.09847  22321975.8594   22321979.5224   22321975.286
        48.0004         44.0004
  -8850112.39448  -6897072.13847  22408846.2594   22408855.4854   22408847.045
        48.0004         43.0004
   -486851.89347   -360074.55946  24150930.4854   24150939.5834   24150929.084
        43.0004         38.0004
  -8239241.57447  -6349708.21447  23483515.0864   23483523.6654   23483513.906
        47.0004         42.0004
 -29304697.70648 -22775334.10348  20330204.3774   20330210.8884   20330204.103
        53.0004         49.0004
 14  5 18  0 49 30.0000000  0  9G07G08G10G09G02G28G26G17G04
 -14388692.59248 -11183210.26747  22066519.5624   22066524.1754   22066518.504
        49.0004         44.0004
 -11980823.46048  -9321441.13648  20314358.9794   20314364.9104   20314359.186
        53.0004         48.0004
 -14926341.77147 -11620246.09047  22609108.1224   22609116.1934   22609109.080
        47.0004         43.0004
 -18018340.30949 -14031276.86248  20344364.1894   20344370.1884   20344363.981
        54.0004         49.0004
 -10919329.05448  -8455965.23947  22310335.4374   22310340.8804   22310335.243
        48.0004         44.0004
  -8908782.22048  -6942788.82247  22397682.4444   22397691.4204   22397682.343
        48.0004         43.0004
   -473321.36547   -349531.09946  24153504.2704   24153514.6644   24153504.179
        43.0004         38.0004
  -8204888.09947  -6322939.27047  23490052.7814   23490060.8154   23490050.892
        47.0004         42.0004
 -29319363.68748 -22786762.11648  20327413.3024   20327419.7054   20327413.052
        53.0004         49.0004
 14  5 18  0 50  0.0000000  0  9G07G08G10G09G02G28G26G17G04
 -14294095.64448 -11109498.32647  22084520.9374   22084525.2454   22084520.348
        49.0004         44.0004
 -11927324.71448  -9279753.76848  20324539.3824   20324545.0574   20324539.589
        53.0004         48.0004
 -14997950.17448 -11676044.75747  22595482.3094   22595488.8684   22595481.854
        48.0004         43.0004
 -17971857.46849 -13995056.42448  20353209.2814   20353215.6364   20353209.586
        54.0004         49.0004
 -10980108.88948  -8503326.01747  22298768.7214   22298773.8414   22298769.386
        49.0004         44.0004
  -8967402.12748  -6988466.59947  22386526.0834   22386535.7834   22386527.160
        48.0004         43.0004
   -459678.41847   -338900.03946  24156100.0974   24156110.5254   24156099.629
        43.0004         38.0004
  -8170705.17847  -6296303.23647  23496555.8194   23496565.2574   23496555.704
        47.0004         42.0004
 -29333474.43548 -22797757.47748  20324727.8924   20324734.4944   20324727.696
        53.0004         49.0004
 14  5 18  0 50 30.0000000  0  9G07G08G10G09G02G28G26G17G04
 -14199240.51148 -11035585.17547  22102570.9384   22102575.5414   22102569.984
        49.0004         44.0004
 -11873253.73148  -9237620.50148  20334828.7124   20334834.3754   20334828.909
        52.0004         48.0004
 -15069577.43448 -11731858.10947  22581851.2324   22581857.4194   22581851.307
        48.0004         43.0004
 -17924870.09949 -13958442.84848  20362151.0894   20362156.8824   20362150.797
        54.0004         49.0004
 -11040492.85448  -8550378.34247  22287278.5004   22287282.8814   22287278.035
        49.0004         44.0004
  -9025965.07248  -7034100.01047  22375381.6514   22375390.5834   22375382.992
        48.0004         43.0004
   -445921.67847   -328180.28446  24158718.2354   24158728.5514   24158717.392
        43.0004         38.0004
  -8136690.46647  -6269798.27847  23503029.3834   23503038.7704   23503028.855
        47.0004         42.0004
 -29347026.45248 -22808317.47048  20322149.2064   20322155.4104   20322149.020
        53.0004         49.0004
 14  5 18  0 51  0.0000000  0  9G07G08G10G09G02G28G26G17G04
 -14104134.62048 -10961476.63647  22120668.1724   22120673.5204   22120668.450
        49.0004         44.0004
 -11818617.23648  -9195046.57248  20345225.2754   20345231.6514   20345225.838
        52.0004         48.0004
 -15141225.44448 -11787687.63547  22568216.6424   22568223.0034   22568217.837
        48.0004         43.0004
 -17877384.82149 -13921441.29048  20371186.8194   20371192.6124   20371187.066
        54.0004         49.0004
 -11100483.97348  -8597124.53547  22275861.7124   22275866.1344   22275862.110
        49.0004         44.0004
  -9084472.76648  -7079690.36047  22364249.6634   22364256.5864   22364249.680
        48.0004         43.0004
   -432057.69047   -317377.00046  24161355.3574   24161366.7384   24161355.465
        43.0004         39.0004
  -8102849.60647  -6243428.77847  23509469.1254   23509478.4114   23509468.668
        47.0004         42.0004
 -29360023.96748 -22818445.38148  20319676.0554   20319682.0134   20319675.373
        53.0004         49.0004
 14  5 18  0 51 30.0000000  0  9G07G08G10G09G02G28G26G17G04
 -14008777.89748 -10887172.65447  22138814.3364   22138818.8554   22138813.992
        49.0004         44.0004
 -11763414.81848  -9152031.66448  20355730.0404   20355736.5234   20355730.283
        52.0004         48.0004
 -15212888.95448 -11843529.24547  22554579.8204   22554585.9384   22554580.883
        48.0004         43.0004
 -17829401.25249 -13884051.45548  20380318.0414   20380323.7404   20380317.868
        54.0004         49.0004
 -11160077.95448  -8643561.28547  22264521.3364   22264526.3594   22264521.607
        49.0004         44.0004
  -9142919.37948  -7125233.10947  22353128.1494   22353134.5824   22353127.423
        48.0004         43.0004
   -418085.86147   -306489.65946  24164014.4534   24164024.6334   24164014.717
        43.0004         39.0004
  -8069180.87847  -6217193.40447  23515877.1524   23515885.3914   23515875.341
        46.0004         42.0004
 -29372464.11348 -22828138.97948  20317308.6064   20317314.9304   20317308.103
        53.0004         49.0004
 14  5 18  0 52  0.0000000  0  9G07G08G10G09G02G28G26G17G04
 -13913175.35348 -10812677.12047  22157006.3304   22157011.9044   22157006.765
        49.0004         44.0004
 -11707650.54948  -9108578.95248  20366341.5244   20366347.9864   20366342.118
        52.0004         48.0004
 -15284567.03048 -11899382.19547  22540939.6204   22540945.0644   22540940.268
        48.0004         43.0004
 -17780923.15149 -13846276.27248  20389542.9904   20389549.0774   20389543.015
        54.0004         49.0004
 -11219274.80648  -8689688.58147  22253257.0844   22253261.0614   22253257.089
        49.0004         44.0004
  -9201303.82248  -7170727.42147  22342017.4954   22342023.6644   22342016.885
        48.0004         43.0004
   -404009.88847   -295521.18546  24166692.8454   24166703.2534   24166692.584
        43.0004         39.0004
  -8035686.99347  -6191094.27046  23522250.3024   23522259.5474   23522248.960
        46.0004         41.0004
 -29384348.36148 -22837399.41548  20315047.4454   20315053.4624   20315046.686
        53.0004         49.0004
 14  5 18  0 52 30.0000000  0  9G07G08G10G09G02G28G26G17G04
 -13817329.03848 -10737991.64047  22175245.5674   22175251.3374   22175245.316
        48.0004         44.0004
 -11651325.92848  -9064689.60148  20377059.7504   20377065.8554   20377060.224
        52.0004         48.0004
 -15356256.49548 -11955244.04147  22527298.0724   22527303.5024   22527298.086
        48.0004         43.0004
 -17731952.00549 -13808116.89848  20398861.7874   20398867.7354   20398861.446
        54.0004         49.0004
 -11278072.82648  -8735505.09847  22242067.8524   22242071.5614   22242067.887
        49.0004         44.0004
  -9259622.60748  -7216170.57347  22330919.3624   22330926.9314   22330919.098
        48.0004         43.0004
   -389831.29047   -284472.73346  24169391.1214   24169401.3734   24169391.187
        43.0004         38.0004
  -8002368.55747  -6165131.84346  23528589.6354   23528598.9784   23528589.591
        46.0004         41.0004
 -29395675.76648 -22846225.94948  20312891.8914   20312898.0204   20312891.406
        53.0004         49.0004
 14  5 18  0 53  0.0000000  0  9G07G08G10G09G02G28G26G17G04
 -13721241.28348 -10663118.02047  22193531.9624   22193536.0584   22193530.669
        48.0004         44.0004
 -11594442.73548  -9020364.99948  20387884.4894   20387890.9234   20387884.698
        52.0004         48.0004
 -15427954.52848 -12011112.56347  22513653.7194   22513660.3524   22513654.568
        48.0004         43.0004
 -17682490.06049 -13769575.08248  20408274.1484   20408280.2474   20408274.218
        54.0004         49.0004
 -11336469.46548  -8781008.86347  22230955.0934   22230959.2774   22230956.000
        49.0004         44.0004
  -9317872.28148  -7261559.86647  22319835.0554   22319841.7734   22319834.291
        48.0004         44.0004
   -375551.81647   -273345.68646  24172108.2104   24172118.2554   24172107.796
        43.0004         38.0004
  -7969226.38547  -6139306.75846  23534897.2144   23534906.1754   23534896.348
        46.0004         41.0004
 -29406446.13548 -22854618.42748  20310842.1294   20310848.3054   20310841.616
        53.0004         49.0004
 14  5 18  0 53 30.0000000  0  9G07G08G10G09G02G28G26G17G04
 -13624917.55948 -10588060.53447  22211860.9054   22211864.5114   22211860.452
        48.0004         44.0004
 -11537005.82648  -8975608.92648  20398814.5104   20398820.2904   20398814.732
        52.0004         48.0004
 -15499660.52748 -12066987.28147  22500008.4384   22500015.8934   22500009.059
        48.0004         43.0004
 -17632541.78049 -13730654.30148  20417778.9004   20417784.5554   20417778.814
        54.0004         49.0004
 -11394466.01048  -8826200.86047  22219918.6944   22219923.3194   22219918.895
        49.0004         44.0004
  -9376051.99248  -7306894.65047  22308763.0224   22308771.5144   22308763.379
        48.0004         44.0004
   -361175.90147   -262143.47946  24174844.0704   24174854.8424   24174843.778
        43.0004         38.0004
  -7936263.94847  -6113621.72746  23541168.9504   23541178.8324   23541168.312
        46.0004         41.0004
 -29416661.73048 -22862578.60848  20308898.0864   20308904.2264   20308897.714
        53.0004         49.0004
 14  5 18  0 54  0.0000000  0  9G07G08G10G09G02G28G26G17G04
 -13528359.34048 -10512820.30847  22230235.3844   22230240.3534   22230234.537
        48.0004         44.0004
 -11479016.38248  -8930422.30448  20409849.3304   20409855.1354   20409849.513
        52.0004         48.0004
 -15571370.73548 -12122865.29647  22486362.1944   22486368.1064   22486362.759
        48.0004         43.0004
 -17582108.06349 -13691355.25948  20427376.3804   20427381.8994   20427376.068
        54.0004         49.0004
 -11452059.77648  -8871079.00547  22208959.3094   22208962.6114   22208959.163
        49.0004         44.0004
  -9434157.66748  -7352171.73747  22297707.2714   22297713.3344   22297706.386
        48.0004         44.0004
   -346704.36347   -250866.76646  24177597.4354   24177608.0334   24177597.155
        43.0004         38.0004
  -7903480.81947  -6088076.40546  23547407.5324   23547417.4664   23547406.829
        46.0004         41.0004
 -29426321.24548 -22870105.48648  20307060.3854   20307066.2194   20307059.576
        53.0004         49.0004
 14  5 18  0 54 30.0000000  0  9G07G08G10G09G02G28G26G17G04
 -13431568.83248 -10437399.10247  22248654.5064   22248659.5264   22248653.155
        48.0004         44.0004
 -11420475.53148  -8884806.02448  20420989.8074   20420995.2204   20420989.821
        52.0004         48.0004
 -15643081.65148 -12178743.85147  22472716.3054   22472722.8104   22472716.648
        48.0004         43.0004
 -17531190.09149 -13651678.87648  20437065.4974   20437071.2924   20437065.661
        54.0004         49.0004
 -11509247.90248  -8915641.06647  22198076.2824   22198081.2854   22198075.968
        49.0004         44.0004
  -9492185.37148  -7397388.07347  22286664.5564   22286671.2334   22286664.135
        49.0004         44.0004
   -332138.37547   -239516.45446  24180368.2104   24180379.4544   24180368.507
        43.0004         38.0004
  -7870877.41847  -6062671.13046  23553611.5544   23553620.7414   23553610.804
        46.0004         41.0004
 -29435423.85948 -22877198.41348  20305327.8804   20305334.1174   20305327.213
        53.0004         49.0004
 14  5 18  0 55  0.0000000  0  9G07G08G10G09G02G28G26G17G04
 -13334549.79948 -10361799.81647  22267115.3784   22267121.1104   22267115.309
        48.0004         44.0004
 -11361386.51948  -8838762.60048  20432233.2294   20432239.8674   20432233.786
        52.0004         48.0004
 -15714791.63248 -12234621.69247  22459070.1554   22459075.4454   22459070.918
        48.0004         43.0004
 -17479790.94949 -13611627.55948  20446846.4864   20446852.0854   20446846.216
        54.0004         49.0004
 -11566030.10148  -8959886.83347  22187271.3074   22187275.2384   22187271.389
        49.0004         44.0004
  -9550132.79448  -7442541.84147  22275637.0234   22275644.2354   22275636.848
        49.0004         44.0004
   -317480.91247   -228094.86846  24183158.1224   24183167.4884   24183158.240
        43.0004         38.0004
  -7838455.60947  -6037407.35846  23559781.1994   23559790.9834   23559780.297
        46.0004         41.0004
 -29443970.33849 -22883857.98948  20303701.2464   20303707.7314   20303701.076
        54.0004         49.0004
 14  5 18  0 55 30.0000000  0  9G07G08G10G09G02G28G26G17G04
 -13237307.54648 -10286026.60047  22285620.0504   22285624.8614   22285619.512
        48.0004         44.0004
 -11301754.26648  -8792295.87748  20443581.0364   20443587.0134   20443581.621
        52.0004         48.0004
 -15786500.20848 -12290498.42947  22445424.8544   22445430.1964   22445424.974
        48.0004         43.0004
 -17427915.74549 -13571205.28548  20456717.6664   20456723.6794   20456717.776
        54.0004         49.0004
 -11622407.55348  -9003817.20947  22176542.4394   22176545.7274   22176542.393
        49.0004         44.0004
  -9607999.71948  -7487632.88347  22264624.5774   22264633.0444   22264625.258
        49.0004         44.0004
   -302736.60047   -216605.61646  24185963.6584   24185974.7594   24185962.830
        43.0004         38.0004
  -7806218.76647  -6012287.72046  23565915.3934   23565925.2604   23565915.054
        46.0004         41.0004
 -29451963.20649 -22890086.19148  20302180.4024   20302186.6414   20302179.994
        54.0004         49.0004
 14  5 18  0 56  0.0000000  0  9G07G08G10G09G02G28G26G17G04
 -13139842.07748 -10210079.44547  22304167.0254   22304171.6964   22304166.795
        48.0004         44.0004
 -11241578.57448  -8745405.69248  20455032.4004   20455038.6394   20455032.309
        52.0004         48.0004
 -15858202.18848 -12346370.03847  22431780.1134   22431786.4874   22431780.350
        48.0004         43.0004
 -17375563.97649 -13530411.66148  20466680.0224   20466685.8914   20466679.794
        54.0004         49.0004
 -11678375.83848  -9047428.75047  22165892.3724   22165896.5694   22165892.161
        49.0004         44.0004
  -9665780.29048  -7532656.65147  22253629.7144   22253637.3634   22253629.822
        49.0004         44.0004
   -287904.79947   -205048.19146  24188786.3644   24188795.0704   24188786.225
        43.0004         39.0004
  -7774165.51747  -5987311.13147  23572015.7364   23572025.3444   23572015.317
        46.0004         42.0004
 -29459400.04849 -22895881.11648  20300765.4724   20300771.3514   20300764.948
        54.0004         49.0004
 14  5 18  0 56 30.0000000  0  9G07G08G10G09G02G28G26G17G04
 -13042157.73348 -10133961.73747  22322755.8494   22322760.8114   22322755.086
        48.0004         43.0004
 -11180862.96548  -8698094.79748  20466585.8634   20466592.1914   20466586.652
        52.0004         48.0004
 -15929896.12948 -12402235.38247  22418137.8894   22418143.4804   22418137.646
        48.0004         43.0004
 -17322739.25649 -13489249.50148  20476732.2004   20476737.3974   20476732.053
        54.0004         49.0004
 -11733935.14148  -9090721.60447  22155319.0444   22155323.4224   22155319.298
        49.0004         44.0004
  -9723472.41648  -7577611.50047  22242651.2834   22242658.3904   22242651.142
        48.0004         44.0004
   -272988.86647   -193425.20946  24191624.1244   24191634.6664   24191623.712
        43.0004         38.0004
  -7742297.65247  -5962479.01046  23578078.6424   23578089.4814   23578079.019
        46.0004         41.0004
 -29466282.11649 -22901243.75548  20299455.6974   20299461.6554   20299455.204
        54.0004         49.0004
 14  5 18  0 57  0.0000000  0  9G07G08G10G09G02G28G26G17G04
 -12944258.03248 -10057676.22747  22341385.5404   22341391.2364   22341385.073
        48.0004         43.0004
 -11119610.64548  -8650365.68248  20478242.1764   20478247.9164   20478242.182
        52.0004         48.0004
 -16001579.98848 -12458092.87647  22404496.0134   22404503.2094   22404496.866
        48.0004         43.0004
 -17269444.67449 -13447721.21748  20486873.6584   20486879.2454   20486873.671
        54.0004         49.0004
 -11789084.51348  -9133695.03147  22144824.7764   22144829.0084   22144825.277
        49.0004         44.0004
  -9781074.08548  -7622495.85247  22231689.2294   22231697.3984   22231689.698
        48.0004         44.0004
   -257991.40347   -181738.69046  24194478.2124   24194487.2754   24194478.400
        43.0004         38.0004
  -7710616.75047  -5937792.55646  23584107.9594   23584116.9374   23584107.793
        46.0004         41.0004
 -29472610.04349 -22906174.59348  20298251.1244   20298257.6984   20298251.105
        54.0004         49.0004
 14  5 18  0 57 30.0000000  0  9G07G08G10G09G02G28G26G17G04
 -12846144.53248  -9981224.11547  22360056.1964   22360060.5184   22360055.569
        48.0004         43.0004
 -11057822.80448  -8602219.28548  20489999.7234   20490005.4734   20489999.969
        52.0004         48.0004
 -16073249.81548 -12513939.42547  22390857.9464   22390863.9904   22390857.875
        48.0004         43.0004
 -17215681.28549 -13405827.62948  20497104.2934   20497110.4474   20497104.252
        54.0004         49.0004
 -11843821.36548  -9176347.03347  22134408.1054   22134413.0714   22134408.686
        49.0004         45.0004
  -9838580.67648  -7667306.12647  22220746.0444   22220753.7454   22220746.914
        48.0004         44.0004
   -242913.32947   -169989.36446  24197346.2954   24197356.4054   24197345.916
        43.0004         38.0004
  -7679123.02647  -5913251.96446  23590100.6464   23590111.0734   23590100.666
        46.0004         41.0004
 -29478382.51449 -22910672.60648  20297152.6404   20297159.0424   20297152.346
        54.0004         49.0004
 14  5 18  0 58  0.0000000  0  9G07G08G10G09G02G28G26G17G04
 -12747823.16148  -9904610.02247  22378765.2064   22378770.9334   22378765.606
        48.0004         43.0004
 -10995505.14048  -8553660.03448  20501858.6094   20501864.4524   20501858.723
        52.0004         48.0004
 -16144905.80548 -12569775.21647  22377220.7474   22377228.3644   22377222.160
        48.0004         43.0004
 -17161454.69149 -13363573.10448  20507423.5274   20507429.2574   20507423.538
        54.0004         49.0004
 -11898147.06448  -9218678.64947  22124070.1364   22124074.8924   22124070.920
        49.0004         45.0004
  -9895992.63848  -7712042.65247  22209821.8394   22209829.9574   22209821.858
        48.0004         44.0004
   -227759.79247   -158181.23146  24200229.9104   24200241.0794   24200230.433
        43.0004         38.0004
  -7647820.28547  -5888860.18547  23596058.2594   23596067.3534   23596057.628
        46.0004         42.0004
 -29483603.21249 -22914740.66348  20296159.2704   20296165.8934   20296159.043
        54.0004         49.0004
 14  5 18  0 58 30.0000000  0  9G07G08G10G09G02G28G26G17G04
 -12649294.21148  -9827834.19747  22397514.9914   22397519.6084   22397515.249
        48.0004         43.0004
 -10932657.15548  -8504687.54948  20513817.8934   20513823.8904   20513818.115
        52.0004         48.0004
 -16216542.82148 -12625596.20547  22363590.6264   22363596.5924   22363590.048
        48.0004         43.0004
 -17106764.34849 -13320957.21348  20517830.8224   20517836.2624   20517830.660
        54.0004         49.0004
 -11952057.94948  -9260687.04047  22113811.1994   22113815.8054   22113812.063
        49.0004         45.0004
  -9953303.77748  -7756700.62847  22198915.3124   22198922.6654   22198915.973
        48.0004         44.0004
   -212530.09547   -146313.75246  24203128.0154   24203137.9744   24203128.131
        43.0004         38.0004
  -7616706.90847  -5864615.96047  23601978.1174   23601988.4954   23601978.053
        46.0004         42.0004
 -29488269.35049 -22918376.60048  20295271.5154   20295277.7154   20295271.154
        54.0004         49.0004
 14  5 18  0 59  0.0000000  0  9G07G08G10G09G02G28G26G17G04
 -12550560.71348  -9750898.96047  22416302.5464   22416308.2674   22416302.740
        48.0004         43.0004
 -10869281.89648  -8455304.20347  20525877.9314   20525884.1444   20525877.916
        52.0004         47.0004
 -16288158.39148 -12681400.47647  22349961.2914   22349967.7934   22349962.470
        48.0004         43.0004
 -17051613.12549 -13277982.19448  20528326.0574   20528331.1894   20528325.693
        54.0004         49.0004
 -12005553.20648  -9302371.55647  22103631.7084   22103635.5554   22103632.231
        49.0004         45.0004
 -10010511.29248  -7801277.83947  22188028.9944   22188035.5694   22188029.229
        49.0004         44.0004
   -197226.83647   -134388.95946  24206040.5764   24206050.5214   24206040.358
        43.0004         38.0004
  -7585783.77747  -5840519.98847  23607862.4104   23607872.3334   23607862.612
        46.0004         42.0004
 -29492381.73048 -22921581.03848  20294488.7144   20294495.0454   20294488.304
        53.0004         49.0004
 14  5 18  0 59 30.0000000  0  9G07G08G10G09G02G28G26G17G04
 -12451627.55548  -9673808.16447  22435129.9034   22435134.5974   22435129.483
        48.0004         43.0004
 -10805383.99148  -8405513.59547  20538037.2234   20538043.3184   20538037.563
        52.0004         47.0004
 -16359751.80148 -12737187.48247  22336337.9014   22336344.8994   22336338.540
        48.0004         43.0004
 -16996005.33049 -13234651.40748  20538907.2884   20538913.0764   20538907.248
        54.0004         49.0004
 -12058633.30948  -9343732.59047  22093530.9154   22093534.8674   22093531.128
        49.0004         45.0004
 -10067614.42148  -7845773.72747  22177163.0894   22177170.4864   22177162.538
        48.0004         44.0004
   -181853.99747   -122409.92846  24208965.7374   24208975.4154   24208965.043
        43.0004         38.0004
  -7555054.12447  -5816574.77146  23613710.5624   23613720.2324   23613709.623
        46.0004         41.0004
 -29495942.39648 -22924355.56148  20293811.1394   20293817.5444   20293810.980
        53.0004         49.0004
 14  5 18  1  0  0.0000000  0  9G07G08G10G09G02G28G26G17G04
 -12352496.34447  -9596563.03647  22453993.9994   22453998.8524   22453993.519
        47.0004         43.0004
 -10740964.71348  -8355316.72347  20550295.8504   20550301.4514   20550295.995
        52.0004         47.0004
 -16431318.81848 -12792953.93447  22322719.1294   22322725.4314   22322719.374
        48.0004         43.0004
 -16939942.44649 -13190966.00548  20549575.8394   20549581.8524   20549575.863
        54.0004         49.0004
 -12111295.71948  -9384768.14147  22083508.8124   22083513.5074   22083509.544
        49.0004         44.0004
 -10124608.69848  -7890184.80247  22166317.3634   22166323.8134   22166316.993
        48.0004         44.0004
   -166412.39347   -110377.32146  24211903.8584   24211913.2574   24211903.910
        43.0004         38.0004
  -7524517.12847  -5792779.69546  23619521.8954   23619531.2704   23619520.938
        46.0004         41.0004
 -29498950.42448 -22926699.46848  20293238.6234   20293244.7724   20293238.631
        53.0004         49.0004
 14  5 18  1  0 30.0000000  0  9G07G08G10G09G02G28G26G17G04
 -12253172.09047  -9519167.49247  22472893.8804   22472899.4604   22472894.017
        47.0004         43.0004
 -10676028.32148  -8304716.91247  20562652.5154   20562658.2254   20562652.854
        52.0004         47.0004
 -16502858.84148 -12848699.34047  22309105.4294   22309111.7644   22309106.353
        48.0004         43.0004
 -16883428.79849 -13146929.36048  20560329.7954   20560335.4654   20560330.063
        54.0004         49.0004
 -12163540.97748  -9425478.64647  22073567.6314   22073571.0184   22073568.126
        49.0004         45.0004
 -10181492.86848  -7934510.06447  22155491.9314   22155500.1954   22155492.108
        48.0004         44.0004
   -150905.99047    -98294.23546  24214854.4364   24214862.7464   24214853.858
        43.0004         38.0004
  -7494176.29947  -5769137.46146  23625295.5364   23625304.4194   23625294.472
        46.0004         41.0004
 -29501408.07048 -22928614.49848  20292771.1734   20292777.5534   20292770.728
        53.0004         49.0004
 14  5 18  1  1  0.0000000  0  9G07G08G10G09G02G28G26G17G04
 -12153655.80647  -9441622.30847  22491831.6384   22491836.8454   22491831.529
        47.0004         43.0004
 -10610576.08648  -8253715.13847  20575107.3244   20575113.8544   20575108.158
        52.0004         47.0004
 -16574367.29448 -12904420.15547  22295498.2514   22295505.0744   22295498.556
        48.0004         44.0004
 -16826465.00949 -13102541.95448  20571169.8194   20571175.4554   20571169.540
        54.0004         49.0004
 -12215366.21048  -9465861.86247  22063705.7204   22063709.1184   22063705.411
        49.0004         45.0004
 -10238262.37448  -7978745.98247  22144688.9794   22144696.7414   22144689.393
        48.0004         44.0004
   -135335.30947    -86161.06446  24217817.3364   24217826.5014   24217816.536
        43.0004         38.0004
  -7464030.98947  -5745647.57247  23631031.7164   23631041.5384   23631031.326
        46.0004         42.0004
 -29503313.97648 -22930099.60248  20292408.5664   20292414.7214   20292408.292
        53.0004         49.0004
 14  5 18  1  1 30.0000000  0  9G07G08G10G09G02G28G26G17G04
 -12053950.72847  -9363930.01347  22510804.2004   22510808.9664   22510804.503
        47.0004         42.0004
 -10544610.50848  -8202313.36347  20587660.6284   20587666.3774   20587660.806
        52.0004         47.0004
 -16645841.78648 -12960114.51347  22281896.6204   22281902.2484   22281897.087
        48.0004         43.0004
 -16769053.77349 -13057805.89148  20582094.8794   20582100.2974   20582094.817
        54.0004         49.0004
 -12266770.26248  -9505916.88247  22053923.4154   22053927.3604   22053923.788
        49.0004         45.0004
 -10294914.18648  -8022890.19447  22133908.7174   22133914.9414   22133908.619
        48.0004         44.0004
   -119702.48347    -73979.47046  24220792.0974   24220802.6254   24220791.760
        42.0004         38.0004
  -7434081.91147  -5722310.60246  23636729.8214   23636739.9734   23636730.155
        46.0004         41.0004
 -29504668.62448 -22931155.16048  20292150.8634   20292156.8134   20292150.376
        53.0004         49.0004
 14  5 18  1  2  0.0000000  0  9G07G08G10G09G02G28G26G17G04
 -11954060.56647  -9286093.50647  22529813.1024   22529818.1344   22529812.611
        47.0004         42.0004
 -10478135.76548  -8150514.83247  20600310.0644   20600316.1444   20600310.728
        52.0004         47.0004
 -16717280.56648 -13015781.03247  22268301.9364   22268308.8674   22268302.668
        48.0004         44.0004
 -16711198.63649 -13012723.92448  20593104.3484   20593110.0474   20593104.155
        54.0004         49.0004
 -12317753.24648  -9545643.80147  22044220.9574   22044225.6824   22044221.072
        49.0004         45.0004
 -10351446.13748  -8066941.00647  22123150.7424   22123158.1464   22123151.427
        48.0004         44.0004
   -104010.74547    -61751.96146  24223776.7284   24223787.8184   24223777.001
        42.0004         38.0004
  -7404330.42347  -5699127.60246  23642392.0004   23642401.2464   23642391.815
        46.0004         41.0004
 -29505473.66848 -22931782.44748  20291997.3604   20292003.3094   20291997.218
        53.0004         49.0004
 14  5 18  1  2 30.0000000  0  9G07G08G10G09G02G28G26G17G04
 -11853988.64947  -9208115.37147  22548856.2864   22548861.3144   22548856.226
        47.0004         42.0004
 -10411154.58248  -8098321.67447  20613056.3274   20613062.5584   20613056.373
        52.0004         47.0004
 -16788680.81348 -13071417.53247  22254715.0004   22254722.3334   22254715.517
        48.0004         44.0004
 -16652902.47449 -12967298.30348  20604197.6004   20604203.3554   20604197.709
        54.0004         49.0004
 -12368314.04548  -9585041.75547  22034600.3134   22034604.1164   22034600.732
        49.0004         45.0004
 -10407855.80448  -8110896.53947  22112416.6874   22112424.2314   22112416.674
        49.0004         44.0004
    -88262.33647    -49480.30646  24226775.4944   24226784.6034   24226775.689
        42.0004         38.0004
  -7374778.50247  -5676100.11846  23648015.8784   23648024.9804   23648015.069
        46.0004         41.0004
 -29505729.50848 -22931981.78748  20291948.7194   20291955.0844   20291948.214
        53.0004         49.0004
 14  5 18  1  3  0.0000000  0  9G07G08G10G09G02G28G26G17G04
 -11753737.94747  -9129997.91847  22567933.2304   22567937.5184   22567933.223
        47.0004         42.0004
 -10343669.57848  -8045735.93247  20625898.4684   20625904.5354   20625898.665
        52.0004         47.0004
 -16860040.08248 -13127022.10347  22241135.7414   22241141.5004   22241136.476
        48.0004         44.0004
 -16594168.13249 -12921531.24248  20615374.4254   20615379.9794   20615374.269
        54.0004         49.0004
 -12418451.60948  -9624109.91447  22025058.7834   22025063.9454   22025059.132
        49.0004         45.0004
 -10464140.01848  -8154754.30547  22101706.4314   22101713.6324   22101706.274
        49.0004         44.0004
    -72459.67047    -37166.36646  24229781.9204   24229792.1714   24229781.227
        43.0004         38.0004
  -7345426.66447  -5653228.53346  23653600.9824   23653611.7844   23653600.843
        46.0004         41.0004
 -29505437.03348 -22931753.86448  20292004.2824   20292010.8474   20292003.968
        53.0004         49.0004
 14  5 18  1  3 30.0000000  0  9G07G08G10G09G02G28G26G17G04
 -11653312.07247  -9051743.97147  22587043.8514   22587048.5884   22587043.255
        47.0004         42.0004
 -10275684.33248  -7992760.39447  20638835.2064   20638841.5024   20638835.394
        52.0004         47.0004
 -16931356.26648 -13182593.11147  22227565.6884   22227570.6744   22227565.223
        48.0004         44.0004
 -16534999.14349 -12875425.50248  20626633.4474   20626639.4204   20626633.656
        54.0004         49.0004
 -12468165.73548  -9662848.13047  22015598.5214   22015602.6584   22015599.534
        49.0004         45.0004
 -10520296.39848  -8198512.47247  22091019.7844   22091027.8894   22091020.198
        49.0004         44.0004
    -56605.50947    -24812.29746  24232798.6684   24232806.4134   24232798.973
        43.0004         38.0004
  -7316276.67147  -5630514.23246  23659147.4724   23659157.7514   23659147.991
        46.0004         41.0004
 -29504597.26048 -22931099.48148  20292164.0904   20292170.5584   20292164.064
        53.0004         49.0004
 14  5 18  1  4  0.0000000  0  9G07G08G10G09G02G28G26G17G04
 -11552710.83247  -8973353.37947  22606187.2944   22606191.9634   22606187.437
        47.0004         42.0004
 -10207198.50048  -7939394.78647  20651867.6174   20651873.8834   20651867.933
        52.0004         47.0004
 -17002623.74848 -13238126.16847  22214002.8984   22214009.3764   22214004.149
        49.0004         44.0004
 -16475394.83349 -12828980.54248  20637976.0364   20637981.3814   20637976.163
        54.0004         49.0004
 -12517452.40148  -9701253.24947  22006219.8524   22006224.3064   22006219.884
        50.0004         45.0004
 -10576319.00748  -8242166.39547  22080358.4844   22080365.7014   22080359.143
        49.0004         44.0004
    -40698.97047    -12417.42046  24235825.7724   24235834.5534   24235825.187
        43.0004         38.0004
  -7287326.60047  -5607955.71846  23664657.7154   23664666.7124   23664657.245
        46.0004         41.0004
 -29503207.91949 -22930016.85848  20292428.3434   20292434.6664   20292428.294
        54.0004         49.0004
 14  5 18  1  4 30.0000000  0  9G07G08G10G09G02G28G26G17G04
 -11451942.36047  -8894832.47847  22625363.9124   22625368.4654   22625362.777
        47.0004         42.0004
 -10138219.78348  -7885645.11347  20664993.8424   20664999.8184   20664993.978
        52.0004         47.0004
 -17073844.62148 -13293622.91147  22200450.0464   22200457.0104   22200450.731
        49.0004         44.0004
 -16415362.58149 -12782202.12748  20649399.6154   20649405.4854   20649399.536
        54.0004         49.0004
 -12566315.39648  -9739328.24047  21996921.9124   21996924.4824   21996922.540
        50.0004         45.0004
 -10632209.78648  -8285717.59747  22069722.5454   22069731.8854   22069723.311
        49.0004         44.0004
    -24747.17047        12.74346  24238860.7224   24238870.2144   24238860.893
        43.0004         38.0004
  -7258582.17047  -5585557.44746  23670127.6004   23670137.4804   23670126.620
        45.0004         40.0004
 -29501274.52749 -22928510.29648  20292796.8614   20292802.6674   20292796.048
        54.0004         49.0004
 14  5 18  1  5  0.0000000  0  9G07G08G10G09G02G28G26G17G04
 -11351004.72647  -8816179.76947  22644570.8054   22644575.9474   22644570.843
        47.0004         42.0004
 -10068746.39348  -7831509.97847  20678214.1504   20678220.4384   20678214.518
        52.0004         47.0004
 -17145011.54948 -13349077.60647  22186907.0314   22186914.1524   22186908.134
        49.0004         44.0004
 -16354900.74948 -12735088.97548  20660905.1834   20660911.0264   20660905.334
        53.0004         49.0004
 -12614748.91748  -9777068.58047  21987704.6484   21987709.1034   21987704.496
        50.0004         45.0004
 -10687960.99248  -8329160.04947  22059114.0784   22059121.9264   22059114.574
        49.0004         44.0004
     -8747.68747     12480.04546  24241905.0294   24241914.5804   24241904.843
        43.0004         38.0004
  -7230039.34247  -5563316.25946  23675558.6884   23675568.6574   23675558.123
        45.0004         40.0004
 -29498793.09349 -22926576.70148  20293268.8314   20293274.9844   20293268.239
        54.0004         49.0004
 14  5 18  1  5 30.0000000  0  9G07G08G10G09G02G28G26G17G04
 -11249905.77447  -8737401.34147  22663809.7484   22663814.6804   22663809.350
        47.0004         42.0004
  -9998786.22448  -7776995.54647  20691527.5384   20691533.4334   20691527.525
        52.0004         47.0004
 -17216126.51848 -13404491.82747  22173374.5554   22173381.4064   22173375.442
        49.0004         44.0004
 -16294016.48448 -12687646.64948  20672490.9164   20672496.7114   20672490.849
        53.0004         49.0004
 -12662756.79448  -9814477.24847  21978569.2004   21978573.9884   21978570.082
        50.0004         45.0004
 -10743574.26348  -8372495.01647  22048531.9154   22048539.0844   22048531.480
        49.0004         44.0004
      7292.72047     24979.24546  24244957.8784   24244965.9934   24244957.483
        43.0004         38.0004
  -7201703.91647  -5541236.69546  23680950.6174   23680960.6824   23680950.158
        45.0004         41.0004
 -29495768.96249 -22924220.21748  20293844.2374   20293850.1084   20293843.723
        54.0004         49.0004
 14  5 18  1  6  0.0000000  0  9G07G08G10G09G02G28G26G17G04
 -11148644.19447  -8658496.21747  22683079.4574   22683083.7794   22683079.241
        47.0004         42.0004
  -9928338.13848  -7722100.91247  20704932.8854   20704938.8464   20704933.483
        52.0004         47.0004
 -17287182.69948 -13459860.23747  22159854.1064   22159858.9154   22159854.143
        49.0004         44.0004
 -16232708.82048 -12639874.41248  20684157.4004   20684163.1104   20684157.442
        53.0004         49.0004
 -12710334.19348  -9851550.48847  21969515.1624   21969519.0644   21969515.625
        50.0004         45.0004
 -10799042.70548  -8415717.12847  22037975.5944   22037983.8224   22037976.337
        49.0004         44.0004
     23375.88847     37511.75346  24248017.7514   24248027.1234   24248017.802
        43.0004         38.0004
  -7173572.72547  -5519316.28046  23686303.4704   23686313.8744   23686303.146
        45.0004         40.0004
 -29492198.55948 -22921438.07248  20294523.1764   20294529.7194   20294523.232
        53.0004         49.0004
 14  5 18  1  6 30.0000000  0  9G07G08G10G09G02G28G26G17G04
 -11047224.29247  -8579467.72047  22702379.1184   22702382.4774   22702378.453
        47.0004         42.0004
  -9857405.86748  -7666828.99947  20718431.2744   20718437.1744   20718431.260
        52.0004         47.0004
 -17358178.52948 -13515181.62547  22146343.6294   22146349.7324   22146343.660
        49.0004         44.0004
 -16170981.59849 -12591775.24448  20695903.9334   20695909.5804   20695904.007
        54.0004         49.0004
 -12757481.10148  -9888288.28347  21960543.9214   21960547.9924   21960543.797
        50.0004         45.0004
 -10854364.34248  -8458824.84647  22027448.3454   22027455.7824   22027448.825
        49.0004         44.0004
     39498.47047     50074.99046  24251084.3874   24251094.9844   24251084.746
        43.0004         38.0004
  -7145647.87447  -5497556.64446  23691617.3564   23691627.1604   23691617.119
        45.0004         40.0004
 -29488084.04448 -22918231.94148  20295306.4714   20295312.9744   20295305.971
        53.0004         49.0004
 14  5 18  1  7  0.0000000  0  9G07G08G10G09G02G28G26G17G04
 -10945650.63547  -8500319.40647  22721707.6864   22721712.2614   22721706.641
        47.0004         42.0004
  -9785993.98948  -7611183.35547  20732019.9714   20732026.7394   20732020.436
        52.0004         47.0004
 -17429112.90248 -13570455.12647  22132844.8264   22132851.0694   22132845.338
        49.0004         44.0004
 -16108839.08648 -12543352.47448  20707728.8904   20707734.8114   20707728.962
        53.0004         49.0004
 -12804198.27548  -9924691.21947  21951653.9224   21951657.5524   21951653.934
        50.0004         45.0004
 -10909537.76148  -8501817.07047  22016949.3414   22016956.7584   22016949.381
        49.0004         44.0004
     55656.62447     62665.92546  24254160.0784   24254168.2784   24254160.932
        43.0004         38.0004
  -7117931.81347  -5475959.70646  23696890.9434   23696902.2984   23696890.911
        45.0004         40.0004
 -29483427.76048 -22914603.65448  20296192.7154   20296198.6304   20296192.257
        53.0004         49.0004
 14  5 18  1  7 30.0000000  0  9G07G08G10G09G02G28G26G17G04
 -10843926.78347  -8421054.06047  22741064.8054   22741069.5824   22741064.157
        47.0004         42.0004
  -9714106.28548  -7555166.94347  20745699.9984   20745705.6524   20745700.436
        52.0004         47.0004
 -17499983.66048 -13625679.05947  22119358.9734   22119364.5024   22119359.172
        49.0004         44.0004
 -16046284.66648 -12494608.73548  20719632.7554   20719638.3474   20719632.671
        53.0004         49.0004
 -12850485.45448  -9960759.09547  21942846.3254   21942849.2914   21942846.272
        50.0004         45.0004
 -10964560.53748  -8544691.90947  22006478.4334   22006486.0134   22006478.959
        49.0004         44.0004
     71847.58847     75282.44846  24257240.2154   24257251.5174   24257240.607
        43.0004         38.0004
  -7090425.78047  -5454526.42446  23702126.1294   23702135.3914   23702125.308
        45.0004         40.0004
 -29478230.98848 -22910554.21248  20297181.4794   20297187.8364   20297180.860
        53.0004         49.0004
 14  5 18  1  8  0.0000000  0  9G07G08G10G09G02G28G26G17G04
 -10742051.18847  -8341670.47847  22760451.3834   22760456.7404   22760451.360
        47.0004         42.0004
  -9641741.61248  -7498778.87247  20759470.4844   20759476.7944   20759470.754
        52.0004         47.0004
 -17570783.76848 -13680847.94947  22105885.4974   22105891.6554   22105886.049
        49.0004         44.0004
 -15983317.09148 -12445543.05748  20731614.9514   20731620.4964   20731615.180
        53.0004         49.0004
 -12896337.71648  -9996488.08547  21934120.1234   21934123.7834   21934120.364
        50.0004         45.0004
 -11019425.40748  -8587443.71347  21996038.4724   21996045.7114   21996038.531
        49.0004         44.0004
     88073.42747     87926.12146  24260328.6944   24260337.4894   24260328.848
        43.0004         39.0004
  -7063126.92447  -5433254.58046  23707320.6804   23707331.7734   23707320.830
        45.0004         41.0004
 -29472490.58148 -22906081.16448  20298273.6224   20298279.5884   20298273.422
        53.0004         49.0004
 14  5 18  1  8 30.0000000  0  9G07G08G10G09G02G28G26G17G04
 -10640031.74147  -8262174.79947  22779865.2554   22779869.9774   22779865.028
        47.0004         42.0004
  -9568907.13248  -7442024.70847  20773330.7394   20773336.0514   20773330.922
        52.0004         47.0004
 -17641515.19848 -13735963.30747  22092425.8084   22092432.0124   22092426.349
        49.0004         44.0004
 -15919943.40948 -12396160.93148  20743674.6154   20743680.3274   20743674.314
        53.0004         49.0004
 -12941758.55148 -10031880.89447  21925476.5034   21925480.4444   21925477.156
        50.0004         45.0004
 -11074134.04548  -8630073.77147  21985627.5354   21985634.0714   21985627.646
        49.0004         44.0004
    104327.45847    100591.77346  24263421.7854   24263430.4124   24263421.383
        43.0004         38.0004
  -7036040.24247  -5412148.06146  23712475.3584   23712485.8014   23712475.047
        45.0004         41.0004
 -29466211.61048 -22901188.45448  20299468.6574   20299475.1784   20299468.141
        53.0004         49.0004
 14  5 18  1  9  0.0000000  0  9G07G08G10G09G02G28G26G17G04
 -10537868.38547  -8182566.98447  22799305.5864   22799311.2554   22799305.641
        47.0004         42.0004
  -9495603.49148  -7384904.97047  20787279.7104   20787285.6404   20787279.725
        52.0004         47.0004
 -17712172.62448 -13791021.00247  22078981.4614   22078986.5904   22078980.873
        49.0004         44.0004
 -15856163.94048 -12346462.60948  20755811.2994   20755816.9434   20755811.204
        53.0004         49.0004
 -12986744.61348 -10066934.93047  21916915.8904   21916920.2684   21916916.445
        50.0004         45.0004
 -11128680.85548  -8672577.72547  21975246.7564   21975254.9144   21975247.600
        49.0004         44.0004
    120609.92947    113279.56946  24266519.6214   24266528.3444   24266520.725
        43.0004         39.0004
  -7009164.07747  -5391205.58646  23717590.5674   23717599.8434   23717589.216
        46.0004         41.0004
 -29459392.61249 -22895874.94248  20300766.4264   20300772.3544   20300766.082
        54.0004         49.0004
 14  5 18  1  9 30.0000000  0  9G07G08G10G09G02G28G26G17G04
 -10435565.90547  -8102850.75847  22818772.8684   22818778.8074   22818773.212
        46.0004         42.0004
  -9421835.03348  -7327423.03447  20801317.3134   20801323.6004   20801317.793
        51.0004         47.0004
 -17782754.64248 -13846019.94247  22065549.3694   22065554.8934   22065549.571
        49.0004         44.0004
 -15791983.03548 -12296451.47748  20768024.5964   20768030.2944   20768024.397
        53.0004         49.0004
 -13031296.91348 -10101650.96847  21908438.3554   21908441.3824   21908438.803
        50.0004         45.0004
 -11183064.15848  -8714954.27647  21964899.1574   21964905.9274   21964899.115
        49.0004         45.0004
    136917.22647    125986.71946  24269622.9844   24269632.4584   24269622.721
        43.0004         38.0004
  -6982500.61147  -5370428.85946  23722663.4674   23722672.6234   23722663.075
        45.0004         41.0004
 -29452035.91049 -22890142.44748  20302166.1944   20302172.4764   20302165.793
        54.0004         49.0004
 14  5 18  1 10  0.0000000  0  9G07G08G10G09G02G28G26G17G04
 -10333126.58547  -8023027.91446  22838266.9604   22838269.7734   22838266.797
        46.0004         41.0004
  -9347604.20348  -7269580.80547  20815442.6034   20815449.2264   20815443.066
        51.0004         47.0004
 -17853257.91548 -13900957.52047  22052132.7254   22052138.6294   22052132.915
        49.0004         44.0004
 -15727402.71748 -12246129.11848  20780313.7714   20780319.4424   20780313.812
        53.0004         49.0004
 -13075413.75648 -10136027.68947  21900043.1914   21900046.3904   21900043.220
        50.0004         45.0004
 -11237280.54048  -8757200.75147  21954581.8994   21954589.4624   21954582.271
        49.0004         45.0004
    153247.86747    138712.06446  24272730.5364   24272739.5104   24272730.357
        43.0004         38.0004
  -6956050.12547  -5349818.07946  23727697.1694   23727706.5504   23727696.804
        45.0004         41.0004
 -29444141.95949 -22883991.30648  20303668.2354   20303674.4024   20303667.953
        54.0004         49.0004
 14  5 18  1 10 30.0000000  0  9G07G08G10G09G02G28G26G17G04
 -10230553.10047  -7943100.52046  22857786.6614   22857791.2504   22857786.161
        46.0004         41.0004
  -9272914.09548  -7211380.70347  20829655.7234   20829662.0124   20829656.221
        51.0004         47.0004
 -17923679.53348 -13955831.46947  22038732.0334   22038737.7914   22038732.395
        49.0004         44.0004
 -15662426.01648 -12195497.88948  20792678.5494   20792683.7544   20792678.390
        53.0004         49.0004
 -13119094.30448 -10170064.44247  21891730.8434   21891734.8064   21891731.011
        50.0004         45.0004
 -11291326.91048  -8799314.76647  21944296.7324   21944304.9044   21944297.275
        49.0004         45.0004
    169599.62947    151453.85446  24275842.4514   24275851.0874   24275842.046
        43.0004         38.0004
  -6929813.27047  -5329373.76746  23732688.6934   23732699.2654   23732689.317
        46.0004         41.0004
 -29435711.46249 -22877422.08448  20305272.7104   20305278.9154   20305272.453
        54.0004         49.0004
 14  5 18  1 11  0.0000000  0  9G07G08G10G09G02G28G26G17G04
 -10127849.27047  -7863071.56146  22877330.6034   22877334.4014   22877329.685
        46.0004         41.0004
  -9197768.31048  -7152825.52547  20843955.8594   20843962.1444   20843956.014
        51.0004         47.0004
 -17994017.29448 -14010640.08147  22025347.1364   22025352.2764   22025347.300
        49.0004         44.0004
 -15597056.37348 -12144560.47048  20805118.0574   20805123.2794   20805118.002
        53.0004         49.0004
 -13162338.37248 -10203761.08447  21883502.0784   21883505.5024   21883501.761
        50.0004         45.0004
 -11345200.57848  -8841294.20347  21934044.9984   21934052.7274   21934045.405
        49.0004         45.0004
    185969.79447    164209.99446  24278957.4064   24278965.6304   24278956.931
        43.0004         38.0004
  -6903791.64247  -5309097.16746  23737641.6764   23737651.4794   23737641.038
        46.0004         41.0004
 -29426746.12249 -22870436.10048  20306979.0054   20306984.8804   20306978.321
        54.0004         49.0004
 14  5 18  1 11 30.0000000  0  9G07G08G10G09G02G28G26G17G04
 -10025017.28647  -7782942.73146  22896898.5854   22896902.5344   22896897.752
        46.0004         41.0004
  -9122169.31548  -7093917.20347  20858341.6404   20858347.3804   20858342.084
        51.0004         47.0004
 -18064267.70548 -14065380.64147  22011978.2634   22011984.1424   22011979.292
        49.0004         44.0004
 -15531295.75148 -12093318.39048  20817631.1904   20817637.2144   20817631.363
        53.0004         48.0004
 -13205144.49048 -10237116.47047  21875355.5014   21875359.2044   21875356.231
        50.0004         45.0004
 -11398898.14248  -8883136.41847  21923827.0064   21923834.0704   21923827.252
        50.0004         45.0004
    202356.98547    176979.38546  24282074.2234   24282083.8574   24282074.566
        43.0004         38.0004
  -6877984.99947  -5288988.09046  23742553.1484   23742562.2724   23742551.811
        46.0004         41.0004
 -29417246.09349 -22863033.47748  20308786.9334   20308792.7714   20308786.417
        54.0004         49.0004
 14  5 18  1 12  0.0000000  0  9G07G08G10G09G02G28G26G17G04
  -9922061.95747  -7702717.80446  22916490.2324   22916494.7914   22916489.451
        46.0004         41.0004
  -9046121.81848  -7034659.39447  20872813.1124   20872819.3044   20872813.349
        51.0004         47.0004
 -18134429.38348 -14120052.05547  21998627.3844   21998633.2714   21998627.951
        49.0004         45.0004
 -15465148.96448 -12041775.40148  20830218.9194   20830224.4904   20830219.062
        53.0004         48.0004
 -13247513.73048 -10270131.42547  21867293.4584   21867296.9704   21867293.660
        50.0004         45.0004
 -11452418.02548  -8924840.17147  21913642.1974   21913649.2614   21913642.574
        50.0004         45.0004
    218757.25547    189758.97846  24285196.2384   24285203.4744   24285196.252
        43.0004         38.0004
  -6852395.93647  -5269048.56646  23747422.1384   23747431.0724   23747421.723
        46.0004         41.0004
 -29407214.08049 -22855216.32148  20310695.7404   20310701.6034   20310695.332
        54.0004         49.0004
 14  5 18  1 12 30.0000000  0  9G07G08G10G09G02G28G26G17G04
  -9818984.04347  -7622397.35346  22936105.4264   22936110.4924   22936104.720
        46.0004         41.0004
  -8969626.98448  -6975053.01747  20887369.7314   20887375.1794   20887369.816
        51.0004         47.0004
 -18204497.92548 -14174650.88847  21985293.7954   21985299.8504   21985294.176
        49.0004         44.0004
 -15398617.28048 -11989932.48948  20842879.5544   20842885.1344   20842879.448
        53.0004         48.0004
 -13289443.57848 -10302804.00747  21859314.4474   21859317.7064   21859314.669
        50.0004         45.0004
 -11505755.46948  -8966401.76647  21903492.5024   21903500.5744   21903492.938
        50.0004         45.0004
    235170.20447    202548.43946  24288319.3554   24288328.4724   24288318.883
        42.0004         38.0004
  -6827023.36147  -5249277.72646  23752249.8204   23752259.3934   23752249.647
        46.0004         41.0004
 -29396649.46249 -22846984.15348  20312705.7334   20312711.7474   20312705.493
        54.0004         49.0004
 14  5 18  1 13  0.0000000  0 10G07G08G10G05G09G02G28G26G17G04
  -9715788.00747  -7541984.86046  22955742.1574   22955747.2004   22955741.852
        46.0004         41.0004
  -8892689.60048  -6915101.79847  20902009.7164   20902015.9084   20902010.590
        51.0004         47.0004
 -18274472.38648 -14229176.42247  21971977.8584   21971984.6594   21971978.372
        49.0004         45.0004
  -1702469.80348  -1279366.81746  25149827.3414   25149833.9114   25149825.143
        50.0004         36.0004
 -15331704.92148 -11937792.95248  20855612.2964   20855617.8164   20855612.384
        53.0004         48.0004
 -13330935.19348 -10335135.09447  21851418.3314   21851421.7824   21851419.306
        50.0004         46.0004
 -11558909.16048  -9007820.18047  21893377.0634   21893385.2504   21893377.700
        50.0004         45.0004
    251592.13747    215344.90146  24291444.2984   24291452.9774   24291443.885
        42.0004         38.0004
  -6801869.65047  -5229677.42746  23757036.8104   23757046.0294   23757036.304
        46.0004         41.0004
 -29385554.96749 -22838339.09248  20314817.3854   20314823.1794   20314816.917
        54.0004         49.0004
 14  5 18  1 13 30.0000000  0 10G07G08G10G05G09G02G28G26G17G04
  -9612474.37047  -7461480.72546  22975403.2504   22975407.1864   22975401.474
        46.0004         41.0004
  -8815310.36148  -6854806.27147  20916734.5794   20916740.9024   20916734.955
        51.0004         46.0004
 -18344347.18948 -14283624.30047  21958681.3164   21958687.9144   21958681.943
        49.0004         45.0004
  -1787102.12847  -1345313.75346  25133720.8444   25133728.6614   25133720.292
        45.0004         36.0004
 -15264412.17048 -11885356.99848  20868417.9434   20868423.2394   20868417.919
        53.0004         48.0004
 -13371985.31648 -10367122.17447  21843607.0064   21843611.5624   21843607.129
        50.0004         45.0004
 -11611873.37748  -9049090.94847  21883299.7824   21883305.8014   21883299.252
        49.0004         45.0004
    268023.40547    228148.63846  24294570.1534   24294577.7624   24294571.460
        42.0004         38.0004
  -6776933.00647  -5210246.27746  23761782.2374   23761790.7724   23761781.239
        46.0004         41.0004
 -29373929.14349 -22829280.01448  20317029.6194   20317035.2684   20317029.017
        54.0004         49.0004
 14  5 18  1 14  0.0000000  0 10G07G08G10G05G09G02G28G26G17G04
  -9509049.39947  -7380889.83746  22995082.7604   22995088.5134   22995082.817
        46.0004         41.0004
  -8737495.64748  -6794171.40947  20931542.3964   20931548.8824   20931542.704
        51.0004         46.0004
 -18414122.88348 -14337994.94547  21945403.6324   21945409.7074   21945403.959
        49.0004         45.0004
  -1871927.24847  -1411410.94546  25117578.6394   25117586.0414   25117577.971
        42.0004         36.0004
 -15196745.46548 -11832629.64948  20881294.0994   20881299.5974   20881294.330
        53.0004         48.0004
 -13412596.70148 -10398767.38247  21835878.3904   21835882.3014   21835879.088
        50.0004         45.0004
 -11664648.71048  -9090214.53547  21873256.1224   21873263.6694   21873256.144
        49.0004         45.0004
    284458.54947    240955.40146  24297697.9164   24297706.4954   24297697.367
        42.0004         38.0004
  -6752217.38847  -5190987.34646  23766485.6854   23766494.6084   23766484.839
        46.0004         41.0004
 -29361776.32049 -22819810.28948  20319342.1674   20319348.1734   20319341.774
        54.0004         49.0004
 14  5 18  1 14 30.0000000  0 10G07G08G10G05G09G02G28G26G17G04
  -9405513.88147  -7300212.81246  23014785.2524   23014790.5214   23014785.350
        46.0004         41.0004
  -8659246.53048  -6733198.05247  20946432.6944   20946439.1664   20946433.162
        51.0004         46.0004
 -18483794.44948 -14392284.45847  21932145.2424   21932150.8994   21932145.480
        49.0004         44.0004
  -1956941.62147  -1477655.62246  25101400.0264   25101408.1374   25101400.127
        42.0004         37.0004
 -15128705.55448 -11779611.49548  20894241.4914   20894247.3864   20894241.657
        53.0004         48.0004
 -13452766.34748 -10430068.38747  21828234.6064   21828238.1624   21828234.956
        50.0004         45.0004
 -11717229.74648  -9131186.72947  21863250.3594   21863258.6314   21863250.386
        49.0004         45.0004
    300897.57747    253765.18346  24300827.1414   24300834.6504   24300827.416
        42.0004         38.0004
  -6727721.04447  -5171899.26646  23771146.8014   23771156.2334   23771145.919
        46.0004         41.0004
 -29349095.56749 -22809929.18948  20321754.9444   20321761.3104   20321754.830
        54.0004         49.0004
 14  5 18  1 15  0.0000000  0 10G07G08G10G05G09G02G28G26G17G04
  -9301872.10947  -7219452.98046  23034508.2924   23034512.7754   23034508.083
        46.0004         41.0004
  -8580567.51348  -6671889.71147  20961405.1724   20961411.0564   20961405.093
        51.0004         46.0004
 -18553360.55248 -14446491.79147  21918907.2814   21918913.0124   21918907.876
        49.0004         45.0004
  -2042144.74846  -1544047.36846  25085187.6724   25085195.7114   25085186.465
        41.0004         37.0004
 -15060296.59548 -11726305.76648  20907259.9054   20907265.0524   20907259.862
        53.0004         48.0004
 -13492495.08548 -10461025.82147  21820675.2194   21820678.9614   21820675.056
        50.0004         46.0004
 -11769614.88648  -9172006.27247  21853281.7754   21853288.9204   21853281.674
        49.0004         45.0004
    317336.91747    266575.20446  24303953.6424   24303962.2624   24303953.041
        42.0004         38.0004
  -6703446.36147  -5152983.91846  23775765.2564   23775776.5574   23775765.422
        45.0004         41.0004
 -29335889.56049 -22799638.80248  20324268.2934   20324274.2054   20324267.852
        54.0004         49.0004
 14  5 18  1 15 30.0000000  0 10G07G08G10G05G09G02G28G26G17G04
  -9198124.56747  -7138610.73646  23054250.6694   23054255.9954   23054250.109
        46.0004         41.0004
  -8501459.31648  -6610246.94047  20976458.5414   20976465.3014   20976458.714
        51.0004         46.0004
 -18622815.86148 -14500612.78747  21905690.3034   21905696.1374   21905690.580
        49.0004         45.0004
  -2127533.05146  -1610583.40546  25068938.2374   25068945.0604   25068937.420
        41.0004         37.0004
 -14991519.23148 -11672712.96848  20920347.4634   20920353.2554   20920347.359
        53.0004         48.0004
 -13531780.16448 -10491637.55947  21813199.5084   21813202.5704   21813199.109
        50.0004         46.0004
 -11821798.93448  -9212669.11447  21843351.6574   21843359.3514   21843351.174
        49.0004         45.0004
    333776.70647    279385.57746  24307083.4124   24307091.2824   24307082.897
        42.0004         37.0004
  -6679392.10247  -5134240.33346  23780342.9414   23780353.3714   23780343.033
        45.0004         41.0004
 -29322157.00249 -22788938.11348  20326881.4494   20326887.7314   20326881.129
        54.0004         49.0004
 14  5 18  1 16  0.0000000  0 10G07G08G10G05G09G02G28G26G17G04
  -9094276.75747  -7057690.36546  23074012.4274   23074016.7074   23074012.281
        46.0004         41.0004
  -8421927.42148  -6548274.02047  20991593.0904   20991599.0454   20991593.492
        51.0004         46.0004
 -18692159.95648 -14554647.14247  21892494.1584   21892500.0584   21892494.688
        49.0004         45.0004
  -2213107.26146  -1677264.31046  25052653.6474   25052660.5704   25052652.193
        41.0004         37.0004
 -14922378.99748 -11618837.40948  20933504.1724   20933510.2614   20933504.281
        53.0004         48.0004
 -13570623.47548 -10521905.05247  21805807.7944   21805811.1844   21805807.559
        50.0004         46.0004
 -11873781.15748  -9253174.70447  21833459.2454   21833466.9194   21833459.401
        49.0004         45.0004
    350212.48047    292192.83046  24310210.6774   24310218.3554   24310210.451
        42.0004         38.0004
  -6655560.77547  -5115670.45346  23784878.6184   23784887.8874   23784877.379
        45.0004         41.0004
 -29307901.74349 -22777830.13148  20329594.2364   20329600.2284   20329593.687
        54.0004         49.0004
 14  5 18  1 16 30.0000000  0 10G07G08G10G05G09G02G28G26G17G04
  -8990332.24347  -6976694.65146  23093792.1014   23093797.5674   23093792.654
        46.0004         41.0004
  -8341976.12248  -6485974.27947  21006807.0114   21006813.8804   21006807.425
        51.0004         46.0004
 -18761391.05248 -14608593.42847  21879320.2134   21879326.1614   21879321.066
        49.0004         45.0004
  -2298867.11247  -1744089.85546  25036332.8064   25036339.9484   25036332.683
        42.0004         37.0004
 -14852879.92748 -11564682.24148  20946729.2854   20946735.1444   20946729.458
        53.0004         48.0004
 -13609025.50048 -10551828.68547  21798499.5524   21798503.5174   21798500.053
        50.0004         46.0004
 -11925559.54148  -9293521.45247  21823606.0084   21823613.1694   21823606.522
        50.0004         45.0004
    366641.05947    304994.46346  24313335.4544   24313345.8494   24313335.979
        42.0004         37.0004
  -6631953.83547  -5097275.42346  23789370.1494   23789379.8354   23789370.383
        46.0004         41.0004
 -29293125.80149 -22766316.41748  20332405.8504   20332411.8884   20332405.626
        54.0004         49.0004
 14  5 18  1 17  0.0000000  0 10G07G08G10G05G09G02G28G26G17G04
  -8886290.98447  -6895623.55246  23113590.4384   23113595.4464   23113591.064
        46.0004         41.0004
  -8261605.43548  -6423347.76047  21022101.2724   21022107.1744   21022101.663
        51.0004         46.0004
 -18830503.03448 -14662446.90947  21866168.6954   21866175.3724   21866169.253
        50.0004         45.0004
  -2384808.21847  -1811056.64346  25019978.5324   25019986.6494   25019978.420
        42.0004         37.0004
 -14783021.84148 -11510247.31848  20960022.7704   20960028.4864   20960023.111
        53.0004         48.0004
 -13646982.38648 -10581405.46847  21791276.2854   21791280.3154   21791276.891
        50.0004         46.0004
 -11977127.75948  -9333704.42747  21813792.5474   21813800.7254   21813792.935
        50.0004         45.0004
    383063.52647    317791.33846  24316461.9544   24316469.8424   24316461.609
        42.0004         38.0004
  -6608569.15447  -5079053.57346  23793820.4954   23793829.7714   23793820.449
        46.0004         41.0004
 -29277827.46749 -22754395.65248  20335316.8674   20335323.5254   20335316.747
        54.0004         49.0004
 14  5 18  1 17 30.0000000  0 10G07G08G10G05G09G02G28G26G17G04
  -8782157.94047  -6814480.92246  23133407.7124   23133410.5044   23133406.847
        46.0004         41.0004
  -8180820.87948  -6360398.74347  21037473.8804   21037479.7284   21037474.470
        51.0004         46.0004
 -18899495.00748 -14716206.87947  21853039.7144   21853046.6114   21853039.817
        50.0004         45.0004
  -2470930.89947  -1878164.92546  25003590.3514   25003595.8154   25003589.353
        42.0004         37.0004
 -14712809.59148 -11455536.42248  20973383.9104   20973389.5524   20973383.915
        53.0004         48.0004
 -13684495.95548 -10610636.81247  21784137.9624   21784141.6954   21784138.379
        50.0004         46.0004
 -12028485.11048  -9373723.09747  21804019.6154   21804027.6374   21804020.437
        50.0004         45.0004
    399475.60447    330580.09746  24319584.9504   24319593.1304   24319584.346
        42.0004         38.0004
  -6585409.29347  -5061006.90646  23798228.0044   23798237.6644   23798227.380
        46.0004         41.0004
 -29262010.06149 -22742070.41448  20338326.8394   20338333.2424   20338326.747
        54.0004         49.0004
 14  5 18  1 18  0.0000000  0 10G07G08G10G05G09G02G28G26G17G04
  -8677934.39047  -6733267.76446  23153241.5174   23153243.6754   23153240.232
        46.0004         41.0004
  -8099624.25148  -6297128.62847  21052925.2094   21052931.7274   21052925.579
        51.0004         46.0004
 -18968362.74148 -14769870.03747  21839934.8244   21839941.0144   21839935.681
        50.0004         45.0004
  -2557232.14047  -1945412.34846  24987166.3614   24987174.3764   24987166.778
        42.0004         37.0004
 -14642244.77848 -11400550.79848  20986812.0944   20986817.6964   20986812.174
        53.0004         48.0004
 -13721564.35948 -10639521.27147  21777084.2824   21777088.0604   21777084.598
        50.0004         46.0004
 -12079626.90148  -9413573.80647  21794286.8434   21794295.5844   21794287.994
        50.0004         45.0004
    415876.66947    343360.27746  24322705.0544   24322713.4234   24322705.708
        42.0004         38.0004
  -6562473.85047  -5043135.10146  23802591.6734   23802600.8964   23802591.229
        45.0004         41.0004
 -29245673.55149 -22729340.67848  20341435.5854   20341441.7714   20341435.443
        54.0004         49.0004
 14  5 18  1 18 30.0000000  0 10G07G08G10G05G09G02G28G26G17G04
  -8573625.79047  -6651988.32946  23173090.4864   23173093.5724   23173089.126
        45.0004         41.0004
  -8018021.52748  -6233542.07647  21068454.2174   21068460.0954   21068454.152
        51.0004         46.0004
 -19037106.25348 -14823436.40047  21826853.7944   21826859.7274   21826853.846
        50.0004         45.0004
  -2643713.16147  -2012799.87146  24970711.1294   24970718.2174   24970709.106
        42.0004         37.0004
 -14571333.00248 -11345294.81948  21000306.0994   21000311.2684   21000305.775
        53.0004         48.0004
 -13758189.82848 -10668060.59047  21770115.1164   21770118.1544   21770115.180
        50.0004         46.0004
 -12130553.13348  -9453256.53347  21784597.0674   21784604.4594   21784597.022
        50.0004         45.0004
    432261.66847    356127.98546  24325823.5074   24325831.2634   24325822.211
        42.0004         38.0004
  -6539766.01347  -5025440.65946  23806913.8174   23806922.5734   23806912.488
        45.0004         41.0004
 -29228821.85749 -22716209.50048  20344642.4684   20344648.8244   20344642.007
        54.0004         49.0004
 14  5 18  1 19  0.0000000  0 10G07G08G10G05G09G02G28G26G17G04
  -8469233.21447  -6570643.46846  23192954.9594   23192958.8864   23192954.365
        45.0004         41.0004
  -7936013.85748  -6169639.97647  21084058.8344   21084065.2034   21084059.688
        51.0004         46.0004
 -19105720.50048 -14876902.03447  21813796.7264   21813802.1914   21813796.955
        50.0004         45.0004
  -2730370.28447  -2080324.61546  24954219.3094   24954224.4824   24954218.792
        42.0004         37.0004
 -14500075.21948 -11289769.21948  21013865.9164   21013871.1594   21013865.921
        53.0004         48.0004
 -13794369.76448 -10696252.73947  21763229.7244   21763233.3984   21763230.109
        51.0004         46.0004
 -12181258.38448  -9492767.07447  21774948.1074   21774955.9804   21774948.596
        50.0004         45.0004
    448630.82947    368883.31546  24328939.4254   24328946.1374   24328938.385
        42.0004         38.0004
  -6517283.66547  -5007921.92246  23811192.2704   23811200.5174   23811190.835
        45.0004         41.0004
 -29211454.43849 -22702676.46648  20347947.5094   20347953.7644   20347947.194
        54.0004         49.0004
 14  5 18  1 19 30.0000000  0 10G07G08G10G05G09G02G28G26G17G04
  -8364758.46847  -6489234.58046  23212835.8374   23212839.3094   23212834.984
        45.0004         40.0004
  -7853603.10748  -6105423.79947  21099741.8474   21099747.2574   21099742.001
        51.0004         46.0004
 -19174201.24048 -14930263.64647  21800764.0894   21800770.6754   21800765.464
        50.0004         45.0004
  -2817200.76847  -2147984.43946  24937696.4074   24937703.8074   24937695.414
        42.0004         37.0004
 -14428473.29048 -11233975.45948  21027491.1394   21027496.5394   21027491.055
        53.0004         48.0004
 -13830102.55948 -10724096.47947  21756430.2504   21756433.3034   21756430.464
        51.0004         46.0004
 -12231738.78548  -9532102.40247  21765341.6344   21765349.7774   21765342.062
        50.0004         45.0004
    464983.00847    381625.41246  24332048.0584   24332058.8144   24332048.945
        42.0004         38.0004
  -6495026.27747  -4990578.48846  23815426.5294   23815436.5674   23815426.254
        45.0004         41.0004
 -29193571.16649 -22688741.46648  20351350.6084   20351356.7904   20351350.083
        54.0004         49.0004
 14  5 18  1 20  0.0000000  0 10G07G08G10G05G09G02G28G26G17G04
  -8260206.97147  -6407765.88746  23232730.5014   23232735.4194   23232730.210
        45.0004         40.0004
  -7770795.59248  -6040898.44847  21115499.4284   21115505.7734   21115499.400
        51.0004         46.0004
 -19242548.63948 -14983521.34647  21787758.7764   21787764.6534   21787759.409
        50.0004         45.0004
  -2904206.00547  -2215780.43646  24921140.1724   24921146.1914   24921138.744
        42.0004         37.0004
 -14356533.09248 -11177918.10248  21041180.8654   21041186.6534   21041180.986
        53.0004         48.0004
 -13865390.96948 -10751593.93247  21749715.1404   21749718.1714   21749715.011
        51.0004         46.0004
 -12281994.19548  -9571262.41147  21755778.4174   21755786.1964   21755778.870
        50.0004         45.0004
    481313.39147    394350.53246  24335156.8494   24335165.4284   24335156.912
        42.0004         38.0004
  -6472997.88047  -4973413.47746  23819618.0774   23819627.8084   23819618.106
        46.0004         41.0004
 -29175176.76249 -22674408.17948  20354850.9404   20354856.9964   20354850.522
        54.0004         49.0004
 14  5 18  1 20 30.0000000  0 10G07G08G10G05G09G02G28G26G17G04
  -8155580.35647  -6326238.64546  23252640.5934   23252643.9324   23252640.073
        45.0004         40.0004
  -7687593.22948  -5976065.42147  21131331.9724   21131337.6544   21131332.504
        51.0004         46.0004
 -19310758.68948 -15036672.02147  21774779.6614   21774785.8214   21774779.726
        50.0004         45.0004
  -2991383.20147  -2283710.44146  24904550.6634   24904556.9854   24904549.778
        42.0004         37.0004
 -14284256.68748 -11121598.77348  21054934.7774   21054939.7754   21054934.543
        52.0004         48.0004
 -13900233.23448 -10778743.73947  21743084.5114   21743088.7744   21743085.621
        51.0004         46.0004
 -12332020.08648  -9610243.57247  21746259.0704   21746265.3614   21746259.246
        50.0004         45.0004
    497620.97647    407057.86746  24338260.4104   24338267.0884   24338260.373
        42.0004         38.0004
  -6451197.53147  -4956426.17346  23823766.9384   23823776.1594   23823766.928
        46.0004         41.0004
 -29156271.39149 -22659676.74348  20358448.6684   20358454.6004   20358448.151
        54.0004         49.0004
 14  5 18  1 21  0.0000000  0 10G07G08G10G05G09G02G28G26G17G04
  -8050880.98547  -6244654.71846  23272564.2544   23272568.3104   23272563.796
        45.0004         40.0004
  -7603998.87948  -5910926.95647  21147239.3674   21147245.4644   21147240.045
        51.0004         46.0004
 -19378827.91048 -15089712.96547  21761826.0114   21761832.1224   21761826.399
        50.0004         45.0004
  -3078730.34547  -2351772.86546  24887929.4764   24887934.5654   24887928.424
        42.0004         37.0004
 -14211646.54748 -11065019.39948  21068751.7674   21068757.0534   21068751.793
        52.0004         48.0004
 -13934628.63248 -10805545.33847  21736539.3684   21736542.5354   21736539.636
        51.0004         46.0004
 -12381813.23248  -9649043.37947  21736783.6854   21736791.3604   21736783.705
        50.0004         45.0004
    513904.10047    419746.16346  24341360.2904   24341366.7114   24341358.177
        42.0004         38.0004
  -6429625.40447  -4939616.69846  23827872.0114   23827881.7404   23827871.552
        45.0004         41.0004
 -29136856.00648 -22644547.89248  20362143.1664   20362149.3264   20362142.606
        53.0004         49.0004
 14  5 18  1 21 30.0000000  0 10G07G08G10G05G09G02G28G26G17G04
  -7946113.11247  -6163017.41646  23292500.9294   23292505.9694   23292499.947
        45.0004         40.0004
  -7520017.04348  -5845486.54447  21163220.5244   21163226.3214   21163220.944
        50.0004         46.0004
 -19446754.72048 -15142642.93347  21748899.6394   21748905.6424   21748900.567
        50.0004         45.0004
  -3166247.09847  -2419967.47846  24871273.1624   24871281.3944   24871274.503
        42.0004         37.0004
 -14138706.89748 -11008183.26948  21082631.7384   21082637.0794   21082631.661
        52.0004         48.0004
 -13968578.06348 -10831999.43147  21730079.1904   21730082.6474   21730079.626
        51.0004         46.0004
 -12431371.73048  -9687660.33847  21727353.0334   21727359.9684   21727353.136
        50.0004         45.0004
    530159.53847    432412.86846  24344452.3264   24344461.1324   24344452.423
        42.0004         38.0004
  -6408283.13447  -4922986.34346  23831933.2354   23831943.1374   23831932.746
        45.0004         41.0004
 -29116933.10248 -22629023.57348  20365934.5834   20365940.5364   20365934.021
        53.0004         49.0004
 14  5 18  1 22  0.0000000  0 10G07G08G10G05G09G02G28G26G17G04
  -7841278.49547  -6081328.10446  23312450.0864   23312454.1464   23312449.092
        45.0004         40.0004
  -7435650.18248  -5779746.12847  21179275.9064   21179281.5214   21179275.558
        50.0004         46.0004
 -19514535.25348 -15195458.91947  21736001.3954   21736007.8324   21736002.205
        50.0004         45.0004
  -3253930.98247  -2488292.32846  24854589.1054   24854593.5774   24854589.113
        42.0004         37.0004
 -14065439.80148 -10951091.98448  21096574.0744   21096579.4654   21096573.889
        52.0004         48.0004
 -14002080.31148 -10858105.06347  21723703.2774   21723707.3384   21723704.219
        51.0004         46.0004
 -12480692.16348  -9726091.79847  21717967.9474   21717974.4474   21717967.812
        50.0004         45.0004
    546386.02147    445057.01646  24347538.9124   24347547.9354   24347539.251
        43.0004         38.0004
  -6387170.16847  -4906534.66146  23835950.7154   23835960.6824   23835950.125
        45.0004         41.0004
 -29096503.56948 -22613104.47948  20369821.5914   20369827.7854   20369821.418
        53.0004         49.0004
 14  5 18  1 22 30.0000000  0 10G07G08G10G05G09G02G28G26G17G04
  -7736380.35047  -5999589.28846  23332410.4674   23332416.3064   23332410.972
        45.0004         40.0004
  -7350901.77248  -5713708.38747  21195402.9124   21195408.0744   21195402.905
        50.0004         46.0004
 -19582166.90548 -15248158.89947  21723131.2774   21723137.6604   21723132.116
        50.0004         45.0004
  -3341780.16047  -2556745.98846  24837872.5614   24837876.8134   24837871.788
        42.0004         37.0004
 -13991848.60548 -10893748.14948  21110577.9704   21110583.1044   21110577.904
        52.0004         48.0004
 -14035135.54148 -10883862.37947  21717414.1204   21717417.3774   21717414.063
        51.0004         46.0004
 -12529771.22548  -9764335.16247  21708628.9674   21708635.0124   21708628.446
        50.0004         45.0004
    562581.10547    457676.70746  24350620.8934   24350629.7054   24350621.287
        43.0004         38.0004
  -6366287.68847  -4890262.57546  23839924.1204   23839934.1384   23839923.972
        45.0004         40.0004
 -29075569.07648 -22596791.91648  20373805.5494   20373811.8884   20373805.079
        53.0004         49.0004
 14  5 18  1 23  0.0000000  0 10G07G08G10G05G09G02G28G26G17G04
  -7631426.51447  -5917807.08546  23352382.6614   23352387.6934   23352383.231
        45.0004         40.0004
  -7265780.44348  -5647380.06447  21211600.1954   21211606.1504   21211601.036
        50.0004         46.0004
 -19649651.76948 -15300744.49947  21710289.5194   21710295.6784   21710290.207
        50.0004         45.0004
  -3429798.94147  -2625331.81146  24821120.7984   24821126.9854   24821122.380
        42.0004         37.0004
 -13917941.41248 -10836158.08248  21124641.9974   21124647.3214   21124641.691
        52.0004         48.0004
 -14067748.57748 -10909275.13147  21711207.8914   21711211.4024   21711208.117
        51.0004         46.0004
 -12578611.11948  -9802392.17147  21699334.4084   21699340.4384   21699334.377
        50.0004         45.0004
    578737.61947    470266.33446  24353695.5484   24353704.1574   24353696.082
        43.0004         38.0004
  -6345641.20147  -4874174.38946  23843853.5144   23843862.4254   23843853.375
        45.0004         41.0004
 -29054136.45348 -22580091.19748  20377884.2144   20377890.4074   20377883.854
        53.0004         49.0004
 14  5 18  1 23 30.0000000  0 10G07G08G10G05G09G02G28G26G17G04
  -7526408.23347  -5835974.65846  23372368.5624   23372372.7804   23372367.369
        45.0004         40.0004
  -7180277.50448  -5580754.38247  21227871.5024   21227876.9494   21227871.399
        50.0004         46.0004
 -19716975.17548 -15353204.29147  21697477.9514   21697484.8664   21697478.969
        50.0004         45.0004
  -3517973.56347  -2694039.05746  24804341.7374   24804349.6484   24804342.824
        42.0004         37.0004
 -13843709.46248 -10778314.95748  21138767.8774   21138773.3784   21138767.930
        52.0004         48.0004
 -14099907.28648 -10934333.85747  21705088.7164   21705091.6274   21705088.300
        51.0004         46.0004
 -12627196.92548  -9840251.18547  21690089.1934   21690095.8404   21690088.656
        50.0004         45.0004
    594865.34547    482833.53646  24356763.8474   24356773.2334   24356764.307
        43.0004         38.0004
  -6325219.10847  -4858261.05346  23847739.5704   23847749.7674   23847738.951
        45.0004         41.0004
 -29032195.25748 -22562994.18948  20382059.5804   20382065.6024   20382059.003
        53.0004         49.0004
 14  5 18  1 24  0.0000000  0 10G07G08G10G05G09G02G28G26G17G04
  -7421335.85647  -5754100.09346  23392362.1024   23392367.1494   23392361.550
        45.0004         40.0004
  -7094404.18948  -5513840.09847  21244212.9474   21244218.2384   21244212.546
        50.0004         46.0004
 -19784141.93448 -15405542.01547  21684697.7924   21684703.5314   21684697.897
        50.0004         45.0004
  -3606309.99347  -2762872.40346  24787532.9804   24787538.4714   24787532.292
        42.0004         37.0004
 -13769163.75148 -10720227.33548  21152953.5804   21152959.0004   21152953.179
        52.0004         48.0004
 -14131619.41548 -10959044.59547  21699052.9954   21699057.0004   21699053.695
        51.0004         46.0004
 -12675533.75048  -9877916.19547  21680890.3864   21680896.9524   21680891.024
        50.0004         45.0004
    610954.38847    495370.57846  24359826.3474   24359834.9934   24359825.525
        43.0004         38.0004
  -6305029.94947  -4842529.21946  23851581.1284   23851591.5834   23851581.361
        46.0004         41.0004
 -29009755.05548 -22545508.34548  20386330.0644   20386335.8954   20386329.546
        53.0004         49.0004
 14  5 18  1 24 30.0000000  0 10G07G08G10G05G09G02G28G26G17G04
  -7316211.53547  -5672185.03846  23412366.5854   23412370.9704   23412366.404
        45.0004         40.0004
  -7008163.39848  -5446639.46647  21260623.7554   21260628.8124   21260623.873
        50.0004         46.0004
 -19851148.64648 -15457755.02447  21671945.5214   21671952.7334   21671946.357
        50.0004         45.0004
  -3694805.92747  -2831830.05746  24770692.3304   24770697.2144   24770691.398
        42.0004         37.0004
 -13694306.94648 -10661897.30748  21167198.4244   21167203.4224   21167198.373
        52.0004         48.0004
 -14162884.36048 -10983406.87847  21693103.9964   21693107.9224   21693104.250
        51.0004         46.0004
 -12723618.16348  -9915384.51147  21671740.5844   21671746.5754   21671740.077
        50.0004         46.0004
    627003.16947    507876.26646  24362879.7644   24362887.9454   24362879.945
        43.0004         38.0004
  -6285073.68147  -4826978.86946  23855378.9644   23855388.4294   23855379.182
        46.0004         41.0004
 -28986816.94148 -22527634.52048  20390694.6784   20390700.6104   20390694.309
        53.0004         49.0004
 14  5 18  1 25  0.0000000  0 10G07G08G10G05G09G02G28G26G17G04
  -7211038.56947  -5590232.07346  23432380.6244   23432384.2354   23432380.270
        45.0004         40.0004
  -6921558.60248  -5379155.20047  21277104.0914   21277109.3984   21277103.744
        50.0004         45.0004
 -19917992.60848 -15509841.21647  21659226.4324   21659231.8594   21659226.421
        50.0004         45.0004
  -3783460.11546  -2900911.01246  24753820.7904   24753827.3924   24753820.888
        41.0004         37.0004
 -13619142.07048 -10603327.21948  21181501.4064   21181506.6634   21181501.342
        52.0004         48.0004
 -14193701.82348 -11007420.47247  21687239.1364   21687242.4744   21687240.067
        51.0004         46.0004
 -12771447.60048  -9952654.15447  21662638.5774   21662644.5514   21662638.858
        50.0004         45.0004
    643009.40547    520348.77946  24365924.7404   24365933.0814   24365925.146
        43.0004         38.0004
  -6265350.34147  -4811610.02346  23859132.5394   23859141.6794   23859132.348
        46.0004         41.0004
 -28963382.74948 -22509374.14348  20395154.3274   20395160.0654   20395153.818
        53.0004         49.0004
 14  5 18  1 25 30.0000000  0 10G07G08G10G05G09G02G28G26G17G04
  -7105817.76447  -5508241.83046  23452403.0454   23452408.2204   23452402.736
        44.0004         40.0004
  -6834591.42548  -5311388.54747  21293652.7984   21293659.0604   21293653.449
        50.0004         45.0004
 -19984669.04148 -15561796.87047  21646538.2064   21646544.0424   21646538.457
        50.0004         45.0004
  -3872269.22146  -2970112.69446  24736919.8534   24736927.4374   24736921.028
        41.0004         37.0004
 -13543670.45148 -10544518.11348  21195863.4094   21195868.5034   21195863.391
        52.0004         48.0004
 -14224069.95748 -11031083.94047  21681459.9544   21681463.9704   21681460.347
        51.0004         46.0004
 -12819016.51648  -9989720.79347  21653586.2664   21653593.6024   21653586.634
        50.0004         45.0004
    658972.90647    532788.01846  24368963.7934   24368971.6884   24368962.800
        43.0004         38.0004
  -6245859.33247  -4796422.20546  23862840.7764   23862850.2574   23862840.612
        46.0004         41.0004
 -28939452.40048 -22490727.15148  20399708.3344   20399713.7514   20399707.739
        53.0004         49.0004
 14  5 18  1 26  0.0000000  0 10G07G08G10G05G09G02G28G26G17G04
  -7000552.92047  -5426217.27546  23472434.5764   23472439.8104   23472434.286
        44.0004         40.0004
  -6747266.22548  -5243342.92347  21310270.5184   21310276.4994   21310270.754
        50.0004         45.0004
 -20051176.01348 -15613620.47047  21633882.2754   21633889.0594   21633882.685
        50.0004         46.0004
  -3961232.46847  -3039434.48046  24719992.0734   24719997.5894   24719990.967
        42.0004         37.0004
 -13467896.29548 -10485473.26448  21210282.4624   21210287.6754   21210282.464
        52.0004         48.0004
 -14253989.86148 -11054398.13647  21675766.7674   21675770.7424   21675767.092
        51.0004         46.0004
 -12866323.47048 -10026583.29947  21644584.1464   21644590.8524   21644584.397
        50.0004         45.0004
    674890.50247    545191.46246  24371993.5624   24372000.1284   24371992.797
        43.0004         38.0004
  -6226601.97247  -4781416.46246  23866505.6254   23866515.6504   23866505.315
        46.0004         41.0004
 -28915028.51348 -22471695.58148  20404355.7954   20404361.5334   20404355.384
        53.0004         49.0004
 14  5 18  1 26 30.0000000  0 10G07G08G10G05G09G02G28G26G17G04
  -6895247.89547  -5344161.40746  23492473.1554   23492477.2074   23492473.152
        44.0004         40.0004
  -6659587.38348  -5175021.72947  21326955.4904   21326960.3574   21326955.754
        50.0004         45.0004
 -20117511.73148 -15665310.62647  21621258.8544   21621265.3794   21621259.368
        50.0004         46.0004
  -4050348.91947  -3108875.66246  24703033.8964   24703040.3084   24703032.256
        42.0004         37.0004
 -13391823.60648 -10426195.79247  21224758.7624   21224763.3584   21224758.274
        52.0004         47.0004
 -14283462.06348 -11077363.47447  21670158.2114   21670161.8294   21670158.586
        51.0004         46.0004
 -12913366.49348 -10063240.14447  21635632.5234   21635639.2364   21635631.922
        50.0004         45.0004
    690759.11647    557556.74346  24375011.4324   24375019.2854   24375011.460
        43.0004         38.0004
  -6207579.13347  -4766593.45346  23870126.3504   23870135.2914   23870125.786
        45.0004         41.0004
 -28890113.88548 -22452281.61148  20409096.8304   20409102.7854   20409096.299
        53.0004         49.0004
 14  5 18  1 27  0.0000000  0 10G07G08G10G05G09G02G28G26G17G04
  -6789903.81847  -5262075.12546  23512521.2244   23512524.4034   23512519.377
        44.0004         40.0004
  -6571556.76248  -5106426.42647  21343706.7584   21343712.5004   21343707.415
        50.0004         45.0004
 -20183671.86848 -15716863.96147  21608668.2554   21608674.9974   21608669.496
        50.0004         46.0004
  -4139615.62947  -3178433.91546  24686045.5464   24686053.2124   24686045.453
        42.0004         37.0004
 -13315453.99148 -10366686.94747  21239291.2444   21239296.1514   21239291.351
        52.0004         47.0004
 -14312485.33048 -11099978.99747  21664636.2364   21664638.9384   21664636.074
        51.0004         46.0004
 -12960140.87048 -10099687.66347  21626730.9134   21626737.8754   21626731.380
        50.0004         46.0004
    706578.40347    569883.58446  24378021.9564   24378029.0394   24378022.131
        43.0004         38.0004
  -6188790.28547  -4751952.77646  23873700.7004   23873709.0994   23873700.963
        45.0004         41.0004
 -28864708.67448 -22432485.37548  20413931.1954   20413937.2624   20413931.050
        53.0004         49.0004
 14  5 18  1 27 30.0000000  0 10G07G08G10G05G09G02G28G26G17G04
  -6684525.39847  -5179962.06346  23532572.3384   23532577.3014   23532571.951
        44.0004         40.0004
  -6483179.42048  -5037560.94147  21360524.6874   21360529.8164   21360524.504
        50.0004         45.0004
 -20249654.91448 -15768279.30747  21596113.5514   21596118.9084   21596113.579
        50.0004         46.0004
  -4229032.23247  -3248108.97146  24669030.2514   24669037.6524   24669029.853
        42.0004         37.0004
 -13238792.35848 -10306950.55747  21253879.7774   21253884.6624   21253879.297
        52.0004         47.0004
 -14341061.56848 -11122246.18047  21659197.4974   21659201.3524   21659198.028
        51.0004         46.0004
 -13006645.63848 -10135925.08547  21617881.7424   21617888.3564   21617881.726
        50.0004         45.0004
    722344.23247    582168.78546  24381023.2724   24381030.5434   24381022.127
        43.0004         38.0004
  -6170237.40247  -4737495.96546  23877232.6024   23877240.6634   23877231.243
        45.0004         40.0004
 -28838816.54048 -22412309.72048  20418858.6304   20418864.7794   20418858.100
        53.0004         49.0004
 14  5 18  1 28  0.0000000  0 10G07G08G10G05G09G02G28G26G17G04
  -6579112.87147  -5097822.42746  23552632.2904   23552635.9884   23552632.040
        44.0004         40.0004
  -6394456.23648  -4968425.97347  21377407.6634   21377413.9864   21377408.679
        50.0004         45.0004
 -20315455.81648 -15819552.72347  21583591.5894   21583596.9574   21583591.933
        50.0004         46.0004
  -4318595.00747  -3317897.91346  24651987.5134   24651993.0104   24651985.829
        42.0004         37.0004
 -13161839.35648 -10246987.12347  21268523.3614   21268528.1624   21268523.077
        52.0004         47.0004
 -14369188.27248 -11144163.08747  21653845.7994   21653849.3454   21653845.654
        51.0004         46.0004
 -13052875.37148 -10171948.19447  21609083.8054   21609091.1114   21609084.465
        50.0004         45.0004
    738057.18147    594412.77146  24384012.9644   24384020.1164   24384012.347
        43.0004         38.0004
  -6151918.44047  -4723221.41746  23880717.2774   23880727.2974   23880717.003
        45.0004         40.0004
 -28812436.60248 -22391753.95848  20423878.3454   20423884.6064   20423878.143
        53.0004         49.0004
 14  5 18  1 28 30.0000000  0 10G07G08G10G05G09G02G28G26G17G04
  -6473670.76847  -5015659.75146  23572697.4114   23572700.9524   23572696.849
        44.0004         39.0004
  -6305392.87848  -4899025.93147  21394355.8694   21394362.1734   21394356.335
        50.0004         45.0004
 -20381073.46448 -15870683.34347  21571104.7584   21571111.3374   21571104.947
        50.0004         46.0004
  -4408304.26847  -3387801.01746  24634916.2324   24634923.0314   24634915.635
        42.0004         38.0004
 -13084600.00448 -10186800.56147  21283221.3564   21283226.6224   21283221.030
        52.0004         47.0004
 -14396867.03748 -11165730.94447  21648578.7264   21648581.9314   21648578.655
        51.0004         46.0004
 -13098829.13048 -10207756.26147  21600338.9674   21600345.9034   21600339.600
        50.0004         46.0004
    753713.21147    606612.40046  24386990.4154   24386998.5324   24386990.582
        43.0004         38.0004
  -6133835.53947  -4709130.83146  23884158.7794   23884168.0654   23884158.442
        45.0004         40.0004
 -28785572.61348 -22370821.02148  20428990.3634   20428996.9434   20428989.911
        53.0004         49.0004
 14  5 18  1 29  0.0000000  0 10G07G08G10G05G09G02G28G26G17G04
  -6368201.76647  -4933476.11646  23592767.5454   23592771.3864   23592766.700
        44.0004         39.0004
  -6215992.27648  -4829363.10147  21411368.5784   21411374.6234   21411368.787
        50.0004         45.0004
 -20446504.77448 -15921668.76047  21558652.8404   21558659.6624   21558653.790
        50.0004         46.0004
  -4498158.04347  -3457816.73846  24617816.9544   24617822.0664   24617817.325
        42.0004         38.0004
 -13007077.19148 -10126393.11647  21297973.3174   21297978.4374   21297972.964
        52.0004         47.0004
 -14424097.84148 -11186949.74347  21643396.7004   21643400.3634   21643396.958
        51.0004         46.0004
 -13144503.76948 -10243346.82847  21591647.1624   21591654.4074   21591647.869
        50.0004         46.0004
    769310.49347    618766.25446  24389959.1504   24389965.9264   24389959.971
        43.0004         38.0004
  -6115988.93647  -4695224.38346  23887555.3544   23887563.4754   23887553.921
        45.0004         40.0004
 -28758226.47048 -22349512.36648  20434194.3344   20434200.6004   20434193.999
        53.0004         49.0004
 14  5 18  1 29 30.0000000  0 10G07G08G10G05G09G02G28G26G17G04
  -6262707.98447  -4851273.18746  23612842.2474   23612845.5364   23612841.729
        44.0004         40.0004
  -6126257.27348  -4759439.69447  21428444.2704   21428449.6144   21428444.730
        49.0004         45.0004
 -20511745.96348 -15972506.02747  21546238.5254   21546244.7364   21546238.935
        50.0004         46.0004
  -4588153.23047  -3527942.65246  24600692.4074   24600698.0614   24600691.776
        42.0004         38.0004
 -12929273.34448 -10065766.68147  21312779.1384   21312783.8544   21312779.030
        52.0004         47.0004
 -14450880.06448 -11207818.99647  21638300.4624   21638303.4094   21638300.551
        51.0004         46.0004
 -13189895.45648 -10278716.91847  21583010.7614   21583017.3604   21583010.526
        50.0004         46.0004
    784847.64847    630873.24346  24392915.4814   24392923.5374   24392915.322
        43.0004         38.0004
  -6098378.23647  -4681501.75046  23890907.0904   23890913.9644   23890905.778
        45.0004         40.0004
 -28730399.18148 -22327828.79448  20439489.7544   20439495.8284   20439489.468
        53.0004         49.0004
 14  5 18  1 30  0.0000000  0 10G07G08G10G05G09G02G28G26G17G04
  -6157193.31847  -4769053.97946  23632920.8424   23632926.7084   23632920.523
        44.0004         39.0004
  -6036192.44148  -4689259.27747  21445583.1224   21445588.7694   21445582.951
        49.0004         45.0004
 -20576795.34248 -16023193.84047  21533860.3704   21533866.2204   21533860.496
        50.0004         46.0004
  -4678290.11347  -3598178.98546  24583539.8764   24583544.2724   24583538.785
        42.0004         38.0004
 -12851192.82548 -10004924.66647  21327636.9154   21327641.9114   21327637.024
        52.0004         47.0004
 -14477215.13948 -11228339.82747  21633288.4324   21633292.7054   21633288.702
        51.0004         46.0004
 -13235002.72148 -10313865.37447  21574426.0404   21574433.1094   21574426.491
        50.0004         46.0004
    800321.53747    642930.94446  24395861.1044   24395868.7344   24395860.324
        43.0004         38.0004
  -6081005.22547  -4667964.31446  23894211.9804   23894220.1924   23894212.334
        45.0004         40.0004
 -28702093.85048 -22305772.72748  20444876.0494   20444882.6424   20444875.528
        53.0004         49.0004
 14  5 18  1 30 30.0000000  0 11G07G08G10G05G09G02G28G26G17G04G30
  -6051656.81547  -4686817.74746  23653003.6304   23653007.4144   23653003.460
        44.0004         39.0004
  -5945797.64848  -4618821.75947  21462784.6444   21462789.7184   21462785.579
        49.0004         45.0004
 -20641646.40748 -16073727.11247  21521519.1154   21521525.1864   21521519.799
        51.0004         46.0004
  -4768562.91847  -3668521.23446  24566361.3464   24566366.9234   24566360.349
        42.0004         38.0004
 -12772835.27648  -9943866.78647  21342547.8784   21342552.9824   21342547.990
        52.0004         47.0004
 -14503099.21648 -11248509.22547  21628362.5384   21628366.5484   21628363.417
        51.0004         46.0004
 -13279819.08148 -10348787.16347  21565898.5414   21565905.2274   21565898.477
        50.0004         46.0004
    815733.53447    654940.42746  24398794.2414   24398800.8294   24398793.149
        43.0004         38.0004
  -6063866.53947  -4654609.46246  23897471.4904   23897483.5244   23897472.934
        44.0004         40.0004
 -28673308.72148 -22283342.78948  20450353.8204   20450360.2974   20450353.450
        53.0004         49.0004
   -668892.56248   -524930.54247  21602533.5834   21602541.4324   21602533.258
        52.0004         47.0004
 14  5 18  1 31  0.0000000  0 11G07G08G10G05G09G02G28G26G17G04G30
  -5946106.65347  -4604570.87246  23673089.3244   23673093.7574   23673089.352
        44.0004         40.0004
  -5855081.88448  -4548134.13047  21480047.2114   21480052.5154   21480047.788
        49.0004         45.0004
 -20706301.79448 -16124107.91647  21509215.5564   21509221.7324   21509216.104
        51.0004         46.0004
  -4858975.33047  -3738972.29446  24549156.4304   24549161.6634   24549155.738
        42.0004         38.0004
 -12694209.05848  -9882599.55247  21357510.1234   21357514.9474   21357509.794
        52.0004         47.0004
 -14528538.13948 -11268331.75447  21623522.2774   21623525.8944   21623522.454
        51.0004         46.0004
 -13324347.04748 -10383484.22547  21557424.4074   21557431.3344   21557424.705
        50.0004         46.0004
    831076.26747    666895.91746  24401713.2244   24401719.0014   24401712.610
        43.0004         38.0004
  -6046967.91847  -4641441.68446  23900688.4014   23900697.8724   23900688.551
        44.0004         40.0004
 -28644051.35148 -22260544.87048  20455920.9604   20455927.4714   20455920.503
        53.0004         49.0004
   -589583.81948   -463131.48447  21617625.0954   21617632.2914   21617625.478
        51.0004         47.0004
 14  5 18  1 31 30.0000000  0 11G07G08G10G05G09G02G28G26G17G04G30
  -5840541.46447  -4522312.30546  23693178.6874   23693182.2544   23693177.769
        44.0004         39.0004
  -5764044.04348  -4477195.52447  21497370.9114   21497376.9444   21497371.151
        49.0004         45.0004
 -20770754.31148 -16174330.63747  21496951.4484   21496957.1014   21496951.265
        51.0004         46.0004
  -4949520.89947  -3809527.10246  24531925.6654   24531930.5104   24531924.519
        42.0004         38.0004
 -12615313.37248  -9821122.34747  21372523.1804   21372527.9284   21372523.120
        52.0004         47.0004
 -14553527.93048 -11287804.31447  21618766.2224   21618769.9644   21618767.254
        51.0004         46.0004
 -13368579.23548 -10417950.81147  21549007.7224   21549014.1904   21549007.505
        50.0004         46.0004
    846351.88947    678799.13746  24404618.6694   24404627.1584   24404618.976
        42.0004         38.0004
  -6030305.59647  -4628458.03946  23903860.2884   23903868.7354   23903859.375
        44.0004         40.0004
 -28614319.35748 -22237377.12448  20461579.0354   20461585.7034   20461578.830
        53.0004         49.0004
   -510001.00748   -401118.86847  21632769.7944   21632776.5674   21632769.564
        51.0004         47.0004
 14  5 18  1 32  0.0000000  0 11G07G08G10G05G09G02G28G26G17G04G30
  -5734965.29447  -4440045.16146  23713268.7404   23713272.3504   23713267.724
        44.0004         39.0004
  -5672688.97148  -4406009.73147  21514755.4034   21514761.1654   21514756.047
        49.0004         44.0004
 -20835002.19348 -16224393.90447  21484725.0854   21484730.2584   21484725.275
        51.0004         46.0004
  -5040200.00047  -3880185.95746  24514668.6904   24514675.4964   24514668.518
        42.0004         38.0004
 -12536152.54248  -9759438.53047  21387587.2884   21387592.1734   21387587.066
        52.0004         47.0004
 -14578069.77848 -11306927.82647  21614096.7544   21614100.5874   21614096.598
        51.0004         47.0004
 -13412514.16448 -10452185.77247  21540646.9044   21540653.2534   21540647.079
        50.0004         46.0004
    861557.20547    690647.55546  24407512.5464   24407520.2674   24407512.031
        42.0004         38.0004
  -6013880.98047  -4615659.62046  23906984.0714   23906995.5374   23906985.023
        44.0004         39.0004
 -28584115.94848 -22213842.04048  20467326.3904   20467332.9294   20467325.967
        53.0004         49.0004
   -430148.26148   -338895.92247  21647965.3824   21647972.0494   21647964.789
        51.0004         46.0004
 14  5 18  1 32 30.0000000  0 11G07G08G10G05G09G02G28G26G17G04G30
  -5629381.55747  -4357772.12346  23733360.5454   23733364.8184   23733359.319
        44.0004         39.0004
  -5581021.32748  -4334580.36547  21532199.1344   21532204.8094   21532199.444
        49.0004         45.0004
 -20899043.56448 -16274296.25447  21472538.4424   21472544.4404   21472538.498
        51.0004         46.0004
  -5131011.33347  -3950947.87246  24497388.3744   24497394.1394   24497387.527
        42.0004         37.0004
 -12456730.61648  -9697551.26847  21402700.7214   21402705.6494   21402700.439
        52.0004         47.0004
 -14602165.07648 -11325703.36947  21609511.0404   21609514.5484   21609511.998
        51.0004         46.0004
 -13456150.16648 -10486187.79147  21532343.8394   21532349.9354   21532343.551
        50.0004         46.0004
    876689.04347    702438.70446  24410392.2734   24410399.8644   24410390.930
        42.0004         38.0004
  -5997695.50047  -4603047.53646  23910064.5034   23910074.9554   23910064.885
        44.0004         39.0004
 -28553444.10648 -22189941.93948  20473163.0614   20473169.6674   20473162.900
        53.0004         49.0004
   -350029.52548   -276465.70547  21663211.0144   21663218.5324   21663211.205
        51.0004         46.0004
 14  5 18  1 33  0.0000000  0 11G07G08G10G05G09G02G28G26G17G04G30
  -5523790.50247  -4275493.39246  23753454.1534   23753456.7964   23753452.754
        43.0004         39.0004
  -5489041.87448  -4262908.03547  21549702.1414   21549707.7944   21549702.344
        49.0004         44.0004
 -20962873.13348 -16324033.56147  21460391.6494   21460398.3854   21460392.224
        51.0004         46.0004
  -5221950.75447  -4021809.58346  24480082.7584   24480089.0384   24480082.199
        42.0004         37.0004
 -12377048.25448  -9635461.05947  21417863.5124   21417868.5514   21417863.345
        52.0004         47.0004
 -14625811.28248 -11344128.98247  21605011.2024   21605015.2644   21605012.170
        51.0004         46.0004
 -13499481.83748 -10519952.67947  21524097.2344   21524104.4504   21524097.468
        51.0004         46.0004
    891748.12047    714173.17446  24413257.8104   24413264.8944   24413256.758
        42.0004         37.0004
  -5981746.61847  -4590619.81646  23913100.0084   23913109.1894   23913100.196
        44.0004         40.0004
 -28522303.44248 -22165676.52548  20479089.0384   20479095.1094   20479088.856
        53.0004         49.0004
   -269645.14348   -213828.49247  21678507.6184   21678514.8824   21678507.379
        51.0004         46.0004
 14  5 18  1 33 30.0000000  0 11G07G08G10G05G09G02G28G26G17G04G30
  -5418198.52447  -4193213.94746  23773546.5274   23773551.7264   23773546.182
        43.0004         38.0004
  -5396757.72948  -4190998.27647  21567263.4634   21567268.5364   21567263.581
        49.0004         44.0004
 -21026491.44848 -16373606.25647  21448285.2914   21448292.3064   21448286.265
        51.0004         46.0004
  -5313019.84847  -4092772.34746  24462752.7504   24462759.0944   24462752.685
        42.0004         38.0004
 -12297112.28848  -9573173.24347  21433074.5144   21433079.8584   21433074.551
        52.0004         47.0004
 -14649012.53148 -11362207.86247  21600596.0934   21600599.8884   21600596.793
        51.0004         46.0004
 -13542509.91548 -10553481.00047  21515909.0874   21515915.9854   21515909.196
        51.0004         46.0004
    906728.43147    725846.25946  24416108.0774   24416116.2984   24416107.983
        42.0004         38.0004
  -5966038.62247  -4578379.79346  23916089.0384   23916099.0784   23916089.074
        44.0004         40.0004
 -28490699.48448 -22141050.11548  20485103.2774   20485109.7114   20485102.948
        53.0004         49.0004
   -189001.74248   -150989.44647  21693853.4574   21693860.7554   21693853.686
        51.0004         46.0004
 14  5 18  1 34  0.0000000  0 11G07G08G10G05G09G02G28G26G17G04G30
  -5312605.10447  -4110933.36646  23793641.0164   23793644.5714   23793640.424
        43.0004         38.0004
  -5304169.05048  -4118851.21747  21584882.2514   21584887.2964   21584882.583
        49.0004         44.0004
 -21089892.15748 -16423009.39847  21436220.8324   21436226.9414   21436221.247
        51.0004         46.0004
  -5404213.64847  -4163832.27946  24445399.7054   24445404.8624   24445399.311
        42.0004         38.0004
 -12216922.46548  -9510687.61547  21448334.0784   21448339.3414   21448334.293
        52.0004         47.0004
 -14671765.65048 -11379937.55147  21596266.6204   21596270.5334   21596266.675
        51.0004         46.0004
 -13585228.07848 -10586767.83147  21507780.2894   21507787.1754   21507780.578
        51.0004         46.0004
    921631.71147    737459.32446  24418944.4664   24418951.4114   24418944.080
        42.0004         38.0004
  -5950568.25747  -4566324.95346  23919033.2634   23919042.2164   23919033.165
        44.0004         40.0004
 -28458631.04648 -22116061.76748  20491205.4124   20491212.0784   20491205.282
        53.0004         49.0004
   -108098.82448    -87948.19747  21709249.2914   21709255.3174   21709248.921
        51.0004         46.0004
 14  5 18  1 34 30.0000000  0 11G07G08G10G05G09G02G28G26G17G04G30
  -5207013.45747  -4028654.18346  23813734.3344   23813739.5654   23813733.833
        43.0004         38.0004
  -5211279.88948  -4046470.01947  21602558.3374   21602564.5814   21602558.333
        49.0004         44.0004
 -21153073.06448 -16472241.25847  21424197.4874   21424204.0924   21424198.612
        51.0004         46.0004
  -5495530.71947  -4234988.28246  24428022.4714   24428027.7864   24428022.384
        43.0004         38.0004
 -12136482.46448  -9448007.04847  21463640.9974   21463646.1974   21463641.617
        52.0004         47.0004
 -14694071.28348 -11397318.56847  21592021.9364   21592025.8214   21592023.089
        51.0004         46.0004
 -13627633.95148 -10619811.31447  21499711.2484   21499717.5794   21499710.994
        51.0004         46.0004
    936455.33447    749010.31746  24421765.1064   24421771.9284   24421764.376
        42.0004         38.0004
  -5935336.09647  -4554455.71846  23921932.0814   23921940.9684   23921931.435
        44.0004         40.0004
 -28426100.48748 -22090713.33048  20497396.0294   20497402.0044   20497395.586
        53.0004         48.0004
    -26939.79948    -24707.36247  21724692.9994   21724699.8954   21724692.551
        51.0004         46.0004
 14  5 18  1 35  0.0000000  0 11G07G08G10G05G09G02G28G26G17G04G30
  -5101427.84647  -3946379.69246  23833826.5744   23833831.0694   23833826.079
        43.0004         38.0004
  -5118095.56248  -3973858.82947  21620291.0174   21620297.1494   21620291.171
        49.0004         44.0004
 -21216033.19348 -16521301.08247  21412217.3214   21412222.2064   21412217.392
        51.0004         46.0004
  -5586971.22747  -4306240.46946  24410621.7484   24410626.2544   24410621.731
        43.0004         39.0004
 -12055797.48948  -9385135.58447  21478994.9504   21479000.3314   21478995.215
        52.0004         47.0004
 -14715931.96748 -11414352.86147  21587861.8554   21587865.7794   21587861.602
        51.0004         46.0004
 -13669726.92448 -10652610.98247  21491700.8594   21491707.9624   21491701.131
        51.0004         46.0004
    951195.26147    760496.09546  24424571.1204   24424576.8734   24424570.459
        43.0004         38.0004
  -5920344.51047  -4542773.94146  23924784.5544   23924794.3024   23924784.759
        44.0004         40.0004
 -28393112.03848 -22065008.08848  20503673.7604   20503679.9194   20503673.176
        53.0004         48.0004
     54470.38348     38729.17147  21740184.6224   21740191.4064   21740184.867
        51.0004         46.0004
 14  5 18  1 35 30.0000000  0 11G07G08G10G05G09G02G28G26G17G04G30
  -4995850.16547  -3864111.38046  23853917.7064   23853922.7464   23853917.068
        43.0004         38.0004
  -5024618.46448  -3901019.49547  21638078.9734   21638084.7804   21638079.735
        49.0004         44.0004
 -21278768.67448 -16570185.85247  21400278.7074   21400284.5604   21400279.524
        51.0004         46.0004
  -5678532.35847  -4377586.63946  24393197.0054   24393202.8274   24393197.549
        43.0004         39.0004
 -11974869.58748  -9322074.82947  21494395.0904   21494400.4004   21494395.403
        52.0004         47.0004
 -14737346.95648 -11431039.85447  21583786.8084   21583790.7064   21583787.736
        51.0004         46.0004
 -13711503.06948 -10685163.76847  21483750.3934   21483757.8034   21483750.954
        51.0004         46.0004
    965850.49847    771915.86246  24427359.7474   24427365.2044   24427357.789
        43.0004         38.0004
  -5905592.63247  -4531278.94846  23927591.7014   23927601.4804   23927591.739
        44.0004         40.0004
 -28359666.76848 -22038946.88448  20510038.3074   20510044.6364   20510037.484
        53.0004         49.0004
    136129.83948    102359.94247  21755724.0694   21755731.0664   21755724.023
        51.0004         46.0004
 14  5 18  1 36  0.0000000  0 11G07G08G10G05G09G02G28G26G17G04G30
  -4890281.44347  -3781850.06046  23874006.7764   23874010.7114   23874006.073
        43.0004         38.0004
  -4930850.63648  -3827953.61647  21655922.5524   21655928.2054   21655922.780
        49.0004         44.0004
 -21341274.83648 -16618891.93147  21388384.8614   21388390.1134   21388384.490
        51.0004         46.0004
  -5770210.54447  -4449024.03946  24375752.9874   24375757.6484   24375751.726
        44.0004         39.0004
 -11893700.37348  -9258826.04347  21509841.7654   21509846.6204   21509841.227
        52.0004         47.0004
 -14758315.06148 -11447378.64647  21579796.7474   21579800.1014   21579797.089
        51.0004         46.0004
 -13752957.92148 -10717466.19947  21475862.8914   21475868.8554   21475862.696
        51.0004         46.0004
    980420.62647    783269.34146  24430130.6054   24430138.1474   24430130.553
        43.0004         38.0004
  -5891079.41147  -4519969.93346  23930352.8724   23930361.9504   23930352.906
        44.0004         40.0004
 -28325765.27748 -22012530.18348  20516488.9314   20516495.8324   20516488.924
        53.0004         49.0004
    218037.16248    166183.87247  21771310.4154   21771317.6424   21771310.154
        51.0004         46.0004
 14  5 18  1 36 30.0000000  0 11G07G08G10G05G09G02G28G26G17G04G30
  -4784725.73347  -3699598.89146  23894092.2944   23894098.6274   23894092.174
        43.0004         38.0004
  -4836797.10248  -3754665.12247  21673820.3594   21673826.7354   21673820.761
        49.0004         44.0004
 -21403550.24448 -16667418.19547  21376533.6084   21376539.2164   21376534.666
        51.0004         46.0004
  -5862005.57247  -4520552.49446  24358284.5844   24358289.2144   24358283.866
        44.0004         39.0004
 -11812294.63948  -9195392.95747  21525332.0074   21525337.0144   21525332.166
        51.0004         47.0004
 -14778838.08748 -11463370.61447  21575891.0374   21575895.0014   21575891.747
        51.0004         46.0004
 -13794090.07448 -10749517.18047  21468034.5344   21468042.0364   21468035.238
        51.0004         46.0004
    994902.26647    794553.85146  24432886.4164   24432893.4084   24432886.163
        43.0004         38.0004
  -5876806.12047  -4508847.86746  23933069.2624   23933078.6734   23933069.291
        44.0004         39.0004
 -28291411.19048 -21985760.81448  20523026.6144   20523032.6144   20523026.217
        53.0004         48.0004
    300188.03848    230197.57647  21786944.3824   21786950.2074   21786943.291
        51.0004         46.0004
 14  5 18  1 37  0.0000000  0 11G07G08G10G05G09G02G28G26G17G04G30
  -4679186.20047  -3617360.31846  23914175.8464   23914181.8254   23914175.605
        43.0004         38.0004
  -4742461.76348  -3681157.04247  21691771.2934   21691775.6584   21691772.099
        49.0004         44.0004
 -21465592.64148 -16715762.89747  21364727.1844   21364732.9424   21364727.773
        51.0004         46.0004
  -5953915.54747  -4592170.50746  24340794.3524   24340799.1424   24340793.651
        44.0004         39.0004
 -11730655.90848  -9131778.33047  21540867.4704   21540872.1144   21540867.620
        51.0004         47.0004
 -14798917.02948 -11479016.56147  21572070.8764   21572073.8884   21572071.270
        51.0004         46.0004
 -13834897.27448 -10781314.94247  21460269.5944   21460276.2504   21460270.002
        51.0004         46.0004
   1009292.81747    805767.39546  24435625.9934   24435632.5224   24435624.956
        43.0004         38.0004
  -5862773.59047  -4497913.41546  23935740.1644   23935748.6374   23935739.044
        44.0004         39.0004
 -28256607.02948 -21958640.74548  20529649.5844   20529656.3634   20529649.290
        53.0004         49.0004
    382579.02448    294398.38447  21802621.8184   21802629.0464   21802621.658
        51.0004         46.0004
 14  5 18  1 37 30.0000000  0 11G07G08G10G05G09G02G28G26G17G04G30
  -4573664.48447  -3535135.63746  23934255.5844   23934260.6674   23934255.349
        43.0004         38.0004
  -4647846.79548  -3607431.05647  21709775.6874   21709781.3284   21709776.322
        49.0004         44.0004
 -21527397.70948 -16763922.65747  21352965.7284   21352972.1634   21352966.940
        51.0004         46.0004
  -6045937.59147  -4663875.86746  24323282.9904   24323287.1764   24323282.245
        43.0004         39.0004
 -11648786.23948  -9067983.76147  21556446.7994   21556452.5204   21556446.942
        51.0004         47.0004
 -14818550.71348 -11494315.54647  21568333.8244   21568338.3394   21568334.726
        51.0004         47.0004
 -13875375.61448 -10812856.44847  21452567.0454   21452573.9624   21452567.270
        51.0004         46.0004
   1023591.65847    816909.45746  24438345.5824   24438351.9494   24438345.042
        43.0004         38.0004
  -5848980.54047  -4487165.57246  23938364.6754   23938374.4764   23938364.570
        44.0004         39.0004
 -28221353.77048 -21931170.72648  20536358.0894   20536364.4464   20536357.722
        53.0004         48.0004
    465208.35648    358784.91547  21818345.8624   21818352.3114   21818345.665
        51.0004         46.0004
 14  5 18  1 38  0.0000000  0 11G07G08G10G05G09G02G28G26G17G04G30
  -4468162.86647  -3452926.61046  23954332.7234   23954337.6114   23954332.151
        43.0004         38.0004
  -4552955.44948  -3533489.71747  21727832.9524   21727838.6494   21727833.949
        49.0004         44.0004
 -21588962.56048 -16811895.24247  21341251.3364   21341256.6394   21341251.625
        51.0004         46.0004
  -6138070.25047  -4735667.42246  24305750.8434   24305755.5724   24305749.723
        43.0004         39.0004
 -11566688.59248  -9004011.55647  21572069.3764   21572074.1924   21572069.571
        51.0004         47.0004
 -14837739.49148 -11509267.86047  21564683.3634   21564686.3424   21564683.128
        51.0004         47.0004
 -13915522.01848 -10844139.30447  21444928.0774   21444933.9124   21444927.406
        51.0004         46.0004
   1037797.01447    827978.68946  24441049.7504   24441057.5334   24441048.600
        42.0004         38.0004
  -5835427.43847  -4476604.69346  23940943.7784   23940952.7974   23940943.382
        44.0004         39.0004
 -28185653.57848 -21903352.45748  20543152.2164   20543158.4514   20543151.507
        53.0004         48.0004
    548073.32648    423355.06147  21834113.9524   21834121.5134   21834114.165
        51.0004         46.0004
 14  5 18  1 38 30.0000000  0 11G07G08G10G05G09G02G28G26G17G04G30
  -4362684.98247  -3370736.09546  23974404.8394   23974408.8184   23974404.268
        43.0004         38.0004
  -4457792.39848  -3459336.66747  21745942.4454   21745947.8334   21745942.514
        49.0004         44.0004
 -21650285.28748 -16859679.15747  21329581.2554   21329586.8684   21329581.933
        51.0004         46.0004
  -6230312.17847  -4807544.11646  24288197.7874   24288203.1214   24288196.939
        43.0004         39.0004
 -11484367.17348  -8939864.98347  21587734.4164   21587739.3814   21587734.571
        51.0004         47.0004
 -14856485.21748 -11523874.92747  21561115.7384   21561119.4744   21561115.996
        51.0004         47.0004
 -13955335.01948 -10875162.37247  21437350.7354   21437357.8064   21437351.443
        51.0004         46.0004
   1051905.75147    838972.62146  24443734.6244   24443740.4354   24443734.443
        42.0004         38.0004
  -5822115.37347  -4466231.62546  23943476.9584   23943485.9414   23943476.223
        44.0004         40.0004
 -28149509.67748 -21875188.43848  20550029.7934   20550036.1684   20550029.313
        53.0004         48.0004
    631169.83248    488105.63447  21849927.1204   21849934.4924   21849926.514
        50.0004         46.0004
 14  5 18  1 39  0.0000000  0 11G07G08G10G05G09G02G28G26G17G04G30
  -4257231.11447  -3288564.26846  23994471.3664   23994475.8064   23994472.091
        43.0004         38.0004
  -4362358.78748  -3384972.77147  21764102.6574   21764107.3114   21764102.791
        49.0004         44.0004
 -21711360.42048 -16907270.14447  21317959.1694   21317965.2934   21317959.809
        51.0004         46.0004
  -6322658.95947  -4879502.51646  24270624.0404   24270629.8514   24270623.832
        44.0004         39.0004
 -11401822.88848  -8875544.73447  21603442.3544   21603447.8904   21603442.614
        51.0004         47.0004
 -14874785.89148 -11538135.20647  21557634.0494   21557636.5354   21557633.878
        51.0004         47.0004
 -13994809.39348 -10905921.57247  21429839.1484   21429845.5514   21429839.305
        51.0004         46.0004
   1065918.28147    849891.58446  24446400.4004   24446406.4564   24446399.713
        43.0004         38.0004
  -5809042.12447  -4456044.65546  23945964.1614   23945973.6134   23945964.292
        44.0004         40.0004
 -28112921.88848 -21846678.53548  20556992.5484   20556998.7874   20556992.013
        53.0004         48.0004
    714497.34148    553036.20847  21865783.0074   21865790.5934   21865783.212
        50.0004         46.0004
 14  5 18  1 39 30.0000000  0 11G07G08G10G05G09G02G28G26G17G04G30
  -4151807.52147  -3206416.04346  24014533.8624   24014538.3544   24014533.084
        43.0004         38.0004
  -4266661.61948  -3310403.51747  21782313.2914   21782318.8114   21782313.579
        49.0004         44.0004
 -21772188.83348 -16954668.87847  21306383.9874   21306389.8654   21306384.488
        51.0004         46.0004
  -6415111.94047  -4951543.68346  24253031.1664   24253035.8754   24253030.428
        44.0004         39.0004
 -11319062.26048  -8811055.88947  21619191.5854   21619196.1114   21619191.178
        51.0004         47.0004
 -14892645.38548 -11552051.69447  21554234.6494   21554238.0114   21554234.776
        51.0004         47.0004
 -14033945.68548 -10936417.32747  21422392.1494   21422398.3704   21422392.059
        51.0004         46.0004
   1079829.23147    860731.41546  24449047.4144   24449054.7784   24449046.874
        43.0004         38.0004
  -5796210.88547  -4446046.27146  23948406.4444   23948415.0014   23948405.745
        44.0004         40.0004
 -28075896.20148 -21817827.40448  20564037.6534   20564044.5394   20564037.514
        53.0004         48.0004
    798049.42448    618141.77247  21881682.8584   21881690.1384   21881682.919
        50.0004         46.0004
 14  5 18  1 40  0.0000000  0 11G07G08G10G05G09G02G28G26G17G04G30
  -4046415.04647  -3124292.08146  24034588.3684   24034592.5554   24034589.103
        43.0004         38.0004
  -4170702.84848  -3235630.41147  21800572.7954   21800578.8604   21800573.552
        48.0004         44.0004
 -21832765.87748 -17001871.74647  21294856.4474   21294862.5114   21294857.214
        51.0004         47.0004
  -6507668.38647  -5023665.47846  24235417.4624   24235422.8454   24235417.240
        44.0004         39.0004
 -11236087.14548  -8746399.90047  21634981.1164   21634985.5374   21634980.655
        51.0004         47.0004
 -14910062.77848 -11565623.69247  21550920.1474   21550923.7714   21550921.053
        51.0004         47.0004
 -14072739.50848 -10966646.23247  21415009.2094   21415015.8744   21415009.633
        51.0004         46.0004
   1093638.16747    871491.72946  24451675.5214   24451682.6324   24451675.818
        43.0004         38.0004
  -5783620.72047  -4436235.72746  23950802.2014   23950811.1664   23950801.835
        44.0004         40.0004
 -28038432.93948 -21788635.31048  20571167.0734   20571173.9454   20571166.962
        53.0004         48.0004
    881824.57748    683421.14647  21897624.6974   21897632.0004   21897624.731
        50.0004         46.0004
 14  5 18  1 40 30.0000000  0 11G07G08G10G05G09G02G28G26G17G04G30
  -3941053.45647  -3042192.17546  24054638.7874   24054642.6604   24054638.697
        42.0004         38.0004
  -4074482.97348  -3160653.85047  21818882.6484   21818888.5904   21818884.080
        48.0004         44.0004
 -21893085.63948 -17048874.12047  21283377.8364   21283383.7174   21283378.272
        51.0004         47.0004
  -6600323.18747  -5095863.92446  24217786.5144   24217791.2244   24217785.823
        44.0004         39.0004
 -11152897.65748  -8681576.87347  21650811.2194   21650815.9894   21650811.140
        51.0004         47.0004
 -14927035.88248 -11578849.49447  21547691.1944   21547694.3104   21547690.717
        51.0004         47.0004
 -14111185.81348 -10996604.32847  21407693.1684   21407699.3264   21407693.226
        50.0004         46.0004
   1107346.05447    882173.31046  24454283.5574   24454290.3854   24454282.712
        43.0004         38.0004
  -5771268.81247  -4426610.84946  23953152.8584   23953161.5214   23953152.758
        44.0004         40.0004
 -28000531.80548 -21759102.02148  20578379.7384   20578386.0684   20578379.307
        53.0004         48.0004
    965822.83848    748874.38247  21913609.8464   21913616.2504   21913609.244
        50.0004         46.0004
 14  5 18  1 41  0.0000000  0 11G07G08G10G05G09G02G28G26G17G04G30
  -3835729.49847  -2960121.60346  24074681.5694   24074685.4074   24074681.355
        42.0004         38.0004
  -3978009.43448  -3085479.62147  21837242.0134   21837247.6804   21837242.017
        48.0004         44.0004
 -21953149.35548 -17095676.98647  21271948.3394   21271954.5544   21271949.038
        51.0004         47.0004
  -6693078.11747  -5168140.37946  24200136.1474   24200139.9364   24200135.157
        44.0004         40.0004
 -11069500.76748  -8616592.25247  21666681.6054   21666685.5984   21666681.015
        51.0004         46.0004
 -14943568.93848 -11591732.40047  21544544.5414   21544548.6164   21544544.813
        51.0004         47.0004
 -14149285.57148 -11026292.39447  21400443.2854   21400450.3454   21400443.182
        50.0004         46.0004
   1120947.05847    892771.61846  24456871.5894   24456878.9584   24456871.259
        43.0004         38.0004
  -5759159.25247  -4417174.82246  23955456.9234   23955466.6634   23955456.354
        44.0004         40.0004
 -27962198.86748 -21729232.25448  20585673.9394   20585680.5964   20585673.698
        53.0004         48.0004
   1050037.40648    814496.16847  21929634.8554   21929641.0714   21929634.839
        50.0004         46.0004
 14  5 18  1 41 30.0000000  0 11G07G08G10G05G09G02G28G26G17G04G30
  -3730444.19847  -2878081.15346  24094717.3864   24094720.5444   24094716.229
        43.0004         38.0004
  -3881284.78248  -3010109.72147  21855647.9584   21855653.5794   21855648.090
        48.0004         44.0004
 -22012953.03648 -17142277.21847  21260567.1674   21260573.5864   21260568.189
        51.0004         47.0004
  -6785930.19447  -5240492.53846  24182466.2864   24182470.7914   24182465.764
        44.0004         39.0004
 -10985898.47248  -8551447.56247  21682589.5254   21682594.3714   21682589.779
        51.0004         46.0004
 -14959661.46048 -11604272.03647  21541481.7284   21541485.1784   21541482.328
        51.0004         47.0004
 -14187034.91448 -11055707.41847  21393259.5974   21393266.7064   21393259.877
        51.0004         46.0004
   1134440.38647    903286.00646  24459437.9094   24459446.5164   24459439.138
        43.0004         38.0004
  -5747290.93147  -4407926.76046  23957715.2564   23957725.7004   23957714.880
        44.0004         40.0004
 -27923435.31748 -21699026.94448  20593051.0274   20593056.9914   20593050.464
        53.0004         48.0004
   1134466.34548    880284.99647  21945701.0534   21945707.5024   21945701.044
        50.0004         46.0004
 14  5 18  1 42  0.0000000  0 11G07G08G10G05G09G02G28G26G17G04G30
  -3625198.10647  -2796071.24246  24114744.3344   24114749.0994   24114743.259
        43.0004         38.0004
  -3784310.11448  -2934544.99647  21874100.7764   21874107.2054   21874101.915
        48.0004         44.0004
 -22072491.68248 -17188670.94647  21249237.7254   21249244.2064   21249238.156
        51.0004         47.0004
  -6878874.91347  -5312916.89146  24164779.2404   24164784.1984   24164778.931
        44.0004         39.0004
 -10902091.93948  -8486143.77547  21698537.5574   21698542.9784   21698538.016
        51.0004         46.0004
 -14975311.94648 -11616467.22747  21538504.0604   21538507.7474   21538504.267
        51.0004         47.0004
 -14224428.85748 -11084845.49847  21386143.2154   21386150.5294   21386143.965
        51.0004         46.0004
   1147826.25847    913716.66046  24461987.5924   24461993.3184   24461986.043
        43.0004         38.0004
  -5735661.59147  -4398864.91946  23959927.7524   23959937.7504   23959927.660
        44.0004         40.0004
 -27884241.45948 -21668486.33848  20600509.0384   20600515.8214   20600508.593
        53.0004         48.0004
   1219108.91148    946240.29047  21961807.3874   21961814.6194   21961807.807
        50.0004         46.0004
 14  5 18  1 42 30.0000000  0 11G07G08G10G05G09G02G28G26G17G04G30
  -3519996.71347  -2714096.18846  24134763.1434   24134767.5974   24134762.422
        43.0004         38.0004
  -3687091.89148  -2858790.50547  21892602.0924   21892606.4944   21892601.969
        48.0004         44.0004
 -22131765.39748 -17234858.22847  21237958.5054   21237964.3104   21237959.222
        51.0004         47.0004
  -6971913.31447  -5385414.24046  24147074.8914   24147078.5674   24147074.298
        44.0004         39.0004
 -10818087.44148  -8420685.73547  21714523.6844   21714528.3314   21714523.366
        51.0004         46.0004
 -14990524.13348 -11628320.89147  21535609.2334   21535613.1834   21535609.351
        51.0004         47.0004
 -14261467.71148 -11113706.89447  21379095.8514   21379101.6274   21379095.751
        51.0004         46.0004
   1161099.86047    924059.82846  24464511.4624   24464518.2424   24464511.445
        43.0004         38.0004
  -5724273.98047  -4389991.44946  23962095.4694   23962104.8284   23962095.098
        45.0004         40.0004
 -27844622.58348 -21637614.54648  20608048.5944   20608055.0094   20608047.912
        53.0004         48.0004
   1303959.16948   1012357.41347  21977954.2214   21977960.9824   21977954.548
        50.0004         46.0004
 14  5 18  1 43  0.0000000  0 11G07G08G10G05G09G02G28G26G17G04G30
  -3414840.66847  -2632156.46946  24154774.2374   24154778.2104   24154773.179
        42.0004         38.0004
  -3589631.98848  -2782847.67747  21911146.6594   21911152.4454   21911147.501
        48.0004         43.0004
 -22190769.13348 -17280835.14147  21226730.8464   21226736.2424   21226730.880
        51.0004         47.0004
  -7065042.03347  -5457981.97546  24129352.7144   24129357.1464   24129352.419
        44.0004         39.0004
 -10733886.09148  -8355074.30247  21730546.5574   21730551.6084   21730546.170
        51.0004         46.0004
 -15005296.46748 -11639831.82147  21532798.0074   21532801.2434   21532798.310
        51.0004         47.0004
 -14298146.96748 -11142288.07747  21372115.2854   21372122.0524   21372116.084
        51.0004         46.0004
   1174261.16047    934315.48946  24467015.7794   24467022.8774   24467015.812
        43.0004         38.0004
  -5713126.56047  -4381305.11946  23964216.0234   23964225.8194   23964215.838
        45.0004         40.0004
 -27804578.97148 -21606411.79748  20615668.5744   20615675.0574   20615667.997
        53.0004         48.0004
   1389016.11048   1078635.59847  21994140.5994   21994147.3934   21994140.032
        50.0004         46.0004
 14  5 18  1 43 30.0000000  0 11G07G08G10G05G09G02G28G26G17G04G30
  -3309731.97947  -2550253.63946  24174774.4234   24174780.9974   24174774.998
        42.0004         38.0004
  -3491933.26348  -2706718.74547  21929738.0854   21929744.9434   21929739.345
        48.0004         43.0004
 -22249499.62148 -17326599.12947  21215554.6924   21215560.8184   21215555.296
        51.0004         47.0004
  -7158258.48047  -5530618.06146  24111613.4794   24111618.4364   24111613.618
        44.0004         39.0004
 -10649490.54948  -8289311.54247  21746606.1484   21746610.8604   21746606.161
        51.0004         46.0004
 -15019629.28248 -11651000.27447  21530070.6234   21530073.7954   21530070.917
        51.0004         47.0004
 -14334463.31348 -11170586.47747  21365204.8244   21365211.5434   21365205.002
        51.0004         46.0004
   1187308.74747    944482.55746  24469499.0194   24469505.7704   24469499.316
        43.0004         38.0004
  -5702218.99747  -4372805.70646  23966292.7594   23966301.4544   23966292.260
        45.0004         40.0004
 -27764112.45148 -21574879.50348  20623369.0634   20623375.7964   20623368.454
        53.0004         48.0004
   1474277.28448   1145072.93047  22010364.1454   22010370.8524   22010364.289
        50.0004         45.0004
 14  5 18  1 44  0.0000000  0 11G07G08G10G05G09G02G28G26G17G04G30
  -3204676.04047  -2468391.92146  24194767.5044   24194772.0004   24194765.408
        42.0004         37.0004
  -3394001.99248  -2630408.62647  21948374.2124   21948380.3134   21948375.089
        48.0004         43.0004
 -22307956.90248 -17372150.23847  21204430.9954   21204435.8834   21204431.141
        51.0004         47.0004
  -7251563.18247  -5603322.94246  24093859.1514   24093863.7324   24093858.383
        44.0004         39.0004
 -10564907.03948  -8223402.31347  21762701.7984   21762706.9584   21762702.152
        51.0004         46.0004
 -15033526.20448 -11661829.07647  21527426.1804   21527429.4564   21527426.528
        52.0004         47.0004
 -14370416.99948 -11198602.28247  21358363.5674   21358369.0284   21358363.236
        51.0004         46.0004
   1200237.84447    954557.25146  24471959.5774   24471966.1854   24471960.021
        43.0004         38.0004
  -5691554.42647  -4364495.63846  23968321.8434   23968330.8704   23968321.446
        45.0004         40.0004
 -27723228.68148 -21543022.08548  20631149.0224   20631155.5634   20631148.413
        53.0004         48.0004
   1559736.80548   1211664.80547  22026626.6834   22026634.1904   22026626.790
        50.0004         45.0004
 14  5 18  1 44 30.0000000  0 11G07G08G10G05G09G02G28G26G17G04G30
  -3099671.59147  -2386570.32146  24214748.5064   24214754.2544   24214746.980
        42.0004         37.0004
  -3295837.86048  -2553917.04347  21967054.0284   21967059.3794   21967054.364
        48.0004         43.0004
 -22366134.18648 -17417483.15147  21193359.7174   21193365.5864   21193360.417
        52.0004         47.0004
  -7344950.24147  -5676091.99346  24076087.4524   24076091.8054   24076086.656
        44.0004         39.0004
 -10480134.69548  -8157345.92847  21778833.5694   21778838.8784   21778833.485
        51.0004         46.0004
 -15046984.11948 -11672315.79647  21524864.9374   21524868.7954   21524865.534
        51.0004         47.0004
 -14406001.71648 -11226330.58647  21351591.0714   21351597.9324   21351591.478
        51.0004         46.0004
   1213050.34947    964541.14146  24474396.4854   24474403.5994   24474396.528
        43.0004         38.0004
  -5681128.63247  -4356371.61046  23970304.4364   23970315.1784   23970304.836
        45.0004         40.0004
 -27681926.09148 -21510838.31148  20639008.1494   20639015.1894   20639008.160
        53.0004         48.0004
   1645395.52348   1278411.91047  22042927.1394   22042933.8864   22042927.167
        50.0004         45.0004
 14  5 18  1 45  0.0000000  0 11G07G08G10G05G09G02G28G26G17G04G30
  -2994723.87047  -2304792.93546  24234719.4234   24234723.8004   24234718.707
        42.0004         37.0004
  -3197447.03048  -2477248.82747  21985777.7014   21985783.7464   21985777.825
        48.0004         43.0004
 -22424031.37448 -17462597.81747  21182341.9514   21182348.3044   21182342.858
        52.0004         47.0004
  -7438420.54647  -5748925.92246  24058300.9794   24058305.8444   24058299.668
        44.0004         40.0004
 -10395179.31148  -8091146.91747  21795000.6364   21795005.7294   21795000.101
        51.0004         46.0004
 -15060006.62748 -11682463.24247  21522386.9204   21522391.0394   21522387.303
        51.0004         47.0004
 -14441217.22748 -11253771.18447  21344889.4854   21344896.5714   21344890.099
        51.0004         46.0004
   1225741.79247    974430.68046  24476813.4274   24476819.1444   24476811.897
        43.0004         38.0004
  -5670944.35547  -4348435.79146  23972242.8294   23972252.7354   23972243.226
        45.0004         40.0004
 -27640209.72248 -21478332.11348  20646946.6494   20646953.8724   20646946.672
        53.0004         48.0004
   1731247.82848   1345309.85447  22059264.3434   22059271.3554   22059264.166
        50.0004         45.0004
 14  5 18  1 45 30.0000000  0 11G07G08G10G05G09G02G28G26G17G04G30
  -2889833.20047  -2223059.97546  24254679.7774   24254684.9634   24254679.583
        42.0004         38.0004
  -3098830.65148  -2400404.85247  22004543.9644   22004549.3704   22004544.378
        48.0004         43.0004
 -22481643.16048 -17507490.09947  21171378.9134   21171384.7054   21171379.801
        52.0004         47.0004
  -7531969.91047  -5821821.45846  24040499.1294   24040503.1824   24040498.154
        44.0004         39.0004
 -10310041.62248  -8024805.81447  21811201.2814   21811205.9644   21811201.051
        51.0004         46.0004
 -15072591.82048 -11692269.91847  21519992.2074   21519996.2434   21519992.603
        51.0004         47.0004
 -14476059.16448 -11280920.69547  21338260.2964   21338265.8704   21338260.335
        51.0004         46.0004
   1238312.61447    984226.22146  24479204.5664   24479211.7894   24479204.567
        43.0004         38.0004
  -5660999.21047  -4340686.31046  23974135.4654   23974145.5074   23974135.571
        45.0004         40.0004
 -27598079.75448 -21445503.62448  20654964.1724   20654970.8394   20654963.722
        53.0004         48.0004
   1817293.09848   1412358.16547  22075638.3164   22075644.8484   22075638.144
        50.0004         45.0004
 14  5 18  1 46  0.0000000  0 11G07G08G10G05G09G02G28G26G17G04G30
  -2785003.10747  -2141374.23246  24274628.2534   24274632.7084   24274627.669
        42.0004         38.0004
  -2999993.58948  -2323388.91547  22023352.3464   22023357.7124   22023352.572
        48.0004         43.0004
 -22538967.95248 -17552158.73847  21160470.6854   21160476.2874   21160471.302
        52.0004         47.0004
  -7625597.02447  -5894777.57446  24022681.6704   24022686.3584   24022681.372
        44.0004         39.0004
 -10224726.34948  -7958326.34547  21827436.5254   21827440.6854   21827436.102
        51.0004         46.0004
 -15084742.01748 -11701737.64147  21517680.2204   21517683.7644   21517680.468
        51.0004         47.0004
 -14510525.97648 -11307777.89547  21331701.0944   21331708.0294   21331701.204
        51.0004         46.0004
   1250759.62647    993925.29446  24481573.1154   24481581.3394   24481573.159
        43.0004         38.0004
  -5651294.70447  -4333124.33146  23975982.8804   23975992.5904   23975982.143
        45.0004         40.0004
 -27555539.97648 -21412355.81148  20663059.1554   20663065.9584   20663059.065
        53.0004         48.0004
   1903527.04848   1479553.50047  22092048.1594   22092054.5054   22092047.977
        50.0004         45.0004
 14  5 18  1 46 30.0000000  0 11G07G08G10G05G09G02G28G26G17G04G30
  -2680236.41547  -2059737.90846  24294564.8744   24294569.6054   24294564.517
        42.0004         38.0004
  -2900939.64348  -2246203.97247  22042201.3804   22042206.5514   22042201.471
        48.0004         43.0004
 -22596003.18848 -17596601.75247  21149617.2644   21149622.3814   21149617.236
        52.0004         47.0004
  -7719300.55747  -5967793.22346  24004851.6174   24004855.5574   24004850.608
        44.0004         39.0004
 -10139236.85948  -7891711.11447  21843704.5164   21843708.9364   21843704.064
        51.0004         46.0004
 -15096458.22548 -11710867.18747  21515450.4354   21515454.4224   21515450.958
        52.0004         47.0004
 -14544614.99848 -11334340.71647  21325214.3944   21325220.5154   21325214.496
        51.0004         46.0004
   1263080.69247   1003526.21146  24483917.4414   24483923.9404   24483916.482
        43.0004         38.0004
  -5641831.06447  -4325750.05246  23977783.6384   23977793.1614   23977783.214
        45.0004         40.0004
 -27512592.92148 -21378890.63648  20671232.2004   20671238.5944   20671231.362
        53.0004         48.0004
   1989946.52148   1546893.39547  22108492.7204   22108499.4734   22108492.555
        50.0004         45.0004
 14  5 18  1 47  0.0000000  0 11G07G08G10G05G09G02G28G26G17G04G30
  -2575534.97747  -1978152.42146  24314489.7694   24314494.0464   24314488.816
        42.0004         37.0004
  -2801671.73848  -2168852.31347  22061089.9154   22061096.7324   22061091.098
        48.0004         43.0004
 -22652745.65648 -17640816.64147  21138819.4074   21138825.1204   21138819.996
        52.0004         47.0004
  -7813077.59047  -6040866.14446  23987005.9614   23987010.2024   23987004.939
        44.0004         40.0004
 -10053575.70248  -7824962.11147  21860004.6794   21860009.8034   21860004.842
        51.0004         46.0004
 -15107740.55348 -11719658.64847  21513303.6214   21513307.5934   21513303.997
        52.0004         47.0004
 -14578323.17948 -11360606.77947  21318800.0534   21318806.0404   21318799.798
        51.0004         46.0004
   1275274.58347   1013028.04646  24486237.9064   24486244.5954   24486237.167
        43.0004         38.0004
  -5632607.64847  -4318562.96346  23979538.6384   23979547.9604   23979538.462
        45.0004         40.0004
 -27469240.69048 -21345109.74548  20679481.9324   20679488.0104   20679481.428
        53.0004         48.0004
   2076549.05848   1614375.93447  22124973.1704   22124979.7074   22124972.639
        50.0004         45.0004
 14  5 18  1 47 30.0000000  0 11G07G08G10G05G09G02G28G26G17G04G30
  -2470900.96647  -1896619.46746  24334400.1574   24334404.4084   24334400.129
        42.0004         37.0004
  -2702192.70647  -2091336.14047  22080020.4374   22080025.9044   22080021.688
        47.0004         43.0004
 -22709192.02748 -17684800.81747  21128077.7804   21128083.9144   21128078.061
        52.0004         47.0004
  -7906925.30347  -6113994.16546  23969146.6654   23969151.4894   23969146.448
        44.0004         40.0004
  -9967745.64148  -7758081.47047  21876337.9404   21876342.2074   21876337.712
        51.0004         46.0004
 -15118589.64048 -11728112.51947  21511239.4484   21511242.9374   21511239.645
        52.0004         47.0004
 -14611648.00948 -11386574.12547  21312458.0004   21312464.2344   21312458.294
        51.0004         46.0004
   1287339.90747   1022429.67946  24488533.1004   24488539.9124   24488534.255
        43.0004         38.0004
  -5623623.87647  -4311562.61446  23981248.1874   23981257.0774   23981247.559
        45.0004         40.0004
 -27425485.35748 -21311014.73548  20687807.8004   20687814.3714   20687807.548
        53.0004         48.0004
   2163332.22448   1681999.22247  22141487.3564   22141492.6954   22141487.047
        50.0004         45.0004
 14  5 18  1 48  0.0000000  0 11G07G08G10G05G09G02G28G26G17G04G30
  -2366336.39647  -1815140.64446  24354298.3424   24354302.7374   24354297.240
        42.0004         37.0004
  -2602505.80947  -2013657.99347  22098991.1244   22098996.4464   22098991.433
        47.0004         43.0004
 -22765339.18448 -17728551.84647  21117393.1404   21117399.4374   21117393.801
        52.0004         47.0004
  -8000842.16047  -6187176.05446  23951275.6224   23951280.1204   23951275.192
        45.0004         40.0004
  -9881749.50448  -7691071.41047  21892702.3284   21892707.1424   21892701.926
        50.0004         46.0004
 -15129006.02248 -11736229.21547  21509257.2844   21509260.7984   21509257.599
        52.0004         47.0004
 -14644586.44448 -11412240.38947  21306189.3824   21306196.6184   21306190.408
        51.0004         46.0004
   1299274.95147   1031729.81246  24490805.0944   24490812.0214   24490804.800
        43.0004         38.0004
  -5614879.31247  -4304748.64946  23982912.4864   23982921.8754   23982911.911
        45.0004         40.0004
 -27381329.23048 -21276607.43448  20696210.7214   20696217.2534   20696210.369
        53.0004         48.0004
   2250293.24048   1749761.09247  22158034.7304   22158042.5124   22158034.694
        49.0004         45.0004
 14  5 18  1 48 30.0000000  0 11G07G08G10G05G09G02G28G26G17G04G30
  -2261845.15547  -1733718.94846  24374180.7474   24374185.9334   24374181.027
        42.0004         37.0004
  -2502616.11347  -1935821.82447  22117999.2324   22118004.5814   22117999.639
        47.0004         43.0004
 -22821185.72048 -17772068.61747  21106765.6664   21106771.9764   21106766.327
        52.0004         47.0004
  -8094827.33547  -6260411.17546  23933390.1304   23933394.8304   23933389.950
        45.0004         40.0004
  -9795592.15048  -7623935.78047  21909097.6724   21909101.8944   21909097.468
        50.0004         46.0004
 -15138992.06848 -11744010.59547  21507356.9514   21507360.8104   21507357.393
        52.0004         47.0004
 -14677137.23948 -11437604.58947  21299995.5914   21300002.2384   21299995.909
        51.0004         46.0004
   1311076.53847   1040925.94446  24493050.1024   24493057.5794   24493050.525
        43.0004         38.0004
  -5606375.73547  -4298122.47446  23984529.9304   23984540.0844   23984530.238
        45.0004         40.0004
 -27336776.25648 -21241890.88948  20704689.0744   20704695.4444   20704688.600
        53.0004         48.0004
   2337427.70048   1817658.13247  22174615.6614   22174623.8684   22174615.619
        49.0004         45.0004
 14  5 18  1 49  0.0000000  0 11G07G08G10G05G09G02G28G26G17G04G30
  -2157428.53447  -1652355.39846  24394051.3904   24394057.1654   24394051.404
        42.0004         37.0004
  -2402525.71448  -1857829.25347  22137046.3794   22137050.9264   22137046.110
        48.0004         43.0004
 -22876727.24148 -17815347.70447  21096196.5554   21096202.8594   21096197.534
        52.0004         47.0004
  -8188876.99847  -6333696.56046  23915492.9974   23915497.9384   23915492.915
        45.0004         40.0004
  -9709275.13748  -7556675.70747  21925523.3424   21925527.2084   21925523.194
        50.0004         46.0004
 -15148547.34948 -11751456.30847  21505538.3114   21505542.0894   21505538.678
        52.0004         47.0004
 -14709296.46448 -11462663.66347  21293876.7744   21293882.9074   21293876.219
        51.0004         46.0004
   1322744.28147   1050017.77846  24495271.2654   24495278.4474   24495270.182
        43.0004         38.0004
  -5598111.28147  -4291682.63546  23986102.7514   23986111.9924   23986102.538
        45.0004         40.0004
 -27291827.66048 -21206866.06948  20713241.8254   20713248.6744   20713241.837
        53.0004         48.0004
   2424734.09748   1885689.13047  22191229.4224   22191236.9914   22191230.264
        49.0004         45.0004
 14  5 18  1 49 30.0000000  0 11G07G08G10G05G09G02G28G26G17G04G30
  -2053088.98947  -1571051.90146  24413907.9614   24413912.7244   24413906.523
        42.0004         37.0004
  -2302238.02048  -1779682.94347  22156130.5044   22156136.0144   22156130.526
        48.0004         43.0004
 -22931961.04048 -17858387.00447  21085685.9104   21085692.5124   21085686.828
        52.0004         47.0004
  -8282988.93547  -6407030.46846  23897584.5424   23897588.7064   23897583.801
        45.0004         40.0004
  -9622801.57948  -7489293.69247  21941977.5964   21941982.9114   21941978.430
        50.0004         46.0004
 -15157672.59348 -11758566.92147  21503802.3534   21503805.9984   21503802.592
        52.0004         47.0004
 -14741061.73448 -11487415.76247  21287831.0724   21287837.5394   21287831.346
        51.0004         46.0004
   1334276.33747   1059003.89646  24497465.9844   24497471.3764   24497464.477
        43.0004         38.0004
  -5590085.95847  -4285429.12646  23987629.9004   23987639.2174   23987629.893
        45.0004         41.0004
 -27246485.59548 -21171534.65848  20721870.5634   20721877.3984   20721870.306
        53.0004         48.0004
   2512209.55248   1953851.87247  22207876.5984   22207882.7544   22207876.132
        49.0004         45.0004
 14  5 18  1 50  0.0000000  0 11G07G08G10G05G09G02G28G26G17G04G30
  -1948828.46547  -1489809.97246  24433746.5584   24433751.7964   24433747.024
        42.0004         37.0004
  -2201756.58047  -1701385.68547  22175250.7144   22175256.8994   22175251.693
        47.0004         43.0004
 -22986884.29648 -17901184.33047  21075234.3774   21075240.5014   21075235.071
        52.0004         47.0004
  -8377161.34647  -6480411.50746  23879663.7664   23879667.9044   23879663.833
        45.0004         40.0004
  -9536174.68048  -7421792.23447  21958462.7834   21958466.9354   21958463.057
        50.0004         46.0004
 -15166368.66048 -11765343.12047  21502147.5784   21502151.2734   21502147.808
        52.0004         47.0004
 -14772430.37848 -11511858.79847  21281862.0334   21281868.3054   21281861.921
        51.0004         46.0004
   1345670.94447   1067882.88746  24499633.4364   24499640.4694   24499633.785
        43.0004         38.0004
  -5582299.80947  -4279361.98246  23989112.2454   23989121.2664   23989111.842
        45.0004         41.0004
 -27200753.08648 -21135898.99948  20730573.5164   20730580.0354   20730572.826
        53.0004         48.0004
   2599851.04048   2022143.97947  22224553.2454   22224560.2584   22224553.398
        49.0004         45.0004
 14  5 18  1 50 30.0000000  0 11G07G08G10G05G09G02G28G26G17G04G30
  -1844649.34947  -1408631.49646  24453572.1124   24453577.7714   24453571.198
        42.0004         37.0004
  -2101084.48247  -1622939.83347  22194408.9094   22194412.7764   22194408.485
        47.0004         43.0004
 -23041494.06948 -17943737.38547  21064842.6334   21064848.7524   21064843.164
        52.0004         47.0004
  -8471391.74147  -6553837.71346  23861732.3454   23861736.7214   23861732.688
        45.0004         40.0004
  -9449397.32448  -7354173.56047  21974975.8374   21974980.4174   21974976.399
        50.0004         46.0004
 -15174636.64248 -11771785.74847  21500573.8204   21500577.8334   21500574.336
        52.0004         47.0004
 -14803399.77548 -11535990.73547  21275968.9384   21275975.2674   21275968.970
        51.0004         47.0004
   1356926.46147   1076653.49246  24501775.7114   24501781.8274   24501775.431
        43.0004         38.0004
  -5574752.42247  -4273480.89346  23990548.3604   23990557.5804   23990547.967
        45.0004         41.0004
 -27154632.31948 -21099960.80848  20739349.8914   20739356.8294   20739349.262
        53.0004         48.0004
   2687655.80948   2090563.32747  22241262.8104   22241268.5684   22241262.507
        49.0004         45.0004
 14  5 18  1 51  0.0000000  0 11G07G08G10G05G09G02G28G26G17G04G30
  -1740555.95447  -1327519.83746  24473380.0364   24473383.9534   24473380.135
        42.0004         37.0004
  -2000226.98547  -1544349.53847  22213600.4814   22213605.1164   22213600.790
        47.0004         43.0004
 -23095789.14748 -17986045.24747  21054510.6784   21054516.1704   21054511.103
        52.0004         47.0004
  -8565679.82947  -6627308.88446  23843789.9894   23843793.9054   23843789.913
        45.0004         41.0004
  -9362474.36048  -7286441.36647  21991516.5944   21991521.1734   21991517.145
        50.0004         46.0004
 -15182479.09448 -11777896.80047  21499081.9224   21499085.4024   21499081.970
        52.0004         47.0004
 -14833969.34348 -11559811.11647  21270151.4554   21270157.9014   21270151.519
        51.0004         47.0004
   1368039.24047   1085312.89146  24503889.8134   24503896.7704   24503889.168
        43.0004         38.0004
  -5567445.18047  -4267786.92746  23991937.8344   23991947.2464   23991938.132
        45.0004         41.0004
 -27108127.68948 -21063723.50248  20748199.5294   20748206.2154   20748199.234
        53.0004         48.0004
   2775619.17248   2159106.24547  22258001.6714   22258008.4074   22258001.384
        49.0004         45.0004
 14  5 18  1 51 30.0000000  0 11G07G08G10G05G09G02G28G26G17G04G30
  -1636546.48946  -1246473.56146  24493171.6034   24493176.9324   24493172.388
        41.0004         37.0004
  -1899183.50047  -1465614.31447  22232827.9254   22232834.5034   22232829.271
        47.0004         42.0004
 -23149762.63448 -18028102.51647  21044240.2054   21044245.6234   21044240.667
        52.0004         47.0004
  -8660019.24547  -6700820.05846  23825837.8284   23825842.2374   23825837.229
        45.0004         40.0004
  -9275404.76948  -7218594.92347  22008086.2534   22008091.1434   22008086.041
        50.0004         46.0004
 -15189892.81048 -11783673.77847  21497671.7054   21497674.6474   21497671.543
        52.0004         47.0004
 -14864132.29148 -11583314.65147  21264410.9374   21264417.9084   21264412.069
        51.0004         47.0004
   1379011.94647   1093863.12946  24505979.4024   24505984.5544   24505979.482
        43.0004         38.0004
  -5560373.93847  -4262276.85246  23993284.4834   23993293.2794   23993283.781
        45.0004         41.0004
 -27061237.54548 -21027185.79148  20757122.3684   20757129.0434   20757121.772
        53.0004         48.0004
   2863742.47848   2227773.80647  22274769.8524   22274776.7184   22274770.223
        49.0004         44.0004
 14  5 18  1 52  0.0000000  0 11G07G08G10G05G09G02G28G26G17G04G30
  -1532619.31646  -1165491.44146  24512949.8654   24512954.0474   24512949.377
        41.0004         37.0004
  -1797953.40647  -1386733.68047  22252091.9554   22252097.3264   22252092.512
        47.0004         42.0004
 -23203407.69548 -18069903.86847  21034031.7424   21034037.6694   21034032.225
        52.0004         47.0004
  -8754403.71247  -6774366.33946  23807876.9234   23807880.8344   23807876.896
        45.0004         41.0004
  -9188187.70948  -7150633.56547  22024682.9354   22024687.5614   22024682.926
        50.0004         46.0004
 -15196875.17048 -11789114.63147  21496343.3114   21496346.4674   21496342.878
        52.0004         47.0004
 -14893882.28248 -11606496.39747  21258750.1414   21258756.4634   21258750.420
        51.0004         47.0004
   1389846.47147   1102305.68046  24508040.8084   24508045.8894   24508040.168
        43.0004         38.0004
  -5553534.82647  -4256947.66346  23994586.0224   23994594.4384   23994584.829
        45.0004         41.0004
 -27013960.55048 -20990346.64348  20766119.3114   20766126.0684   20766118.439
        53.0004         48.0004
   2952026.67048   2296566.72947  22291571.0394   22291577.9214   22291570.363
        49.0004         45.0004
 14  5 18  1 52 30.0000000  0 11G07G08G10G05G09G02G28G26G17G04G30
  -1428791.04346  -1084586.38446  24532707.2084   24532712.0704   24532707.204
        41.0004         36.0004
  -1696554.56647  -1307721.56147  22271386.8244   22271392.8624   22271387.581
        47.0004         42.0004
 -23256735.99148 -18111458.38047  21023883.4534   21023889.1774   21023884.316
        52.0004         47.0004
  -8848845.63647  -6847957.39146  23789906.8864   23789908.8054   23789905.186
        45.0004         41.0004
  -9100840.64048  -7082570.89547  22041304.1634   22041309.5604   22041303.922
        50.0004         45.0004
 -15203441.39148 -11794231.21447  21495092.5784   21495096.6924   21495093.442
        52.0004         47.0004
 -14923231.33148 -11629365.72347  21253164.9284   21253171.6834   21253165.431
        51.0004         47.0004
   1400526.82747   1110628.12246  24510072.2994   24510077.1454   24510071.095
        43.0004         38.0004
  -5546941.77147  -4251810.21846  23995840.3934   23995849.6684   23995839.971
        45.0004         40.0004
 -26966313.87348 -20953219.42348  20775185.6474   20775193.0384   20775185.311
        52.0004         48.0004
   3040454.35848   2365471.45547  22308397.7674   22308404.5924   22308397.634
        49.0004         44.0004
 14  5 18  1 53  0.0000000  0 11G07G08G10G05G09G02G28G26G17G04G30
  -1325054.97346  -1003753.17046  24552447.3564   24552452.9214   24552447.079
        41.0004         36.0004
  -1594981.51047  -1228573.67547  22290716.8254   22290721.2924   22290715.856
        47.0004         42.0004
 -23309735.58948 -18152756.78347  21013798.1044   21013803.7864   21013798.748
        52.0004         47.0004
  -8943333.28547  -6921584.07346  23771924.9134   23771929.1524   23771924.460
        46.0004         41.0004
  -9013357.49548  -7014402.17147  22057951.9824   22057956.0024   22057951.880
        50.0004         46.0004
 -15209583.11348 -11799017.01847  21493924.2924   21493927.9244   21493924.661
        52.0004         47.0004
 -14952167.84448 -11651913.58747  21247659.3674   21247665.1404   21247658.850
        51.0004         47.0004
   1411060.46847   1118836.24446  24512076.5754   24512082.8964   24512076.404
        43.0004         38.0004
  -5540585.73447  -4246857.44646  23997049.7164   23997058.9614   23997049.075
        45.0004         41.0004
 -26918290.82848 -20915798.93148  20784324.0294   20784330.9874   20784323.740
        52.0004         48.0004
   3129031.83148   2434492.89947  22325253.0214   22325259.8584   22325253.163
        49.0004         44.0004
 14  5 18  1 53 30.0000000  0 11G07G08G10G05G09G02G28G26G17G04G30
  -1221414.37646   -922994.35846  24572169.7134   24572173.9154   24572169.202
        41.0004         36.0004
  -1493238.40247  -1149293.29347  22310076.1934   22310081.0544   22310077.439
        47.0004         42.0004
 -23362404.47748 -18193797.47147  21003775.8274   21003781.2814   21003776.139
        52.0004         47.0004
  -9037865.71547  -6995245.64346  23753935.3054   23753940.6114   23753934.916
        45.0004         41.0004
  -8925742.15948  -6946130.37347  22074624.6424   22074628.4834   22074624.227
        50.0004         46.0004
 -15215302.62248 -11803473.82547  21492835.5884   21492839.4724   21492835.974
        52.0004         47.0004
 -14980690.16248 -11674138.70747  21242230.9634   21242237.4444   21242231.081
        51.0004         47.0004
   1421444.66647   1126927.89346  24514052.6524   24514059.4074   24514052.923
        43.0004         38.0004
  -5534466.99247  -4242089.60146  23998213.4714   23998223.1774   23998213.844
        45.0004         41.0004
 -26869894.98548 -20878087.94648  20793533.6114   20793540.6854   20793533.298
        52.0004         48.0004
   3217755.23948   2503628.04447  22342136.9594   22342143.4024   22342136.600
        49.0004         44.0004
 14  5 18  1 54  0.0000000  0 11G07G08G10G05G09G02G28G26G17G04G30
  -1117870.98246   -842311.26346  24591873.7744   24591877.4384   24591873.027
        41.0004         36.0004
  -1391328.14447  -1069882.67347  22329469.9204   22329476.2464   22329470.273
        47.0004         42.0004
 -23414739.39148 -18234577.91747  20993816.3734   20993822.3274   20993816.982
        52.0004         47.0004
  -9132440.27147  -7068940.04646  23735939.3084   23735942.6654   23735938.193
        45.0004         41.0004
  -8837997.35948  -6877757.70547  22091321.4734   22091326.2974   22091321.319
        50.0004         45.0004
 -15220600.26648 -11807601.91247  21491828.4594   21491831.4104   21491828.532
        52.0004         47.0004
 -15008795.45348 -11696038.86447  21236882.9454   21236889.4874   21236883.268
        51.0004         47.0004
   1431678.15847   1134902.11446  24515999.1094   24516006.6384   24516000.044
        43.0004         38.0004
  -5528584.68347  -4237505.97246  23999333.5854   23999342.3084   23999333.431
        45.0004         40.0004
 -26821128.41248 -20840088.08648  20802813.8644   20802820.5204   20802813.644
        52.0004         48.0004
   3306622.34448   2572875.17247  22359047.0094   22359054.1104   22359047.552
        49.0004         44.0004
 14  5 18  1 54 30.0000000  0 11G07G08G10G05G09G02G28G26G17G04G30
  -1014427.85646   -761706.32546  24611558.9634   24611562.8004   24611557.299
        41.0004         37.0004
  -1289254.74647   -990344.92747  22348893.1784   22348897.6694   22348894.038
        47.0004         42.0004
 -23466738.09648 -18275096.38147  20983921.8454   20983927.0524   20983922.149
        52.0004         47.0004
  -9227055.01247  -7142665.76846  23717933.9894   23717938.3634   23717933.451
        46.0004         41.0004
  -8750126.97648  -6809287.19747  22108042.7854   22108047.6224   22108042.640
        50.0004         45.0004
 -15225478.20648 -11811402.94447  21490899.2404   21490903.3284   21490899.695
        52.0004         47.0004
 -15036482.08448 -11717612.79647  21231613.3594   21231620.0364   21231614.231
        51.0004         47.0004
   1441758.66147   1142757.14046  24517919.4104   24517924.6644   24517918.170
        43.0004         39.0004
  -5522939.68047  -4233107.26146  24000407.9804   24000416.7804   24000407.504
        45.0004         40.0004
 -26771994.53848 -20801802.01148  20812163.8594   20812170.7084   20812163.392
        52.0004         48.0004
   3395629.42348   2642231.36047  22375985.5684   22375991.4694   22375985.129
        49.0004         44.0004
 14  5 18  1 55  0.0000000  0 11G07G08G10G05G09G02G28G26G17G04G30
   -911086.39246   -681180.58946  24631222.4754   24631227.9724   24631222.559
        41.0004         36.0004
  -1187020.40147   -910681.74547  22368349.0594   22368353.2014   22368348.735
        47.0004         42.0004
 -23518397.08148 -18315350.13247  20974091.0324   20974097.3384   20974091.715
        52.0004         47.0004
  -9321707.03847  -7216420.54846  23699922.6944   23699926.0124   23699921.438
        46.0004         41.0004
  -8662132.83948  -6740720.23047  22124787.1434   22124792.2564   22124787.251
        50.0004         45.0004
 -15229936.43748 -11814876.93447  21490051.2584   21490054.7474   21490052.133
        52.0004         47.0004
 -15063746.76448 -11738857.94047  21226425.7384   21226431.8634   21226426.186
        51.0004         47.0004
   1451685.68547   1150492.55146  24519807.5184   24519813.4494   24519808.000
        43.0004         39.0004
  -5517530.70347  -4228892.46646  24001436.9514   24001446.1764   24001436.748
        45.0004         41.0004
 -26722494.90648 -20763230.93148  20821582.9964   20821590.2024   20821583.050
        52.0004         48.0004
   3484774.61348   2711695.17747  22392949.1514   22392955.9224   22392948.946
        49.0004         44.0004
 14  5 18  1 55 30.0000000  0 11G07G08G10G05G09G02G28G26G17G04G30
   -807849.78146   -600736.55846  24650869.0854   24650873.7574   24650867.925
        41.0004         37.0004
  -1084630.09747   -830897.05347  22387832.2924   22387837.0444   22387833.210
        47.0004         42.0004
 -23569714.85648 -18355338.00247  20964325.7174   20964331.0344   20964326.400
        52.0004         47.0004
  -9416395.33647  -7290203.59446  23681904.3714   23681907.7704   23681903.267
        46.0004         41.0004
  -8574019.62948  -6672060.50447  22141554.5534   22141558.8054   22141554.407
        50.0004         45.0004
 -15233977.33248 -11818025.72747  21489282.4954   21489286.2014   21489282.588
        52.0004         47.0004
 -15090588.28148 -11759773.34547  21221317.9684   21221324.0294   21221318.096
        51.0004         47.0004
   1461455.97647   1158105.83346  24521666.2394   24521672.0234   24521666.018
        43.0004         38.0004
  -5512358.82947  -4224862.42046  24002420.4984   24002430.5674   24002420.669
        45.0004         41.0004
 -26672633.87848 -20724378.24248  20831071.6234   20831078.5214   20831071.287
        52.0004         48.0004
   3574053.58648   2781263.24347  22409937.0054   22409944.3334   22409937.798
        49.0004         44.0004
 14  5 18  1 56  0.0000000  0 11G07G08G10G05G09G02G28G26G17G04G30
   -704718.26246   -520374.40346  24670492.2334   24670498.2444   24670493.175
        41.0004         36.0004
   -982085.03147   -750991.77147  22407345.1104   22407350.8584   22407346.592
        47.0004         42.0004
 -23620686.28548 -18395055.99147  20954626.2714   20954632.5454   20954626.890
        52.0004         47.0004
  -9511115.54147  -7364011.48146  23663879.3744   23663882.9394   23663878.250
        45.0004         41.0004
  -8485787.99348  -6603308.47447  22158344.3174   22158348.5114   22158344.574
        50.0004         45.0004
 -15237599.71848 -11820848.40947  21488593.3294   21488597.0554   21488593.354
        52.0004         47.0004
 -15117002.20848 -11780355.55847  21216291.4344   21216297.4524   21216291.835
        51.0004         47.0004
   1471069.98447   1165597.34746  24523496.1534   24523501.1194   24523494.554
        43.0004         38.0004
  -5507421.30447  -4221014.99146  24003360.3704   24003369.8794   24003359.889
        45.0004         41.0004
 -26622411.55448 -20685244.02948  20840628.4044   20840635.1884   20840628.289
        52.0004         48.0004
   3663465.86048   2850935.18347  22426953.0584   22426958.6954   22426952.501
        49.0004         44.0004
 14  5 18  1 56 30.0000000  0 11G07G08G10G05G09G02G28G26G17G04G30
   -601696.95346   -440098.13946  24690098.4564   24690104.5384   24690097.558
        41.0004         36.0004
   -879391.07247   -670970.46347  22426888.2804   22426892.8154   22426888.467
        46.0004         42.0004
 -23671310.81648 -18434503.66948  20944992.7554   20944998.7904   20944993.524
        52.0004         48.0004
  -9605867.56447  -7437844.18346  23645848.6644   23645852.4604   23645847.266
        45.0004         41.0004
  -8397443.63048  -6534468.62947  22175156.1624   22175159.2944   22175155.748
        50.0004         45.0004
 -15240807.37748 -11823347.93347  21487982.3574   21487986.2964   21487982.932
        52.0004         47.0004
 -15142988.53448 -11800604.58947  21211346.7834   21211352.1894   21211346.951
        51.0004         47.0004
   1480523.63547   1172963.89446  24525293.4264   24525300.0624   24525294.281
        43.0004         38.0004
  -5502720.37447  -4217351.92246  24004255.1524   24004264.5714   24004254.346
        45.0004         41.0004
 -26571833.19848 -20645832.38048  20850253.3674   20850260.3364   20850253.257
        52.0004         48.0004
   3753005.95548   2920706.71447  22443992.9014   22443997.2164   22443991.492
        48.0004         44.0004
 14  5 18  1 57  0.0000000  0 11G07G08G10G05G09G02G28G26G17G04G30
   -498786.92546   -359908.56246  24709680.4494   24709686.8464   24709680.801
        40.0004         36.0004
   -776550.65447   -590835.03047  22446459.1394   22446463.6154   22446458.341
        46.0004         42.0004
 -23721585.39948 -18473678.66548  20935425.5964   20935431.1494   20935426.109
        52.0004         48.0004
  -9700648.33147  -7511699.26746  23627811.8104   23627816.2574   23627811.866
        45.0004         41.0004
  -8308988.74148  -6465542.73547  22191988.1164   22191993.0154   22191988.170
        49.0004         44.0004
 -15243600.70448 -11825524.60347  21487451.0554   21487455.0874   21487451.483
        52.0004         47.0004
 -15168544.21148 -11820518.04447  21206483.4374   21206489.2784   21206483.389
        51.0004         47.0004
   1489816.19347   1180204.90946  24527063.2454   24527068.7264   24527063.784
        43.0004         38.0004
  -5498254.61747  -4213872.10046  24005105.3554   24005113.9934   24005104.690
        45.0004         41.0004
 -26520900.57748 -20606144.68848  20859945.3294   20859952.4804   20859945.012
        52.0004         48.0004
   3842671.94648   2990576.35947  22461054.8634   22461061.0854   22461054.634
        48.0004         44.0004
 14  5 18  1 57 30.0000000  0 11G07G08G10G05G09G02G28G26G17G04G30
   -395989.41746   -279806.68545  24729243.4614   24729250.7524   24729242.729
        40.0004         35.0004
   -673566.24847   -510587.41747  22466055.3334   22466060.3624   22466055.644
        46.0004         42.0004
 -23771506.38748 -18512578.13748  20925925.7504   20925932.0964   20925926.638
        52.0004         48.0004
  -9795455.01847  -7585574.56646  23609771.4964   23609775.2394   23609770.608
        46.0004         41.0004
  -8220425.54648  -6396532.45947  22208841.4404   22208845.6484   22208840.990
        49.0004         44.0004
 -15245979.80948 -11827378.49547  21486998.5504   21487002.3404   21486998.972
        52.0004         47.0004
 -15193665.94648 -11840093.36847  21201703.1794   21201708.6954   21201703.189
        51.0004         47.0004
   1498946.95047   1187319.85146  24528800.7914   24528807.1314   24528800.146
        43.0004         38.0004
  -5494023.38547  -4210575.02546  24005910.7284   24005919.3984   24005910.109
        45.0004         41.0004
 -26469615.62848 -20566182.45548  20869704.8984   20869712.2354   20869704.665
        52.0004         48.0004
   3932461.81348   3060542.51947  22478140.4924   22478147.5424   22478140.429
        48.0004         44.0004
 14  5 18  1 58  0.0000000  0 11G07G08G10G05G09G02G28G26G17G04G30
   -293305.62346   -199793.40445  24748782.8824   24748788.5514   24748781.948
        40.0004         35.0004
   -570440.16447   -430229.39146  22485680.4644   22485685.9114   22485679.865
        46.0004         41.0004
 -23821069.72148 -18551198.94048  20916494.5874   20916500.5434   20916495.120
        52.0004         48.0004
  -9890283.88247  -7659467.14246  23591725.0774   23591729.1644   23591724.822
        46.0004         41.0004
  -8131755.83748  -6327439.22847  22225714.6424   22225719.5594   22225714.542
        49.0004         45.0004
 -15247944.72048 -11828909.63547  21486624.4014   21486628.4624   21486625.091
        52.0004         47.0004
 -15218350.53448 -11859328.05647  21197005.2994   21197011.4694   21197005.743
        51.0004         47.0004
   1507915.05347   1194308.05546  24530505.4494   24530512.9474   24530505.469
        43.0004         38.0004
  -5490025.13947  -4207459.49146  24006671.2654   24006680.5644   24006670.556
        45.0004         40.0004
 -26417979.89048 -20525946.87348  20879530.5954   20879537.9624   20879530.238
        52.0004         48.0004
   4022373.79348   3130603.81347  22495250.4444   22495257.1684   22495249.822
        48.0004         44.0004
 14  5 18  1 58 30.0000000  0 11G07G08G10G05G09G02G28G26G17G04G30
   -190741.18846   -119873.13045  24768298.4744   24768307.1534   24768300.001
        39.0004         34.0004
   -467179.18847   -349766.24647  22505329.0324   22505335.9294   22505329.741
        46.0004         42.0004
 -23870275.80248 -18589541.34248  20907130.4014   20907136.9184   20907131.347
        52.0004         48.0004
  -9985136.09147  -7733377.91846  23573676.0344   23573679.9184   23573675.238
        46.0004         41.0004
  -8042985.96348  -6258267.97647  22242607.1104   22242611.2304   22242606.767
        49.0004         44.0004
 -15249500.42848 -11830121.91747  21486329.1754   21486332.6574   21486329.224
        52.0004         47.0004
 -15242598.92548 -11878222.85547  21192391.3514   21192397.2294   21192391.379
        51.0004         47.0004
   1516716.06947   1201166.05846  24532181.5634   24532188.2034   24532181.339
        43.0004         38.0004
  -5486262.57447  -4204527.60446  24007387.5994   24007396.1574   24007386.660
        45.0004         40.0004
 -26365999.42948 -20485442.68148  20889422.4624   20889429.3594   20889421.944
        52.0004         48.0004
   4112401.60948   3200755.36647  22512382.9974   22512389.3414   22512381.923
        48.0004         44.0004
 14  5 18  1 59  0.0000000  0 11G07G08G10G05G09G02G28G26G17G04G30
    -88294.72146    -40044.79645  24787796.7334   24787803.4534   24787796.050
        39.0004         34.0004
   -363783.44247   -269198.10246  22525004.1934   22525009.8534   22525005.171
        46.0004         41.0004
 -23919118.70548 -18627600.74048  20897836.5524   20897841.8044   20897837.296
        52.0004         48.0004
 -10080005.83747  -7807302.34446  23555621.8814   23555626.7294   23555622.102
        46.0004         41.0004
  -7954115.82948  -6189018.61047  22259518.5014   22259523.8074   22259518.924
        49.0004         45.0004
 -15250644.86948 -11831013.73047  21486111.0574   21486114.4544   21486110.702
        52.0004         47.0004
 -15266405.68448 -11896773.52147  21187861.0764   21187866.8484   21187861.017
        51.0004         47.0004
   1525351.21647   1207894.79446  24533824.6874   24533831.1344   24533824.889
        43.0004         38.0004
  -5482732.22747  -4201776.66346  24008058.5884   24008068.0294   24008058.194
        45.0004         41.0004
 -26313673.79448 -20444669.52047  20899379.5164   20899386.4704   20899379.149
        52.0004         47.0004
   4202545.66548   3270997.51847  22529534.7964   22529542.0664   22529535.648
        48.0004         44.0004
 14  5 18  1 59 30.0000000  0 11G07G08G10G05G09G02G28G26G17G04G30
     14030.17946     39688.80645  24807268.5014   24807274.0444   24807267.382
        39.0004         34.0004
   -260257.01047   -188528.11646  22544705.2764   22544710.5934   22544705.777
        46.0004         41.0004
 -23967597.08648 -18665376.09948  20888611.3884   20888617.1404   20888611.809
        52.0004         48.0004
 -10174891.77347  -7881239.40046  23537566.4214   23537570.6404   23537565.585
        46.0004         41.0004
  -7865149.28948  -6119694.10347  22276448.2344   22276452.7464   22276448.176
        49.0004         45.0004
 -15251380.26048 -11831586.80047  21485970.6864   21485974.4604   21485971.294
        52.0004         47.0004
 -15289769.66348 -11914979.16647  21183414.9064   21183420.7864   21183415.093
        51.0004         47.0004
   1533817.87147   1214492.25246  24535435.5604   24535441.4074   24535434.642
        43.0004         38.0004
  -5479434.81047  -4199207.23146  24008686.0354   24008695.7524   24008686.167
        45.0004         41.0004
 -26261006.71248 -20403630.29948  20909402.3934   20909409.3864   20909401.672
        52.0004         48.0004
   4292802.09248   3341327.21947  22546711.7014   22546718.9234   22546711.213
        48.0004         44.0004
 14  5 18  2  0  0.0000000  0 11G07G08G10G05G09G02G28G26G17G04G30
    116231.07446    119325.79345  24826714.8854   24826718.6864   24826715.391
        39.0004         34.0004
   -156603.62847   -107759.19746  22564429.8794   22564435.5194   22564430.600
        46.0004         41.0004
 -24015708.52848 -18702865.51748  20879456.0484   20879461.7414   20879456.564
        52.0004         48.0004
 -10269792.35247  -7955187.86146  23519507.2094   23519511.3554   23519506.511
        46.0004         41.0004
  -7776089.63648  -6050297.01247  22293395.2764   22293400.2864   22293395.466
        49.0004         45.0004
 -15251708.19548 -11831842.37047  21485908.9304   21485911.8814   21485909.172
        52.0004         47.0004
 -15312688.73548 -11932838.12747  21179053.2954   21179058.8214   21179053.701
        51.0004         47.0004
   1542114.16047   1220956.95246  24537013.9764   24537020.0234   24537013.490
        43.0004         38.0004
  -5476370.09547  -4196819.12746  24009269.5904   24009278.8204   24009269.340
        45.0004         41.0004
 -26208001.22548 -20362327.38847  20919488.2824   20919495.8634   20919488.066
        52.0004         47.0004
   4383167.75548   3411742.03547  22563906.9704   22563913.8424   22563906.923
        48.0004         43.0004
