     2.11           OBSERVATION DATA    G (GPS)             RINEX VERSION / TYPE
teqc  2008Oct2      gpsops              20090206 17:16:56UTCPGM / RUN BY / DATE
    30.0000                                                 INTERVAL
     1     1                                                WAVELENGTH FACT L1/2
     7    L1    L2    P1    P2    C1    S1    S2            # / TYPES OF OBSERV
Linux 2.4.20-8|Pentium IV|gcc -static|Linux|486/DX+         COMMENT
     2.10           OBSERVATION DATA    GPS                 COMMENT
soc2rnx ver 1.20    gpsops               6-Feb-2009 17:16:55COMMENT
S1, if present, is the SNR for the C/A data stream on L1.   COMMENT
 SNR is mapped to RINEX snr flag value [1,4-9]              COMMENT
    SNR:   >316  >100  >31.6  >10  >3.2    >0 bad=0         COMMENT
L1 & L2:      9     8     7     6     5     4     1         COMMENT
                                                            COMMENT
This data is provided as a public service by NASA/JPL.      COMMENT
No warranty is expressed or implied regarding suitability   COMMENT
for use.  For further information, contact:                 COMMENT
Dave Stowers, NASA/JPL m/s 238-600                          COMMENT
4800 Oak Grove Drive, Pasadena CA 91109 USA                 COMMENT
                                                            COMMENT
Forced Modulo Decimation to 30 seconds                      COMMENT
  2009     1    28     0     0    0.0000000     GPS         TIME OF FIRST OBS
GGN                 JPL                                     OBSERVER / AGENCY
CR519992104         ASH701945B_M    SCIT                    ANT # / TYPE
   -33801.4662 -6377516.5323   -82154.3508                  APPROX POSITION XYZ
        0.0083        0.0000        0.0000                  ANTENNA: DELTA H/E/N
ZR220013847         ASHTECH UZ-12       CQ00                REC # / TYPE / VERS
GLPS                                                        MARKER NAME
42005M002                                                   MARKER NUMBER
                                                            END OF HEADER
 09  1 28  0  0  0.0000000  0 12G 5G30G 9G14G 6G18G24G22G29G31G12G21
 123677689.20447  96372207.19647  23535096.2984   23535098.9864   23535096.6474
        45.000          40.000
 120296847.01047  93737794.91447  22891735.2444   22891737.5234   22891735.1094
        49.000          42.000
 124724422.81847  97187850.84847  23734275.7984   23734279.2054   23734275.7824
        44.000          38.000
 117345781.20947  91438258.83847  22330169.2854   22330170.4244   22330168.5884
        49.000          43.000
 126346772.84647  98452006.58847  24043010.4604   24043014.4014   24043011.4944
        43.000          37.000
 120914362.38047  94218971.36647  23009248.7204   23009249.0414   23009247.8694
        47.000          41.000
 118414947.22747  92271371.83347  22533627.0354   22533630.7974   22533626.4704
        48.000          42.000
 124210809.82847  96787647.21447  23636527.9884   23636528.3684   23636528.7924
        46.000          39.000
 124317253.46047  96870571.55647  23656799.0054   23656801.6614   23656798.3364
        45.000          40.000
 114761460.67147  89424504.85247  21838386.8244   21838388.3024   21838386.4464
        52.000          46.000
 128385636.36147 100040743.13447  24430983.4614   24430985.6654   24430982.5374
        45.000          39.000
 104853467.85447  81704010.80647  19952941.8804   19952943.7404   19952942.5924
        54.000          49.000
 09  1 28  0  0 30.0000000  0 12G 5G30G 9G14G 6G18G24G22G29G31G12G21
 123672632.89247  96368267.22147  23534133.9164   23534137.3504   23534134.2434
        46.000          40.000
 120269877.28547  93716779.55947  22886602.6754   22886605.7734   22886602.4334
        49.000          42.000
 124824597.72847  97265909.22447  23753338.2434   23753341.8284   23753338.3024
        44.000          37.000
 117381678.01047  91466230.39147  22336999.4644   22337001.7904   22337000.0124
        49.000          44.000
 126321889.60547  98432617.04347  24038276.3134   24038278.7904   24038276.0134
        44.000          38.000
 120877863.91347  94190531.01347  23002302.0164   23002304.0304   23002302.5154
        48.000          41.000
 118488325.20947  92328549.46147  22547590.0164   22547594.6104   22547590.0884
        48.000          42.000
 124169247.00947  96755260.65047  23628619.6204   23628620.0984   23628619.4294
        46.000          39.000
 124387112.71647  96925007.30447  23670092.4444   23670095.9234   23670092.1924
        45.000          40.000
 114677668.50647  89359212.27647  21822442.0364   21822443.8194   21822441.5134
        52.000          46.000
 128394237.82647 100047445.61347  24432619.8334   24432621.9454   24432619.5294
        45.000          39.000
 104859578.57647  81708772.41047  19954104.9144   19954106.3244   19954105.2924
        54.000          49.000
 09  1 28  0  1  0.0000000  0 12G 5G30G 9G14G 6G18G24G22G29G31G12G21
 123667773.57647  96364480.77647  23533209.4684   23533212.9244   23533209.9354
        46.000          40.000
 120242953.57247  93695800.04947  22881479.2504   22881482.2824   22881478.8004
        49.000          42.000
 124925023.17447  97344162.83447  23772448.9064   23772451.8194   23772448.7634
        44.000          37.000
 117417747.92947  91494336.83947  22343863.1264   22343865.7854   22343863.4554
        49.000          44.000
 126297270.07847  98413433.02147  24033590.6224   24033595.0334   24033590.7874
        44.000          38.000
 120841290.04947  94162031.91147  22995342.6984   22995344.1954   22995342.9674
        48.000          41.000
 118562063.63047  92386007.95747  22561622.0074   22561626.4504   22561622.1124
        48.000          42.000
 124127485.16247  96722718.97247  23620672.5164   23620672.8984   23620671.9384
        45.000          40.000
 124456830.40347  96979332.72247  23683359.5034   23683362.4964   23683358.8624
        44.000          39.000
 114594219.97747  89294187.45947  21806562.2044   21806564.0334   21806561.7604
        52.000          46.000
 128403014.67547 100054284.75547  24434290.1824   24434292.4094   24434289.7554
        44.000          39.000
 104866308.12947  81714016.22347  19955385.5164   19955386.9424   19955386.0484
        54.000          50.000
 09  1 28  0  1 30.0000000  0 12G 5G30G 9G14G 6G18G24G22G29G31G12G21
 123663111.51347  96360848.01647  23532321.8504   23532325.5614   23532322.2604
        45.000          40.000
 120216076.58447  93674856.95347  22876365.0194   22876367.6854   22876364.8594
        49.000          42.000
 125025694.84847  97422608.33347  23791606.1354   23791609.3404   23791606.0284
        45.000          37.000
 117453986.51247  91522574.70747  22350759.0974   22350761.6194   22350759.3274
        49.000          44.000
 126272911.49347  98394452.31547  24028955.9414   24028959.2034   24028956.2794
        44.000          38.000
 120804641.28847  94133474.42747  22988368.5514   22988370.1554   22988368.8614
        48.000          41.000
 118636158.93247  92443744.55047  22575722.1504   22575725.9544   22575722.1474
        48.000          42.000
 124085523.42747  96690021.53247  23612687.1874   23612688.0494   23612687.0464
        47.000          40.000
 124526403.52347  97033545.51247  23696598.8884   23696602.2884   23696598.1584
        44.000          40.000
 114511116.28147  89229431.34247  21790748.2554   21790749.7814   21790747.9074
        52.000          46.000
 128411967.08447 100061260.70747  24435993.2294   24435995.7984   24435992.5724
        44.000          39.000
 104873655.17747  81719741.19947  19956783.5704   19956785.0674   19956783.9584
        54.000          49.000
 09  1 28  0  2  0.0000000  0 12G 5G30G 9G14G 6G18G24G22G29G31G12G21
 123658648.73947  96357370.56047  23531472.8224   23531476.2434   23531473.3544
        45.000          40.000
 120189248.42747  93653951.90647  22871259.2854   22871262.5424   22871259.2384
        49.000          42.000
 125126609.87747  97501243.44747  23810809.7744   23810813.1684   23810809.8584
        44.000          37.000
 117490391.13647  91550941.97347  22357686.6634   22357689.2564   22357686.9374
        49.000          44.000
 126248812.58947  98375673.96147  24024369.9714   24024373.6134   24024369.6894
        43.000          38.000
 120767918.94947  94104859.62247  22981380.6464   22981382.1334   22981381.0544
        48.000          41.000
 118710609.10347  92501757.65547  22589889.4914   22589893.0854   22589889.9084
        48.000          42.000
 124043362.22147  96657168.67147  23604664.6994   23604664.9494   23604664.8474
        48.000          40.000
 124595830.37747  97087644.33047  23709810.1094   23709813.5544   23709809.8924
        45.000          39.000
 114428360.27447  89164946.15447  21775000.2644   21775001.6014   21774999.8614
        52.000          46.000
 128421096.78647 100068374.80747  24437730.7654   24437733.1224   24437730.3414
        44.000          39.000
 104881619.49447  81725947.16147  19958298.9414   19958300.6034   19958299.3184
        54.000          49.000
 09  1 28  0  2 30.0000000  0 12G 5G30G 9G14G 6G18G24G22G29G31G12G21
 123654388.06747  96354050.56947  23530661.6744   23530665.6964   23530661.7944
        44.000          40.000
 120162472.27847  93633087.37647  22866164.1534   22866167.3564   22866164.0744
        48.000          42.000
 125227766.35547  97580066.71347  23830059.2974   23830062.1134   23830059.2994
        44.000          37.000
 117526960.08347  91579437.27447  22364645.6954   22364647.9824   22364645.8454
        49.000          44.000
 126224973.11047  98357097.74047  24019833.7644   24019836.9204   24019833.8444
        44.000          38.000
 120731126.29147  94076190.02847  22974379.2964   22974380.8504   22974379.8854
        48.000          41.000
 118785412.79047  92560046.23847  22604124.3794   22604128.0364   22604124.4754
        48.000          42.000
 124001003.69147  96624162.04447  23596603.9704   23596604.0094   23596604.1464
        47.000          40.000
 124665109.97447  97141628.40447  23722993.5174   23722996.9324   23722993.4864
        44.000          40.000
 114345955.55947  89100734.70347  21759318.8314   21759320.5214   21759318.4704
        52.000          46.000
 128430406.18847 100075628.91847  24439502.2634   24439504.5094   24439501.7414
        44.000          39.000
 104890202.25147  81732635.02047  19959932.2394   19959933.8584   19959932.6094
        54.000          49.000
 09  1 28  0  3  0.0000000  0 12G 5G30G 9G14G 6G18G24G22G29G31G12G21
 123650330.80847  96350889.08947  23529889.8404   23529893.4174   23529890.3914
        45.000          39.000
 120135749.84447  93612264.70247  22861078.9884   22861081.9564   22861078.5784
        48.000          42.000
 125329160.53947  97659075.21247  23849353.3494   23849357.2274   23849353.7244
        44.000          37.000
 117563689.46247  91608057.58447  22371635.0274   22371637.4144   22371635.2294
        49.000          43.000
 126201391.12347  98338722.17847  24015345.7574   24015349.5674   24015345.8334
        43.000          38.000
 120694264.44947  94047466.52347  22967364.4854   22967366.0244   22967364.9124
        49.000          42.000
 118860567.46547  92618608.30347  22618425.6744   22618429.8934   22618425.9094
        48.000          42.000
 123958448.11547  96591001.87347  23588505.7924   23588506.0504   23588505.9644
        47.000          40.000
 124734240.41847  97195496.24147  23736148.9104   23736152.1634   23736148.3054
        44.000          39.000
 114263904.11047  89036798.51647  21743705.1364   21743706.5384   21743704.4224
        52.000          46.000
 128439896.31747 100083023.85747  24441308.0124   24441310.7304   24441307.9084
        45.000          39.000
 104899402.59947  81739804.12247  19961683.0384   19961684.6084   19961683.3294
        54.000          49.000
 09  1 28  0  3 30.0000000  0 12G 5G30G 9G14G 6G18G24G22G29G31G12G21
 123646479.88047  96347888.38547  23529156.7654   23529160.3734   23529157.2054
        45.000          40.000
 120109084.01147  93591486.15247  22856004.7244   22856007.6284   22856004.2514
        48.000          42.000
 125430790.81647  97738267.66347  23868693.6604   23868696.4524   23868693.5384
        44.000          37.000
 117600578.21047  91636802.08047  22378654.6294   22378657.3214   22378654.7934
        49.000          43.000
 126178066.42747  98320547.07947  24010907.4974   24010910.9944   24010907.6334
        43.000          38.000
 120657335.93247  94018691.06647  22960337.3464   22960339.1294   22960337.7784
        48.000          42.000
 118936071.86547  92677442.89147  22632793.7644   22632797.6934   22632793.7814
        48.000          42.000
 123915696.98347  96557689.32547  23580370.4594   23580371.3284   23580370.6584
        47.000          41.000
 124803221.20647  97249247.47147  23749275.5044   23749279.2054   23749274.8554
        44.000          40.000
 114182209.36147  88973140.28947  21728159.2574   21728160.5114   21728158.9874
        52.000          46.000
 128449569.71347 100090561.60747  24443149.0924   24443151.4154   24443148.5774
        44.000          39.000
 104909221.24347  81747455.01547  19963551.5064   19963552.9614   19963551.9354
        54.000          49.000
 09  1 28  0  4  0.0000000  0 12G 5G30G 9G14G 6G18G24G22G29G31G12G21
 123642835.34947  96345048.51847  23528463.3114   23528467.4264   23528463.9004
        45.000          40.000
 120082475.04547  93570751.90247  22850940.9884   22850943.8714   22850940.5074
        49.000          42.000
 125532652.14347  97817640.17547  23888076.9574   23888079.7094   23888077.1134
        43.000          37.000
 117637621.50047  91665667.00547  22385703.7784   22385706.1014   22385704.1884
        49.000          44.000
 126154996.06347  98302570.17947  24006517.3794   24006520.7884   24006517.1824
        44.000          38.000
 120620340.96747  93989863.82947  22953297.4254   22953299.0004   22953297.6884
        48.000          42.000
 119011922.20547  92736547.03347  22647227.6524   22647231.6374   22647227.8364
        48.000          42.000
 123872749.63347  96524223.88147  23572197.6594   23572198.6544   23572197.8294
        46.000          40.000
 124872048.69947  97302879.24947  23762372.8884   23762376.5144   23762372.4884
        44.000          40.000
 114100872.29847  88909760.76947  21712681.2134   21712682.4464   21712680.7854
        52.000          46.000
 128459426.10647 100098241.94347  24445024.0704   24445026.6564   24445023.9164
        43.000          39.000
 104919656.54847  81755586.42347  19965537.0804   19965538.6924   19965537.4754
        54.000          49.000
 09  1 28  0  4 30.0000000  0 12G 5G30G 9G14G 6G18G24G22G29G31G12G21
 123639403.23247  96342374.15647  23527810.2224   23527813.9824   23527810.5664
        45.000          40.000
 120055929.36047  93550066.97247  22845889.6664   22845892.4284   22845889.3674
        48.000          42.000
 125634745.76947  97897193.67447  23907504.8774   23907507.3874   23907505.0304
        43.000          37.000
 117674820.68447  91694653.39947  22392782.2934   22392784.8664   22392782.7274
        49.000          43.000
 126132182.64847  98284793.50547  24002176.4494   24002179.3244   24002176.3574
        42.000          38.000
 120583285.31047  93960989.30847  22946246.0834   22946247.6274   22946246.5974
        48.000          42.000
 119088120.17147  92795922.06447  22661727.6984   22661731.6734   22661727.6354
        48.000          42.000
 123829610.49647  96490608.98147  23563988.4614   23563989.2144   23563988.4024
        47.000          40.000
 124940725.45747  97356393.58147  23775441.6954   23775445.0414   23775441.2134
        44.000          40.000
 114019899.76647  88846665.30047  21697272.6724   21697274.0604   21697272.2804
        52.000          46.000
 128469471.31747 100106069.42347  24446936.1154   24446938.3144   24446935.8504
        44.000          39.000
 104930712.03547  81764201.09047  19967641.0794   19967642.4164   19967641.3864
        54.000          49.000
 09  1 28  0  5  0.0000000  0 12G 5G30G 9G14G 6G18G24G22G29G31G12G21
 123636183.03047  96339864.93747  23527197.5164   23527201.3524   23527198.2254
        45.000          40.000
 120029446.96647  93529431.34847  22840849.9664   22840853.0924   22840849.5024
        49.000          42.000
 125737066.27147  97976923.96447  23926976.2434   23926978.2984   23926976.1564
        42.000          36.000
 117712170.79447  91723757.39847  22399890.1034   22399892.0744   22399890.1534
        49.000          43.000
 126109622.70847  98267214.34847  23997882.7844   23997886.3094   23997882.5444
        42.000          37.000
 120546168.80247  93932067.36147  22939183.1124   22939184.3594   22939183.3454
        48.000          42.000
 119164661.43847  92855564.59147  22676293.1184   22676297.0384   22676293.2704
        48.000          42.000
 123786278.39147  96456843.73147  23555742.7734   23555743.2494   23555742.7914
        46.000          40.000
 125009247.45047  97409787.31247  23788481.0204   23788483.9474   23788481.0434
        45.000          40.000
 113939291.87747  88783853.97047  21681933.5174   21681935.0004   21681933.1534
        52.000          47.000
 128479704.49947 100114043.35347  24448883.3024   24448885.5754   24448882.8974
        44.000          39.000
 104942385.53747  81773297.32847  19969862.5484   19969863.7854   19969862.9064
        54.000          49.000
 09  1 28  0  5 30.0000000  0 12G 5G30G 9G14G 6G18G24G22G29G31G12G21
 123633175.16147  96337521.16147  23526625.2084   23526628.7874   23526625.4324
        45.000          40.000
 120003028.08747  93508845.23147  22835823.1254   22835825.5704   22835822.8054
        49.000          42.000
 125839608.97547  98056827.38547  23946488.7124   23946491.8774   23946489.0514
        41.000          37.000
 117749667.60447  91752975.70847  22407025.2854   22407027.5284   22407025.4384
        49.000          43.000
 126087313.47447  98249830.53247  23993637.5604   23993640.6324   23993637.7684
        43.000          37.000
 120508991.37747  93903097.94947  22932108.5594   22932109.9284   22932108.7584
        48.000          41.000
 119241542.52347  92915471.91647  22690923.0704   22690927.1654   22690923.2414
        48.000          42.000
 123742752.40847  96422927.39947  23547459.9854   23547460.4814   23547459.8824
        47.000          40.000
 125077612.06947  97463058.41147  23801490.9694   23801493.5424   23801490.6484
        46.000          40.000
 113859049.88947  88721327.75647  21666663.8554   21666665.3534   21666663.4114
        52.000          46.000
 128490125.93847 100122163.99947  24450866.6084   24450868.8584   24450866.6114
        44.000          39.000
 104954675.13947  81782873.64547  19972201.1404   19972202.5364   19972201.5064
        54.000          49.000
 09  1 28  0  6  0.0000000  0 12G 5G30G 9G14G 6G18G24G22G29G31G12G21
 123630384.28647  96335346.46647  23526094.0044   23526097.7624   23526094.5904
        46.000          40.000
 119976678.05147  93488312.74147  22830808.5774   22830811.2154   22830808.4364
        49.000          42.000
 125942373.95547  98136904.02247  23966044.1204   23966047.2574   23966044.2424
        41.000          37.000
 117787310.98447  91782308.22147  22414188.3234   22414190.8944   22414188.6574
        49.000          43.000
 126065256.37547  98232643.20247  23989440.0614   23989443.7054   23989440.7064
        43.000          37.000
 120471757.68147  93874084.70047  22925022.7474   22925024.3104   22925023.1344
        48.000          41.000
 119318763.76747  92975644.30047  22705617.8184   22705621.7874   22705617.6934
        48.000          42.000
 123699036.02747  96388862.69847  23539141.5254   23539141.7054   23539141.3754
        47.000          40.000
 125145820.20847  97516207.56247  23814470.5234   23814473.4454   23814470.5104
        45.000          40.000
 113779179.35947  88659090.99947  21651464.7364   21651466.5954   21651464.4714
        52.000          46.000
 128500740.01947 100130434.74947  24452886.2674   24452888.7294   24452886.1214
        44.000          39.000
 104967583.26447  81792931.92547  19974657.3554   19974658.8874   19974657.7274
        54.000          49.000
 09  1 28  0  6 30.0000000  0 12G 5G30G 9G14G 6G18G24G22G29G31G12G21
 123627810.68647  96333341.07947  23525604.7494   23525608.1854   23525605.2184
        46.000          40.000
 119950397.37847  93467834.31247  22825807.6654   22825810.2884   22825807.3974
        48.000          42.000
 126045356.86147  98217150.44547  23985641.4414   23985644.4134   23985641.0374
        41.000          37.000
 117825096.86447  91811751.77947  22421379.1484   22421381.2714   22421379.3534
        49.000          44.000
 126043448.52947  98215650.06647  23985290.1664   23985294.2874   23985290.3414
        42.000          37.000
 120434468.15747  93845027.93747  22917926.7974   22917928.3004   22917926.9864
        48.000          41.000
 119396321.32047  93036078.73947  22720376.2674   22720380.3074   22720376.7144
        48.000          42.000
 123655128.76247  96354649.26547  23530786.1534   23530786.3024   23530786.0424
        46.000          40.000
 125213868.76147  97569232.38547  23827419.5434   23827422.8164   23827419.2234
        45.000          40.000
 113699680.98047  88597144.22047  21636336.5794   21636338.5394   21636335.8744
        52.000          46.000
 128511546.54747 100138855.43047  24454942.6864   24454944.8474   24454942.1664
        44.000          39.000
 104981108.23947  81803470.86547  19977231.1354   19977232.4114   19977231.5594
        54.000          49.000
 09  1 28  0  7  0.0000000  0 12G 5G30G 9G14G 6G18G24G22G29G31G12G21
 123625458.60247  96331508.30947  23525156.9134   23525160.4904   23525157.2634
        45.000          40.000
 119924190.73147  93447413.56447  22820820.6224   22820823.3654   22820820.1514
        49.000          42.000
 126148556.94847  98297566.10147  24005279.3894   24005282.5974   24005279.4324
        40.000          37.000
 117863024.76447  91841306.00747  22428596.5574   22428598.4894   22428596.8394
        49.000          43.000
 126021890.96647  98198851.97247  23981188.3774   23981191.5174   23981188.7174
        43.000          38.000
 120397127.09547  93815931.02047  22910821.0714   22910822.8194   22910821.4544
        48.000          41.000
 119474215.50547  93096775.50447  22735199.2114   22735203.1954   22735199.1924
        48.000          42.000
 123611033.76647  96320289.55047  23522394.9364   23522395.2114   23522394.9844
        46.000          40.000
 125281758.60947  97622133.52447  23840338.8784   23840341.0844   23840338.7694
        45.000          40.000
 113620559.90747  88535491.45047  21621280.3554   21621282.1144   21621280.1804
        52.000          46.000
 128522549.52147 100147429.19547  24457036.3824   24457038.5144   24457036.2654
        44.000          39.000
 104995251.83047  81814491.84547  19979922.4814   19979923.9374   19979922.9384
        54.000          49.000
 09  1 28  0  7 30.0000000  0 12G 5G30G 9G14G 6G18G24G22G29G31G12G21
 123623327.30547  96329847.57247  23524751.3874   23524755.0504   23524752.1164
        45.000          40.000
 119898057.27947  93427049.84947  22815847.7454   22815850.2704   22815847.3144
        49.000          42.000
 126251968.70147  98378146.72147  24024958.1994   24024960.9104   24024958.3204
        42.000          37.000
 117901089.17547  91870966.60447  22435839.9734   22435842.4294   22435840.1134
        49.000          43.000
 126000579.60947  98182245.72647  23977133.1964   23977136.2284   23977132.4234
        43.000          38.000
 120359733.58947  93786793.22847  22903705.2524   22903707.0654   22903705.5164
        48.000          41.000
 119552441.47447  93157730.79647  22750084.8564   22750089.0414   22750084.8324
        48.000          42.000
 123566749.12447  96285782.05247  23513967.9714   23513968.0894   23513968.1474
        46.000          40.000
 125349485.55947  97674907.74347  23853227.0994   23853228.8544   23853226.8764
        45.000          39.000
 113541816.03547  88474132.60447  21606295.9884   21606297.4654   21606295.4794
        52.000          47.000
 128533748.03947 100156155.32547  24459167.7834   24459169.8304   24459166.8124
        44.000          38.000
 105010011.17447  81825992.63247  19982731.0484   19982732.6024   19982731.4694
        54.000          49.000
 09  1 28  0  8  0.0000000  0 12G 5G30G 9G14G 6G18G24G22G29G31G12G21
 123621419.31647  96328360.86447  23524387.9424   23524391.2854   23524388.5194
        44.000          39.000
 119872000.25847  93406745.68947  22810889.1524   22810892.0634   22810888.8394
        49.000          42.000
 126355589.72947  98458890.37447  24044676.6994   24044679.5794   24044677.2634
        42.000          37.000
 117939288.47847  91900732.31747  22443109.0774   22443111.6154   22443109.3654
        49.000          43.000
 125979514.06347  98165831.02247  23973123.3624   23973127.4514   23973123.9084
        42.000          37.000
 120322290.39347  93757616.72547  22896579.6364   22896582.1224   22896580.3824
        48.000          41.000
 119630997.71347  93218943.43647  22765033.6004   22765037.8394   22765034.2114
        48.000          42.000
 123522276.64447  96251128.18947  23505505.1114   23505505.1134   23505505.1104
        46.000          40.000
 125417049.05447  97727554.59447  23866083.8454   23866085.8454   23866083.4514
        45.000          39.000
 113463452.75447  88413070.32147  21591384.2334   21591385.6214   21591383.8694
        53.000          47.000
 128545144.26247 100165035.54347  24461335.6014   24461337.7104   24461335.4244
        44.000          38.000
 105025386.75047  81837973.60147  19985657.0564   19985658.4774   19985657.3954
        54.000          49.000
 09  1 28  0  8 30.0000000  0 12G 5G30G 9G14G 6G18G24G22G29G31G12G21
 123619738.55447  96327051.19647  23524067.9394   23524071.7554   23524068.5214
        45.000          39.000
 119846023.48747  93386504.06147  22805946.0884   22805948.8184   22805945.6114
        49.000          43.000
 126459418.98747  98539796.31447  24064435.0514   24064437.5104   24064435.3974
        43.000          38.000
 117977621.79547  91930602.45947  22450403.5314   22450405.6414   22450403.6274
        49.000          43.000
 125958694.88447  98149608.29747  23969162.0054   23969165.5504   23969162.0444
        43.000          38.000
 120284801.46447  93728404.57147  22889446.1024   22889447.4314   22889446.6484
        48.000          41.000
 119709884.03147  93280413.27847  22780045.1174   22780049.4404   22780045.1774
        48.000          41.000
 123477619.25447  96216330.25947  23497007.0024   23497007.0944   23497006.8304
        47.000          40.000
 125484449.77447  97780074.61647  23878909.9854   23878912.0544   23878909.8254
        45.000          39.000
 113385474.71247  88352308.22247  21576545.5524   21576546.8754   21576545.2774
        53.000          47.000
 128556741.53847 100174072.39247  24463543.3654   24463545.1474   24463542.6104
        44.000          38.000
 105041380.00747  81850435.87647  19988700.4804   19988701.8024   19988700.9064
        54.000          49.000
 09  1 28  0  9  0.0000000  0 12G 5G30G 9G14G 6G18G24G22G29G31G12G21
 123618284.59547  96325918.25847  23523790.9034   23523794.7444   23523791.6064
        44.000          39.000
 119820127.01447  93366325.01347  22801017.9244   22801020.9844   22801017.6734
        49.000          43.000
 126563451.33047  98620860.50447  24084232.0734   24084234.6604   24084232.2824
        43.000          38.000
 118016084.18147  91960573.16947  22457722.6394   22457725.1664   22457722.9264
        49.000          43.000
 125938118.54447  98133574.80047  23965246.7654   23965250.5434   23965246.6864
        42.000          37.000
 120247266.39647  93699156.46347  22882303.6344   22882305.0264   22882304.0374
        48.000          41.000
 119789095.83947  93342136.74847  22795119.0544   22795123.3334   22795119.1674
        48.000          42.000
 123432775.60247  96181387.17047  23488473.2294   23488473.8914   23488473.2394
        47.000          40.000
 125551683.78447  97832464.72247  23891704.3434   23891706.4014   23891703.8274
        44.000          39.000
 113307881.97047  88291846.35747  21561780.1654   21561781.4454   21561779.7654
        53.000          47.000
 128568539.35447 100183265.53247  24465787.9304   24465789.9324   24465787.3894
        43.000          38.000
 105057988.32247  81863377.41747  19991860.9994   19991862.2954   19991861.4774
        54.000          49.000
 09  1 28  0  9 30.0000000  0 12G 5G30G 9G14G 6G18G24G22G29G31G12G21
 123617062.11747  96324965.72047  23523558.1954   23523562.3644   23523558.6674
        45.000          39.000
 119794316.25647  93346212.74447  22796106.1274   22796108.6794   22796105.8194
        49.000          43.000
 126667686.52747  98702082.74147  24104066.8754   24104069.3804   24104067.3574
        44.000          38.000
 118054675.72247  91990644.51447  22465066.4344   22465068.8524   22465066.6324
        49.000          43.000
 125917786.43347  98117731.61447  23961377.3184   23961381.3864   23961377.5854
        42.000          37.000
 120209689.84447  93669876.03547  22875152.5314   22875154.5774   22875153.1694
        48.000          41.000
 119868633.96547  93404114.48947  22810254.8374   22810258.9314   22810255.1334
        48.000          42.000
 123387749.50647  96146301.92247  23479905.1684   23479905.4214   23479905.2134
        46.000          40.000
 125618752.43747  97884725.97847  23904466.8964   23904469.4434   23904466.3354
        44.000          39.000
 113230680.21647  88231689.16747  21547089.1204   21547090.6014   21547088.6934
        53.000          47.000
 128580542.04247 100192618.28847  24468071.5844   24468073.9014   24468070.9124
        44.000          38.000
 105075213.95847  81876799.99147  19995138.9564   19995140.2454   19995139.3474
        54.000          49.000
 09  1 28  0 10  0.0000000  0 12G 5G30G 9G14G 6G18G24G22G29G31G12G21
 123616070.50947  96324193.06647  23523369.8624   23523373.3484   23523370.3164
        45.000          39.000
 119768590.73447  93326166.91647  22791211.0824   22791213.5834   22791210.7714
        48.000          43.000
 126772119.19447  98783458.86647  24123939.7614   24123942.5564   24123940.0004
        43.000          38.000
 118093391.22647  92020812.45647  22472433.5504   22472435.8914   22472433.8694
        49.000          43.000
 125897694.77047  98102075.79347  23957553.8944   23957558.0814   23957554.4464
        43.000          37.000
 120172071.29347  93640562.88047  22867994.3204   22867996.1974   22867994.8474
        48.000          41.000
 119948493.51847  93466342.71747  22825451.6104   22825455.6224   22825451.8634
        48.000          41.000
 123342539.59847  96111073.43447  23471302.0594   23471302.1264   23471302.0594
        46.000          40.000
 125685652.06447  97936855.51847  23917196.9464   23917199.8534   23917196.3724
        44.000          39.000
 113153869.46647  88171836.64247  21532472.3834   21532473.9494   21532471.8324
        53.000          47.000
 128592748.87347 100202130.15747  24470394.7184   24470396.6934   24470394.3664
        44.000          38.000
 105093054.04047  81890701.35547  19998533.7944   19998535.1124   19998534.1784
        54.000          49.000
 09  1 28  0 10 30.0000000  0 12G 5G30G 9G14G 6G18G24G22G29G31G12G21
 123615313.29647  96323603.05547  23523225.7044   23523229.5284   23523226.4424
        45.000          39.000
 119742954.39847  93306190.56647  22786332.1634   22786335.4224   22786331.8844
        49.000          42.000
 126876748.28147  98864988.04747  24143849.9034   24143853.0274   24143850.0284
        44.000          38.000
 118132229.73147  92051076.23847  22479823.9824   22479826.5554   22479824.4704
        49.000          43.000
 125877843.86847  98086607.56147  23953776.4104   23953780.3894   23953776.6764
        43.000          37.000
 120134414.36247  93611219.82147  22860828.3794   22860830.2794   22860828.9084
        48.000          41.000
 120028673.68047  93528820.75447  22840709.4324   22840713.2584   22840709.3474
        48.000          41.000
 123297148.04247  96075703.42047  23462664.2394   23462664.5634   23462664.2124
        46.000          40.000
 125752382.79347  97988853.45647  23929895.7294   23929898.1214   23929895.4364
        44.000          39.000
 113077453.81247  88112291.99747  21517931.0064   21517932.5624   21517930.8724
        53.000          47.000
 128605162.86647 100211803.40247  24472757.0254   24472759.4094   24472756.2724
        44.000          38.000
 105111509.57947  81905082.29647  20002045.7554   20002047.2164   20002046.1834
        54.000          49.000
 09  1 28  0 11  0.0000000  0 12G 5G30G 9G14G 6G18G24G22G29G31G12G21
 123614790.94447  96323196.03847  23523126.5564   23523130.2154   23523127.0464
        45.000          40.000
 119717407.89947  93286284.21747  22781471.1824   22781473.7024   22781470.8714
        49.000          42.000
 126981569.37247  98946666.84647  24163796.3144   24163799.9504   24163796.8064
        43.000          37.000
 118171187.16947  92081432.69147  22487237.6054   22487239.9374   22487237.9354
        49.000          43.000
 125858230.86647  98071324.71047  23950043.7304   23950048.0724   23950044.3344
        43.000          37.000
 120096719.54147  93581847.23647  22853655.4204   22853657.1814   22853655.8314
        49.000          41.000
 120109171.04147  93591545.95847  22856027.7794   22856031.2844   22856028.0174
        48.000          42.000
 123251574.78247  96040191.82347  23453991.7714   23453992.5194   23453991.5874
        46.000          40.000
 125818941.92847  98040717.68847  23942561.2234   23942564.1194   23942561.2434
        45.000          39.000
 113001434.65447  88053056.29147  21503464.8974   21503466.5684   21503464.2924
        52.000          47.000
 128617784.26747 100221638.30347  24475158.5354   24475160.9064   24475158.2744
        43.000          38.000
 105130578.59247  81919941.26947  20005674.3004   20005675.7954   20005674.6434
        54.000          49.000
 09  1 28  0 11 30.0000000  0 12G 5G30G 9G14G 6G18G24G22G29G31G12G21
 123614509.86947  96322977.03747  23523073.0044   23523076.6234   23523073.4124
        44.000          40.000
 119691958.49747  93266453.52247  22776627.9444   22776630.8854   22776627.7824
        49.000          42.000
 127086584.24347  99028496.65247  24183780.0284   24183782.9164   24183780.2984
        42.000          37.000
 118210265.67647  92111883.50047  22494674.1604   22494676.3234   22494674.2664
        49.000          43.000
 125838859.13147  98056229.85147  23946358.4884   23946361.6214   23946358.4294
        42.000          38.000
 120058993.90947  93552450.63947  22846476.6054   22846478.0884   22846476.7104
        49.000          42.000
 120189987.96147  93654520.17147  22871406.4024   22871410.2384   22871406.6994
        48.000          41.000
 123205825.44547  96004543.00847  23445286.2454   23445286.5724   23445286.2094
        47.000          41.000
 125885332.50547  98092450.58647  23955194.9514   23955198.0244   23955194.7934
        45.000          39.000
 112925819.05047  87994135.05647  21489075.8204   21489077.3724   21489075.5734
        53.000          47.000
 128630619.01847 100231639.41547  24477600.6164   24477603.0684   24477599.9804
        43.000          38.000
 105150265.29647  81935281.56147  20009420.5634   20009422.0614   20009420.9554
        54.000          49.000
 09  1 28  0 12  0.0000000  0 12G 5G30G 9G14G 6G18G24G22G29G31G12G21
 123614465.36447  96322942.37947  23523064.3304   23523068.3754   23523064.5264
        46.000          40.000
 119666601.40847  93246694.76347  22771802.8574   22771805.7004   22771802.1394
        49.000          43.000
 127191783.20347  99110469.87847  24203798.9494   24203801.9414   24203799.1274
        41.000          37.000
 118249455.67547  92142421.18547  22502131.6684   22502134.3034   22502131.8724
        49.000          43.000
 125819720.52347  98041316.68447  23942715.5774   23942720.0134   23942715.8364
        43.000          38.000
 120021232.59547  93523026.23947  22839290.3534   22839292.4084   22839290.4364
        48.000          41.000
 120271115.44347  93717736.37747  22886844.5154   22886848.4944   22886844.4674
        47.000          41.000
 123159894.43247  95968752.63347  23436545.5994   23436546.3854   23436545.5964
        47.000          41.000
 125951546.72347  98144046.06647  23967795.4834   23967798.2224   23967795.1164
        44.000          39.000
 112850602.75447  87935524.96847  21474762.4494   21474764.0844   21474762.2224
        53.000          47.000
 128643662.10847 100241802.89247  24480083.3754   24480085.1444   24480082.9924
        45.000          38.000
 105170562.53747  81951097.59347  20013282.9304   20013284.5374   20013283.3034
        54.000          49.000
 09  1 28  0 12 30.0000000  0 12G 5G30G 9G14G 6G18G24G22G29G31G12G21
 123614661.26347  96323095.04847  23523101.8464   23523105.4524   23523102.0194
        45.000          40.000
 119641341.10647  93227011.42547  22766996.3124   22766998.9754   22766995.8564
        49.000          43.000
 127297165.38647  99192585.89847  24223852.2434   24223855.0484   24223852.5274
        41.000          36.000
 118288756.52547  92173045.23247  22509610.1864   22509612.7284   22509610.6774
        49.000          43.000
 125800815.83647  98026585.75947  23939119.0014   23939122.5284   23939119.2184
        43.000          37.000
 119983439.64347  93493577.19347  22832098.8434   22832100.8494   22832099.1024
        48.000          41.000
 120352553.50647  93781194.59547  22902341.3644   22902345.4484   22902341.3994
        47.000          41.000
 123113784.45647  95932822.81447  23427771.2304   23427771.8094   23427771.3484
        47.000          41.000
 126017585.51447  98195504.84247  23980362.2424   23980365.6634   23980361.8244
        44.000          39.000
 112775790.55247  87877229.75847  21460526.3214   21460527.8204   21460525.8484
        53.000          47.000
 128656917.48147 100252131.76547  24482605.6934   24482607.8644   24482605.1774
        45.000          38.000
 105191471.56347  81967390.34347  20017262.0684   20017263.4994   20017262.4854
        54.000          49.000
 09  1 28  0 13  0.0000000  0 12G 5G30G 9G14G 6G18G24G22G29G31G12G21
 123615101.77047  96323438.32247  23523185.3324   23523189.3064   23523186.0144
        46.000          40.000
 119616182.38047  93207407.23847  22762208.7134   22762211.0134   22762208.0104
        50.000          43.000
 127402730.11947  99274844.14447  24243940.8464   24243943.3384   24243941.2734
        42.000          36.000
 118328168.25147  92203755.67847  22517110.2164   22517112.4214   22517110.1864
        49.000          43.000
 125782145.92547  98012037.78247  23935565.7264   23935569.6354   23935565.7224
        43.000          37.000
 119945619.65347  93464107.07547  22824901.8864   22824903.9114   22824902.0994
        49.000          42.000
 120434302.08547  93844894.77347  22917897.6784   22917901.6654   22917897.8274
        48.000          41.000
 123067499.46047  95896756.60747  23418963.7254   23418964.1244   23418963.7224
        47.000          41.000
 126083449.94047  98246827.75147  23992895.4574   23992899.0054   23992894.5194
        43.000          39.000
 112701387.38247  87819253.27647  21446367.8824   21446369.2844   21446367.6144
        53.000          47.000
 128670388.69347 100262628.84547  24485168.9794   24485170.7024   24485168.9824
        44.000          38.000
 105212994.08247  81984161.13547  20021357.5774   20021359.1654   20021357.9434
        54.000          49.000
 09  1 28  0 13 30.0000000  0 12G 5G30G 9G14G 6G18G24G22G29G31G12G21
 123615787.31047  96323972.53247  23523316.1004   23523319.7354   23523316.5644
        46.000          39.000
 119591126.04947  93187882.84647  22757440.7834   22757443.1514   22757440.4694
        50.000          43.000
 127508473.33747  99357241.47447  24264063.3554   24264065.3454   24264063.5474
        41.000          36.000
 118367686.62047  92234549.24147  22524630.1324   22524632.4274   22524630.2834
        49.000          43.000
 125763708.19747  97997670.72647  23932058.0264   23932061.1024   23932057.7154
        43.000          37.000
 119907773.12647  93434616.27347  22817699.7124   22817701.9494   22817700.2724
        49.000          42.000
 120516357.57247  93908834.10047  22933511.8914   22933516.3054   22933511.8494
        46.000          40.000
 123021038.75247  95860553.49247  23410122.7644   23410122.7334   23410122.7144
        47.000          41.000
 126149136.87847  98298012.33247  24005395.1014   24005398.9104   24005394.5824
        43.000          39.000
 112627394.05147  87761596.14647  21432287.3564   21432288.8084   21432287.0204
        53.000          47.000
 128684076.05247 100273294.33847  24487772.9134   24487775.7214   24487772.6544
        43.000          38.000
 105235128.29047  82001408.57147  20025569.4374   20025571.0964   20025569.7814
        54.000          49.000
 09  1 28  0 14  0.0000000  0 12G 5G30G 9G14G 6G18G24G22G29G31G12G21
 123616720.03347  96324699.34247  23523493.8324   23523496.9714   23523494.1934
        45.000          39.000
 119566174.71947  93168440.25847  22752692.5414   22752695.1614   22752692.1624
        49.000          43.000
 127614392.20247  99439775.65347  24284218.9364   24284221.4744   24284218.8834
        40.000          36.000
 118407309.38347  92265424.14647  22532169.9844   22532172.2474   22532170.4084
        48.000          43.000
 125745501.46047  97983483.66547  23928592.3674   23928596.1914   23928592.4034
        43.000          37.000
 119869902.26047  93405106.50447  22810493.6224   22810495.3334   22810494.1394
        49.000          42.000
 120598717.86547  93973010.93247  22949184.6754   22949188.8874   22949184.8504
        47.000          41.000
 122974404.33247  95824215.01347  23401248.1194   23401248.6404   23401247.9814
        47.000          41.000
 126214645.66947  98349058.10947  24017861.2864   24017864.6044   24017860.8334
        45.000          39.000
 112553813.60447  87704260.74747  21418285.2564   21418287.1094   21418284.8974
        53.000          47.000
 128697981.18847 100284129.52447  24490419.0994   24490422.0394   24490418.5314
        43.000          38.000
 105257873.56647  82019132.16247  20029897.7474   20029899.3804   20029898.1974
        54.000          49.000
 09  1 28  0 14 30.0000000  0 12G 5G30G 9G14G 6G18G24G22G29G31G12G21
 123617901.27047  96325619.81747  23523717.6874   23523722.0314   23523718.1614
        44.000          39.000
 119541330.15747  93149080.87547  22747964.4734   22747967.4614   22747964.3094
        49.000          43.000
 127720483.27947  99522444.03047  24304407.1054   24304409.8914   24304406.7804
        39.000          35.000
 118447033.57447  92296378.07347  22539729.4094   22539731.8264   22539729.5324
        48.000          43.000
 125727523.66747  97969474.99647  23925171.6904   23925175.1974   23925172.0814
        43.000          38.000
 119832008.88947  93375579.19947  22803282.6544   22803283.9754   22803283.0064
        49.000          42.000
 120681380.20547  94037423.12647  22964915.0964   22964919.3464   22964915.1044
        47.000          41.000
 122927596.07647  95787741.06747  23392340.7614   23392341.2414   23392340.6734
        47.000          41.000
 126279974.42747  98399963.63947  24030293.2234   24030295.8344   24030292.6994
        44.000          39.000
 112480647.97947  87647248.58947  21404362.3494   21404364.1804   21404362.0324
        53.000          47.000
 128712105.30547 100295135.35747  24493107.2904   24493109.0954   24493106.7834
        43.000          38.000
 105281228.64047  82037330.92447  20034342.0134   20034343.6494   20034342.4474
        54.000          49.000
 09  1 28  0 15  0.0000000  0 12G 5G30G 9G14G 6G18G24G22G29G31G12G21
 123619333.94947  96326736.21147  23523990.5214   23523994.7394   23523990.8424
        45.000          39.000
 119516595.52447  93129807.15147  22743257.7904   22743260.5024   22743257.5964
        49.000          43.000
 127826744.91147  99605245.31147  24324627.8874   24324630.7834   24324627.5954
        40.000          35.000
 118486857.38647  92327409.62347  22547307.6454   22547309.8804   22547307.8714
        49.000          43.000
 125709774.63247  97955644.59247  23921794.2314   23921797.5784   23921794.3944
        43.000          38.000
 119794096.21747  93346036.85847  22796068.0074   22796069.5624   22796068.3764
        49.000          42.000
 120764343.50147  94102069.83747  22980702.2464   22980706.8294   22980702.5014
        47.000          41.000
 122880615.95247  95751133.19847  23383400.9844   23383401.2734   23383401.0234
        48.000          42.000
 126345123.30447  98450728.94747  24042690.1394   24042693.2854   24042690.4464
        43.000          38.000
 112407900.87747  87590562.54747  21390519.0074   21390520.6644   21390518.5164
        53.000          47.000
 128726450.71847 100306313.61447  24495836.6494   24495839.8684   24495836.0704
        44.000          38.000
 105305193.83747  82056005.10747  20038902.4894   20038904.0574   20038902.8744
        54.000          49.000
 09  1 28  0 15 30.0000000  0 12G 5G30G 9G14G 6G18G24G22G29G31G12G21
 123621020.17347  96328050.16747  23524311.2534   23524314.9454   23524311.9954
        45.000          39.000
 119491973.70847  93110621.31647  22738572.1904   22738575.4444   22738572.0634
        49.000          43.000
 127933174.49647  99688177.46547  24344880.7874   24344883.6244   24344880.5904
        40.000          35.000
 118526778.58847  92358517.07447  22554904.3774   22554906.5324   22554904.5524
        48.000          43.000
 125692253.28947  97941991.60047  23918459.9134   23918463.9524   23918459.8074
        43.000          38.000
 119756166.49947  93316481.21447  22788850.1604   22788851.9184   22788850.6414
        49.000          42.000
 120847606.04647  94166949.72947  22996546.4434   22996551.2974   22996546.4374
        47.000          40.000
 122833466.56747  95714393.44947  23374428.5414   23374429.1344   23374428.7324
        48.000          42.000
 126410091.13147  98501353.23547  24055053.3514   24055056.2264   24055053.5214
        44.000          39.000
 112335575.17947  87534204.87047  21376756.1034   21376757.4004   21376755.6134
        53.000          47.000
 128741019.45347 100317665.90147  24498609.6304   24498611.6714   24498609.6244
        44.000          38.000
 105329769.04847  82075154.61947  20043578.9684   20043580.6234   20043579.4194
        54.000          49.000
 09  1 28  0 16  0.0000000  0 12G 5G30G 9G14G 6G18G24G22G29G31G12G21
 123622960.62647  96329562.23347  23524681.1694   23524684.4884   23524682.2564
        46.000          39.000
 119467465.57747  93091524.09447  22733908.9034   22733911.7804   22733908.9184
        49.000          43.000
 128039767.79147  99771237.20347  24365164.4184   24365167.3404   24365165.5724
        41.000          35.000
 118566793.45247  92389697.50447  22562519.0604   22562521.0544   22562519.0074
        48.000          43.000
 125674956.99147  97928513.98347  23915168.4694   23915172.0634   23915168.8564
        43.000          38.000
 119718220.52247  93286912.93547  22781629.1904   22781631.4114   22781629.7284
        48.000          42.000
 120931164.06547  94232059.86047  23012447.2094   23012451.9184   23012446.9084
        47.000          40.000
 122786147.26047  95677521.29247  23365424.0374   23365424.4964   23365424.0914
        48.000          42.000
 126474875.67647  98551834.64547  24067381.5304   24067384.4534   24067381.6274
        44.000          39.000
 112263672.00747  87478176.43947  21363073.3824   21363074.7314   21363073.1644
        53.000          47.000
 128755811.65847 100329192.30747  24501424.1414   24501426.1394   24501423.8874
        43.000          38.000
 105354951.85347  82094777.58347  20048371.2154   20048372.7304   20048371.6194
        54.000          49.000
 09  1 28  0 16 30.0000000  0 12G 5G30G 9G14G 6G18G24G22G29G31G12G21
 123625157.62647  96331274.20147  23525099.3144   23525102.3684   23525099.5994
        45.000          39.000
 119443074.06547  93072517.73047  22729267.1234   22729270.0824   22729266.6304
        49.000          43.000
 128146522.72447  99854422.87747  24385480.0764   24385482.7774   24385480.0554
        40.000          35.000
 118606900.07247  92420949.43447  22570150.9484   22570153.2984   22570151.1914
        48.000          43.000
 125657884.82047  97915210.98347  23911920.0944   23911923.5344   23911919.9684
        43.000          38.000
 119680261.18147  93257334.23147  22774405.8234   22774408.0154   22774406.2204
        48.000          42.000
 121015015.79147  94297398.86547  23028403.6584   23028407.9954   23028403.4934
        47.000          40.000
 122738659.65947  95640517.98947  23356387.6194   23356387.6814   23356387.8004
        48.000          42.000
 126539476.32647  98602172.80347  24079674.6044   24079677.5174   24079674.1544
        44.000          39.000
 112192194.17847  87422479.44447  21349471.7014   21349473.0344   21349471.4624
        53.000          47.000
 128770829.53047 100340894.55747  24504282.1174   24504284.5404   24504281.9994
        44.000          38.000
 105380742.33347  82114874.06047  20053278.9664   20053280.4634   20053279.3494
        54.000          49.000
 09  1 28  0 17  0.0000000  0 12G 5G30G 9G14G 6G18G24G22G29G31G12G21
 123627612.16747  96333186.84347  23525565.8794   23525570.0054   23525566.4134
        44.000          39.000
 119418800.63447  93053603.39047  22724647.9164   22724650.6054   22724647.7244
        50.000          43.000
 128253435.64947  99937731.67347  24405824.6044   24405827.5294   24405824.2214
        40.000          35.000
 118647094.90247  92452270.09447  22577799.5094   22577802.0054   22577799.8054
        48.000          43.000
 125641034.64347  97902080.98847  23908713.9344   23908716.9844   23908713.7304
        43.000          38.000
 119642289.70347  93227746.08947  22767179.4554   22767182.3304   22767179.8904
        48.000          42.000
 121099158.19547  94362964.35647  23044415.5464   23044420.0114   23044415.8314
        47.000          40.000
 122691004.44047  95603384.08747  23347318.9384   23347318.9424   23347319.0934
        48.000          42.000
 126603891.01347  98652366.07347  24091932.2744   24091935.1654   24091932.1464
        44.000          39.000
 112121143.72947  87367115.47247  21335951.2404   21335952.4894   21335950.6604
        53.000          48.000
 128786074.01747 100352773.39147  24507183.0854   24507185.3554   24507183.1144
        44.000          38.000
 105407138.71047  82135442.66847  20058301.9464   20058303.4954   20058302.3584
        54.000          49.000
 09  1 28  0 17 30.0000000  0 12G 5G30G 9G14G 6G18G24G22G29G31G12G21
 123630326.65647  96335302.05747  23526082.5784   23526086.1804   23526082.6014
        44.000          39.000
 119394648.39947  93034783.48247  22720052.0334   22720054.7954   22720051.4304
        50.000          43.000
 128360503.87147 100021161.46447  24426198.9424   24426201.4864   24426198.5144
        40.000          35.000
 118687375.91147  92483657.91247  22585464.6564   22585466.9134   22585464.8594
        48.000          42.000
 125624405.55847  97889123.26847  23905549.0344   23905552.4474   23905549.2554
        44.000          38.000
 119604308.89447  93198150.64847  22759952.2214   22759954.3994   22759952.6984
        48.000          42.000
 121183589.59647  94428755.05647  23060482.4384   23060486.6894   23060482.4074
        47.000          41.000
 122643183.60647  95566121.13847  23338218.9374   23338219.1174   23338218.9774
        48.000          42.000
 126668119.45747  98702414.18147  24104154.8924   24104157.4154   24104154.8304
        43.000          39.000
 112050523.32747  87312086.60847  21322512.5224   21322513.8554   21322512.4954
        53.000          48.000
 128801547.08447 100364830.32747  24510127.5794   24510130.0674   24510127.5614
        43.000          38.000
 105434140.56447  82156483.07647  20063440.2374   20063441.7814   20063440.5974
        54.000          49.000
 09  1 28  0 18  0.0000000  0 12G 5G30G 9G14G 6G18G24G22G29G31G12G21
 123633303.07647  96337621.35747  23526648.8324   23526652.5484   23526649.2034
        45.000          39.000
 119370619.92747  93016060.01347  22715479.2834   22715482.2014   22715479.1914
        49.000          43.000
 128467724.80247 100104710.24947  24446601.8914   24446605.1984   24446602.4694
        40.000          34.000
 118727740.73647  92515111.03847  22593145.8944   22593148.3424   22593146.0754
        48.000          43.000
 125607996.40147  97876336.90747  23902426.5724   23902430.4434   23902427.0054
        44.000          39.000
 119566321.21447  93168549.87447  22752723.3174   22752725.8484   22752723.8934
        48.000          42.000
 121268307.82447  94494769.24147  23076604.0974   23076608.0284   23076604.1914
        47.000          41.000
 122595198.28547  95528730.00647  23329087.5044   23329087.8574   23329087.6424
        48.000          42.000
 126732160.65547  98752316.34747  24116340.8504   24116344.2374   24116341.1144
        43.000          38.000
 111980336.35047  87257395.46447  21309156.2294   21309157.7904   21309155.6244
        53.000          48.000
 128817249.99947 100377066.39447  24513116.3034   24513117.8684   24513116.2264
        44.000          38.000
 105461747.33147  82177994.84447  20068693.6204   20068695.0874   20068693.9904
        54.000          49.000
 09  1 28  0 18 30.0000000  0 12G 5G30G 9G14G 6G18G24G22G29G31G12G21
 123636544.80947  96340147.39847  23527265.7844   23527269.3914   23527266.3954
        45.000          39.000
 119346718.73247  92997435.72647  22710930.8504   22710933.7224   22710930.7074
        50.000          43.000
 128575097.55747 100188377.35647  24467034.8604   24467037.2224   24467035.1464
        40.000          34.000
 118768188.41547  92546628.72747  22600843.0694   22600845.4724   22600843.7324
        49.000          43.000
 125591807.13847  97863721.91347  23899345.6744   23899349.0484   23899345.5374
        44.000          38.000
 119528330.18047  93138946.49147  22745494.1484   22745496.5534   22745494.5664
        49.000          42.000
 121353312.08647  94561006.31747  23092780.0534   23092783.9614   23092780.2724
        47.000          41.000
 122547051.25747  95491212.85747  23319925.5694   23319925.9124   23319925.5934
        48.000          42.000
 126796014.49247  98802072.56747  24128492.2104   24128495.3944   24128491.6734
        43.000          38.000
 111910586.26047  87203044.75947  21295883.3214   21295884.9214   21295882.8994
        53.000          48.000
 128833186.10547 100389484.12947  24516148.2084   24516150.2774   24516148.2764
        43.000          38.000
 105489959.63147  82199978.45447  20074062.2894   20074063.7454   20074062.6874
        54.000          49.000
 09  1 28  0 19  0.0000000  0 12G 5G30G 9G14G 6G18G24G22G29G31G12G21
 123640051.65947  96342880.02547  23527932.8134   23527936.8014   23527933.5474
        45.000          39.000
 119322945.54047  92978911.17647  22706407.2364   22706409.9114   22706407.0124
        49.000          43.000
 128682617.08947 100272158.84847  24487495.0174   24487498.1664   24487494.5844
        38.000          34.000
 118808714.65247  92578207.63147  22608554.9614   22608556.9824   22608555.1404
        48.000          43.000
 125575834.54647  97851275.72247  23896306.3494   23896310.0244   23896306.6094
        44.000          38.000
 119490336.42347  93109340.97047  22738264.4684   22738266.6394   22738264.7994
        49.000          42.000
 121438598.32247  94627463.12047  23109009.1104   23109013.6024   23109009.3804
        47.000          41.000
 122498741.97947  95453569.28047  23310732.4404   23310732.7144   23310732.5894
        48.000          42.000
 126859678.23347  98851680.66747  24140607.2334   24140610.1424   24140606.7834
        42.000          39.000
 111841273.39947  87149034.75847  21282693.3864   21282694.9904   21282693.2214
        53.000          48.000
 128849354.85547 100402083.16647  24519225.3294   24519227.0774   24519225.2114
        43.000          37.000
 105518774.95647  82222431.95247  20079545.6474   20079547.0434   20079546.0524
        54.000          49.000
 09  1 28  0 19 30.0000000  0 12G 5G30G 9G14G 6G18G24G22G29G31G12G21
 123643825.67147  96345820.83047  23528651.1264   23528654.8864   23528651.3244
        45.000          39.000
 119299302.94047  92960488.38947  22701908.0354   22701910.6364   22701907.7554
        49.000          43.000
 138790262.50257  90356037.43057  24507980.6345   24507983.3955   24507981.4915
        38.000          33.000
 118849317.25147  92609846.04147  22616281.0954   22616283.5014   22616281.5454
        48.000          43.000
 125560077.27947  97838997.34647  23893307.3104   23893311.5994   23893307.3544
        43.000          38.000
 119452342.61347  93079735.40547  22731034.5634   22731036.2984   22731035.0694
        49.000          42.000
 121524164.24247  94694137.84247  23125291.9384   23125296.2624   23125292.0014
        47.000          40.000
 122450271.61447  95415800.18247  23301508.8074   23301509.1924   23301509.0374
        48.000          41.000
 126923151.20247  98901140.13347  24152685.6084   24152688.9004   24152685.2154
        43.000          39.000
 111772400.44947  87095367.53347  21269587.4584   21269588.9594   21269586.7804
        53.000          48.000
 128865757.89647 100414864.76747  24522345.8924   24522348.7954   24522345.9864
        42.000          38.000
 105548191.76147  82245354.13847  20085143.5394   20085144.8194   20085143.8594
        54.000          49.000
 09  1 28  0 20  0.0000000  0 12G 5G30G 9G14G 6G18G24G22G29G31G12G21
 123647868.52847  96348971.14547  23529420.4604   23529424.4834   23529420.7834
        45.000          39.000
 119275793.23847  92942169.15547  22697434.3104   22697436.7964   22697434.0744
        50.000          43.000
 118898048.34457 110440019.14557  24528496.3875   24528498.2815   24528497.0785
        38.000          33.000
 118889993.24547  92641541.62947  22624021.8024   22624023.8744   22624021.9974
        48.000          43.000
 125544533.84147  97826885.58147  23890349.7144   23890353.3344   23890350.0964
        43.000          38.000
 119414350.28547  93050131.00147  22723804.7824   22723806.5954   22723805.1934
        49.000          42.000
 121610007.64147  94761028.77547  23141627.1634   23141631.5824   23141627.5744
        47.000          40.000
 122401641.89947  95377906.91847  23292255.1214   23292255.3514   23292255.1434
        48.000          42.000
 126986432.18247  98950449.90347  24164727.5734   24164730.9414   24164727.1414
        43.000          39.000
 111703969.87447  87042045.02147  21256565.4244   21256567.0434   21256565.3104
        53.000          48.000
 128882396.67747 100427830.06047  24525512.0224   24525515.0554   24525512.1204
        43.000          37.000
 105578209.56447  82268744.63047  20090855.6504   20090857.1104   20090856.0484
        54.000          49.000
 09  1 28  0 20 30.0000000  0 11G 5G30G14G 6G18G24G22G29G31G12G21
 123652183.85747  96352333.74947  23530241.7774   23530245.8244   23530242.2594
        45.000          39.000
 119252420.47647  92923956.63447  22692986.7024   22692989.3294   22692986.6454
        50.000          43.000
 118930742.11147  92673294.01547  22631775.9324   22631778.2414   22631776.4044
        48.000          43.000
 125529204.63747  97814940.77147  23887432.4654   23887436.2594   23887432.5484
        43.000          38.000
 119376363.82547  93020531.17147  22716575.9904   22716577.9604   22716576.3424
        49.000          42.000
 121696128.01747  94828135.54047  23158015.7354   23158019.3534   23158015.7514
        47.000          40.000
 122352855.63747  95339891.66747  23282971.3844   23282971.2514   23282971.5564
        48.000          41.000
 127049522.20047  98999610.94047  24176732.9654   24176736.6854   24176732.8304
        42.000          39.000
 111635986.01647  86989070.59347  21243628.3284   21243630.0654   21243627.6984
        53.000          48.000
 128899274.41847 100440981.57047  24528723.8684   24528725.9194   24528724.1744
        43.000          37.000
 105608828.82347  82292603.79247  20096682.4274   20096683.8044   20096682.7984
        54.000          49.000
 09  1 28  0 21  0.0000000  0 11G 5G30G14G 6G18G24G22G29G31G12G21
 123656770.31447  96355907.64047  23531114.6604   23531118.1144   23531115.1044
        45.000          39.000
 119229184.00247  92905850.29747  22688565.2734   22688567.5814   22688564.8744
        50.000          43.000
 118971558.08447  92705098.69447  22639542.7364   22639545.3724   22639543.2064
        48.000          43.000
 125514085.09547  97803159.32247  23884555.4894   23884559.6344   23884555.4134
        43.000          38.000
 119338382.46047  92990935.29147  22709348.4854   22709350.4484   22709348.9024
        49.000          42.000
 121782519.77047  94895453.78447  23174455.0364   23174459.1984   23174455.2044
        46.000          40.000
 122303911.37847  95301753.29947  23273657.2904   23273657.5964   23273657.4744
        48.000          41.000
 127112416.72847  99048619.68747  24188701.5124   24188704.8834   24188701.2524
        43.000          39.000
 111568448.04047  86936443.61047  21230776.5944   21230778.0244   21230776.4134
        54.000          48.000
 128916389.69947 100454318.15647  24531981.3594   24531983.0444   24531981.4424
        43.000          38.000
 105640045.76447  82316928.67547  20102622.7414   20102624.1724   20102623.1984
        54.000          49.000
 09  1 28  0 21 30.0000000  0 11G 5G30G14G 6G18G24G22G29G31G12G21
 123661631.01947  96359695.22247  23532039.3754   23532042.9384   23532040.0064
        46.000          40.000
 119206087.63047  92887853.13847  22684170.1084   22684172.6684   22684169.7834
        49.000          43.000
 119012440.15847  92736954.87647  22647322.4184   22647325.0954   22647322.7654
        48.000          43.000
 125499175.19547  97791541.23147  23881718.4774   23881721.7064   23881718.3964
        44.000          38.000
 119300409.30947  92961345.81747  22702122.7394   22702124.1274   22702123.0784
        49.000          42.000
 121869181.97547  94962982.76547  23190946.3754   23190950.4464   23190946.2764
        46.000          40.000
 122254811.53847  95263493.69347  23264313.7244   23264314.1024   23264313.8424
        48.000          41.000
 127175116.59447  99097476.69247  24200632.9444   24200636.3734   24200632.4944
        44.000          39.000
 111501359.69947  86884166.99347  21218009.9994   21218011.6274   21218009.5664
        53.000          48.000
 128933745.21247 100467841.97047  24535284.1884   24535286.0174   24535283.8154
        43.000          37.000
 105671860.42747  82341719.32247  20108676.8774   20108678.3374   20108677.2264
        54.000          49.000
 09  1 28  0 22  0.0000000  0 11G 5G30G14G 6G18G24G22G29G31G12G21
 123666768.72847  96363698.65947  23533017.7084   23533020.8534   23533018.0104
        45.000          40.000
 119183134.68947  92869967.74447  22679802.0764   22679804.8614   22679801.7634
        49.000          43.000
 119053386.86747  92768861.41947  22655114.2704   22655116.8524   22655114.5264
        48.000          43.000
 125484474.58147  97780086.19947  23878920.6164   23878924.5464   23878920.8124
        44.000          38.000
 119262448.01547  92931765.58547  22694898.4764   22694900.0324   22694898.9174
        49.000          42.000
 121956113.41947  95030721.52647  23207488.8144   23207493.4354   23207489.0394
        46.000          40.000
 122205558.47247  95225114.68847  23254941.5584   23254941.8264   23254941.3434
        47.000          41.000
 127237621.55147  99146181.81747  24212527.7294   24212530.6844   24212527.9414
        44.000          39.000
 111434724.56547  86832243.52047  21205329.7054   21205331.5664   21205329.1564
        53.000          48.000
 128951343.43547 100481554.88847  24538632.4524   24538635.2274   24538632.4724
        43.000          37.000
 105704272.88347  82366975.78047  20114844.8874   20114846.1674   20114845.3394
        54.000          49.000
 09  1 28  0 22 30.0000000  0 11G 5G30G14G 6G18G24G22G29G31G12G21
 123672185.20247  96367919.31247  23534047.6284   23534051.9024   23534047.9284
        45.000          40.000
 119160327.49347  92852195.90147  22675462.0074   22675465.0004   22675461.7864
        50.000          43.000
 119094395.60147  92800816.28947  22662918.3094   22662920.3554   22662918.3484
        48.000          43.000
 125469981.32447  97768792.77347  23876163.4174   23876166.2394   23876163.1844
        44.000          38.000
 119224500.73047  92902196.28247  22687677.6144   22687679.1324   22687677.7784
        49.000          42.000
 122043311.58347  95098668.13747  23224082.4844   23224086.6374   23224082.5204
        46.000          40.000
 122156153.67547  95186617.45947  23245539.6384   23245540.3484   23245539.8944
        48.000          41.000
 127299930.51047  99194734.24447  24224385.3774   24224388.0174   24224384.6684
        44.000          39.000
 111368544.62147  86780674.75047  21192736.0734   21192737.9374   21192735.6984
        53.000          48.000
 128969185.73547 100495458.01047  24542027.5814   24542029.8474   24542027.8994
        43.000          37.000
 105737281.92847  82392697.11347  20121126.1464   20121127.5424   20121126.4974
        54.000          49.000
 09  1 28  0 23  0.0000000  0 11G 5G30G14G 6G18G24G22G29G31G12G21
 123677879.99347  96372356.83647  23535131.3664   23535135.5714   23535132.0124
        45.000          40.000
 119137666.48847  92834537.99847  22671149.8524   22671152.6514   22671149.7854
        49.000          43.000
 119135462.04747  92832816.13447  22670732.6774   22670734.8924   22670732.9414
        48.000          42.000
 125455692.27247  97757658.44547  23873443.9864   23873446.9564   23873443.6184
        43.000          38.000
 119186567.89947  92872638.24247  22680458.9604   22680460.9844   22680459.4694
        49.000          42.000
 122130772.20847  95166819.26147  23240725.8684   23240730.0564   23240726.2654
        46.000          40.000
 122106596.51147  95148001.52147  23236109.4914   23236109.7334   23236109.5174
        48.000          41.000
 127362040.54747  99243131.66147  24236204.0614   24236207.3014   24236203.6124
        44.000          39.000
 111302820.24647  86729460.96447  21180229.1404   21180230.8584   21180228.9474
        53.000          48.000
 128987271.59747 100509550.89647  24545469.8814   24545472.9844   24545469.4424
        43.000          37.000
 105770884.26847  82418880.76247  20127520.4944   20127522.0194   20127520.8554
        54.000          49.000
 09  1 28  0 23 30.0000000  0 11G 5G30G14G 6G18G24G22G29G31G12G21
 123683856.26547  96377013.68947  23536268.5584   23536272.7944   23536268.8744
        46.000          40.000
 119115155.26947  92816996.81447  22666865.9984   22666868.9294   22666865.6274
        49.000          43.000
 119176584.80447  92864859.85547  22678557.8064   22678560.2554   22678558.0604
        48.000          42.000
 125441607.15847  97746683.04247  23870763.5224   23870767.1704   23870763.4804
        44.000          38.000
 119148652.98347  92843094.16547  22673243.8894   22673246.0174   22673244.2154
        49.000          42.000
 122218494.29347  95235174.10847  23257418.4344   23257422.9894   23257418.2574
        46.000          40.000
 122056889.68247  95109268.93947  23226650.7214   23226650.7944   23226650.5864
        48.000          41.000
 127423952.06147  99291374.38447  24247985.4584   24247988.5674   24247984.9544
        44.000          39.000
 111237555.10347  86678605.01947  21167809.5174   21167811.3324   21167808.9664
        54.000          48.000
 129005603.20647 100523835.27747  24548958.0604   24548960.5584   24548957.2774
        43.000          37.000
 105805080.16047  82445526.90847  20134027.5144   20134029.1884   20134027.9004
        54.000          49.000
 09  1 28  0 24  0.0000000  0 11G 5G30G14G 6G18G24G22G29G31G12G21
 123690116.92747  96381892.13147  23537460.0524   23537464.1044   23537460.5354
        45.000          39.000
 119092797.31747  92799575.05647  22662611.5054   22662613.9584   22662610.9854
        49.000          43.000
 119217762.56947  92896946.43247  22686393.5634   22686396.2514   22686394.0894
        48.000          42.000
 125427725.55647  97735866.24147  23868122.0944   23868125.3664   23868122.2964
        44.000          38.000
 119110759.44847  92813566.74247  22666033.1714   22666034.8604   22666033.4084
        49.000          42.000
 122306476.62647  95303731.75347  23274160.7214   23274165.2454   23274160.7524
        46.000          40.000
 122007035.92647  95070421.87247  23217164.2214   23217163.7924   23217164.1354
        48.000          41.000
 127485665.29847  99339462.57147  24259729.4054   24259731.7804   24259729.5914
        44.000          39.000
 111172752.77747  86628109.71747  21155478.1434   21155479.6444   21155477.9034
        53.000          48.000
 129024183.79147 100538313.64747  24552493.1784   24552495.7574   24552493.7964
        42.000          37.000
 105839869.64247  82472635.59347  20140647.8614   20140649.5864   20140648.2474
        54.000          49.000
 09  1 28  0 24 30.0000000  0 11G 5G30G14G 6G18G24G22G29G31G12G21
 123696660.50947  96386991.04647  23538704.9004   23538709.0534   23538705.6554
        45.000          39.000
 119070591.94447  92782272.18247  22658385.6334   22658388.1994   22658385.4594
        49.000          43.000
 119258989.97547  92929071.70347  22694239.0884   22694241.5154   22694239.1664
        48.000          42.000
 125414042.95247  97725204.49447  23865518.4864   23865521.2554   23865518.4274
        45.000          38.000
 119072886.56147  92784055.40947  22658826.1124   22658828.2214   22658826.6784
        49.000          43.000
 122394713.95247  95372488.08947  23290951.8224   23290956.1774   23290952.0474
        46.000          40.000
 121957033.05347  95031458.60747  23207648.8184   23207648.5554   23207648.6014
        48.000          41.000
 127547176.31447  99387393.22647  24271434.1834   24271437.2724   24271433.9054
        43.000          38.000
 111108412.37147  86577974.34447  21143234.6704   21143236.0184   21143233.9934
        54.000          48.000
 129043011.36247 100552984.50247  24556075.9864   24556078.7884   24556076.0794
        41.000          37.000
 105875248.16547  82500203.27147  20147380.4094   20147381.7404   20147380.8294
        54.000          49.000
 09  1 28  0 25  0.0000000  0 11G 5G30G14G 6G18G24G22G29G31G12G21
 123703491.80747  96392314.12747  23540005.4434   23540008.9374   23540006.0554
        45.000          39.000
 119048544.35747  92765092.26347  22654190.5264   22654192.8024   22654189.8834
        49.000          43.000
 119300267.50247  92961236.02947  22702094.1774   22702096.1314   22702094.3554
        48.000          42.000
 125400560.94147  97714699.03847  23862953.0624   23862955.6854   23862953.2484
        44.000          38.000
 119035039.37947  92754564.09147  22651623.9754   22651626.1354   22651624.5044
        49.000          42.000
 122483207.01047  95441443.69247  23307791.5554   23307795.8394   23307791.9744
        46.000          39.000
 121906886.42547  94992383.32147  23198105.8644   23198106.0274   23198106.1394
        48.000          41.000
 127608486.96847  99435167.76047  24283101.1804   24283104.2154   24283100.6514
        44.000          39.000
 111044539.05947  86528202.94947  21131079.9744   21131081.2114   21131079.7684
        54.000          48.000
 129062090.32247 100567851.21247  24559706.1204   24559709.5474   24559705.9314
        42.000          37.000
 105911217.72847  82528231.50047  20154225.0264   20154226.6094   20154225.3894
        54.000          49.000
 09  1 28  0 25 30.0000000  0 11G 5G30G14G 6G18G24G22G29G31G12G21
 123710610.77447  96397861.39347  23541359.7204   23541363.1814   23541360.2194
        45.000          39.000
 119026655.50747  92748036.03547  22650025.0694   22650027.7884   22650024.8954
        50.000          43.000
 119341591.12447  92993436.26947  22709957.6754   22709960.0104   22709957.9404
        48.000          42.000
 125387276.27747  97704347.36447  23860424.7244   23860428.0594   23860424.6374
        44.000          38.000
 118997218.93147  92725093.61347  22644427.2184   22644428.9954   22644427.6094
        49.000          42.000
 122571951.51247  95510595.23547  23324679.2444   23324682.9794   23324679.3294
        46.000          39.000
 121856595.42847  94953195.54347  23188536.0114   23188535.7314   23188535.9504
        48.000          41.000
 127669594.99147  99482784.34547  24294729.5704   24294732.7294   24294728.9844
        43.000          38.000
 110981133.68547  86478796.17547  21119014.4484   21119015.5324   21119013.9204
        54.000          48.000
 129081420.40947 100582913.64847  24563384.5494   24563387.6604   24563384.2664
        42.000          36.000
 105947775.39947  82556717.99247  20161181.6324   20161183.4044   20161182.0084
        54.000          49.000
 09  1 28  0 26  0.0000000  0 11G 5G30G14G 6G18G24G22G29G31G12G21
 123718020.57947  96403635.28447  23542770.1494   23542773.2644   23542770.7514
        45.000          39.000
 119004929.31547  92731106.53947  22645890.9514   22645893.0974   22645890.5334
        50.000          43.000
 119382959.49147  93025671.38247  22717829.5804   22717832.0874   22717829.8484
        47.000          42.000
 125374188.89947  97694149.39247  23857934.1524   23857937.4294   23857934.1454
        43.000          38.000
 118959428.91047  92695646.83147  22637235.9034   22637237.7524   22637236.3554
        49.000          43.000
 122660946.70147  95579942.12347  23341614.3484   23341618.3884   23341614.3314
        46.000          39.000
 121806162.76247  94913897.37447  23178938.7374   23178939.1244   23178939.1434
        47.000          41.000
 127730501.02047  99530243.58647  24306319.9634   24306322.3894   24306319.4144
        43.000          38.000
 110918199.88647  86429756.86847  21107038.4264   21107039.6514   21107038.1634
        54.000          48.000
 129101004.48747 100598173.96447  24567111.7524   24567113.7694   24567111.3314
        42.000          37.000
 105984920.95647  82585662.58447  20168250.2064   20168251.8404   20168250.5754
        54.000          49.000
 09  1 28  0 26 30.0000000  0 11G 5G30G14G 6G18G24G22G29G31G12G21
 123725720.77447  96409635.44847  23544235.2264   23544238.6054   23544235.6264
        45.000          39.000
 118983365.91747  92714303.91947  22641787.3904   22641789.9044   22641787.0904
        50.000          43.000
 119424368.47247  93057938.14647  22725709.5074   22725711.7734   22725709.5754
        48.000          42.000
 125361295.00547  97684102.22447  23855480.4634   23855483.7184   23855481.0324
        44.000          38.000
 118921669.57247  92666223.98747  22630050.3574   22630052.3214   22630050.8174
        49.000          42.000
 122750187.92347  95649480.70847  23358596.4714   23358600.7774   23358596.5864
        46.000          39.000
 121755587.90747  94874488.42647  23169314.3964   23169314.9884   23169314.6474
        47.000          41.000
 127791201.97447  99577542.99247  24317870.3434   24317873.6404   24317870.1934
        43.000          38.000
 110855737.68247  86381085.03347  21095152.0964   21095153.4864   21095151.6444
        54.000          48.000
 129120841.73247 100613631.55947  24570886.9054   24570889.7954   24570886.3654
        42.000          36.000
 106022651.35847  82615062.89647  20175430.1454   20175431.6534   20175430.5514
        55.000          49.000
 09  1 28  0 27  0.0000000  0 11G 5G30G14G 6G18G24G22G29G31G12G21
 123733713.56147  96415863.59647  23545756.0974   23545759.5714   23545756.4524
        45.000          39.000
 118961968.32847  92697630.50047  22637715.3594   22637717.5614   22637715.2484
        50.000          43.000
 119465816.30547  93090235.18747  22733596.7754   22733598.9544   22733597.1004
        47.000          42.000
 125348593.80147  97674205.18547  23853063.7824   23853066.8704   23853064.1614
        44.000          38.000
 118883943.92047  92636827.37747  22622871.1304   22622873.3394   22622871.8364
        49.000          42.000
 122839673.51447  95719209.73447  23375624.8484   23375628.8334   23375624.8054
        46.000          39.000
 121704872.52347  94834969.96547  23159663.8354   23159664.2014   23159663.8454
        47.000          40.000
 127851697.44147  99624682.29647  24329382.4754   24329385.8744   24329382.0914
        43.000          38.000
 110793749.75047  86332782.76147  21083356.0344   21083357.7494   21083355.7414
        54.000          48.000
 129140934.04247 100629287.93147  24574710.3804   24574712.4114   24574710.2164
        41.000          37.000
 106060965.56047  82644918.12147  20182721.0524   20182722.7134   20182721.3474
        54.000          49.000
 09  1 28  0 27 30.0000000  0 11G 5G30G14G 6G18G24G22G29G31G12G21
 123742002.65547  96422322.64447  23547333.1984   23547337.1384   23547333.7744
        45.000          40.000
 118940741.09947  92681089.82447  22633676.0894   22633678.3354   22633675.8834
        50.000          43.000
 119507302.43447  93122562.07047  22741491.3384   22741493.5334   22741491.5144
        48.000          42.000
 125336085.88147  97664458.74847  23850683.6934   23850687.1294   23850683.8194
        44.000          38.000
 118846256.15547  92607460.28547  22615699.7934   22615701.4944   22615700.3414
        50.000          42.000
 122929402.99347  95789128.79347  23392699.8504   23392703.8904   23392699.9794
        46.000          40.000
 121654021.03047  94795345.43847  23149987.2234   23149986.8714   23149987.3934
        47.000          40.000
 127911988.68947  99671662.47847  24340855.3574   24340858.8714   24340855.1114
        43.000          38.000
 110732240.24147  86284853.28647  21071651.1464   21071652.8914   21071650.7504
        53.000          48.000
 129161285.06647 100645145.89347  24578583.1164   24578585.3804   24578582.9094
        43.000          37.000
 106099864.46647  82675228.94847  20190123.4864   20190125.0084   20190123.9714
        55.000          49.000
 09  1 28  0 28  0.0000000  0 11G 5G30G14G 6G18G24G22G29G31G12G21
 123750587.21847  96429011.91947  23548967.2274   23548970.5944   23548967.2314
        45.000          39.000
 118919683.85347  92664681.59347  22629669.1084   22629671.5494   22629668.8914
        50.000          43.000
 119548821.86847  93154914.88547  22749392.4674   22749394.7564   22749392.7804
        48.000          42.000
 125323767.13047  97654859.72547  23848339.5904   23848342.4434   23848339.3784
        44.000          38.000
 118808606.33247  92578122.75347  22608535.6474   22608536.6354   22608536.1014
        50.000          42.000
 123019371.75847  95859234.30447  23409820.5814   23409824.4744   23409820.7504
        46.000          39.000
 121603031.98947  94755613.73047  23140284.1854   23140284.0274   23140284.5194
        48.000          41.000
 127972072.45247  99718481.00547  24352288.9994   24352292.3214   24352288.4474
        42.000          38.000
 110671209.19347  86237296.64047  21060037.3854   21060038.9124   21060036.9884
        54.000          48.000
 129181893.12047 100661204.13947  24582504.3264   24582506.8204   24582504.5364
        41.000          37.000
 106139344.07247  82705992.27847  20197636.1994   20197637.7154   20197636.5234
        55.000          49.000
 09  1 28  0 28 30.0000000  0 11G 5G30G14G 6G18G24G22G29G31G12G21
 123759468.23347  96435932.20447  23550657.3224   23550661.0384   23550657.4204
        46.000          40.000
 118898798.40447  92648407.23647  22625694.4404   22625697.0594   22625694.3094
        50.000          43.000
 119590371.59247  93187291.31347  22757299.3214   22757301.0614   22757299.5494
        48.000          42.000
 125311635.38547  97645406.42747  23846031.2764   23846034.0414   23846031.2664
        44.000          38.000
 118770996.15547  92548816.12347  22601378.6914   22601379.6444   22601379.0604
        49.000          42.000
 123109576.80747  95929523.93047  23426986.0664   23426990.0254   23426985.8564
        45.000          39.000
 121551906.22147  94715775.48347  23130555.3954   23130555.4134   23130555.3254
        48.000          41.000
 128031947.22647  99765136.64947  24363682.1854   24363686.2344   24363682.5404
        43.000          37.000
 110610658.06447  86190113.95447  21048514.9304   21048516.4454   21048514.5604
        54.000          48.000
 129202759.14247 100677463.39747  24586475.5854   24586478.0624   24586474.9984
        41.000          37.000
 106179402.24147  82737206.42547  20205259.1364   20205260.4314   20205259.6244
        54.000          49.000
 09  1 28  0 29  0.0000000  0 11G 5G30G14G 6G18G24G22G29G31G12G21
 123768650.54847  96443087.25047  23552404.6444   23552408.2464   23552404.9514
        45.000          39.000
 118878090.52547  92632271.24447  22621753.9464   22621756.9334   22621753.7994
        50.000          43.000
 119631952.71947  93219692.20947  22765211.3094   22765213.8824   22765211.7174
        47.000          42.000
 125299692.40647  97636100.20747  23843758.1414   23843761.2594   23843758.3104
        44.000          38.000
 118733431.31347  92519544.81447  22594229.9994   22594231.4004   22594230.8834
        49.000          43.000
 123200018.92647  95999998.29447  23444196.3554   23444201.0634   23444196.3684
        45.000          39.000
 121500648.94547  94675834.76447  23120801.9334   23120801.5314   23120802.0454
        48.000          41.000
 128091615.78847  99811631.60247  24375037.3944   24375040.2874   24375036.6674
        42.000          37.000
 110550592.33747  86143309.50347  21037084.9474   21037086.2534   21037084.5404
        54.000          48.000
 129223887.84047 100693927.34147  24590496.5374   24590498.0334   24590495.9444
        43.000          37.000
 106220040.88147  82768872.89947  20212992.1204   20212993.6684   20212992.4514
        54.000          49.000
 09  1 28  0 29 30.0000000  0 11G 5G30G14G 6G18G24G22G29G31G12G21
 123778133.27147  96450476.41347  23554208.8614   23554212.5064   23554209.4264
        46.000          39.000
 118857559.89147  92616273.37147  22617847.0954   22617849.6644   22617846.7124
        49.000          43.000
 119673559.90547  93252113.41147  22773128.9574   22773131.5244   22773129.1444
        48.000          42.000
 125287933.97047  97626937.78147  23841520.6314   23841523.9574   23841520.6524
        44.000          38.000
 118695911.69347  92490308.73647  22587090.1294   22587091.9514   22587090.7104
        49.000          42.000
 123290692.92747  96070653.35547  23461451.2304   23461455.6384   23461451.3204
        46.000          39.000
 121449258.84247  94635790.54047  23111022.3944   23111022.1354   23111022.3594
        48.000          41.000
 128151074.54347  99857963.11347  24386351.8414   24386355.6014   24386351.4414
        42.000          37.000
 110491011.41347  86096882.82047  21025747.0374   21025748.4874   21025746.7494
        54.000          48.000
 129245277.83647 100710594.88347  24594566.0154   24594567.8174   24594565.9404
        41.000          36.000
 106261256.01147  82800988.58247  20220835.1484   20220836.6404   20220835.5384
        54.000          49.000
 09  1 28  0 30  0.0000000  0 11G 5G30G14G 6G18G24G22G29G31G12G21
 123787919.51547  96458102.07547  23556071.0514   23556074.9294   23556071.4084
        45.000          39.000
 118837210.63847  92600416.81547  22613974.6944   22613977.4134   22613974.6144
        50.000          43.000
 119715192.52847  93284554.44747  22781051.6624   22781053.9004   22781052.0034
        48.000          42.000
 125276360.04947  97617919.16347  23839317.6734   23839321.4004   23839318.0184
        44.000          38.000
 118658441.38347  92461111.10547  22579960.1004   22579961.9864   22579960.7394
        49.000          43.000
 123381598.12847  96141488.56647  23478750.2334   23478753.7914   23478750.6764
        45.000          39.000
 121397739.17647  94595645.35047  23101218.1294   23101217.9424   23101218.2274
        47.000          41.000
 128210324.26847  99904131.69447  24397626.8544   24397629.7294   24397626.5634
        42.000          37.000
 110431918.77847  86050836.62747  21014501.9644   21014503.4344   21014501.6104
        54.000          48.000
 129266931.94747 100727468.23247  24598686.5384   24598689.2184   24598686.7034
        42.000          37.000
 106303047.48047  82833553.36347  20228787.7834   20228789.4434   20228788.1384
        54.000          49.000
 09  1 28  0 30 30.0000000  0 11G 5G30G14G 6G18G24G22G29G31G12G21
 123798008.37047  96465963.51647  23557990.4844   23557994.3854   23557990.8224
        45.000          39.000
 118817042.48847  92584701.39247  22610137.0014   22610139.0384   22610136.6404
        49.000          43.000
 119756845.57947  93317011.37847  22788978.1504   22788980.0624   22788978.2534
        48.000          42.000
 125264966.67847  97609041.22147  23837150.0744   23837153.4254   23837150.3684
        43.000          38.000
 118621020.00247  92431951.60047  22572838.9244   22572840.6244   22572839.3484
        49.000          43.000
 123472729.81047  96212500.24047  23496091.8094   23496096.1154   23496092.1834
        46.000          39.000
 121346089.17747  94555398.60747  23091389.4294   23091390.0074   23091389.5594
        48.000          41.000
 128269361.90847  99950135.05647  24408861.3334   24408864.7184   24408860.8974
        42.000          37.000
 110373314.22947  86005170.75647  21003349.7824   21003351.3544   21003349.3324
        54.000          48.000
 129288848.94347 100744546.41947  24602857.9514   24602859.1874   24602857.7384
        41.000          36.000
 106345411.36047  82866564.17847  20236849.3934   20236851.0314   20236849.8464
        54.000          49.000
 09  1 28  0 31  0.0000000  0 11G 5G30G14G 6G18G24G22G29G31G12G21
 123808404.51847  96474064.41947  23559969.0644   23559972.6504   23559969.8234
        45.000          39.000
 118797060.68147  92569131.17847  22606334.3314   22606336.5254   22606334.0234
        50.000          43.000
 119798519.99347  93349484.96647  22796908.1374   22796910.4574   22796908.2794
        47.000          42.000
 125253755.21247  97600305.02147  23835016.3854   23835019.9764   23835016.2204
        43.000          38.000
 118583653.20447  92402834.60947  22565728.2914   22565730.1014   22565728.6454
        50.000          43.000
 123564088.72847  96283688.97947  23513476.8544   23513481.1664   23513477.0934
        46.000          39.000
 121294313.38847  94515053.85547  23081536.9024   23081537.3874   23081537.1334
        48.000          41.000
 128328189.63147  99995974.85547  24420056.0434   24420059.5184   24420056.0004
        43.000          38.000
 110315203.04547  85959889.32747  20992291.8354   20992293.0544   20992291.4344
        54.000          48.000
 129311032.84847 100761832.59647  24607078.9924   24607081.1384   24607078.4324
        40.000          36.000
 106388349.04647  82900022.11947  20245020.0314   20245021.7424   20245020.4504
        54.000          49.000
 09  1 28  0 31 30.0000000  0 11G 5G30G14G 6G18G24G22G29G31G12G21
 123819106.54247  96482403.65647  23562005.9614   23562009.4224   23562006.5334
        45.000          39.000
 118777264.86947  92553705.88147  22602567.6254   22602569.6414   22602567.3204
        50.000          43.000
 119840210.40147  93381971.02147  22804841.5854   22804843.9814   22804841.8364
        48.000          42.000
 125242721.21547  97591707.10247  23832916.2844   23832919.8884   23832916.4734
        43.000          38.000
 118546340.00447  92373759.37347  22558627.9374   22558629.4444   22558628.2924
        50.000          43.000
 123655669.51147  96355050.60147  23530904.2474   23530908.4634   23530904.9264
        46.000          39.000
 121242410.57947  94474610.11847  23071660.2744   23071660.2244   23071660.3774
        48.000          41.000
 128386803.56247 100041647.99247  24431209.8474   24431213.2664   24431209.8464
        44.000          38.000
 110257583.68247  85914991.13547  20981327.3514   20981328.4484   20981327.1414
        54.000          48.000
 129333482.35547 100779325.75247  24611350.8004   24611352.4524   24611350.4054
        41.000          36.000
 106431856.24247  82933923.82847  20253299.2584   20253300.7244   20253299.6364
        54.000          49.000
 09  1 28  0 32  0.0000000  0 11G 5G30G14G 6G18G24G22G29G31G12G21
 123830117.32347  96490983.50047  23564101.1104   23564104.8184   23564101.9204
        46.000          39.000
 118757658.97247  92538428.56947  22598836.2324   22598839.1984   22598835.8304
        50.000          43.000
 119881915.96647  93414468.89247  22812778.1934   22812780.1424   22812778.3094
        48.000          42.000
 125231864.53247  97583247.35647  23830851.0034   23830854.2464   23830851.0824
        43.000          38.000
 118509084.77447  92344729.33447  22551538.3434   22551540.1184   22551539.1074
        50.000          43.000
 123747470.85547  96426584.08647  23548373.6574   23548377.6834   23548373.8414
        45.000          39.000
 121190383.64547  94434069.66747  23061759.7114   23061759.8604   23061759.7784
        48.000          41.000
 128445204.86747 100087155.48447  24442323.7134   24442326.0984   24442323.8744
        43.000          38.000
 110200460.27247  85870479.39847  20970456.8034   20970458.3084   20970456.2844
        54.000          48.000
 129356200.05847 100797027.84447  24615674.0894   24615676.0934   24615673.2754
        41.000          36.000
 106475932.65347  82968269.08047  20261686.7044   20261688.2734   20261687.0574
        54.000          49.000
 09  1 28  0 32 30.0000000  0 11G 5G30G14G 6G18G24G22G29G31G12G21
 123841440.44947  96499806.71647  23566256.2444   23566259.5824   23566257.1624
        46.000          39.000
 118738247.20447  92523302.53647  22595142.4094   22595145.2514   22595142.2704
        49.000          43.000
 119923635.99647  93446978.02147  22820717.3134   22820719.4564   22820717.6044
        48.000          42.000
 125221185.65247  97574926.16547  23828818.7184   23828821.7804   23828819.2574
        44.000          38.000
 118471891.83747  92315747.82047  22544460.7034   22544462.5854   22544461.2434
        49.000          42.000
 123839492.66547  96498289.36047  23565884.4744   23565888.7854   23565884.8184
        46.000          39.000
 121138236.17647  94393435.29647  23051836.3244   23051836.8204   23051836.4134
        48.000          42.000
 128503394.78447 100132498.26047  24453396.6994   24453399.7254   24453396.9224
        43.000          38.000
 110143836.64447  85826357.10347  20959681.6274   20959682.9454   20959681.3804
        54.000          48.000
 129379189.18447 100814941.46247  24620048.9654   24620050.4344   24620048.2264
        41.000          36.000
 106520578.54747  83003058.08747  20270182.5294   20270184.3044   20270183.0514
        54.000          49.000
 09  1 28  0 33  0.0000000  0 11G 5G30G14G 6G18G24G22G29G31G12G21
 123853071.99747  96508870.26847  23568469.2104   23568473.3444   23568470.0224
        46.000          40.000
 118719026.52747  92508325.39547  22591484.6874   22591487.3854   22591484.2944
        49.000          43.000
 119965363.03547  93479492.61147  22828657.5834   22828659.6274   22828657.8614
        48.000          42.000
 125210677.36347  97566737.90447  23826818.9794   23826822.6764   23826819.0774
        44.000          39.000
 118434757.96447  92286812.34747  22537394.0894   22537396.2944   22537394.3984
        49.000          42.000
 123931726.91347  96570160.16547  23583436.5374   23583440.4614   23583436.9794
        46.000          39.000
 121085964.55047  94352704.16647  23041889.1934   23041889.5564   23041889.2924
        47.000          41.000
 128561366.90247 100177671.35247  24464428.6764   24464430.9484   24464428.1624
        43.000          37.000
 110087709.55947  85782621.72047  20949000.8404   20949002.4194   20949000.2814
        54.000          48.000
 129402445.40747 100833063.19447  24624474.5874   24624476.0184   24624474.3784
        42.000          36.000
 106565786.68347  83038285.20747  20278785.2654   20278787.0514   20278785.5754
        54.000          49.000
 09  1 28  0 33 30.0000000  0 11G 5G30G14G 6G18G24G22G29G31G12G21
 123865018.26047  96518179.06447  23570742.5784   23570745.8934   23570743.2954
        45.000          39.000
 118700004.11347  92493502.73947  22587865.2644   22587867.5404   22587864.7154
        50.000          43.000
 120007099.37747  93512014.45647  22836599.5384   22836601.8284   22836599.7434
        48.000          42.000
 125200343.03147  97558685.16747  23824852.9174   23824855.7664   23824853.0684
        44.000          39.000
 118397690.82947  92257928.86947  22530340.5204   22530342.4574   22530340.9594
        49.000          42.000
 124024176.09047  96642198.44047  23601029.0804   23601032.5264   23601029.2664
        45.000          39.000
 121033575.59447  94311881.62447  23031919.7724   23031920.3964   23031919.4374
        47.000          42.000
 128619125.51447 100222678.04347  24475419.4464   24475422.3724   24475419.2464
        42.000          37.000
 110032085.45347  85739278.27047  20938416.0054   20938417.6384   20938415.6494
        54.000          48.000
 129425974.75947 100851397.77947  24628951.8344   24628953.7384   24628951.5804
        42.000          36.000
 106611560.59547  83073953.18647  20287495.8564   20287497.4704   20287496.3414
        54.000          48.000
 09  1 28  0 34  0.0000000  0 11G 5G30G14G 6G18G24G22G29G31G12G21
 123877279.66147  96527733.42047  23573075.4874   23573079.5144   23573076.1224
        45.000          39.000
 118681181.11647  92478835.47747  22584283.2524   22584285.5884   22584282.8104
        50.000          43.000
 120048841.84747  93544541.07847  22844543.0934   22844545.0764   22844543.1064
        48.000          42.000
 125190179.75747  97550765.73947  23822918.4874   23822922.1974   23822918.4644
        43.000          38.000
 118360691.23547  92229098.01647  22523300.0264   22523301.2844   22523300.7864
        50.000          43.000
 124116836.70647  96714401.50447  23618661.7294   23618665.3094   23618661.8264
        45.000          39.000
 120981069.42247  94270967.72547  23021928.4074   23021928.7064   23021928.5604
        48.000          42.000
 128676668.75447 100267516.88047  24486369.4054   24486372.6294   24486368.5434
        42.000          37.000
 109976965.31447  85696327.52347  20927926.9484   20927928.5724   20927926.4064
        54.000          48.000
 129449777.15347 100869945.11247  24633480.8094   24633483.0024   24633480.7494
        42.000          36.000
 106657897.35447  83110059.75447  20296313.3634   20296315.0104   20296313.6494
        54.000          49.000
 09  1 28  0 34 30.0000000  0 11G 5G30G14G 6G18G24G22G29G31G12G21
 123889855.71347  96537532.94647  23575469.0224   23575472.4574   23575469.6024
        46.000          39.000
 118662558.07447  92464324.03547  22580739.3914   22580741.9994   22580739.3904
        50.000          43.000
 120090585.98747  93577068.98347  22852486.6304   22852488.5864   22852486.7904
        48.000          42.000
 125180184.02247  97542976.86147  23821016.4734   23821019.6854   23821016.9494
        43.000          38.000
 118323760.03347  92200320.45447  22516272.2494   22516273.3994   22516272.9794
        50.000          43.000
 124209704.30747  96786765.86047  23636333.5394   23636337.5274   23636333.9684
        45.000          39.000
 120928445.68047  94229962.22247  23011914.5724   23011914.8084   23011914.7324
        49.000          42.000
 128733994.09547 100312186.00847  24497277.1914   24497281.2154   24497276.7824
        42.000          37.000
 109922349.18447  85653769.51047  20917533.9614   20917535.5184   20917533.7364
        54.000          49.000
 129473851.99247 100888704.72547  24638062.7624   24638063.8934   24638062.9624
        42.000          37.000
 106704793.03647  83146601.84347  20305237.3794   20305239.0174   20305237.8364
        54.000          49.000
 09  1 28  0 35  0.0000000  0 11G 5G30G14G 6G18G24G22G29G31G12G21
 123902751.23547  96547581.41647  23577923.2214   23577926.3064   23577923.6084
        46.000          39.000
 118644140.56847  92449972.74047  22577234.6664   22577236.9924   22577234.4424
        50.000          43.000
 120132332.64947  93609598.87447  22860430.6404   22860432.8084   22860430.9174
        48.000          42.000
 125170357.59147  97535319.89747  23819146.0524   23819149.5414   23819146.0094
        44.000          38.000
 118286903.05647  92171600.73647  22509258.7134   22509260.0224   22509258.9434
        49.000          43.000
 124302779.84347  96859292.24447  23654045.4664   23654048.9374   23654045.6834
        45.000          38.000
 120875709.59347  94188869.18147  23001879.0964   23001879.8114   23001879.0334
        49.000          43.000
 128791104.34447 100356687.48647  24508145.6844   24508148.4424   24508145.1854
        42.000          37.000
 109868241.97247  85611608.05247  20907237.7524   20907239.2924   20907237.3224
        54.000          49.000
 129498203.72847 100907680.10347  24642696.9484   24642699.5404   24642696.4064
        42.000          37.000
 106752249.48647  83183580.89747  20314268.0924   20314269.6214   20314268.4074
        55.000          49.000
 09  1 28  0 35 30.0000000  0 11G 5G30G14G 6G18G24G22G29G31G12G21
 123915964.68847  96557877.61547  23580437.4554   23580440.7194   23580437.9864
        45.000          39.000
 118625927.95347  92435781.10147  22573768.7574   22573771.2184   22573768.4284
        50.000          43.000
 120174076.78547  93642126.79847  22868374.0624   22868376.4854   22868374.2044
        48.000          42.000
 125160695.86047  97527791.27447  23817307.6584   23817311.2834   23817307.7804
        44.000          38.000
 118250119.59647  92142938.30947  22502259.0204   22502260.6294   22502259.3424
        50.000          43.000
 124396057.93847  96931976.43747  23671795.2624   23671799.6304   23671795.6894
        45.000          38.000
 120822859.77147  94147687.51547  22991822.3924   22991822.8744   22991822.4364
        49.000          43.000
 128847995.92447 100401018.58947  24518971.3564   24518975.0104   24518971.3884
        41.000          37.000
 109814642.68547  85569842.38147  20897038.1784   20897039.7274   20897037.8464
        54.000          49.000
 129522830.75647 100926869.99947  24647383.4634   24647385.0234   24647383.2964
        42.000          37.000
 106800261.76647  83220993.06247  20323404.4704   20323405.9874   20323404.9514
        54.000          48.000
 09  1 28  0 36  0.0000000  0 11G 5G30G14G 6G18G24G22G29G31G12G21
 123929499.11747  96568423.94847  23583012.6394   23583016.7884   23583013.1534
        46.000          39.000
 118607924.23147  92421752.23747  22570342.8644   22570345.3564   22570342.4484
        49.000          43.000
 120215817.68647  93674652.19847  22876317.0994   22876319.3824   22876317.0734
        48.000          42.000
 125151198.86547  97520391.01847  23815500.8604   23815504.2404   23815500.3834
        44.000          38.000
 118213414.09347  92114336.61847  22495274.3454   22495275.9574   22495274.8934
        50.000          43.000
 124489537.57647  97004817.68947  23689583.9924   23689588.6814   23689583.9554
        43.000          39.000
 120769899.64647  94106419.90047  22981744.2944   22981744.4824   22981744.5194
        49.000          42.000
 128904669.64947 100445179.92047  24529755.6884   24529759.6194   24529755.5804
        42.000          37.000
 109761554.97247  85528475.34147  20886935.7214   20886937.3724   20886935.2474
        54.000          49.000
 129547735.36247 100946276.20247  24652121.8804   24652124.5034   24652121.7924
        42.000          36.000
 106848829.87647  83258838.33947  20332646.6754   20332648.2014   20332647.0934
        55.000          48.000
 09  1 28  0 36 30.0000000  0 11G 5G30G14G 6G18G24G22G29G31G12G21
 123943355.84647  96579221.41947  23585649.3844   23585653.2884   23585650.0974
        45.000          39.000
 118590131.66347  92407887.90847  22566956.6344   22566959.4134   22566955.9964
        49.000          43.000
 120257552.95547  93707173.20647  22884259.4004   22884261.2064   22884259.5734
        48.000          42.000
 125141864.73447  97513117.67047  23813724.3114   23813727.3434   23813724.6124
        45.000          38.000
 118176788.63247  92085797.30147  22488304.7204   22488306.1734   22488305.0984
        50.000          43.000
 124583216.54447  97077814.25647  23707410.0014   23707415.3514   23707410.0584
        44.000          38.000
 120716830.84347  94065067.59447  22971645.5984   22971645.6804   22971645.9124
        49.000          42.000
 128961125.02547 100489171.12047  24540500.0124   24540502.6884   24540500.1364
        43.000          37.000
 109708980.46747  85487508.20247  20876931.1384   20876932.7904   20876930.8264
        54.000          49.000
 129572918.81047 100965899.68647  24656914.4254   24656916.2774   24656914.0604
        42.000          37.000
 106897951.69647  83297115.07947  20341994.3534   20341995.5754   20341994.7584
        55.000          48.000
 09  1 28  0 37  0.0000000  0 11G 5G30G14G 6G18G24G22G29G31G12G21
 123957533.36047  96590268.82647  23588347.4244   23588351.3874   23588348.0024
        45.000          39.000
 118572549.69447  92394187.67947  22563611.0944   22563613.9664   22563610.8264
        49.000          43.000
 120299277.44247  93739685.81047  22892199.2024   22892201.3974   22892199.5234
        48.000          42.000
 125132689.02847  97505967.77547  23811978.3944   23811981.3414   23811979.1814
        44.000          38.000
 118140242.64847  92057319.91147  22481349.8564   22481351.8774   22481350.2324
        49.000          43.000
 124677089.51047  97150961.96947  23725273.5224   23725278.7044   23725273.9834
        44.000          38.000
 120663652.35147  94023629.81247  22961526.0324   22961526.0184   22961526.0444
        49.000          42.000
 129017358.73547 100532989.58847  24551201.2154   24551203.2324   24551200.8314
        42.000          37.000
 109656918.54047  85446940.47447  20867024.0994   20867025.7224   20867023.7054
        54.000          49.000
 129598379.21347 100985738.97047  24661759.0394   24661760.9874   24661759.0814
        42.000          36.000
 106947622.42147  83335819.53747  20351446.3484   20351447.7824   20351446.7914
        54.000          48.000
 09  1 28  0 37 30.0000000  0 11G 5G30G14G 6G18G24G22G29G31G12G21
 123972036.73047  96601570.18047  23591107.3634   23591111.0624   23591107.9684
        45.000          39.000
 118555184.29147  92380656.20147  22560306.4604   22560309.2564   22560306.0094
        49.000          43.000
 120340992.67047  93772191.20147  22900137.2134   22900139.1834   22900137.5204
        47.000          42.000
 125123673.65947  97498942.82847  23810262.4764   23810266.1334   23810262.0674
        43.000          38.000
 118103782.70847  92028909.55947  22474412.0984   22474413.5844   22474412.5404
        49.000          43.000
 124771157.45647  97224261.65247  23743174.7134   23743178.9244   23743174.6064
        44.000          39.000
 120610369.19847  93982110.47247  22951386.6734   22951386.7814   22951386.5544
        49.000          42.000
 129073373.31747 100576637.27847  24561860.2264   24561863.3864   24561859.7794
        43.000          37.000
 109605374.12147  85406776.00347  20857215.4734   20857217.0564   20857215.1624
        54.000          49.000
 129624121.28247 101005797.74847  24666657.6934   24666659.6744   24666657.8114
        41.000          37.000
 106997843.82247  83374953.09347  20361003.1544   20361004.5174   20361003.4554
        55.000          48.000
 09  1 28  0 38  0.0000000  0 11G 5G30G14G 6G18G24G22G29G31G12G21
 123986866.03647  96613125.49547  23593929.2454   23593932.9064   23593929.5854
        45.000          39.000
 118538036.40047  92367294.21147  22557043.2574   22557045.9254   22557043.1204
        49.000          43.000
 120382694.74747  93804686.34547  22908072.6604   22908074.7104   22908072.8074
        47.000          41.000
 125114815.83447  97492040.64047  23808577.0834   23808580.4494   23808577.2224
        44.000          38.000
 118067409.86447  92000567.08547  22467490.5694   22467492.1414   22467490.9574
        50.000          43.000
 124865416.71947  97297710.40347  23761111.5274   23761115.7824   23761111.5434
        45.000          38.000
 120556982.10847  93940510.14547  22941227.4744   22941227.4764   22941227.6594
        48.000          42.000
 129129167.20047 100620113.05447  24572477.5714   24572479.8224   24572476.9314
        43.000          37.000
 109554347.60247  85367015.08347  20847505.4214   20847507.1044   20847504.8344
        54.000          49.000
 129650144.89347 101026075.89347  24671610.3084   24671611.4004   24671609.5724
        41.000          36.000
 107048612.80647  83414513.33547  20370664.3934   20370665.5794   20370664.9034
        55.000          48.000
 09  1 28  0 38 30.0000000  0 11G 5G30G14G 6G18G24G22G29G31G12G21
 124002023.19247  96624936.28147  23596813.9874   23596817.3534   23596814.2154
        45.000          39.000
 118521108.90447  92354103.95447  22553822.4024   22553824.8604   22553821.9674
        50.000          43.000
 120424382.15447  93837170.05247  22916005.6234   22916007.6764   22916005.8614
        48.000          42.000
 125106114.14247  97485260.11847  23806921.2184   23806924.5434   23806921.2684
        44.000          38.000
 118031126.81647  91972294.58647  22460585.9274   22460587.6704   22460586.3774
        50.000          43.000
 124959865.34747  97371306.69247  23779084.8004   23779088.8734   23779084.9234
        45.000          38.000
 120503493.36147  93898830.62147  22931048.5014   22931048.9264   22931048.5574
        48.000          42.000
 129184740.45847 100663416.88647  24583052.4874   24583054.9964   24583052.4974
        43.000          37.000
 109503841.57847  85327659.75147  20837894.4854   20837896.1684   20837894.2794
        54.000          49.000
 129676451.61847 101046574.64847  24676616.2214   24676617.7984   24676615.7554
        41.000          36.000
 107099928.04447  83454499.23547  20380429.2234   20380430.6744   20380429.5304
        55.000          48.000
 09  1 28  0 39  0.0000000  0 11G 5G30G14G 6G18G24G22G29G31G12G21
 124017508.50647  96637002.78347  23599759.8534   23599763.6444   23599760.3654
        44.000          38.000
 118504403.13947  92341086.47847  22550643.3174   22550645.9924   22550643.0054
        49.000          43.000
 120466051.57547  93869639.74347  22923935.1904   22923937.3754   22923935.5074
        48.000          42.000
 125097566.10547  97478599.32947  23805294.4354   23805297.8224   23805294.7674
        43.000          37.000
 117994934.89147  91944093.07547  22453699.3144   22453700.6994   22453699.6654
        51.000          43.000
 125054499.96547  97445047.91447  23797093.0994   23797097.4894   23797093.2144
        44.000          38.000
 120449903.84647  93857072.56747  22920850.9954   22920851.3174   22920850.9414
        49.000          42.000
 129240091.26247 100706547.40447  24593585.9504   24593588.1164   24593584.9924
        42.000          37.000
 109453856.82347  85288710.59647  20828382.6534   20828384.3034   20828382.1814
        54.000          49.000
 129703041.44447 101067293.97947  24681674.9054   24681677.6674   24681674.4654
        41.000          36.000
 107151786.46847  83494908.39447  20390297.6074   20390298.9504   20390298.0684
        54.000          48.000
 09  1 28  0 39 30.0000000  0 11G 5G30G14G 6G18G24G22G29G31G12G21
 124033322.35447  96649325.25847  23602769.8454   23602773.5834   23602770.0434
        45.000          39.000
 118487920.42147  92328242.81647  22547506.9364   22547509.3934   22547506.7184
        50.000          43.000
 120507699.66147  93902092.79747  22931860.5824   22931862.8354   22931860.8834
        48.000          42.000
 125089169.11047  97472056.22447  23803696.1614   23803699.2924   23803696.3094
        43.000          37.000
 117958836.08647  91915964.11847  22446830.1034   22446831.4014   22446830.6444
        50.000          43.000
 125149317.22647  97518931.46247  23815136.0244   23815140.5444   23815136.0614
        45.000          38.000
 120396214.23647  93815236.51747  22910634.2654   22910634.3594   22910634.3754
        48.000          42.000
 129295218.43047 100749503.64747  24604075.5364   24604078.9704   24604074.9124
        41.000          37.000
 109404393.91247  85250168.07847  20818970.0274   20818971.7084   20818969.6404
        54.000          49.000
 129729914.59147 101088234.12647  24686789.4904   24686791.6644   24686788.9834
        40.000          36.000
 107204185.32447  83535738.67147  20400268.4594   20400270.2194   20400268.6974
        54.000          48.000
 09  1 28  0 40  0.0000000  0 11G 5G30G14G 6G18G24G22G29G31G12G21
 124049469.71147  96661907.61647  23605842.3804   23605846.3114   23605842.9234
        44.000          39.000
 118471666.68647  92315577.58547  22544413.9114   22544416.2134   22544413.4854
        50.000          43.000
 120549327.95447  93934530.45547  22939782.0934   22939784.0524   22939782.3704
        48.000          41.000
 125080924.97547  97465632.22647  23802127.3654   23802131.0594   23802127.0614
        42.000          37.000
 117922836.31247  91887912.34147  22439979.3274   22439980.6414   22439980.0434
        50.000          43.000
 125244318.24847  97592958.20247  23833214.4134   23833219.2184   23833214.4764
        45.000          38.000
 120342430.35747  93773326.99847  22900399.4664   22900399.5614   22900399.3574
        49.000          42.000
 129350124.95547 100792287.96547  24614523.7104   24614526.9774   24614523.8534
        42.000          37.000
 109355458.13747  85212036.31547  20809658.2474   20809659.5764   20809657.8044
        54.000          49.000
 129757075.41847 101109398.42047  24691958.1464   24691960.0874   24691957.6174
        41.000          36.000
 107257125.83147  83576991.00847  20410343.0034   20410344.3774   20410343.4244
        54.000          48.000
 09  1 28  0 40 30.0000000  0 11G 5G30G14G 6G18G24G22G29G31G12G21
 124065952.50947  96674751.34747  23608978.6934   23608983.1194   23608978.8814
        44.000          39.000
 118455644.83047  92303093.02747  22541365.1154   22541367.0634   22541364.5454
        50.000          43.000
 120590934.86247  93966951.43747  22947699.4084   22947701.6764   22947699.4704
        47.000          42.000
 125072832.80647  97459326.65147  23800588.0974   23800591.2654   23800588.0324
        43.000          38.000
 117886939.17847  91859940.54247  22433147.9824   22433149.8264   22433148.3984
        50.000          43.000
 125339501.32547  97667126.79547  23851327.3134   23851331.3344   23851327.6964
        44.000          38.000
 120288554.16047  93731345.54447  22890147.0754   22890146.8994   22890147.2914
        48.000          42.000
 129404811.21947 100834900.63747  24624930.6974   24624933.6724   24624930.7554
        41.000          37.000
 109307052.01447  85174317.26747  20800446.8094   20800448.1094   20800446.2924
        54.000          49.000
 129784525.84347 101130788.35347  24697181.5624   24697183.3464   24697180.6844
        41.000          36.000
 107310606.92247  83618664.58547  20420519.8964   20420521.5334   20420520.2734
        54.000          48.000
 09  1 28  0 41  0.0000000  0 11G 5G30G14G 6G18G24G22G29G31G12G21
 124082764.81847  96687851.85647  23612178.4634   23612182.0904   23612178.5744
        45.000          39.000
 118439850.15047  92290785.48947  22538359.5724   22538361.8834   22538359.3664
        50.000          43.000
 120632510.79047  93999348.27847  22955611.3034   22955613.1514   22955611.4974
        48.000          42.000
 125064883.57747  97453132.45947  23799075.4094   23799078.7844   23799075.5394
        43.000          38.000
 117851139.52747  91832044.70347  22426335.5254   22426337.4584   22426335.9014
        50.000          43.000
 125434856.69447  97741429.64247  23869472.1174   23869476.8884   23869471.9194
        44.000          38.000
 120234580.49447  93689288.15447  22879876.2224   22879876.2554   22879876.4054
        48.000          42.000
 129459268.92947 100877335.15147  24635293.0424   24635296.4624   24635292.7454
        42.000          37.000
 109259169.53247  85137006.25347  20791335.0124   20791336.3604   20791334.6744
        54.000          49.000
 129812259.39647 101152398.91847  24702459.2304   24702460.5224   24702458.7414
        42.000          36.000
 107364619.35347  83660752.19047  20430798.0244   20430799.8804   20430798.3314
        54.000          48.000
 09  1 28  0 41 30.0000000  0 11G 5G30G14G 6G18G24G22G29G31G12G21
 124099911.55947  96701212.94947  23615440.9594   23615444.7454   23615441.2494
        44.000          39.000
 118424288.34847  92278659.42447  22535398.0574   22535400.5934   22535397.5664
        50.000          43.000
 120674057.37047  94031722.23747  22963517.4074   22963519.2994   22963517.5174
        47.000          41.000
 125057079.26747  97447051.17147  23797589.6344   23797593.7124   23797590.1344
        43.000          38.000
 117815443.40447  91804229.52647  22419543.0364   22419544.3454   22419543.2954
        51.000          43.000
 125530385.46847  97815867.61647  23887650.4294   23887654.8104   23887650.6544
        44.000          38.000
 120180515.10247  93647159.29347  22869587.6514   22869588.0264   22869587.5474
        48.000          42.000
 129513501.69647 100919594.50947  24645613.4704   24645616.4794   24645614.0534
        42.000          37.000
 109211816.20447  85100107.56547  20782323.9644   20782325.4494   20782323.5084
        54.000          49.000
 129840280.82347 101174233.83247  24707791.6514   24707793.2454   24707791.7224
        41.000          36.000
 107419164.60547  83703254.97947  20441177.6834   20441179.4254   20441178.0524
        55.000          48.000
 09  1 28  0 42  0.0000000  0 11G 5G30G14G 6G18G24G22G29G31G12G21
 124117393.92847  96714835.59847  23618768.0004   23618771.0894   23618768.5604
        45.000          39.000
 118408961.83247  92266716.69947  22532481.2874   22532483.9834   22532481.1174
        49.000          43.000
 120715572.27147  94064071.51747  22971416.9224   22971419.0434   22971417.2294
        47.000          41.000
 125049418.09647  97441081.42447  23796132.3064   23796135.6434   23796132.1204
        42.000          38.000
 117779853.53947  91776497.15347  22412770.5904   22412771.7954   22412771.2064
        50.000          43.000
 125626085.17547  97890438.78147  23905861.6344   23905866.3834   23905862.4444
        44.000          38.000
 120126359.38547  93604960.04547  22859282.3914   22859282.6404   22859282.3904
        48.000          42.000
 129567508.87047 100961678.06347  24655890.5004   24655894.5264   24655890.6414
        42.000          36.000
 109164993.76147  85063622.55847  20773413.9004   20773415.3824   20773413.6244
        54.000          49.000
 129868590.87747 101196293.61647  24713178.0664   24713180.6494   24713177.6054
        41.000          36.000
 107474240.46547  83746171.22847  20451658.5624   20451660.0214   20451659.0794
        55.000          48.000
 09  1 28  0 42 30.0000000  0 11G 5G30G14G 6G18G24G22G29G31G12G21
 124135217.10647  96728723.80347  23622159.3534   23622163.2134   23622159.8074
        45.000          39.000
 118393876.73647  92254962.07947  22529610.5974   22529613.6684   22529610.1784
        50.000          43.000
 120757057.39047  94096397.59547  22979311.8694   22979313.5584   22979311.9534
        48.000          42.000
 125041902.30347  97435224.97847  23794701.8004   23794705.6944   23794701.3044
        43.000          38.000
 117744376.35347  91748852.59047  22406019.1884   22406020.6884   22406019.7194
        50.000          43.000
 125721957.28347  97965144.29547  23924105.4874   23924110.4444   23924106.0834
        44.000          38.000
 120072118.78347  93562694.64647  22848961.0974   22848960.9684   22848961.3544
        49.000          42.000
 129621294.13147 101003588.67447  24666124.9164   24666127.5034   24666125.0684
        40.000          36.000
 109118707.73247  85027555.53347  20764605.9974   20764607.3464   20764605.5234
        54.000          49.000
 129897194.60047 101218582.23747  24718621.1714   24718623.9214   24718621.0444
        41.000          36.000
 107529848.98847  83789502.54247  20462240.4524   20462241.8914   20462240.8814
        55.000          48.000
 09  1 28  0 43  0.0000000  0 11G 5G30G14G 6G18G24G22G29G31G12G21
 124153378.22847  96742875.33847  23625615.1644   23625618.9954   23625615.6014
        44.000          39.000
 118379031.12547  92243394.08447  22526785.9104   22526788.4404   22526785.7364
        50.000          43.000
 120798506.20447  94128695.37347  22987199.1344   22987201.1914   22987199.7264
        47.000          41.000
 125034526.18647  97429477.36547  23793298.5294   23793302.5444   23793298.9364
        44.000          38.000
 117709010.26247  91721294.59247  22399288.9544   22399291.0754   22399289.6554
        49.000          43.000
 125817995.24047  98039979.01047  23942381.2674   23942386.0194   23942380.7774
        44.000          37.000
 120017791.47047  93520361.67947  22838622.7174   22838622.5894   22838622.9174
        49.000          42.000
 129674852.99147 101045322.84647  24676317.2114   24676319.9464   24676316.6794
        41.000          36.000
 109072955.23147  84991904.24347  20755899.6124   20755901.0014   20755899.2774
        54.000          49.000
 129926088.92047 101241097.30947  24724120.2934   24724122.3104   24724119.4434
        40.000          36.000
 107585983.99947  83833244.10547  20472922.6434   20472924.0264   20472923.0934
        55.000          48.000
 09  1 28  0 43 30.0000000  0 11G 5G30G14G 6G18G24G22G29G31G12G21
 124171878.21247  96757290.92547  23629135.7594   23629139.2444   23629136.3464
        45.000          39.000
 118364427.00247  92232014.25647  22524006.5824   22524009.4384   22524005.9564
        50.000          43.000
 120839916.31247  94160963.00747  22995078.8274   22995081.2024   22995078.9844
        47.000          41.000
 125027287.68347  97423836.98247  23791921.0624   23791924.4324   23791920.9794
        43.000          38.000
 117673757.69447  91693825.06647  22392580.4114   22392582.7364   22392581.0434
        50.000          43.000
 125914196.25347  98114940.79847  23960687.8194   23960692.2704   23960687.4484
        43.000          38.000
 119963379.19947  93477962.50847  22828268.2664   22828268.2034   22828268.3794
        49.000          42.000
 129728184.35547 101086879.75247  24686465.8254   24686469.2944   24686465.8444
        41.000          36.000
 109027737.51047  84956669.66747  20747295.0464   20747296.2434   20747294.7844
        54.000          49.000
 129955274.48647 101263839.30847  24729673.8924   24729676.7534   24729673.5064
        41.000          36.000
 107642642.67847  83877393.72547  20483704.3994   20483705.8114   20483704.8704
        54.000          48.000
 09  1 28  0 44  0.0000000  0 11G 5G30G14G 6G18G24G22G29G31G12G21
 124190717.78047  96771971.10247  23632721.0314   23632724.5014   23632721.5724
        44.000          39.000
 118350066.12447  92220823.97347  22521273.9804   22521276.5214   22521273.7624
        50.000          43.000
 120881285.39947  94193198.67447  23002951.3214   23002953.2864   23002951.5644
        47.000          41.000
 125020184.57947  97418302.08347  23790569.1804   23790573.1384   23790569.2434
        43.000          38.000
 117638620.28447  91666445.25147  22385894.8484   22385896.2384   22385895.1214
        50.000          43.000
 126010557.38347  98190027.34847  23979024.6214   23979029.4044   23979025.0204
        44.000          38.000
 119908884.13247  93435498.81447  22817898.2704   22817898.1304   22817898.3384
        49.000          42.000
 129781287.70147 101128258.95447  24696571.4284   24696574.5824   24696570.5024
        41.000          36.000
 108983056.11047  84921852.98847  20738792.4014   20738793.8124   20738791.7564
        54.000          49.000
 129984751.80247 101286808.65847  24735283.4764   24735285.3324   24735283.3234
        42.000          37.000
 107699822.66447  83921949.55747  20494585.2904   20494586.8404   20494585.6844
        54.000          48.000
 09  1 28  0 44 30.0000000  0 11G 5G30G14G 6G18G24G22G29G31G12G21
 124209899.84947  96786918.17547  23636370.9014   23636374.6224   23636371.5684
        44.000          39.000
 118335952.61547  92209826.43947  22518588.0034   22518590.4704   22518587.5994
        49.000          43.000
 120922612.59647  94225401.70447  23010815.8804   23010817.6024   23010816.2624
        47.000          41.000
 125013216.90647  97412872.73247  23789243.7794   23789246.6504   23789243.1744
        44.000          38.000
 117603602.32047  91639158.50447  22379230.9944   22379232.7774   22379231.5904
        50.000          43.000
 126107078.10447  98265238.27147  23997392.3814   23997396.7774   23997392.5694
        44.000          37.000
 119854308.76047  93392972.53747  22807513.0524   22807512.7504   22807512.8134
        49.000          42.000
 129834164.25347 101169461.42847  24706633.4814   24706636.8414   24706633.0724
        41.000          36.000
 108938913.70347  84887456.31547  20730392.2544   20730393.6774   20730392.0264
        54.000          49.000
 130014523.25447 101310007.20347  24740948.1244   24740950.5174   24740947.9964
        40.000          36.000
 107757523.44747  83966911.19847  20505565.3244   20505566.9104   20505565.7504
        54.000          48.000
 09  1 28  0 45  0.0000000  0 11G 5G30G14G 6G18G24G22G29G31G12G21
 124229425.91647  96802133.31147  23640087.3864   23640089.9504   23640087.7714
        45.000          39.000
 118322088.89947  92199023.56747  22515949.8964   22515952.7414   22515949.4974
        50.000          43.000
 120963896.16547  94257570.73047  23018671.2464   23018673.7344   23018671.5264
        46.000          41.000
 125006383.29647  97407547.85047  23787943.0044   23787946.3114   23787943.1444
        44.000          38.000
 117568706.80847  91611967.19947  22372590.2924   22372592.1474   22372590.6744
        50.000          43.000
 126203756.27247  98340571.87847  24015789.9294   24015794.1084   24015789.8434
        44.000          37.000
 119799655.59847  93350385.66247  22797113.0144   22797112.5754   22797112.9564
        49.000          42.000
 129886813.81647 101210487.13647  24716651.7764   24716655.1384   24716651.4594
        41.000          36.000
 108895312.08847  84853481.04547  20722095.1714   20722096.7414   20722094.7104
        54.000          49.000
 130044589.94547 101333435.81547  24746670.3494   24746671.9334   24746669.7594
        41.000          36.000
 107815742.96447  84012277.05847  20516644.1684   20516645.5584   20516644.5104
        54.000          48.000
 09  1 28  0 45 30.0000000  0 11G 5G30G14G 6G18G24G22G29G31G12G21
 124249296.72647  96817617.05747  23643868.5904   23643872.1314   23643869.2394
        45.000          39.000
 118308476.72047  92188416.68047  22513359.4164   22513362.2344   22513359.3434
        50.000          43.000
 121005133.40747  94289703.63547  23026518.3494   23026520.8474   23026518.5184
        47.000          41.000
 124999681.54047  97402325.69547  23786667.8714   23786671.0554   23786668.2634
        44.000          38.000
 117533935.90747  91584872.99047  22365973.8194   22365975.5374   22365974.2784
        50.000          43.000
 126300588.90747  98416025.81647  24034216.1374   24034220.8204   24034216.1874
        42.000          37.000
 119744925.89347  93307739.13847  22786698.4844   22786698.2724   22786698.4064
        49.000          43.000
 129939235.62047 101251335.29647  24726628.0164   24726630.7154   24726627.6964
        41.000          37.000
 108852252.41347  84819928.05847  20713901.1844   20713902.7424   20713900.7004
        54.000          49.000
 130074952.23847 101357094.77647  24752448.3054   24752450.0824   24752448.2304
        40.000          36.000
 107874478.65547  84058045.12847  20527821.0904   20527822.6894   20527821.5754
        54.000          48.000
 09  1 28  0 46  0.0000000  0 11G 5G30G14G 6G18G24G22G29G31G12G21
 124269510.96547  96833368.41847  23647714.8084   23647718.4254   23647715.7604
        45.000          39.000
 118295115.86747  92178005.62447  22510817.3894   22510819.5694   22510817.1764
        50.000          43.000
 121046320.23047  94321797.29347  23034356.2654   23034358.1584   23034356.3764
        47.000          41.000
 124993107.59047  97397203.14547  23785416.2644   23785420.6664   23785415.8034
        43.000          38.000
 117499289.62247  91557875.86847  22359380.8524   22359382.4724   22359381.3144
        51.000          43.000
 126397571.22147  98491596.39047  24052671.4184   24052676.0824   24052671.5064
        43.000          37.000
 119690119.56847  93265032.90847  22776268.8444   22776269.1584   22776269.0424
        49.000          43.000
 129991426.97047 101292003.90547  24736560.2784   24736562.5634   24736559.6974
        40.000          36.000
 108809733.49147  84786796.44247  20705810.0804   20705811.6594   20705809.7404
        54.000          49.000
 130105608.58647 101380982.82947  24758281.4484   24758284.3344   24758280.7334
        39.000          36.000
 107933725.62647  84104211.59747  20539095.4674   20539097.0794   20539095.8064
        54.000          48.000
 09  1 28  0 46 30.0000000  0 11G 5G30G14G 6G18G24G22G29G31G12G21
 124290079.12747  96849395.59247  23651628.8214   23651632.3054   23651629.5664
        45.000          39.000
 118282018.05847  92167799.54247  22508324.6014   22508327.0674   22508324.3204
        49.000          43.000
 121087463.33447  94353856.86447  23042185.2374   23042187.3234   23042185.8194
        46.000          41.000
 124986669.04247  97392186.06847  23784191.7924   23784195.5744   23784191.9784
        44.000          38.000
 117464779.84147  91530985.10947  22352813.9404   22352815.5284   22352814.2684
        50.000          43.000
 126494710.09147  98567288.96747  24071156.3684   24071161.2384   24071156.7204
        43.000          37.000
 119635247.91947  93222275.78147  22765827.1824   22765827.1774   22765827.0224
        49.000          43.000
 130043396.75647 101332499.85347  24746449.2554   24746451.7124   24746448.7184
        41.000          37.000
 108767766.22647  84754094.69047  20697824.1404   20697825.4264   20697823.7564
        54.000          49.000
 130136569.42947 101405108.18147  24764173.5444   24764175.6534   24764172.9994
        41.000          36.000
 107993491.32747  84150782.27247  20550468.6614   20550469.9754   20550469.0514
        55.000          48.000
 09  1 28  0 47  0.0000000  0 11G 5G30G14G 6G18G24G22G29G31G12G21
 124310988.50747  96865688.61947  23655608.1424   23655611.8284   23655608.4404
        46.000          39.000
 118269171.71447  92157789.42947  22505879.9434   22505882.5604   22505879.8074
        50.000          43.000
 121128546.93847  94385870.06347  23050003.5364   23050005.7074   23050003.6954
        47.000          41.000
 124980350.36647  97387262.43647  23782989.0524   23782992.4564   23782988.7224
        43.000          38.000
 117430395.48347  91504192.09447  22346270.9204   22346272.3704   22346271.3044
        50.000          43.000
 126591989.23747  98643090.83947  24089667.9574   24089672.1794   24089668.7464
        44.000          37.000
 119580298.92447  93179458.39847  22755370.6834   22755370.8634   22755370.4544
        49.000          43.000
 130095130.97847 101372812.22847  24756293.7204   24756297.1584   24756293.9664
        40.000          36.000
 108726338.20447  84721813.11847  20689940.6474   20689941.9954   20689940.1854
        55.000          49.000
 130167821.60947 101429460.54347  24770120.2344   24770122.9554   24770119.6754
        40.000          36.000
 108053759.33947  84197744.35847  20561937.2314   20561938.7084   20561937.6574
        54.000          48.000
 09  1 28  0 47 30.0000000  0 11G 5G30G14G 6G18G24G22G29G31G12G21
 124332248.83147  96882255.11447  23659653.8764   23659656.9474   23659654.0834
        45.000          39.000
 118256587.53447  92147983.57647  22503485.4604   22503487.8974   22503484.8464
        50.000          43.000
 121169577.68147  94417842.08747  23057811.9244   23057813.6764   23057812.2014
        47.000          41.000
 124974158.28847  97382437.43447  23781810.4574   23781814.5724   23781811.0414
        43.000          38.000
 117396147.54947  91477505.39347  22339753.6884   22339755.1264   22339754.3414
        50.000          43.000
 126689414.66847  98719006.75347  24108207.5194   24108211.9254   24108208.0234
        44.000          37.000
 119525283.20347  93136589.02447  22744900.9654   22744901.4384   22744901.0484
        49.000          43.000
 130146637.95347 101412947.53447  24766095.2194   24766098.4664   24766094.7794
        41.000          36.000
 108685459.26747  84689959.41147  20682161.5514   20682162.8524   20682161.1504
        54.000          49.000
 130199374.76247 101454047.41447  24776124.4144   24776126.6674   24776124.5184
        40.000          36.000
 108114536.22547  84245102.96847  20573502.7454   20573504.2904   20573503.2814
        54.000          48.000
 09  1 28  0 48  0.0000000  0 11G 5G30G14G 6G18G24G22G29G31G12G21
 124353856.58947  96899092.33647  23663765.4774   23663768.8514   23663766.1614
        46.000          39.000
 118244263.48547  92138380.42747  22501140.3164   22501143.0614   22501139.8244
        49.000          43.000
 121210548.94547  94449767.75647  23065607.9134   23065609.9424   23065608.2504
        46.000          41.000
 124968086.70447  97377706.33247  23780655.5054   23780658.8884   23780655.6564
        43.000          38.000
 117362034.30947  91450923.64647  22333261.9724   22333263.7754   22333262.4114
        50.000          43.000
 126786979.53347  98795031.29947  24126773.3604   24126778.0104   24126773.1744
        43.000          37.000
 119470198.20647  93093665.65047  22734418.9344   22734419.4384   22734418.9774
        50.000          43.000
 130197912.74547 101452901.93747  24775852.6654   24775856.0064   24775852.0624
        40.000          36.000
 108645126.04647  84658530.93647  20674486.4794   20674487.6914   20674486.2004
        55.000          49.000
 130231224.85747 101478865.68847  24782185.0804   24782187.4854   24782185.6914
        40.000          36.000
 108175815.01447  84292852.67147  20585163.6094   20585165.2444   20585163.9154
        54.000          48.000
 09  1 28  0 48 30.0000000  0 11G 5G30G14G 6G18G24G22G29G31G12G21
 124375816.32947  96916203.81947  23667944.0174   23667947.4684   23667944.2174
        46.000          39.000
 118232205.18847  92128984.35847  22498845.5974   22498848.2104   22498845.0234
        50.000          44.000
 121251462.25847  94481648.26947  23073393.6184   23073395.3654   23073393.8564
        47.000          41.000
 124962137.42247  97373070.52747  23779523.2284   23779526.7844   23779523.1234
        44.000          38.000
 117328060.91047  91424450.84847  22326797.3354   22326798.8334   22326797.8024
        50.000          43.000
 126884684.64647  98871165.13347  24145366.1684   24145369.2384   24145365.6274
        43.000          37.000
 119415049.46747  93050692.59647  22723924.5974   22723925.0874   22723924.8834
        49.000          43.000
 130248958.70047 101492678.05247  24785565.9554   24785568.8134   24785566.0404
        41.000          36.000
 108605343.42147  84627531.50047  20666915.9594   20666917.3334   20666915.5034
        55.000          49.000
 130263375.99447 101503918.52647  24788303.6214   24788305.7274   24788303.6844
        40.000          36.000
 108237596.88447  84340994.38147  20596920.5374   20596921.8624   20596921.0154
        54.000          48.000
 09  1 28  0 49  0.0000000  0 12G 5G30G16G14G 6G18G24G22G29G31G12G21
 124398128.06947  96933589.60347  23672189.7474   23672193.4034   23672190.4044
        45.000          39.000
 118220413.50747  92119796.03947  22496601.5824   22496604.5364   22496601.5674
        50.000          44.000
 141412220.85557  92399130.17557  25006913.6705   25006916.9965   25006913.3275
        41.000          34.000
 121292314.15847  94513480.93147  23081167.5994   23081169.3224   23081167.4824
        46.000          41.000
 124956307.49147  97368527.71747  23778413.6104   23778417.4344   23778413.9164
        44.000          38.000
 117294229.68647  91398088.84647  22320359.4064   22320360.8984   22320359.7764
        50.000          43.000
 126982526.67047  98947405.62347  24163984.2834   24163989.1604   24163985.1294
        43.000          37.000
 119359837.86747  93007670.58547  22713418.1824   22713418.6624   22713418.2254
        49.000          43.000
 130299774.36547 101532274.69947  24795236.2174   24795239.0714   24795235.8474
        40.000          36.000
 108566111.91347  84596961.51447  20659450.6394   20659451.8224   20659450.4014
        54.000          49.000
 130295828.35947 101529206.09947  24794479.0684   24794481.4154   24794478.4634
        41.000          35.000
 108299878.53847  84389525.53447  20608772.2714   20608773.6504   20608772.7444
        54.000          48.000
 09  1 28  0 49 30.0000000  0 12G 5G30G16G14G 6G18G24G22G29G31G12G21
 124420792.24347  96951249.99547  23676502.5654   23676506.2134   23676503.0284
        45.000          39.000
 118208890.11647  92110816.78247  22494408.6434   22494411.6084   22494408.2494
        50.000          43.000
 141345402.17747  92347063.69847  24994197.9364   24994201.6664   24994197.6084
        40.000          34.000
 121333101.96847  94545263.66047  23088928.7714   23088930.5194   23088928.7774
        47.000          41.000
 124950594.53047  97364076.06447  23777326.2694   23777330.2064   23777326.3974
        44.000          39.000
 117260542.56547  91371839.12547  22313948.7094   22313950.4474   22313949.1254
        50.000          43.000
 127080502.58647  99023750.43547  24182629.1664   24182633.2924   24182630.0634
        42.000          36.000
 119304564.92847  92964600.76847  22702900.1254   22702900.2894   22702900.4384
        48.000          43.000
 130350358.57647 101571691.02847  24804861.0984   24804865.0984   24804861.1044
        41.000          36.000
 108527431.73947  84566821.12647  20652089.8854   20652091.2164   20652089.4354
        55.000          49.000
 130328581.78547 101554728.27747  24800712.2724   24800714.7964   24800711.8394
        40.000          36.000
 108362656.87347  84438443.71147  20620718.1034   20620720.0654   20620718.4454
        54.000          48.000
 09  1 28  0 50  0.0000000  0 12G 5G30G16G14G 6G18G24G22G29G31G12G21
 124443809.69347  96969185.65347  23680882.9814   23680885.6834   23680883.2344
        45.000          39.000
 118197637.06347  92102048.17847  22492267.5354   22492270.2564   22492267.3384
        49.000          43.000
 141278342.81147  92294809.66147  24981436.3594   24981440.9194   24981436.5764
        39.000          34.000
 121373823.66647  94576994.85147  23096678.3884   23096679.9324   23096678.5294
        47.000          41.000
 124944996.68247  97359714.09047  23776262.1864   23776265.0954   23776261.9984
        45.000          39.000
 117227001.63447  91345703.33247  22307565.8864   22307567.6674   22307566.6074
        50.000          43.000
 127178609.94647  99100197.67747  24201298.0754   24201302.9064   24201299.1554
        43.000          36.000
 119249232.52247  92921484.61247  22692370.7954   22692370.8854   22692370.7564
        49.000          43.000
 130400711.31647 101610926.95847  24814442.7644   24814446.3354   24814442.6814
        41.000          36.000
 108489304.18647  84537111.35447  20644834.3714   20644835.7484   20644834.0044
        54.000          49.000
 130361637.05947 101580485.64247  24807002.6734   24807005.0524   24807002.2124
        41.000          35.000
 108425929.39547  84487746.97347  20632758.7824   20632760.3104   20632759.2264
        54.000          48.000
 09  1 28  0 50 30.0000000  0 12G 5G30G16G14G 6G18G24G22G29G31G12G21
 124467184.81347  96987400.03947  23685331.1884   23685334.0774   23685331.3464
        44.000          39.000
 118186659.78347  92093494.46447  22490178.7194   22490181.4164   22490178.1964
        49.000          43.000
 141211046.81447  92242371.29847  24968629.9404   24968632.9644   24968630.5854
        41.000          35.000
 121414480.77947  94608675.72047  23104415.3714   23104417.1964   23104415.6194
        47.000          41.000
 124939515.76847  97355443.26247  23775218.7604   23775221.7594   23775219.1624
        45.000          39.000
 117193613.01447  91319686.21247  22301212.7384   22301214.3924   22301213.1134
        50.000          43.000
 127276849.33047  99176747.82347  24219992.6334   24219996.8574   24219993.1484
        42.000          36.000
 119193845.94547  92878326.23547  22681831.2384   22681831.3144   22681831.2804
        49.000          43.000
 130450835.59647 101649984.87047  24823981.7884   24823984.9224   24823981.4464
        43.000          37.000
 108451733.63847  84507835.61947  20637685.0774   20637686.2814   20637684.6914
        55.000          50.000
 130394998.31647 101606481.41847  24813351.1454   24813352.8944   24813350.6654
        40.000          35.000
 108489696.83147  84537435.87947  20644893.5064   20644894.8474   20644893.9544
        54.000          48.000
 09  1 28  0 51  0.0000000  0 12G 5G30G16G14G 6G18G24G22G29G31G12G21
 124490913.49847  97005889.92647  23689845.8054   23689849.4624   23689846.4204
        45.000          39.000
 118175955.40847  92085153.39747  22488141.2184   22488144.3654   22488140.8784
        49.000          43.000
 141143509.91747  92189745.17247  24955777.9174   24955782.2114   24955778.6454
        41.000          35.000
 121455065.90547  94640300.51047  23112137.9094   23112140.3494   23112138.3074
        46.000          41.000
 124934144.70547  97351258.01047  23774196.7274   23774200.2524   23774196.3924
        44.000          39.000
 117160374.28347  91293785.89347  22294887.4964   22294889.1974   22294888.0604
        51.000          43.000
 127375213.36947  99253395.08047  24238711.2094   24238714.9534   24238710.5944
        43.000          37.000
 119138402.10247  92835123.24247  22671280.6764   22671280.6884   22671280.7654
        49.000          43.000
 130500725.99547 101688860.53447  24833476.2354   24833478.7854   24833475.8884
        41.000          37.000
 108414715.99747  84478990.70847  20630640.7804   20630642.2554   20630640.4094
        55.000          50.000
 130428660.92347 101632712.04647  24819755.4564   24819757.8384   24819756.1954
        40.000          34.000
 108553951.68047  84587504.58647  20657120.6864   20657122.2494   20657121.0274
        54.000          48.000
 09  1 28  0 51 30.0000000  0 12G 5G30G16G14G 6G18G24G22G29G31G12G21
 124514998.29947  97024657.30047  23694429.2524   23694432.9864   23694430.0154
        45.000          39.000
 118165527.63547  92077027.86447  22486157.0884   22486159.8254   22486156.7154
        49.000          43.000
 141075734.41047  92136933.11147  24942881.0564   24942885.0764   24942882.3384
        41.000          35.000
 121495578.71747  94671868.94047  23119847.3694   23119849.3864   23119847.6964
        47.000          41.000
 124928883.48247  97347158.36847  23773195.4664   23773198.7854   23773195.6514
        45.000          39.000
 117127289.24347  91268005.33547  22288592.0404   22288593.2684   22288592.3614
        51.000          43.000
 127473701.18747  99330138.79447  24257452.4274   24257457.0084   24257452.4644
        42.000          36.000
 119082904.78447  92791878.57547  22660719.9334   22660719.7084   22660720.0314
        50.000          43.000
 130550384.00047 101727555.11447  24842925.0594   24842928.7614   24842925.1284
        42.000          37.000
 108378254.51847  84450579.17947  20623702.2844   20623703.7884   20623701.9244
        54.000          49.000
 140462611.28157  91659163.35357  24826219.0925   24826223.2265   24826219.1935
        39.000          34.000
 108618693.34147  84637952.62947  20669440.5614   20669442.0534   20669440.9574
        54.000          48.000
 09  1 28  0 52  0.0000000  0 12G 5G30G16G14G 6G18G24G22G29G31G12G21
 124539442.84647  97043704.99747  23699081.6234   23699085.0104   23699082.1664
        46.000          39.000
 118155381.61447  92069121.87747  22484226.3914   22484228.7004   22484225.8074
        50.000          43.000
 141007723.99347  92083938.01047  24929939.5014   24929942.5154   24929939.7724
        40.000          35.000
 121536019.77147  94703381.46247  23127543.2284   23127544.5034   23127543.6994
        47.000          41.000
 124923733.00447  97343144.99447  23772214.8074   23772218.3674   23772214.2974
        43.000          38.000
 117094363.36747  91242348.79247  22282326.4874   22282327.6234   22282326.9164
        51.000          43.000
 127572312.87547  99406979.04547  24276217.3444   24276222.1334   24276218.0154
        43.000          36.000
 119027358.70847  92748595.90947  22650149.8064   22650149.7004   22650149.9204
        50.000          43.000
 130599812.15347 101766070.57947  24852331.1804   24852333.9584   24852330.8774
        41.000          36.000
 108342352.75147  84422603.78447  20616870.2884   20616871.8804   20616869.9374
        54.000          49.000
 140496884.63947  91685869.87547  24832742.4094   24832743.2964   24832741.9684
        39.000          35.000
 108683921.85947  84688780.03947  20681853.3394   20681854.7774   20681853.7074
        54.000          48.000
 09  1 28  0 52 30.0000000  0 12G 5G30G16G14G 6G18G24G22G29G31G12G21
 124564245.68547  97063031.89247  23703801.2924   23703804.2344   23703801.7374
        45.000          39.000
 118145517.00647  92061435.18147  22482349.4084   22482351.8834   22482349.2514
        50.000          43.000
 140939477.24247  92030758.75647  24916952.7784   24916954.2084   24916953.6564
        41.000          35.000
 121576384.76547  94734834.70647  23135224.5484   23135225.8374   23135224.9474
        46.000          40.000
 124918689.13647  97339214.71547  23771255.1924   23771258.8424   23771255.7404
        44.000          38.000
 117061596.83647  91216816.44147  22276091.0094   22276092.6034   22276091.5614
        51.000          43.000
 127671043.67147  99483912.07647  24295004.7874   24295009.9754   24295005.7714
        42.000          36.000
 118971763.57847  92705275.02047  22639570.5314   22639570.4474   22639570.2484
        50.000          43.000
 130649007.91447 101804405.02647  24861692.9184   24861695.9954   24861693.1354
        41.000          37.000
 108307009.20447  84395063.36547  20610144.7854   20610146.2164   20610144.4604
        54.000          49.000
 140531463.28247  91712814.30447  24839322.7004   24839324.3224   24839322.2914
        39.000          35.000
 108749632.52247  84739983.14447  20694357.5414   20694359.1374   20694358.0054
        54.000          48.000
 09  1 28  0 53  0.0000000  0 12G 5G30G16G14G 6G18G24G22G29G31G12G21
 124589406.77847  97082637.93347  23708589.7804   23708592.2814   23708589.9054
        45.000          39.000
 118135934.69447  92053968.45447  22480526.0484   22480528.1994   22480525.6254
        50.000          43.000
 140870994.13147  91977395.33347  24903920.5734   24903924.0334   24903921.0844
        41.000          35.000
 121616670.66347  94766226.33447  23142889.9704   23142892.0854   23142890.3844
        46.000          41.000
 124913749.02647  97335365.27147  23770315.0674   23770319.0294   23770314.9724
        44.000          38.000
 117028991.18047  91191409.43747  22269886.2294   22269887.8324   22269886.7494
        50.000          43.000
 127769890.30847  99560935.41547  24313814.7494   24313819.3504   24313814.7524
        41.000          36.000
 118916120.46347  92661916.74947  22628981.8344   22628981.5154   22628981.6384
        50.000          43.000
 130697970.11947 101842557.48447  24871009.7534   24871012.8104   24871009.8804
        41.000          36.000
 108272224.17747  84367958.15147  20603525.3954   20603526.7994   20603524.9634
        54.000          50.000
 120566381.89557 111740032.37457  24845960.6595   24845961.8935   24845960.0035
        38.000          34.000
 108815821.94047  84791559.30947  20706953.0454   20706954.4464   20706953.3984
        54.000          47.000
 09  1 28  0 53 30.0000000  0 12G 5G30G16G14G 6G18G24G22G29G31G12G21
 124614930.42347  97102526.48847  23713446.1874   23713449.1414   23713446.7294
        45.000          39.000
 118126640.37447  92046726.12947  22478757.0284   22478759.6074   22478756.9464
        50.000          43.000
 140802278.79547  91923850.96947  24890844.2174   24890846.9784   24890845.0024
        41.000          35.000
 121656878.95147  94797557.46547  23150541.8934   23150543.6854   23150542.1774
        47.000          41.000
 124908914.56547  97331598.17247  23769394.8004   23769398.9304   23769395.2284
        44.000          38.000
 116996552.23647  91166132.33547  22263713.1414   22263714.8044   22263713.6124
        51.000          43.000
 127868853.80647  99638049.80747  24332646.3244   24332651.7534   24332646.4474
        41.000          36.000
 118860434.95247  92618525.44047  22618385.0944   22618384.9544   22618385.1934
        50.000          43.000
 130746701.87647 101880530.32447  24880283.0314   24880285.7844   24880282.5554
        40.000          36.000
 108238001.94947  84341291.48647  20597013.0714   20597014.5184   20597012.6994
        54.000          49.000
 120601574.74647 111767455.39747  24852657.1854   24852659.0124   24852656.8764
        39.000          34.000
 108882490.71847  84843509.00247  20719639.6724   20719641.1444   20719640.1234
        54.000          47.000
 09  1 28  0 54  0.0000000  0 12G 5G30G16G14G 6G18G24G22G29G31G12G21
 124640812.74547  97122694.53647  23718371.0744   23718375.1324   23718371.4844
        44.000          38.000
 118117631.45647  92039706.20147  22477042.9024   22477045.5224   22477042.7644
        49.000          43.000
 140733327.06947  91870122.41047  24877722.8274   24877725.9434   24877724.1914
        42.000          35.000
 121697002.79047  94828822.80947  23158177.3724   23158179.3094   23158177.9134
        47.000          41.000
 124904179.10447  97327908.19747  23768494.0324   23768498.4784   23768494.4184
        42.000          38.000
 116964278.03747  91140983.60247  22257571.9324   22257573.3374   22257572.5114
        51.000          43.000
 127967926.92847  99715249.60747  24351500.1924   24351505.4094   24351499.4384
        42.000          36.000
 118804704.46647  92575099.08047  22607780.0674   22607779.9874   22607779.9254
        50.000          43.000
 130795198.24047 101918319.76947  24889511.3424   24889514.7784   24889510.7694
        40.000          36.000
 108204338.78547  84315060.46847  20590607.1624   20590608.6114   20590606.8234
        55.000          50.000
 120637072.58347 111795116.09047  24859411.7454   24859412.7724   24859412.0064
        39.000          34.000
 108949631.46547  84895826.46347  20732416.1694   20732417.5434   20732416.5534
        54.000          47.000
 09  1 28  0 54 30.0000000  0 12G 5G30G16G14G 6G18G24G22G29G31G12G21
 124667057.63947  97143145.09647  23723365.1364   23723368.9274   23723365.3334
        44.000          38.000
 118108912.95647  92032912.57147  22475383.3314   22475386.5094   22475383.0414
        49.000          43.000
 140664142.98547  91816212.78347  24864557.8564   24864560.6914   24864559.6294
        42.000          36.000
 121737043.09447  94860023.02347  23165796.4364   23165798.8464   23165796.5994
        46.000          40.000
 124899543.78247  97324296.27847  23767611.5534   23767615.7514   23767611.3214
        43.000          38.000
 116932173.94347  91115967.41347  22251462.5474   22251463.9984   22251462.9674
        51.000          43.000
 128067110.11647  99792535.19547  24370373.7454   24370378.9404   24370373.5254
        41.000          36.000
 118748934.03047  92531641.60147  22597166.9924   22597167.1064   22597167.0254
        50.000          43.000
 130843462.11147 101955928.08347  24898695.8324   24898698.8624   24898695.2244
        40.000          36.000
 108171238.81747  84289268.29947  20584308.4334   20584309.8884   20584308.0864
        55.000          50.000
 120672878.49147 111823016.81747  24866224.9914   24866227.0184   24866225.2414
        39.000          34.000
 109017245.10647  84948512.41047  20745282.4044   20745283.9134   20745282.8244
        54.000          47.000
 09  1 28  0 55  0.0000000  0 12G 5G30G16G14G 6G18G24G22G29G31G12G21
 124693667.16847  97163879.78647  23728429.8284   23728432.5834   23728429.8644
        45.000          39.000
 118100487.98047  92026347.67147  22473780.6414   22473782.9934   22473780.4364
        49.000          43.000
 140594728.84247  91762123.87647  24851348.5654   24851351.6884   24851349.6834
        42.000          36.000
 121776999.77847  94891158.11347  23173399.5534   23173402.0734   23173399.8424
        46.000          41.000
 124895008.34347  97320762.15347  23766749.2104   23766752.6514   23766749.3804
        44.000          38.000
 116900244.11047  91091086.99947  22245386.6414   22245387.8854   22245387.1144
        51.000          43.000
 128166402.32647  99869905.74847  24389268.3344   24389273.0174   24389268.4624
        42.000          36.000
 118693127.22947  92488155.77547  22586547.6214   22586547.4754   22586547.7254
        49.000          43.000
 130891494.72247 101993356.11247  24907835.4294   24907839.0944   24907835.6204
        42.000          37.000
 108138704.22947  84263916.68147  20578117.4264   20578118.6764   20578117.0174
        55.000          50.000
 120708995.05847 111851159.57747  24873098.6574   24873100.2824   24873097.6274
        38.000          34.000
 109085329.94947  85001565.53047  20758238.5324   20758240.1854   20758238.7684
        54.000          47.000
 09  1 28  0 55 30.0000000  0 12G 5G30G16G14G 6G18G24G22G29G31G12G21
 124720638.66047  97184896.53047  23733561.7374   23733564.4114   23733562.4904
        45.000          38.000
 118092355.35747  92020010.56947  22472232.6464   22472235.7304   22472232.3414
        49.000          43.000
 140525081.96947  91707853.63947  24838095.4004   24838098.2054   24838096.5294
        42.000          36.000
 121816866.94947  94922223.43947  23180986.3724   23180988.8734   23180986.4704
        46.000          40.000
 124890567.15547  97317301.51247  23765903.1914   23765907.5804   23765903.1614
        43.000          38.000
 116868487.17147  91066341.30747  22239343.3474   22239344.5874   22239344.0554
        50.000          44.000
 128265797.34247  99947356.38547  24408183.2534   24408188.0574   24408182.9974
        41.000          35.000
 118637282.51647  92444640.40947  22575920.6224   22575920.6554   22575920.6504
        49.000          43.000
 130939292.23647 102030601.02747  24916930.5424   24916935.1834   24916930.9774
        41.000          36.000
 108106732.21747  84239003.43447  20572033.2584   20572034.6034   20572032.8364
        54.000          50.000
 120745418.99147 111879541.90347  24880029.7914   24880032.6684   24880028.7204
        39.000          35.000
 109153879.88447  85054981.05147  20771283.2984   20771284.7774   20771283.7294
        54.000          47.000
 09  1 28  0 56  0.0000000  0 12G 5G30G16G14G 6G18G24G22G29G31G12G21
 124747976.08547  97206198.43747  23738763.9204   23738766.9724   23738764.2264
        45.000          38.000
 118084520.35147  92013905.37547  22470741.6904   22470744.5634   22470741.5324
        49.000          43.000
 140455206.47647  91653405.24447  24824798.6284   24824801.8034   24824799.6204
        41.000          35.000
 121856645.63447  94953219.83047  23188555.7604   23188558.0914   23188555.8214
        46.000          40.000
 124886221.95747  97313915.63847  23765077.1854   23765080.0584   23765077.4944
        44.000          38.000
 116836908.84647  91041734.82547  22233333.9304   22233335.8034   22233334.3714
        50.000          43.000
 128365295.87747 100024887.70247  24427116.7764   24427121.5174   24427116.9334
        40.000          35.000
 118581405.04447  92401099.52247  22565287.4984   22565287.4434   22565287.2464
        50.000          43.000
 130986857.84347 102067665.22647  24925982.9304   24925986.1434   24925982.8094
        41.000          36.000
 108075326.85647  84214531.73347  20566057.0134   20566058.3544   20566056.7384
        55.000          50.000
 120782153.94647 111908166.57647  24887020.7784   24887021.2134   24887019.8994
        38.000          34.000
 109222895.40747  85108759.37747  20784416.3194   20784417.8894   20784416.5504
        54.000          47.000
 09  1 28  0 56 30.0000000  0 12G 5G30G16G14G 6G18G24G22G29G31G12G21
 124775677.25747  97227783.77847  23744035.0494   23744038.4644   23744035.3704
        44.000          38.000
 118076981.96747  92008031.32547  22469307.4164   22469310.0744   22469307.0284
        50.000          43.000
 140385100.47347  91598777.24747  24811457.7044   24811461.1054   24811457.8624
        41.000          35.000
 121896331.51947  94984143.91147  23196107.5194   23196109.6404   23196107.7674
        46.000          40.000
 124881967.80247  97310600.73047  23764266.9554   23764271.0294   23764266.8734
        43.000          38.000
 116805509.23747  91017267.57147  22227358.9484   22227360.9694   22227359.1564
        50.000          43.000
 128464892.40047 100102495.41847  24446069.6804   24446074.5114   24446069.4494
        41.000          35.000
 118525494.03547  92357532.50447  22554647.8424   22554648.0704   22554648.3534
        50.000          43.000
 131034188.41447 102104546.29047  24934989.4514   24934992.9994   24934989.2674
        39.000          35.000
 108044486.05247  84190499.94547  20560188.2094   20560189.4544   20560187.8084
        55.000          50.000
 140819261.73557  91937095.87657  24894071.7755   24894069.8265   24894067.6485
        37.000          34.000
 109292371.35547  85162896.46947  20797637.4364   20797638.7874   20797637.8684
        54.000          47.000
 09  1 28  0 57  0.0000000  0 12G 5G30G16G14G 6G18G24G22G29G31G12G21
 124803746.10147  97249655.60347  23749376.2924   23749380.0264   23749376.6654
        44.000          38.000
 118069745.51047  92002392.52847  22467930.4064   22467933.1904   22467930.3404
        50.000          43.000
 140314767.74147  91543972.55047  24798073.8454   24798077.4144   24798074.1284
        41.000          34.000
 121935925.09047  95014996.06047  23203642.5254   23203643.9374   23203642.8774
        47.000          41.000
 124877806.11447  97307357.83947  23763475.2864   23763478.9854   23763475.5994
        43.000          38.000
 116774293.72547  90992943.77547  22221418.4764   22221420.8134   22221418.9054
        50.000          43.000
 128564588.00147 100180180.30147  24465041.7084   24465045.8634   24465041.1774
        42.000          35.000
 118469554.65947  92313943.37847  22544003.0504   22544003.2614   22544003.1474
        50.000          44.000
 131081287.12947 102141246.64547  24943951.3274   24943955.7724   24943951.0864
        39.000          36.000
 108014213.98147  84166911.32847  20554427.4604   20554429.0924   20554427.0304
        54.000          50.000
 120856589.64457 111966177.38257  24901179.0015   24901177.6405   24901177.1615
        38.000          33.000
 109362308.13047  85217392.65847  20810946.0964   20810947.4134   20810946.4914
        54.000          47.000
 09  1 28  0 57 30.0000000  0 12G 5G30G16G14G 6G18G24G22G29G31G12G21
 124832181.77147  97271813.27047  23754787.6634   23754790.8974   23754787.9044
        44.000          38.000
 118062811.32447  91996989.27947  22466611.2674   22466613.5094   22466610.8734
        50.000          44.000
 140244207.89547  91488990.92147  24784646.2624   24784650.0394   24784647.0174
        39.000          34.000
 121975423.36747  95045773.93747  23211158.8124   23211160.6084   23211159.0014
        46.000          40.000
 124873733.58147  97304184.46347  23762700.5454   23762704.1074   23762700.3034
        44.000          38.000
 116743263.20647  90968764.15047  22215513.7824   22215515.8034   22215514.2444
        50.000          43.000
 128664378.44847 100257939.12047  24484031.0144   24484034.8154   24484031.5284
        42.000          36.000
 118413587.64147  92270332.71147  22533352.9204   22533353.1814   22533352.9164
        50.000          44.000
 131128152.42547 102177765.05647  24952869.9464   24952873.7234   24952869.5354
        39.000          36.000
 107984509.67447  84143765.12347  20548774.9954   20548776.4144   20548774.6154
        55.000          50.000
 140894094.76757  91995364.41657  24908345.0005   24908350.3635   24908346.7525
        38.000          34.000
 109432701.31547  85272244.48547  20824341.3784   20824342.7894   20824341.7164
        54.000          47.000
 09  1 28  0 58  0.0000000  0 12G 5G30G16G14G 6G18G24G22G29G31G12G21
 124860983.19047  97294255.95647  23760268.5974   23760271.9164   23760268.6464
        44.000          38.000
 118056179.44747  91991821.58947  22465348.9364   22465351.7114   22465348.8554
        50.000          43.000
 140173419.98647  91433831.54347  24771177.1494   24771179.2674   24771176.0344
        41.000          35.000
 122014822.61047  95076474.64547  23218655.8404   23218657.9754   23218656.1434
        46.000          41.000
 124869746.59447  97301077.71747  23761941.6294   23761944.9634   23761942.2474
        44.000          38.000
 116712418.23847  90944729.09647  22209644.5614   22209646.1684   22209645.1674
        50.000          43.000
 128764259.60647 100335768.60547  24503037.7404   24503042.0174   24503038.6594
        43.000          36.000
 118357593.60247  92226700.99447  22522697.4274   22522697.8404   22522697.5654
        50.000          44.000
 131174781.96447 102214099.78647  24961743.7604   24961746.5384   24961743.6584
        39.000          36.000
 107955372.19747  84121060.60247  20543230.3594   20543231.6614   20543229.9384
        55.000          50.000
 140932071.73547  92024956.90547  24915571.7034   24915573.8034   24915572.4384
        38.000          34.000
 109503546.55247  85327448.56247  20837822.7634   20837824.2144   20837823.1534
        54.000          47.000
 09  1 28  0 58 30.0000000  0 12G 5G30G16G14G 6G18G24G22G29G31G12G21
 124890153.27847  97316985.88147  23765818.6034   23765822.6174   23765818.8494
        44.000          38.000
 118049854.34147  91986892.92847  22464145.2534   22464147.7274   22464144.8944
        50.000          43.000
 140102407.26047  91378496.98747  24757664.1904   24757665.7094   24757663.9134
        41.000          35.000
 122054122.64147  95107098.04947  23226134.7094   23226136.6334   23226135.0534
        47.000          41.000
 124865845.55047  97298037.95247  23761198.9154   23761202.7264   23761199.0514
        42.000          38.000
 116681763.86247  90920842.55647  22203810.8554   22203812.6074   22203810.9794
        50.000          43.000
 128864231.14947 100413668.50347  24522061.6824   24522065.8544   24522062.2264
        42.000          36.000
 118301576.74747  92183051.50147  22512038.1734   22512038.2404   22512038.1124
        50.000          44.000
 131221178.17247 102250252.71847  24970572.0874   24970575.0614   24970572.1174
        40.000          36.000
 107926804.21047  84098799.83747  20537793.8974   20537795.4544   20537793.5124
        54.000          50.000
 120970511.27457 112054943.91257  24922856.2585   24922861.2415   24922858.2865
        38.000          33.000
 109574843.33147  85383004.48747  20851389.9744   20851391.4624   20851390.4224
        54.000          47.000
 09  1 28  0 59  0.0000000  0 12G 5G30G16G14G 6G18G24G22G29G31G12G21
 124919694.54147  97340005.04347  23771440.8464   23771443.4084   23771441.3534
        44.000          38.000
 118043839.83747  91982206.31147  22463000.5334   22463003.3084   22463000.2724
        50.000          43.000
 140031172.31947  91322989.29447  24744108.1904   24744109.9954   24744108.5524
        41.000          35.000
 122093323.88247  95137644.48047  23233594.5064   23233596.0884   23233594.9214
        47.000          41.000
 124862030.37147  97295065.09447  23760472.8234   23760476.7394   23760473.3004
        43.000          38.000
 116651304.25047  90897107.77447  22198014.8784   22198016.4544   22198015.0884
        50.000          43.000
 128964292.69047 100491638.62747  24541102.6404   24541106.8834   24541102.7954
        42.000          36.000
 118245541.04247  92139387.31347  22501374.6914   22501374.8644   22501374.6064
        50.000          43.000
 131267342.85647 102286225.22447  24979356.6734   24979360.0724   24979356.6174
        38.000          36.000
 107898808.45347  84076984.96847  20532466.5144   20532468.0714   20532466.1424
        54.000          50.000
 121009115.60247 112085025.22147  24930204.9634   24930206.3704   24930204.8834
        40.000          34.000
 109646590.50347  85438911.37347  20865043.0084   20865044.3644   20865043.4504
        54.000          47.000
 09  1 28  0 59 30.0000000  0 12G 5G30G16G14G 6G18G24G22G29G31G12G21
 124949603.71547  97363310.90047  23777131.5854   23777135.4064   23777131.9774
        43.000          38.000
 118038133.78047  91977760.03347  22461915.0494   22461917.6734   22461914.8764
        50.000          43.000
 139959712.54347  91267306.34347  24730509.4044   24730511.7984   24730509.5384
        42.000          35.000
 122132420.51747  95168109.40147  23241034.1264   23241035.9934   23241034.2864
        46.000          41.000
 124858295.51547  97292154.82247  23759762.3684   23759766.6474   23759762.3714
        43.000          38.000
 116621038.16247  90873523.80647  22192255.0044   22192257.0694   22192255.3484
        50.000          43.000
 129064437.69847 100569673.76047  24560158.9804   24560163.8054   24560159.6344
        42.000          36.000
 118189484.88547  92095707.20647  22490707.2374   22490708.0004   22490707.3814
        50.000          43.000
 131313272.27447 102322014.47147  24988096.3494   24988101.1754   24988095.7624
        39.000          35.000
 107871382.02947  84055613.73647  20527247.4464   20527249.0594   20527247.1404
        54.000          50.000
 121048031.08547 112115348.99947  24937610.7684   24937612.9184   24937609.4664
        39.000          35.000
 109718781.80947  85495164.33647  20878780.4494   20878782.1024   20878780.8494
        54.000          47.000
 09  1 28  1  0  0.0000000  0 12G 5G30G16G14G 6G18G24G22G29G31G12G21
 124979883.03647  97386905.17847  23782894.0624   23782897.9594   23782894.1654
        44.000          38.000
 118032739.44747  91973556.67047  22460888.1684   22460891.0164   22460887.9874
        49.000          43.000
 139888030.32547  91211450.10947  24716867.7794   24716870.7604   24716868.4764
        42.000          35.000
 122171412.11347  95198492.45547  23248454.3454   23248456.0604   23248454.5414
        46.000          41.000
 124854640.78747  97289307.00247  23759067.2004   23759071.0324   23759067.1954
        44.000          39.000
 116590969.92647  90850093.98947  22186533.4824   22186535.3814   22186533.9244
        51.000          44.000
 129164665.29447 100647773.24347  24579232.5064   24579237.0894   24579232.4314
        43.000          36.000
 118133411.86047  92052013.93647  22480037.0804   22480037.3174   22480036.8884
        50.000          43.000
 131358967.44647 102357621.16047  24996791.4674   24996796.4734   24996792.0894
        39.000          35.000
 107844526.71447  84034687.52547  20522136.9644   20522138.5684   20522136.5724
        55.000          50.000
 121087259.98847 112145917.01247  24945074.2184   24945077.1754   24945074.7164
        39.000          34.000
 109791415.79647  85551762.24647  20892602.4374   20892603.9784   20892602.9564
        54.000          47.000
 09  1 28  1  0 30.0000000  0 12G 5G30G16G14G 6G18G24G22G29G31G12G21
 125010545.53547  97410798.04047  23788728.7964   23788732.6634   23788729.0194
        44.000          38.000
 118027671.43447  91969607.57147  22459923.9984   22459926.7574   22459923.9964
        50.000          43.000
 139816139.21647  91155431.09747  24703188.1234   24703190.4054   24703188.9094
        42.000          36.000
 122210309.33347  95228801.97847  23255855.9724   23255858.1014   23255856.4744
        46.000          41.000
 124851076.57347  97286529.71347  23758389.3214   23758392.3394   23758389.5314
        44.000          38.000
 116561114.02947  90826829.64147  22180852.3094   22180853.5994   22180852.8544
        51.000          44.000
 129264985.26747 100725944.70947  24598322.7764   24598327.2064   24598322.6374
        41.000          36.000
 118077336.39547  92008318.78247  22469366.1704   22469366.5774   22469366.1344
        50.000          44.000
 131404441.10447 102393055.27047  25005445.3094   25005448.3574   25005445.1184
        40.000          35.000
 107818255.65547  84014216.57947  20517137.9644   20517139.2734   20517137.6514
        55.000          50.000
 121126815.07447 112176739.18547  24952602.9034   24952603.7134   24952600.7434
        39.000          34.000
 109864502.02447  85608712.54947  20906510.4424   20906511.9024   20906510.7894
        54.000          47.000
 09  1 28  1  1  0.0000000  0 12G 5G30G16G14G 6G18G24G22G29G31G12G21
 125041566.14247  97434969.94347  23794632.1524   23794635.5054   23794632.4794
        45.000          38.000
 118022906.22447  91965894.43347  22459017.1884   22459019.7474   22459017.1594
        49.000          43.000
 139744014.28547  91099229.90947  24689463.7204   24689466.1374   24689463.6704
        42.000          36.000
 122249084.22747  95259016.17547  23263234.8164   23263236.3724   23263234.7234
        46.000          41.000
 124847575.52647  97283801.63647  23757722.5994   23757726.4134   23757722.0994
        44.000          38.000
 116531447.33647  90803712.73347  22175206.5684   22175208.4014   22175207.0424
        50.000          43.000
 129365369.67747 100804166.39447  24617424.9224   24617428.8804   24617425.2004
        41.000          35.000
 118021235.24247  91964603.58947  22458690.7184   22458690.6924   22458690.7184
        50.000          44.000
 131449667.40347 102428296.64047  25014052.1554   25014054.3484   25014051.2954
        41.000          36.000
 107792543.78747  83994181.36247  20512244.9664   20512246.3424   20512244.5694
        55.000          50.000
 121166670.73947 112207795.55447  24960186.2974   24960188.3564   24960185.7914
        38.000          35.000
 109938012.28747  85665993.27247  20920499.0054   20920500.5804   20920499.4874
        54.000          47.000
 09  1 28  1  1 30.0000000  0 12G 5G30G16G14G 6G18G24G22G29G31G12G21
 125072959.91247  97459432.63347  23800606.2304   23800609.5624   23800606.6184
        44.000          38.000
 118018460.22247  91962430.02047  22458171.4254   22458173.7574   22458171.1044
        50.000          44.000
 139671671.40747  91042858.87647  24675696.8244   24675698.8644   24675696.6664
        42.000          36.000
 122287749.78447  95289145.17047  23270592.4504   23270594.6254   23270592.3404
        46.000          41.000
 124844150.28547  97281132.60047  23757071.3764   23757073.9374   23757071.6024
        44.000          38.000
 116501987.11647  90780756.71347  22169600.4724   22169602.5984   22169600.9754
        51.000          44.000
 129465830.61647 100882447.71147  24636542.1214   24636545.7824   24636542.3024
        42.000          36.000
 117965125.08247  91920881.37947  22448013.5174   22448013.3624   22448013.5844
        50.000          44.000
 131494660.78047 102463356.49247  25022613.0804   25022616.0774   25022613.5294
        40.000          35.000
 107767406.07947  83974593.54647  20507461.4984   20507462.7384   20507461.0874
        55.000          50.000
 121206841.85247 112239097.71547  24967830.4654   24967832.8074   24967829.8314
        38.000          34.000
 110011958.51747  85723613.71047  20934570.3954   20934571.8264   20934570.8544
        54.000          47.000
 09  1 28  1  2  0.0000000  0 12G 5G30G16G14G 6G18G24G22G29G31G12G21
 125104726.43347  97484185.76947  23806650.8914   23806654.8764   23806651.1694
        44.000          38.000
 118014334.05547  91959214.82647  22457386.1484   22457388.5264   22457385.7924
        49.000          43.000
 139599110.38547  90986317.78747  24661888.7594   24661891.7774   24661888.8454
        43.000          36.000
 122326302.99947  95319186.63947  23277929.1634   23277931.1654   23277929.2614
        46.000          41.000
 124840798.03047  97278520.46947  23756433.0224   23756436.5384   23756432.7004
        44.000          38.000
 116472734.86047  90757962.74147  22164033.9424   22164035.9244   22164034.4564
        50.000          44.000
 129566364.43247 100960785.79547  24655672.9674   24655677.2424   24655673.3344
        42.000          35.000
 117909007.51347  91877153.39747  22437334.6464   22437334.5914   22437334.7424
        51.000          44.000
 131539420.06747 102498233.90847  25031130.8984   25031133.6314   25031131.6184
        40.000          36.000
 107742841.96447  83955452.68347  20502787.3104   20502788.4664   20502786.9594
        55.000          50.000
 121247327.85447 112270645.27147  24975534.9994   24975535.5364   24975535.1634
        37.000          34.000
 110086336.54847  85781570.61547  20948723.9854   20948725.4424   20948724.4004
        54.000          47.000
 09  1 28  1  2 30.0000000  0 12G 5G30G16G14G 6G18G24G22G29G31G12G21
 125136867.87147  97509231.05647  23812767.6944   23812770.2864   23812767.8514
        45.000          38.000
 118010531.24747  91956251.58847  22456662.3154   22456665.1144   22456661.8964
        49.000          43.000
 139526333.98147  90929608.94047  24648040.4824   24648042.4694   24648040.2594
        42.000          36.000
 122364743.77547  95349140.50547  23285243.5844   23285246.0874   23285243.9704
        45.000          40.000
 124837518.58047  97275965.06047  23755808.9764   23755812.5144   23755809.0634
        43.000          38.000
 116443694.50747  90735333.88547  22158508.0394   22158509.7984   22158508.5574
        51.000          44.000
 129666970.37747 101039180.12547  24674817.0304   24674821.5764   24674817.8254
        41.000          36.000
 117852885.82447  91833422.21447  22426654.9714   22426655.0834   22426654.9334
        50.000          44.000
 131583947.36347 102532930.53547  25039604.4874   25039607.2814   25039604.4864
        40.000          35.000
 107718853.78047  83936760.59247  20498222.4584   20498223.6204   20498222.0244
        55.000          50.000
 141288079.67357  92302390.74057  24983297.5375   24983299.6855   24983299.1085
        39.000          34.000
 110161145.20447  85839863.06747  20962959.5934   20962960.9694   20962960.0684
        54.000          47.000
 09  1 28  1  3  0.0000000  0 12G 5G30G16G14G 6G18G24G22G29G31G12G21
 125169376.15747  97534562.19947  23818953.3824   23818957.1684   23818953.7654
        43.000          38.000
 118007045.29047  91953535.26247  22455999.1204   22456001.3394   22455998.7374
        50.000          43.000
 139453334.76747  90872726.46647  24634147.9594   24634151.7024   24634148.7444
        42.000          36.000
 122403061.86547  95378998.76547  23292535.0724   23292537.3924   23292535.4534
        46.000          40.000
 124834301.58647  97273458.31947  23755196.7134   23755200.6754   23755196.6774
        44.000          38.000
 116414859.66747  90712865.16347  22153021.2264   22153022.6244   22153021.7604
        51.000          44.000
 129767637.48747 101117622.08947  24693973.0204   24693977.4364   24693973.5864
        41.000          35.000
 117796753.74647  91789682.93847  22415973.3264   22415973.7094   22415973.4664
        50.000          44.000
 131628233.62247 102567439.29947  25048032.4294   25048035.4034   25048031.9914
        40.000          35.000
 107695433.47347  83918511.00747  20493765.7884   20493766.9894   20493765.5614
        55.000          50.000
 121329178.77657 112334412.37757  24991121.1945   24991124.2415   24991122.0265
        39.000          34.000
 110236373.11847  85898482.22047  20977274.8764   20977276.4454   20977275.1934
        54.000          47.000
 09  1 28  1  3 30.0000000  0 12G 5G30G16G14G 6G18G24G22G29G31G12G21
 125202263.73747  97560188.89447  23825211.8074   23825215.0184   23825212.4034
        45.000          38.000
 118003890.00347  91951076.59947  22455398.4084   22455401.0744   22455397.8914
        49.000          43.000
 139380125.69647  90815680.50947  24620216.9024   24620219.8784   24620217.5654
        42.000          36.000
 122441267.11647  95408769.09247  23299805.7674   23299807.6584   23299805.7674
        46.000          40.000
 124831157.14147  97271008.10147  23754598.5254   23754601.8664   23754599.0824
        43.000          38.000
 116386245.53247  90690568.43447  22147575.7694   22147577.5244   22147576.2424
        51.000          44.000
 129868375.37547 101196119.27247  24713142.9944   24713147.3964   24713143.2874
        41.000          35.000
 117740625.80247  91745946.88047  22405292.5234   22405292.9894   22405292.7144
        50.000          44.000
 131672291.08647 102601769.90547  25056415.0664   25056419.2334   25056414.9524
        41.000          36.000
 107672593.16047  83900713.36847  20489419.3514   20489420.6794   20489418.8504
        55.000          50.000
 141370698.90157  92366784.14457  24999007.5335   24999009.5775   24999006.7765
        39.000          34.000
 110312029.41647  85957435.17247  20991671.7894   20991673.4344   20991672.3254
        53.000          47.000
 09  1 28  1  4  0.0000000  0 12G 5G30G16G14G 6G18G24G22G29G31G12G21
 125235526.35247  97586107.82647  23831541.3894   23831544.0614   23831541.8974
        45.000          38.000
 118001062.27947  91948873.19147  22454860.2614   22454863.1364   22454860.1724
        50.000          43.000
 139306703.04947  90758468.08147  24606245.3884   24606248.0304   24606245.9174
        41.000          36.000
 122479352.98147  95438446.40747  23307053.1274   23307054.8424   23307053.2594
        46.000          40.000
 124828078.61347  97268609.26647  23754012.4924   23754016.4144   23754012.1994
        44.000          38.000
 116357849.35547  90668441.53547  22142172.2184   22142173.9384   22142172.7734
        51.000          44.000
 129969176.56347 101274665.79547  24732324.7974   24732329.5704   24732325.2114
        43.000          35.000
 117684499.07947  91702211.77247  22394612.1114   22394612.1854   22394612.2804
        51.000          44.000
 131716115.21947 102635918.69247  25064755.1364   25064758.3724   25064754.9304
        41.000          36.000
 107650328.52347  83883364.31247  20485182.4134   20485183.7244   20485182.0214
        55.000          50.000
 141412447.19347  92399315.32247  25006951.1544   25006952.9154   25006951.0784
        39.000          35.000
 110388106.23347  86016715.80447  21006148.6324   21006150.3064   21006148.9884
        53.000          46.000
 09  1 28  1  4 30.0000000  0 12G 5G30G16G14G 6G18G24G22G29G31G12G21
 125269164.61347  97612319.48247  23837943.0004   23837945.1224   23837943.2874
        44.000          38.000
 117998564.25147  91946926.68047  22454385.2734   22454387.4284   22454384.8314
        50.000          44.000
 139233068.30347  90701090.39547  24592232.6464   24592235.9154   24592233.3564
        42.000          36.000
 122517317.82547  95468029.40947  23314277.5704   23314279.9374   23314277.8274
        46.000          40.000
 124825064.50347  97266260.60347  23753439.7404   23753442.4264   23753439.7724
        45.000          39.000
 116329673.83047  90646486.56447  22136810.6784   22136812.2184   22136810.9904
        50.000          44.000
 130070039.10447 101353260.07847  24751518.6004   24751522.8604   24751519.1874
        41.000          36.000
 117628376.16047  91658479.62847  22383931.9664   22383932.4614   22383932.1114
        50.000          44.000
 131759706.07347 102669885.63747  25073051.2694   25073053.0074   25073050.9994
        41.000          36.000
 107628640.13247  83866464.27847  20481055.4034   20481056.3834   20481055.0914
        55.000          50.000
 141454512.10147  92432093.19447  25014956.2454   25014957.5854   25014955.1354
        38.000          35.000
 110464601.42847  86076322.43947  21020705.1334   21020706.9574   21020705.5414
        53.000          46.000
 09  1 28  1  5  0.0000000  0 12G 5G30G16G14G 6G18G24G22G29G31G12G21
 125303179.68947  97638824.72847  23844415.4894   23844419.1674   23844415.9594
        44.000          38.000
 117996398.33147  91945238.95047  22453973.0844   22453975.3894   22453972.7734
        49.000          43.000
 139159222.81347  90643548.48647  24578181.1914   24578183.8454   24578181.6804
        43.000          36.000
 122555160.53647  95497517.23547  23321478.6674   23321481.0044   23321479.0774
        46.000          40.000
 124822113.58547  97263961.17447  23752877.7214   23752880.8514   23752877.6814
        44.000          38.000
 116301721.93947  90624705.86747  22131491.2534   22131493.4704   22131491.5674
        50.000          44.000
 130170961.02747 101431900.63447  24770723.0374   24770727.6184   24770723.7704
        41.000          35.000
 117572260.12147  91614752.84047  22373253.5074   22373253.7524   22373253.6024
        51.000          44.000
 131803064.28747 102703671.35447  25081301.3064   25081303.9854   25081300.8864
        41.000          36.000
 107607528.99747  83850014.04547  20477037.9204   20477039.1424   20477037.4634
        55.000          50.000
 121496809.26257 112465032.26457  25023019.6785   25023023.2215   25023020.4215
        39.000          34.000
 110541512.38047  86136253.04847  21035340.9654   21035342.7884   21035341.4444
        53.000          46.000
 09  1 28  1  5 30.0000000  0 12G 5G30G16G14G 6G18G24G22G29G31G12G21
 125337570.24547  97665622.58947  23850959.4484   23850962.8624   23850959.8694
        43.000          38.000
 117994564.75747  91943810.19747  22453623.8524   22453626.4874   22453623.6084
        50.000          43.000
 139085166.30947  90585842.17247  24564088.5544   24564091.4614   24564088.5564
        42.000          36.000
 122592877.85747  95526907.35547  23328656.2924   23328658.2344   23328656.3934
        46.000          40.000
 124819222.42347  97261708.33147  23752327.3994   23752331.0934   23752327.5394
        44.000          39.000
 116273994.85947  90603100.33547  22126215.4454   22126217.0674   22126215.7304
        51.000          44.000
 130271938.13547 101510584.23147  24789939.1044   24789942.9344   24789938.8564
        42.000          36.000
 117516151.58947  91571031.89647  22362576.5274   22362576.5684   22362576.5454
        51.000          44.000
 131846188.26047 102737274.52547  25089507.0224   25089510.1814   25089506.7504
        41.000          36.000
 107586993.81947  83834012.61347  20473130.2314   20473131.4384   20473129.9444
        55.000          50.000
 121539507.50047 112498303.65447  25031147.4544   25031148.9264   25031146.2674
        39.000          35.000
 110618834.47147  86196504.02747  21050054.9934   21050056.6994   21050055.2834
        54.000          46.000
 09  1 28  1  6  0.0000000  0 12G 5G30G16G14G 6G18G24G22G29G31G12G21
 125372338.03547  97692714.38347  23857575.7464   23857579.2694   23857575.9504
        44.000          38.000
 117993066.35747  91942642.60647  22453338.9294   22453341.2414   22453338.5564
        50.000          43.000
 139010901.27847  90527973.30647  24549955.6324   24549959.4794   24549955.9914
        43.000          36.000
 122630468.99047  95556199.15547  23335809.3864   23335811.6904   23335809.8594
        45.000          40.000
 124816390.37147  97259501.52947  23751789.1014   23751792.1434   23751789.2574
        44.000          39.000
 116246496.20647  90581672.80747  22120982.5774   22120984.2454   22120983.1994
        50.000          44.000
 130372969.24847 101589309.89047  24809163.9174   24809168.1644   24809164.0694
        41.000          35.000
 117460053.85547  91527319.37947  22351901.6304   22351901.2934   22351901.6424
        51.000          44.000
 131889079.28747 102770696.13047  25097669.0944   25097671.9644   25097668.9254
        42.000          37.000
 107567036.29847  83818461.30547  20469332.3484   20469333.7524   20469331.9624
        55.000          50.000
 121582522.91347 112531822.16147  25039330.7274   25039334.4954   25039331.0954
        37.000          34.000
 110696566.11747  86257074.13547  21064846.7644   21064848.2724   21064847.2144
        53.000          46.000
 09  1 28  1  6 30.0000000  0 12G 5G30G16G14G 6G18G24G22G29G31G12G21
 125407481.31747  97720098.77047  23864262.7884   23864266.9834   23864263.7204
        44.000          38.000
 117991902.87147  91941736.00547  22453117.7134   22453120.0624   22453117.3464
        50.000          44.000
 138936426.79947  90469941.28147  24535783.9924   24535786.7554   24535783.4774
        42.000          37.000
 122667930.24547  95585389.72947  23342938.2054   23342940.4514   23342938.5164
        46.000          40.000
 124813613.51747  97257337.76547  23751259.7234   23751263.9854   23751259.3694
        44.000          38.000
 116219226.25447  90560423.48047  22115793.1244   22115795.0564   22115793.5334
        51.000          44.000
 130474050.18747 101668074.35947  24828398.5944   24828403.5934   24828399.0554
        41.000          35.000
 117403967.24547  91483615.52447  22341228.9104   22341228.5194   22341228.9934
        51.000          44.000
 131931735.47247 102803934.77347  25105786.8294   25105789.5434   25105786.3064
        41.000          36.000
 107547654.25147  83803358.41947  20465644.0274   20465645.5394   20465643.6264
        55.000          50.000
 141625946.11657  92565678.77357  25047577.5095   25047578.4215   25047575.8185
        38.000          34.000
 110774702.47147  86317959.60347  21079715.5804   21079717.0754   21079716.0074
        53.000          46.000
 09  1 28  1  7  0.0000000  0 12G 5G30G16G14G 6G18G24G22G29G31G12G21
 125443003.42647  97747778.33647  23871023.2854   23871026.3244   23871024.0284
        44.000          38.000
 117991079.10047  91941094.10447  22452960.8724   22452963.3234   22452960.6144
        49.000          43.000
 138861746.90247  90411749.17547  24521572.2524   24521576.4164   24521572.4814
        43.000          36.000
 122705262.83647  95614480.07047  23350042.5074   23350044.6664   23350042.6384
        46.000          40.000
 124810892.94947  97255217.81747  23750742.8994   23750745.9234   23750742.8294
        45.000          38.000
 116192190.16847  90539356.38247  22110648.7314   22110650.0164   22110649.1284
        51.000          44.000
 130575181.09447 101746877.76547  24847643.7204   24847647.2394   24847643.5214
        40.000          35.000
 117347896.75147  91439924.23547  22330558.9534   22330558.6944   22330558.9734
        51.000          44.000
 131974160.03347 102836992.91547  25113860.1364   25113862.0624   25113859.4874
        41.000          36.000
 107528851.21247  83788706.70947  20462066.0974   20462067.4384   20462065.6854
        55.000          50.000
 141669595.99847  92599691.69947  25055883.5844   25055885.5924   25055882.2204
        38.000          34.000
 110853243.56447  86379160.45747  21094661.4524   21094662.8164   21094661.9524
        53.000          46.000
 09  1 28  1  7 30.0000000  0 12G 5G30G16G14G 6G18G24G22G29G31G12G21
 125478903.75747  97775752.61747  23877853.9594   23877857.9584   23877854.4274
        42.000          38.000
 117990595.66847  91940717.41447  22452868.5434   22452870.9474   22452868.3184
        50.000          43.000
 138786861.83847  90353397.23947  24507322.1734   24507325.5204   24507322.3554
        42.000          36.000
 122742464.12947  95643468.10647  23357121.4014   23357123.5134   23357121.5974
        46.000          40.000
 124808226.00347  97253139.66247  23750235.0414   23750238.5694   23750234.8934
        44.000          39.000
 116165389.92147  90518473.06747  22105548.3654   22105550.1824   22105548.6984
        50.000          44.000
 130676358.81947 101825717.63147  24866896.8444   24866900.5334   24866896.4644
        41.000          35.000
 117291844.12047  91396246.86347  22319892.4224   22319892.4524   22319892.5644
        51.000          44.000
 132016351.92447 102869869.85647  25121888.2734   25121890.4124   25121888.1174
        42.000          36.000
 107510626.21747  83774505.42447  20458597.8954   20458599.0394   20458597.4694
        55.000          50.000
 121713406.77857 112633798.34957  25064247.2295   25064253.4545   25064247.9535
        37.000          34.000
 110932185.44747  86440673.61047  21109683.7214   21109685.0974   21109684.1114
        53.000          46.000
 09  1 28  1  8  0.0000000  0 12G 5G30G16G14G 6G18G24G22G29G31G12G21
 125515182.36947  97804021.66047  23884757.9114   23884761.2874   23884757.9414
        44.000          38.000
 117990453.96547  91940607.01047  22452841.6084   22452844.0824   22452841.3204
        50.000          43.000
 138711772.42247  90294886.07947  24493033.7024   24493036.9424   24493033.6114
        41.000          36.000
 122779531.92047  95672352.10847  23364174.9484   23364177.2984   23364175.3984
        45.000          40.000
 124805610.44647  97251101.54947  23749737.0024   23749740.9464   23749736.9774
        44.000          38.000
 116138827.45747  90497775.02847  22100493.6884   22100495.6444   22100494.0714
        50.000          44.000
 130777580.26047 101904591.52947  24886158.6824   24886162.6804   24886158.1074
        39.000          34.000
 117235810.81347  91352584.54947  22309229.5314   22309229.6694   22309229.6664
        51.000          44.000
 132058310.93447 102902565.24847  25129872.1274   25129874.2714   25129872.1894
        39.000          36.000
 107492979.02947  83760754.36847  20455239.8474   20455241.0764   20455239.5144
        55.000          50.000
 141757716.97157  92668331.32157  25072677.2815   25072678.9025   25072677.3115
        38.000          33.000
 111011524.76347  86502496.45347  21124781.4104   21124782.8724   21124781.8454
        53.000          46.000
 09  1 28  1  8 30.0000000  0 12G 5G30G16G14G 6G18G24G22G29G31G12G21
 125551839.35347  97832585.56447  23891733.5424   23891736.5834   23891734.1494
        43.000          38.000
 117990655.96947  91940764.41947  22452880.8304   22452882.6304   22452880.5604
        50.000          43.000
 138636479.52347  90236216.34347  24478705.0244   24478708.9904   24478705.8474
        42.000          36.000
 122816464.45647  95701130.68647  23371203.1254   23371204.9654   23371203.4954
        45.000          40.000
 124803044.40547  97249102.01247  23749248.5414   23749252.5064   23749248.4824
        44.000          39.000
 116112505.21447  90477264.16647  22095484.7354   22095486.3424   22095485.0764
        51.000          44.000
 130878843.29947 101983497.85647  24905427.5964   24905431.4194   24905428.0884
        39.000          34.000
 117179799.30247  91308939.22147  22298570.9124   22298570.9904   22298570.9364
        51.000          44.000
 132100037.47747 102935079.47347  25137812.8534   25137815.2354   25137812.4664
        41.000          36.000
 107475909.79147  83747453.66147  20451991.6784   20451992.9744   20451991.2104
        55.000          50.000
 121802409.86557 112703172.87857  25081164.6685   25081165.6685   25081165.0025
        37.000          34.000
 111091258.39647  86564626.54647  21139954.3424   21139955.8604   21139954.6584
        53.000          46.000
 09  1 28  1  9  0.0000000  0 11G 5G30G16G14G 6G18G24G22G29G31G21
 125588875.42347  97861444.83647  23898781.1974   23898784.4754   23898781.6644
        43.000          38.000
 117991203.74447  91941191.25447  22452984.6494   22452986.5624   22452984.1554
        50.000          43.000
 138560984.79647  90177389.29247  24464338.5914   24464342.9214   24464339.3484
        42.000          36.000
 122853260.27847  95729802.75747  23378205.4744   23378207.6644   23378205.7684
        45.000          40.000
 124800526.39747  97247139.90947  23748769.3524   23748773.6494   23748769.5364
        44.000          39.000
 116086425.86447  90456942.59447  22090522.1274   22090524.1054   22090522.6284
        51.000          44.000
 130980145.87847 102062435.05347  24924704.3824   24924708.9654   24924705.2994
        41.000          34.000
 117123812.23847  91265312.93447  22287916.8444   22287917.2584   22287916.9284
        51.000          44.000
 132141531.34647 102967412.42547  25145709.3974   25145710.7904   25145708.9934
        41.000          36.000
 107459418.98547  83734603.69847  20448853.6314   20448854.7714   20448853.3174
        55.000          50.000
 111171383.86847  86627061.97547  21155201.6964   21155203.1324   21155202.1174
        53.000          46.000
 09  1 28  1  9 30.0000000  0 12G 5G30G16G14G 6G18G24G22G29G31G12G21
 125626289.75747  97890598.87747  23905901.1774   23905904.5404   23905901.4304
        44.000          38.000
 117992097.66647  91941887.83247  22453154.7294   22453157.0044   22453154.6384
        50.000          43.000
 138485288.59147  90118405.23747  24449934.2134   24449937.8144   24449934.4494
        41.000          36.000
 122889916.73947  95758366.23347  23385181.0784   23385183.1684   23385181.2964
        46.000          40.000
 124798053.74347  97245213.19747  23748299.1394   23748302.5284   23748299.1914
        44.000          39.000
 116060590.83447  90436811.41047  22085605.9204   22085607.7904   22085606.3884
        51.000          44.000
 131081484.37047 102141400.17747  24943989.9854   24943993.5604   24943989.6384
        41.000          34.000
 117067851.03747  91221706.79947  22277267.7804   22277268.0414   22277267.9054
        51.000          44.000
 132182791.93747 102999563.55447  25153560.7264   25153562.4074   25153560.9644
        39.000          36.000
 107443505.50147  83722203.58847  20445825.3074   20445826.5744   20445824.9544
        55.000          50.000
 141892581.67057  92773440.54257  25098321.1325   25098323.0045   25098321.9465
        38.000          34.000
 111251897.17547  86689799.60947  21170522.7374   21170524.2974   21170523.1724
        53.000          46.000
 09  1 28  1 10  0.0000000  0 12G 5G30G16G14G 6G18G24G22G29G31G12G21
 125664085.04147  97920049.76747  23913093.3874   23913096.4114   23913093.5704
        43.000          38.000
 117993341.73747  91942857.22247  22453391.0214   22453393.7054   22453390.7314
        49.000          43.000
 138409394.47547  90059267.01447  24435492.3794   24435494.5684   24435492.0554
        42.000          36.000
 122926434.53747  95786821.66847  23392130.6204   23392131.7434   23392130.7064
        45.000          40.000
 124795626.56547  97243321.87247  23747837.2964   23747840.7234   23747837.3164
        44.000          39.000
 116035004.63347  90416874.11347  22080736.9694   22080738.6084   22080737.3964
        51.000          44.000
 131182858.85047 102220393.38447  24963279.8794   24963284.0174   24963280.7414
        40.000          34.000
 117011920.32447  91178124.40847  22266624.4134   22266624.5664   22266624.3904
        51.000          44.000
 132223821.86347 103031534.96947  25161368.1564   25161370.0824   25161367.1734
        40.000          35.000
 107428172.19947  83710255.57047  20442907.2224   20442908.8264   20442906.9284
        55.000          50.000
 141938139.11147  92808939.89747  25106992.6964   25106992.9334   25106991.7804
        39.000          34.000
 111332797.49247  86752838.81047  21185917.8014   21185919.1524   21185918.0234
        53.000          46.000
 09  1 28  1 10 30.0000000  0 12G 5G30G16G14G 6G18G24G22G29G31G12G21
 125702259.24447  97949795.89547  23920357.3484   23920361.3954   23920357.7074
        43.000          38.000
 117994935.67447  91944099.25947  22453694.4304   22453696.9294   22453694.1374
        49.000          43.000
 138333301.40147  89999973.73047  24421013.0644   24421014.0584   24421013.2454
        43.000          36.000
 122962809.56447  95815165.84047  23399052.2114   23399053.9334   23399052.4604
        45.000          40.000
 124793241.02547  97241463.00347  23747383.6974   23747386.4284   23747384.1414
        43.000          39.000
 116009667.74247  90397131.08147  22075915.5734   22075917.5214   22075916.1244
        51.000          44.000
 131284264.57247 102299410.90747  24982576.8884   24982581.8394   24982577.2564
        39.000          34.000
 116956019.88647  91134565.61347  22255986.8604   22255986.9574   22255986.9704
        51.000          44.000
 132264619.37547 103063325.29847  25169131.4074   25169134.4654   25169130.5724
        39.000          36.000
 107413416.66047  83698757.75647  20440099.2914   20440100.8484   20440098.7144
        55.000          50.000
 121983887.72457 112844561.40157  25115718.6825   25115725.1655   25115721.3085
        39.000          34.000
 111414079.68847  86816175.57847  21201385.1494   21201386.5434   21201385.5454
        53.000          46.000
 09  1 28  1 11  0.0000000  0 12G 5G30G16G14G 6G18G24G22G29G31G12G21
 125740814.39647  97979838.88647  23927695.1384   23927698.3114   23927695.2884
        44.000          37.000
 117996882.82247  91945616.52747  22454064.7974   22454067.9534   22454064.4264
        49.000          43.000
 138257012.54647  89940527.88547  24406495.5704   24406498.1984   24406496.2884
        43.000          36.000
 122999042.26847  95843399.11047  23405946.8074   23405948.8124   23405947.3264
        45.000          40.000
 124790897.29347  97239636.73347  23746937.0344   23746941.3564   23746936.6344
        44.000          38.000
 115984584.41947  90377585.63447  22071142.5854   22071144.2624   22071143.0024
        51.000          44.000
 131385701.09447 102378452.44847  25001878.8834   25001883.0514   25001879.8544
        39.000          34.000
 116900154.13847  91091033.86847  22245355.9434   22245356.1674   22245355.9364
        50.000          44.000
 132305185.88247 103094935.57147  25176850.9494   25176854.0464   25176850.1754
        40.000          35.000
 107399240.35047  83687711.28547  20437401.7264   20437403.2084   20437401.3644
        55.000          50.000
 142030175.40657  92880648.48857  25124510.2495   25124512.9925   25124511.3185
        39.000          34.000
 111495742.53647  86879808.95347  21216925.1334   21216926.4244   21216925.6524
        53.000          46.000
 09  1 28  1 11 30.0000000  0 12G 5G30G16G14G 6G18G24G22G29G31G12G21
 125779749.91447  98010178.27947  23935103.8204   23935106.6534   23935104.2254
        43.000          37.000
 117999184.05047  91947409.70847  22454503.1604   22454505.3734   22454502.6754
        49.000          43.000
 138180528.20847  89880929.69247  24391941.7724   24391943.8034   24391941.7994
        43.000          36.000
 123035130.13247  95871519.51647  23412814.0724   23412816.1694   23412814.1214
        45.000          39.000
 124788592.67947  97237840.92647  23746498.6374   23746502.4314   23746498.9954
        44.000          39.000
 115959756.28547  90358239.04247  22066417.6974   22066419.7044   22066418.0454
        51.000          44.000
 131487165.01747 102457515.36547  25021186.1524   25021192.8414   25021187.1574
        39.000          34.000
 116844324.68047  91047530.39847  22234731.6894   22234732.3824   22234731.7674
        51.000          44.000
 132345520.95947 103126365.55247  25184526.3174   25184528.5644   25184526.3014
        39.000          36.000
 107385642.53447  83677115.58847  20434814.1874   20434815.5944   20434813.7964
        55.000          50.000
 122076601.26357 112916807.47357  25133361.5525   25133363.8235   25133360.8985
        37.000          34.000
 111577782.19047  86943735.95047  21232536.7874   21232538.1674   21232537.0294
        53.000          46.000
 09  1 28  1 12  0.0000000  0 12G 5G30G16G14G 6G18G24G22G29G31G12G21
 125819066.36347  98040814.49247  23942584.9594   23942588.3964   23942585.6724
        43.000          38.000
 118001841.10147  91949480.13247  22455008.2874   22455011.2604   22455007.9594
        49.000          43.000
 138103850.26147  89821180.70847  24377349.3024   24377352.1344   24377350.1024
        42.000          36.000
 123071071.79847  95899526.01447  23419653.2864   23419655.3684   23419653.5294
        45.000          39.000
 124786325.63447  97236074.40847  23746067.1484   23746070.5954   23746067.3214
        45.000          38.000
 115935186.07447  90339093.40247  22061742.2544   22061744.0304   22061742.5914
        51.000          44.000
 131588654.45847 102536598.14847  25040500.1844   25040504.1944   25040499.2574
        39.000          34.000
 116788534.22547  91004057.31247  22224115.2224   22224115.6194   22224115.5594
        50.000          44.000
 132385625.28147 103157615.73447  25192158.7324   25192160.3804   25192158.7684
        40.000          35.000
 107372624.11947  83666971.36847  20432336.8764   20432338.2944   20432336.4944
        55.000          50.000
 142123511.99257  92953379.95557  25142273.4495   25142275.6025   25142272.0505
        39.000          34.000
 111660196.08747  87007954.56047  21248219.6674   21248220.9834   21248220.2024
        53.000          46.000
 09  1 28  1 12 30.0000000  0 12G 5G30G16G14G 6G18G24G22G29G31G12G21
 125858762.77047  98071746.74847  23950139.7204   23950142.7674   23950140.1044
        43.000          38.000
 118004854.63847  91951828.33847  22455582.2624   22455584.3924   22455581.6604
        49.000          43.000
 138026978.70547  89761280.84347  24362721.8674   24362723.2864   24362721.8644
        42.000          36.000
 123106864.56447  95927416.48947  23426464.4574   23426466.3244   23426464.5094
        45.000          39.000
 124784093.35247  97234334.95247  23745642.8614   23745645.9224   23745643.6404
        43.000          38.000
 115910875.27747  90320149.89947  22057115.9294   22057117.6374   22057116.4514
        51.000          44.000
 141690095.99557  92615629.09457  25059814.6685   25059822.0115   25059817.1345
        40.000          33.000
 116732783.94847  90960615.53447  22213506.6454   22213506.6954   22213506.6234
        51.000          44.000
 132425498.26047 103188685.61947  25199744.8474   25199747.9934   25199745.1864
        39.000          35.000
 107360183.45347  83657277.35147  20429969.6164   20429970.9184   20429969.2344
        55.000          50.000
 122170531.00157 112989988.68457  25151242.6065   25151250.8185   25151244.0725
        39.000          34.000
 111742980.42447  87072461.84047  21263972.9024   21263974.2774   21263973.1744
        53.000          46.000
 09  1 28  1 13  0.0000000  0 12G 5G30G16G14G 6G18G24G22G29G31G12G21
 125898840.83647  98102976.41247  23957765.9164   23957768.7914   23957766.6604
        43.000          37.000
 118008228.00347  91954456.93347  22456223.7604   22456226.3424   22456223.3744
        49.000          43.000
 137949916.36247  89701232.28547  24348056.8194   24348058.9624   24348056.5104
        42.000          36.000
 123142508.48647  95955190.97747  23433247.7774   23433249.5834   23433247.9814
        46.000          40.000
 124781895.53447  97232622.37947  23745224.0964   23745227.5874   23745223.6304
        43.000          38.000
 115886827.55647  90301411.41247  22052539.7354   22052541.7574   22052540.1354
        51.000          44.000
 121791679.76057 112694796.65257  25079136.9975   25079141.9465   25079138.2585
        40.000          33.000
 116677077.90147  90917208.20847  22202905.9664   22202906.3594   22202906.0054
        51.000          44.000
 132465141.18447 103219576.21847  25207289.8174   25207291.6154   25207288.5384
        40.000          35.000
 107348321.74047  83648034.45647  20427712.3184   20427713.7874   20427711.8564
        55.000          50.000
 122217998.04847 113026976.03547  25160278.3164   25160280.4744   25160278.3974
        39.000          34.000
 111826132.89447  87137255.96547  21279796.3314   21279797.6554   21279796.7854
        53.000          46.000
 09  1 28  1 13 30.0000000  0 12G 5G30G16G14G 6G18G24G22G29G31G12G21
 125939300.41147  98134503.40447  23965465.4144   23965468.2424   23965465.8404
        44.000          38.000
 118011962.24947  91957366.72847  22456934.8344   22456937.4944   22456934.5064
        49.000          43.000
 137872664.46947  89641036.02247  24333356.0774   24333357.9934   24333355.9464
        42.000          36.000
 123178001.47547  95982847.84047  23440001.9094   23440003.8154   23440002.2854
        46.000          40.000
 124779730.07047  97230934.99247  23744812.2774   23744815.5844   23744812.4134
        44.000          38.000
 115863044.84847  90282879.41547  22048014.4624   22048015.5564   22048014.8184
        51.000          44.000
 141893207.25557  92773902.77557  25098461.6175   25098465.0285   25098463.0585
        40.000          34.000
 116621418.03547  90873836.87747  22192314.2194   22192314.6254   22192314.3574
        51.000          44.000
 132504554.48847 103250287.87147  25214789.7094   25214791.9614   25214789.6894
        41.000          36.000
 107337038.75647  83639242.52447  20425565.2634   20425566.7314   20425564.8804
        55.000          50.000
 142265958.85157  93064385.78057  25169372.8115   25169371.8505   25169370.7875
        38.000          34.000
 111909650.75747  87202334.81547  21295689.1084   21295690.6524   21295689.5164
        53.000          45.000
 09  1 28  1 14  0.0000000  0 12G 5G30G16G14G 6G18G24G22G29G31G12G21
 125980139.65647  98166326.19547  23973237.0984   23973240.3274   23973237.1884
        44.000          38.000
 118016057.05247  91960557.49347  22457713.4884   22457716.4754   22457713.5204
        49.000          43.000
 137795222.43347  89580691.63947  24318619.6174   24318621.6134   24318619.4944
        41.000          36.000
 123213339.95447  96010384.33047  23446726.5324   23446728.2714   23446726.6414
        46.000          40.000
 124777593.17447  97229269.89347  23744405.5584   23744408.6124   23744405.4804
        44.000          38.000
 115839527.65547  90264554.32947  22043539.2214   22043541.0034   22043539.7234
        51.000          44.000
 141994772.89647  92853044.88247  25117789.3784   25117792.7694   25117790.5584
        40.000          34.000
 116565805.00947  90830502.04647  22181731.6744   22181731.6364   22181731.6284
        51.000          44.000
 132543736.11547 103280819.02047  25222245.4634   25222248.0474   25222245.5704
        41.000          36.000
 107326332.17947  83630899.73247  20423527.8504   20423529.2234   20423527.3774
        55.000          50.000
 142314061.00247  93101868.05647  25178525.2134   25178524.9124   25178524.3434
        39.000          34.000
 111993528.57747  87267694.13947  21311650.3754   21311652.0974   21311650.7724
        53.000          45.000
 09  1 28  1 14 30.0000000  0 12G 5G30G16G14G 6G18G24G22G29G31G12G21
 126021361.21947  98198446.89447  23981080.4104   23981083.7414   23981081.2474
        43.000          37.000
 118020516.21947  91964032.17947  22458562.1304   22458565.1084   22458561.8694
        49.000          43.000
 137717594.25047  89520202.19947  24303847.7604   24303849.9494   24303847.3624
        42.000          36.000
 123248525.20547  96037801.41547  23453422.0864   23453423.6514   23453421.9974
        46.000          40.000
 124775485.65147  97227627.66247  23744004.5274   23744008.4054   23744004.1394
        44.000          38.000
 115816281.20647  90246440.20947  22039115.5144   22039117.3234   22039115.8774
        51.000          44.000
 142096352.98747  92932198.30047  25137119.4744   25137123.7914   25137120.3204
        41.000          34.000
 116510243.51247  90787207.36047  22171158.6594   22171158.5754   22171158.5484
        51.000          45.000
 132582688.98547 103311171.91547  25229658.4734   25229661.0614   25229658.2874
        41.000          36.000
 107316204.67747  83623008.18947  20421600.6494   20421602.0454   20421600.3704
        55.000          50.000
 142362482.26647  93139598.93747  25187738.6794   25187740.6874   25187738.4954
        38.000          34.000
 112077766.24547  87333333.87747  21327680.4924   21327681.9254   21327680.9614
        53.000          45.000
 09  1 28  1 15  0.0000000  0 12G 5G30G16G14G 6G18G24G22G29G31G12G21
 126062964.38447  98230864.97247  23988997.5144   23989000.7754   23988998.5394
        43.000          37.000
 118025340.87747  91967791.65847  22459480.3304   22459482.8474   22459480.0594
        50.000          43.000
 137639780.09247  89459567.81747  24289039.6994   24289042.7314   24289039.6614
        42.000          36.000
 123283554.63247  96065097.06947  23460088.1024   23460089.7744   23460088.3264
        47.000          40.000
 124773404.91847  97226006.29047  23743609.0164   23743612.0154   23743609.2494
        44.000          38.000
 115793307.17947  90228538.36847  22034743.3944   22034745.5634   22034743.7094
        51.000          44.000
 142197944.35147  93011360.46347  25156452.1064   25156455.9514   25156452.6914
        40.000          34.000
 116454735.22747  90743954.14647  22160595.7454   22160595.7164   22160595.7304
        52.000          45.000
 132621413.12047 103341346.66247  25237026.7074   25237029.4444   25237026.6724
        40.000          35.000
 107306655.39947  83615567.19647  20419783.3714   20419784.7414   20419782.8984
        55.000          50.000
 122411190.60657 113177550.65857  25197013.9675   25197013.6735   25197012.5475
        38.000          33.000
 112162359.79247  87399250.91847  21343778.1844   21343779.3784   21343778.6504
        53.000          45.000
 09  1 28  1 15 30.0000000  0 12G 5G30G16G14G 6G18G24G22G29G31G12G21
 126104949.19747  98263580.43347  23996986.6754   23996990.0834   23996987.0694
        44.000          37.000
 118030532.35747  91971836.96647  22460468.4204   22460470.6284   22460468.1154
        50.000          43.000
 137561781.55747  89398789.78347  24274196.3934   24274199.6854   24274196.5254
        43.000          37.000
 123318426.67047  96092270.10947  23466723.9154   23466725.3954   23466724.2194
        46.000          40.000
 124771349.16047  97224404.38647  23743217.4944   23743220.9844   23743217.4804
        44.000          38.000
 115770607.74547  90210850.48347  22030424.1484   22030426.1414   22030424.4214
        51.000          44.000
 142299545.02547  93090529.91647  25175786.3824   25175789.6974   25175786.6104
        41.000          34.000
 116399282.84247  90700744.47847  22150043.6694   22150043.7694   22150043.6544
        51.000          45.000
 132659908.33347 103371343.08147  25244352.2174   25244355.5054   25244351.5784
        41.000          36.000
 107297683.74847  83608576.30647  20418076.2154   20418077.6254   20418075.9224
        55.000          50.000
 122460247.90147 113215777.20147  25206349.2684   25206350.8034   25206348.2804
        39.000          34.000
 112247306.19647  87465442.92147  21359942.8964   21359944.0854   21359943.3154
        53.000          45.000
 09  1 28  1 16  0.0000000  0 12G 5G30G16G14G 6G18G24G22G29G31G12G21
 126147315.60747  98296593.21747  24005049.1594   24005052.5744   24005049.4904
        44.000          38.000
 118036092.40847  91976169.47547  22461526.4674   22461528.9234   22461526.0844
        50.000          43.000
 137483599.81147  89337868.94447  24259319.4214   24259321.8054   24259319.3864
        42.000          37.000
 123353140.07147  96119319.51047  23473329.5284   23473331.1894   23473329.7684
        46.000          40.000
 124769316.54747  97222820.52547  23742830.6744   23742834.1334   23742831.2044
        45.000          39.000
 115748185.08747  90193378.26047  22026157.0434   22026158.9204   22026157.3774
        51.000          44.000
 142401152.33647  93169704.55847  25195121.7664   25195125.1924   25195121.6594
        41.000          35.000
 116343888.43947  90657580.00447  22139502.5554   22139502.4474   22139502.6554
        52.000          45.000
 132698174.58347 103401161.00347  25251633.9554   25251636.4984   25251633.9314
        41.000          36.000
 107289289.42047  83602035.27647  20416478.8264   20416480.0514   20416478.4214
        55.000          50.000
 122509622.98547 113254251.26247  25215744.7064   25215747.7864   25215743.9804
        40.000          34.000
 112332602.07647  87531907.23647  21376174.1694   21376175.6424   21376174.6924
        52.000          45.000
 09  1 28  1 16 30.0000000  0 11G 5G30G16G14G 6G18G22G29G31G12G21
 126190064.00347  98329903.64447  24013184.0534   24013187.4384   24013184.6094
        44.000          38.000
 118042022.70047  91980790.49747  22462654.8704   22462657.3904   22462654.4244
        50.000          43.000
 137405236.90647  89276807.03747  24244407.1324   24244410.0194   24244407.0604
        43.000          37.000
 123387693.17747  96146244.00347  23479904.2734   23479906.6524   23479904.5524
        46.000          40.000
 124767305.65247  97221253.59247  23742448.2344   23742451.5744   23742447.9114
        44.000          38.000
 115726042.19047  90176124.06347  22021943.6374   22021945.4564   22021944.1384
        51.000          44.000
 116288554.86547  90614462.92147  22128972.9414   22128972.7164   22128972.9974
        52.000          45.000
 132736212.92847 103430801.33047  25258872.9224   25258874.5654   25258872.9054
        41.000          36.000
 107281472.56347  83595944.22247  20414991.2924   20414992.5844   20414990.8454
        55.000          50.000
 122559316.46847 113292973.51647  25225201.3214   25225202.3254   25225200.6204
        40.000          34.000
 112418244.96847  87598641.95147  21392471.3944   21392472.7554   21392471.7004
        52.000          45.000
 09  1 28  1 17  0.0000000  0 10G 5G30G16G14G 6G18G22G31G12G21
 126233194.35947  98363511.74147  24021391.4354   24021394.5024   24021391.9944
        44.000          37.000
 118048324.71147  91985701.15747  22463854.0924   22463856.7484   22463853.9604
        50.000          43.000
 137326694.02747  89215604.80047  24229461.4424   24229463.8024   24229461.3274
        43.000          37.000
 123422084.53747  96173042.48347  23486449.0904   23486451.1924   23486449.3964
        46.000          40.000
 124765314.90947  97219702.32747  23742069.3444   23742072.0934   23742069.8044
        44.000          38.000
 115704181.21847  90159089.53947  22017783.3434   22017785.0824   22017783.8144
        51.000          44.000
 116233284.55247  90571395.13347  22118455.1964   22118455.1474   22118455.2704
        52.000          45.000
 107274232.86447  83590302.89847  20413613.7804   20413614.9174   20413613.4234
        55.000          50.000
 122609327.70647 113331943.35447  25234717.4524   25234720.4944   25234717.8294
        40.000          34.000
 112504231.82147  87665644.68047  21408834.3564   21408835.5824   21408834.7404
        52.000          45.000
 09  1 28  1 17 30.0000000  0 10G 5G30G16G14G 6G18G22G31G12G21
 126276707.22047  98397417.91647  24029671.4224   24029674.5414   24029671.8594
        44.000          37.000
 118054999.93947  91990902.64747  22465124.3444   22465126.9494   22465123.9384
        50.000          43.000
 137247973.29247  89154263.97547  24214481.1064   24214483.9264   24214480.9804
        43.000          37.000
 123456313.12147  96199714.11747  23492962.4424   23492964.5244   23492962.9464
        45.000          39.000
 124763342.66347  97218165.53047  23741693.9264   23741696.9094   23741693.6094
        44.000          38.000
 115682604.82447  90142276.76647  22013677.6934   22013679.4194   22013678.2234
        51.000          44.000
 116178080.24647  90528378.78647  22107950.1404   22107950.2814   22107950.2864
        51.000          45.000
 107267570.25447  83585111.25547  20412345.8214   20412347.1614   20412345.3864
        55.000          50.000
 122659657.12647 113371161.09647  25244295.7144   25244296.8444   25244295.4024
        39.000          34.000
 112590559.89247  87732913.29547  21425262.0834   21425263.5074   21425262.5894
        52.000          45.000
 09  1 28  1 18  0.0000000  0 10G 5G30G16G14G 6G18G22G31G12G21
 126320600.27647  98431620.26547  24038023.9734   24038027.4124   24038025.2144
        43.000          38.000
 118062048.18347  91996394.79647  22466465.6924   22466468.1624   22466465.3504
        50.000          44.000
 137169074.38247  89092784.33747  24199466.8474   24199469.6974   24199467.1974
        43.000          37.000
 123490375.78447  96226256.44347  23499444.3864   23499446.4184   23499444.7124
        45.000          39.000
 124761385.16047  97216640.17247  23741321.4994   23741324.4194   23741322.2084
        44.000          38.000
 115661313.66747  90125686.24547  22009626.2604   22009627.7274   22009626.6574
        51.000          44.000
 116122942.08947  90485413.99247  22097457.6134   22097457.9314   22097457.8084
        51.000          45.000
 107261482.32947  83580367.41647  20411187.3954   20411188.6124   20411186.9584
        55.000          50.000
 122710302.30047 113410624.91147  25253932.6584   25253934.6884   25253931.9204
        39.000          34.000
 112677223.97347  87800443.73747  21441753.5574   21441755.4274   21441753.9294
        52.000          45.000
 09  1 28  1 18 30.0000000  0 10G 5G30G16G14G 6G18G22G31G12G21
 126364880.30747  98466124.20547  24046450.2624   24046454.1014   24046450.5444
        44.000          38.000
 118069477.35247  92002183.75347  22467879.5504   22467881.9784   22467879.2604
        50.000          43.000
 137090004.29747  89031171.32147  24184420.3004   24184423.0464   24184420.9124
        44.000          37.000
 123524277.12547  96252673.05247  23505895.9284   23505897.7494   23505896.0324
        46.000          40.000
 124759447.13747  97215130.02147  23740952.0184   23740955.7044   23740951.6704
        42.000          38.000
 115640316.12147  90109324.50447  22005630.5964   22005632.2084   22005630.6634
        51.000          44.000
 116067879.55347  90442508.12047  22086979.4794   22086979.7344   22086979.5104
        51.000          45.000
 107255974.99347  83576075.99747  20410139.4424   20410140.5114   20410139.0804
        55.000          50.000
 122761269.78647 113450339.79347  25263631.4224   25263632.4694   25263631.1494
        41.000          35.000
 112764227.51047  87868238.68547  21458309.5324   21458311.3304   21458310.0954
        52.000          45.000
 09  1 28  1 19  0.0000000  0 10G 5G30G16G14G 6G18G22G31G12G21
 126409538.12047  98500922.52447  24054948.8624   24054950.8204   24054948.9644
        43.000          37.000
 118077280.16647  92008263.88147  22469364.3584   22469366.4704   22469363.9774
        50.000          43.000
 137010756.28547  88969419.65047  24169339.9074   24169342.7504   24169340.6424
        43.000          37.000
 123558007.02147  96278956.10047  23512314.5634   23512316.4644   23512314.7874
        46.000          40.000
 124757518.10347  97213626.88947  23740585.3524   23740589.0674   23740585.0404
        44.000          38.000
 115619605.81147  90093186.58847  22001689.3104   22001691.1134   22001689.6794
        51.000          44.000
 116012886.03547  90399656.01747  22076514.4874   22076514.9004   22076514.4234
        51.000          45.000
 107251039.45047  83572230.12547  20409200.0774   20409201.3284   20409199.7614
        55.000          50.000
 122812550.21047 113490298.62947  25273390.5384   25273391.4534   25273389.8994
        40.000          35.000
 112851558.54147  87936288.83747  21474928.0854   21474929.9134   21474928.5204
        52.000          45.000
 09  1 28  1 19 30.0000000  0 10G 5G30G16G14G 6G18G22G31G12G21
 126454577.32347  98536018.00847  24063518.1134   24063521.8364   24063519.1934
        42.000          37.000
 118085461.53947  92014638.96447  22470920.8864   22470923.6374   22470920.5754
        49.000          43.000
 136931335.41747  88907533.31247  24154227.0514   24154230.3594   24154227.1744
        44.000          37.000
 123591567.67947  96305107.26847  23518700.6454   23518702.8684   23518701.0274
        45.000          39.000
 124755599.95047  97212132.20047  23740220.4634   23740223.6914   23740220.9574
        43.000          38.000
 115599189.06047  90077277.45047  21997804.1654   21997805.8694   21997804.6094
        51.000          44.000
 115957967.56547  90356862.39347  22066064.0174   22066064.1314   22066064.0254
        52.000          45.000
 107246678.56847  83568832.04347  20408370.2414   20408371.4504   20408369.8134
        55.000          50.000
 122864147.17647 113530504.06047  25283208.6774   25283211.1074   25283207.7244
        41.000          35.000
 112939217.65647  88004594.64347  21491608.9114   21491610.9844   21491609.3124
        51.000          45.000
 09  1 28  1 20  0.0000000  0 10G 5G30G16G14G 6G18G22G31G12G21
 126499998.33747  98571410.98647  24072162.6824   24072165.2664   24072163.0004
        44.000          38.000
 118094023.34047  92021310.51347  22472550.0874   22472552.5364   22472549.7814
        50.000          43.000
 136851743.56947  88845513.69947  24139080.6894   24139083.0504   24139081.3154
        44.000          37.000
 123624958.06947  96331125.74147  23525054.6744   23525056.6004   23525054.7754
        45.000          39.000
 124753691.31747  97210644.95047  23739857.5664   23739860.2814   23739856.8614
        44.000          38.000
 115579068.50947  90061599.09647  21993975.3184   21993977.2904   21993975.9444
        51.000          44.000
 115903127.14847  90314129.58847  22055628.4374   22055628.5514   22055628.6774
        52.000          45.000
 107242892.07047  83565881.52447  20407649.6844   20407650.8764   20407649.3164
        55.000          50.000
 122916060.91347 113570956.33847  25293087.6614   25293088.3514   25293087.5144
        41.000          35.000
 113027202.17047  88073153.99847  21508351.9974   21508353.8804   21508352.3924
        52.000          45.000
 09  1 28  1 20 30.0000000  0 10G 5G30G16G14G 6G18G22G31G12G21
 126545801.51747  98607101.79047  24080878.3704   24080881.0644   24080879.0194
        43.000          37.000
 118102967.14347  92028279.71647  22474252.1964   22474254.8004   22474251.5674
        50.000          44.000
 136771982.84447  88783362.55447  24123903.4114   24123905.8384   24123903.4914
        44.000          37.000
 123658177.16747  96357010.77347  23531376.1124   23531377.9964   23531376.3374
        45.000          39.000
 124751790.84947  97209164.05247  23739496.1824   23739498.8314   23739496.0984
        44.000          38.000
 115559246.60247  90046153.45247  21990203.1784   21990204.8474   21990203.7684
        51.000          44.000
 115848367.73147  90271459.89947  22045207.8404   22045208.0784   22045207.7804
        51.000          45.000
 107239679.97447  83563378.60047  20407038.4574   20407039.7284   20407038.1884
        55.000          50.000
 122968291.31447 113611655.34847  25303026.0634   25303028.3584   25303026.7304
        40.000          36.000
 113115509.35647  88141964.78347  21525156.4454   21525157.9964   21525156.9874
        52.000          45.000
 09  1 28  1 21  0.0000000  0 10G 5G30G16G14G 6G18G22G31G12G21
 126591985.88847  98643089.61847  24089666.6434   24089670.0644   24089667.5724
        42.000          37.000
 118112293.80347  92035547.25347  22476027.1614   22476029.6874   22476026.7374
        50.000          44.000
 136692054.08647  88721080.44747  24108693.5494   24108695.9944   24108693.7594
        43.000          37.000
 123691222.78247  96382760.61647  23537664.5954   23537666.2194   23537664.6554
        45.000          39.000
 124749896.00547  97207687.52147  23739135.3884   23739138.4374   23739135.6344
        44.000          38.000
 115539724.91247  90030941.74547  21986488.5754   21986490.3164   21986488.9524
        51.000          44.000
 115793691.04847  90228854.68947  22034802.9654   22034803.4264   22034802.9654
        52.000          45.000
 107237041.33047  83561322.50847  20406536.2304   20406537.6114   20406535.7554
        55.000          50.000
 123020837.50247 113652600.43147  25313025.6184   25313027.4814   25313025.4504
        41.000          36.000
 113204135.60247  88211024.18147  21542021.5304   21542023.2364   21542021.9144
        52.000          45.000
 09  1 28  1 21 30.0000000  0 10G 5G30G16G14G 6G18G22G31G12G21
 126638551.42947  98679374.52947  24098528.0954   24098530.9964   24098528.3194
        43.000          37.000
 118122004.58347  92043114.11447  22477875.0184   22477877.2204   22477874.8174
        50.000          43.000
 136611958.60447  88658668.40147  24093452.3574   24093454.2574   24093452.5124
        44.000          37.000
 123724093.75647  96408374.35947  23543919.3944   23543921.5944   23543919.5584
        45.000          39.000
 124748005.03047  97206214.03047  23738775.1184   23738778.7354   23738774.8684
        44.000          38.000
 115520506.06347  90015966.02647  21982831.4654   21982833.3404   21982832.0154
        51.000          44.000
 115739099.65847  90186315.93347  22024414.7444   22024415.0064   22024414.8374
        52.000          45.000
 107234975.17347  83559712.52247  20406143.2854   20406144.5604   20406143.0014
        55.000          50.000
 123073699.35247 113693791.50847  25323084.8464   25323086.5334   25323085.0174
        41.000          36.000
 113293077.45747  88280329.51047  21558946.5054   21558948.2874   21558946.8894
        51.000          44.000
 09  1 28  1 22  0.0000000  0 10G 5G30G16G14G 6G18G22G31G12G21
 126685498.52447  98715956.69047  24107461.0294   24107465.3854   24107461.7354
        42.000          37.000
 118132101.55147  92050981.89047  22479796.4364   22479798.8934   22479796.1384
        50.000          44.000
 136531698.56847  88596128.12247  24078178.9854   24078181.7624   24078179.1884
        43.000          37.000
 123756789.31747  96433851.42347  23550141.0004   23550142.6624   23550141.2114
        44.000          39.000
 124746117.02047  97204742.84347  23738415.7274   23738419.7964   23738415.7334
        44.000          38.000
 115501592.84547  90001228.45147  21979232.2354   21979233.9544   21979232.6994
        51.000          44.000
 115684596.74647  90143846.13447  22014043.3804   22014043.3504   22014043.5034
        52.000          45.000
 107233481.83547  83558548.88647  20405858.9924   20405860.1794   20405858.6114
        55.000          50.000
 123126877.02047 113735228.67247  25333203.9604   25333206.1014   25333204.0904
        41.000          36.000
 113382332.52247  88349878.89747  21575931.3694   21575932.8684   21575931.8314
        51.000          44.000
 09  1 28  1 22 30.0000000  0 10G 5G30G16G14G 6G18G22G31G12G21
 126732826.54647  98752835.68747  24116467.9014   24116471.2744   24116469.1584
        42.000          37.000
 118142585.30847  92059151.06047  22481791.0664   22481793.8034   22481790.7774
        49.000          43.000
 136451275.59047  88533460.86247  24062874.7444   24062877.0704   24062875.0494
        44.000          38.000
 123789307.39947  96459190.19147  23556329.2354   23556331.0624   23556329.2624
        45.000          39.000
 124744229.89647  97203272.35247  23738057.3614   23738060.4854   23738057.3534
        44.000          38.000
 115482987.23447  89986730.57347  21975691.4714   21975693.5674   21975691.7724
        51.000          44.000
 115630184.28347  90101446.80047  22003689.0444   22003689.1214   22003689.1684
        52.000          45.000
 107232560.13247  83557830.68247  20405683.5874   20405684.8744   20405683.3034
        55.000          50.000
 123180369.80947 113776911.39547  25343382.8674   25343385.4854   25343383.0634
        40.000          35.000
 113471897.38447  88419669.68147  21592975.0224   21592976.5174   21592975.7194
        52.000          44.000
 09  1 28  1 23  0.0000000  0 10G 5G30G16G14G 6G18G22G31G12G21
 126780534.18647  98790010.45947  24125547.0624   24125549.4714   24125547.0904
        43.000          37.000
 118153456.27347  92067621.95147  22483859.8284   22483862.3874   22483859.5304
        50.000          43.000
 136370689.57647  88470666.56847  24047539.5124   24047542.0884   24047539.6914
        44.000          37.000
 123821645.87747  96484389.02447  23562482.9894   23562484.6554   23562483.3284
        45.000          39.000
 124742340.48847  97201800.08347  23737697.7934   23737700.9384   23737697.9204
        43.000          38.000
 115464690.19547  89972473.13147  21972209.7934   21972211.6074   21972210.2124
        51.000          44.000
 115575863.65347  90059119.02247  21993352.3314   21993352.2864   21993352.3434
        52.000          45.000
 107232208.37547  83557556.59647  20405616.5134   20405617.8944   20405616.0814
        55.000          50.000
 123234176.08247 113818838.38647  25353621.7244   25353623.7274   25353621.3604
        40.000          35.000
 113561767.76447  88489698.54047  21610076.7434   21610078.2954   21610077.1264
        51.000          44.000
 09  1 28  1 23 30.0000000  0 10G 5G30G16G14G 6G18G22G31G12G21
 126828625.89347  98827484.54547  24134698.0204   24134701.5284   24134698.8594
        43.000          37.000
 118164720.41247  92076399.18847  22486003.3734   22486005.9514   22486003.1274
        50.000          43.000
 136289947.49747  88407750.68247  24032175.1744   24032178.0144   24032174.6314
        44.000          38.000
 123853807.66547  96509450.17447  23568602.8134   23568604.8834   23568602.9534
        45.000          39.000
 124740451.98047  97200328.52547  23737338.3934   23737342.2104   23737337.9374
        43.000          38.000
 115446708.68647  89958461.56247  21968788.0264   21968789.7784   21968788.5994
        51.000          44.000
 115521642.16447  90016868.49947  21983034.0664   21983034.1094   21983034.1214
        51.000          45.000
 107232430.35747  83557729.57247  20405658.7994   20405660.1544   20405658.4924
        55.000          50.000
 123288300.08047 113861012.93547  25363921.8484   25363922.7304   25363921.6194
        40.000          35.000
 113651944.91247  88559966.43247  21627236.5274   21627238.3614   21627236.7384
        52.000          44.000
 09  1 28  1 24  0.0000000  0 10G 5G30G16G14G 6G18G22G31G12G21
 126877096.02047  98865253.53347  24143921.4804   24143925.1174   24143922.0694
        43.000          36.000
 118176373.52047  92085479.54647  22488221.3694   22488223.2024   22488221.3014
        50.000          44.000
 136209044.89347  88344709.75247  24016779.5864   24016782.8034   24016779.7614
        44.000          38.000
 123885786.38847  96534368.66547  23574688.5554   23574690.7114   23574688.5144
        45.000          39.000
 124738557.17347  97198852.03147  23736977.9154   23736981.0264   23736977.7884
        43.000          38.000
 115429039.22647  89944693.14647  21965425.8074   21965427.4574   21965426.3454
        51.000          44.000
 115467516.63447  89974692.75247  21972734.3184   21972734.5054   21972734.4324
        52.000          45.000
 107233219.77447  83558344.70547  20405809.3654   20405810.2774   20405808.9614
        55.000          50.000
 123342736.47747 113903431.00447  25374280.0484   25374283.0854   25374280.7714
        41.000          35.000
 113742420.60947  88630466.96047  21644453.9014   21644455.1914   21644454.5154
        51.000          44.000
 09  1 28  1 24 30.0000000  0 10G 5G30G16G14G 6G18G22G31G12G21
 126925945.29547  98903317.89547  24153217.2604   24153220.2604   24153217.9094
        43.000          37.000
 118188417.72647  92094864.65847  22490512.8614   22490515.2634   22490512.4504
        50.000          43.000
 136127984.61747  88281545.96047  24001354.0694   24001356.8894   24001354.5314
        44.000          38.000
 123917581.73447  96559144.24547  23580739.0424   23580740.7274   23580739.1594
        45.000          39.000
 124736655.29347  97197370.03347  23736615.2964   23736619.0464   23736614.9954
        43.000          38.000
 115411685.63447  89931170.86547  21962123.6214   21962125.1664   21962124.1904
        51.000          44.000
 115413490.79847  89932594.68147  21962453.7104   21962453.7774   21962453.8744
        52.000          45.000
 107234577.27147  83559402.49847  20406067.5524   20406068.7114   20406067.1804
        55.000          50.000
 123397485.59847 113946092.67947  25384698.8044   25384699.8064   25384698.1984
        40.000          34.000
 113833192.76247  88701198.50147  21661727.0714   21661728.6524   21661727.2704
        51.000          44.000
 09  1 28  1 25  0.0000000  0 10G 5G30G16G14G 6G18G22G31G12G21
 126975176.50247  98941679.89347  24162585.2164   24162589.2134   24162586.0574
        43.000          36.000
 118200857.41447  92104557.93147  22492879.8904   22492882.6354   22492879.3354
        50.000          43.000
 136046771.38647  88218262.93247  23985900.0764   23985902.8804   23985900.3574
        45.000          38.000
 123949195.32047  96583778.22547  23586754.8564   23586756.7524   23586755.1764
        45.000          39.000
 124734747.73847  97195883.60347  23736252.6694   23736256.1864   23736252.9234
        44.000          38.000
 115394653.00847  89917898.68047  21958882.5184   21958884.1094   21958882.9934
        51.000          44.000
 115359570.52847  89890578.88647  21952192.9134   21952193.1804   21952193.0144
        52.000          45.000
 107236505.02847  83560904.65547  20406434.3074   20406435.6394   20406434.0274
        55.000          50.000
 123452550.18447 113989000.10747  25395177.0964   25395179.4014   25395177.1744
        39.000          35.000
 113924261.07547  88772160.81047  21679056.7134   21679058.2634   21679057.2294
        51.000          44.000
 09  1 28  1 25 30.0000000  0 10G 5G30G16G14G 6G18G22G31G12G21
 127024786.33747  98980336.91247  24172025.4424   24172028.9574   24172026.3604
        43.000          37.000
 118213691.01547  92114558.15347  22495322.2684   22495324.3034   22495321.7684
        50.000          43.000
 135965403.80147  88154859.64847  23970416.5354   23970418.3344   23970416.6804
        45.000          38.000
 123980622.88147  96608267.25947  23592735.1484   23592736.8944   23592735.5344
        44.000          39.000
 124732829.91147  97194389.17847  23735887.6804   23735890.9004   23735887.4074
        43.000          38.000
 115377940.55347  89904875.99247  21955701.9354   21955703.8764   21955702.3144
        51.000          44.000
 115305755.23647  89848644.89147  21941952.3444   21941952.4114   21941952.5314
        52.000          45.000
 107238999.16747  83562848.14347  20406908.9284   20406910.1544   20406908.4604
        55.000          50.000
 143507827.63357  94032049.52157  25405714.4485   25405717.6865   25405714.3155
        38.000          34.000
 114015619.30547  88843349.02047  21696441.5114   21696443.6584   21696441.9834
        51.000          44.000
 09  1 28  1 26  0.0000000  0 10G 5G30G16G14G 6G18G22G31G12G21
 127074776.88747  99019290.64147  24181538.1264   24181541.9794   24181539.3974
        43.000          37.000
 118226922.10447  92124868.09047  22497840.5054   22497842.4464   22497840.2104
        50.000          43.000
 135883886.07947  88091339.41247  23954904.0894   23954906.2934   23954904.2424
        45.000          38.000
 124011865.27947  96632611.98247  23598680.8444   23598682.3204   23598681.2094
        44.000          39.000
 124730902.35847  97192887.16647  23735521.1654   23735524.5014   23735521.4624
        44.000          38.000
 115361552.61447  89892106.15847  21952583.5244   21952585.2784   21952583.8844
        51.000          44.000
 115252049.48247  89806796.23047  21931732.5764   21931732.4974   21931732.5264
        52.000          45.000
 107242061.13447  83565234.09247  20407491.5344   20407492.9964   20407491.1954
        55.000          50.000
 143563518.20047  94075444.86747  25416313.1064   25416314.5604   25416312.8894
        40.000          34.000
 114107266.97547  88914762.76347  21713881.5634   21713883.5844   21713881.8894
        51.000          44.000
 09  1 28  1 26 30.0000000  0 10G 5G30G16G14G 6G18G22G31G12G21
 127125145.13947  99058538.65347  24191123.0314   24191127.2434   24191123.2914
        42.000          37.000
 118240549.03647  92135486.48247  22500433.2534   22500435.5504   22500433.2054
        50.000          43.000
 135802216.88647  88027701.13747  23939362.8364   23939365.1714   23939362.8384
        44.000          38.000
 124042918.94547  96656809.62747  23604590.1504   23604591.7584   23604590.4634
        45.000          39.000
 124728960.71747  97191374.14747  23735151.6004   23735154.9804   23735151.9804
        43.000          38.000
 115345488.76947  89879588.87747  21949526.6204   21949528.5684   21949526.9604
        51.000          44.000
 115198453.23547  89765032.91647  21921533.3614   21921533.4074   21921533.3764
        52.000          45.000
 107245687.56847  83568059.88547  20408181.7074   20408183.0154   20408181.4014
        55.000          50.000
 143619519.38147  94119082.22647  25426969.7624   25426971.8604   25426969.5574
        40.000          34.000
 114199198.02847  88986397.33047  21731375.7054   21731377.4894   21731376.0314
        51.000          44.000
 09  1 28  1 27  0.0000000  0  9G 5G30G16G14G 6G18G22G31G21
 127175892.41747  99098082.00047  24200780.5484   24200784.0094   24200780.8454
        43.000          37.000
 118254574.50147  92146415.42147  22503102.1454   22503104.4584   22503101.8394
        50.000          43.000
 135720399.91047  87963947.66447  23923793.2454   23923795.5894   23923793.2234
        44.000          38.000
 124073784.17247  96680860.45847  23610463.3724   23610465.4834   23610463.6754
        46.000          39.000
 124727005.01547  97189850.21447  23734778.6534   23734782.7824   23734778.6974
        43.000          38.000
 115329753.18947  89867327.38147  21946532.1164   21946534.3484   21946532.5174
        51.000          44.000
 115144970.76047  89723358.24747  21911355.7254   21911356.1094   21911355.6764
        52.000          45.000
 107249879.39747  83571326.24347  20408979.4024   20408980.7414   20408979.0254
        55.000          51.000
 114291411.23447  89058251.75847  21748923.0954   21748925.2084   21748923.7964
        51.000          44.000
 09  1 28  1 27 30.0000000  0 10G 5G30G16G14G 6G18G 3G22G31G21
 127227018.04447  99137920.17047  24210509.5474   24210512.7764   24210510.0434
        43.000          37.000
 118268999.46447  92157655.65147  22505847.0304   22505849.7014   22505846.6204
        50.000          43.000
 135638436.37447  87900080.00747  23908196.1544   23908198.7284   23908195.9444
        44.000          38.000
 124104459.47947  96704763.29047  23616301.2114   23616302.7234   23616301.2224
        44.000          39.000
 124725033.28647  97188313.79447  23734404.1054   23734407.2554   23734404.4774
        44.000          38.000
 115314347.56547  89855322.99047  21943600.5984   21943602.6964   21943600.8594
        52.000          44.000
 140196940.12857  91452155.77357  24775657.3215   24775660.4395   24775657.2785
        42.000          35.000
 115091604.41947  89681774.08347  21901200.4244   21901200.9814   21901200.2944
        52.000          45.000
 107254635.18347  83575032.05647  20409884.4204   20409885.6274   20409884.0814
        55.000          50.000
 114383903.14347  89130323.36147  21766523.7354   21766525.8594   21766523.8994
        51.000          44.000
 09  1 28  1 28  0.0000000  0 10G 5G30G16G14G 6G18G 3G22G31G21
 127278519.56947  99178051.25147  24220309.6914   24220313.4644   24220309.9554
        43.000          37.000
 118283822.73647  92169206.26547  22508668.0504   22508670.1784   22508667.5194
        49.000          43.000
 135556326.12247  87836097.99047  23892571.0504   23892573.8424   23892571.1584
        45.000          38.000
 124134941.53347  96728515.54747  23622101.1644   23622103.1594   23622101.6574
        45.000          39.000
 124723041.79047  97186761.94547  23734025.8474   23734028.3484   23734025.7384
        44.000          38.000
 115299272.19147  89843575.94847  21940732.2694   21940733.9154   21940732.9604
        51.000          45.000
 140193492.53147  91449469.31547  24775001.3564   24775003.9904   24775001.3304
        40.000          35.000
 115038354.55947  89640280.68047  21891067.5534   21891067.8304   21891067.6324
        52.000          45.000
 107259951.99147  83579175.02147  20410896.1044   20410897.3974   20410895.6954
        55.000          50.000
 114476668.39147  89202607.95247  21784176.6094   21784178.5274   21784177.1264
        51.000          44.000
 09  1 28  1 28 30.0000000  0 10G 5G30G16G14G 6G18G 3G22G31G21
 127330402.25647  99218479.33747  24230182.7144   24230185.7634   24230182.8094
        42.000          37.000
 118299051.40247  92181072.78147  22511565.7474   22511568.2784   22511565.3644
        49.000          43.000
 135474076.34547  87772007.26947  23876919.2444   23876922.4494   23876919.9824
        44.000          38.000
 124165234.74147  96752120.64847  23627866.1134   23627867.7234   23627866.2504
        45.000          39.000
 124721034.67847  97185197.93347  23733643.4774   23733646.5614   23733643.3974
        44.000          39.000
 115284534.90247  89832092.34147  21937928.0194   21937929.4214   21937928.6994
        51.000          44.000
 140189998.43847  91446746.65347  24774334.8744   24774339.5814   24774335.0984
        42.000          36.000
 114985229.55347  89598884.56147  21880958.4824   21880958.3104   21880958.5214
        52.000          45.000
 107265834.62847  83583758.89347  20412015.4914   20412016.7794   20412015.1094
        55.000          50.000
 114569709.50647  89275107.51747  21801881.7704   21801883.5854   21801882.1354
        51.000          44.000
 09  1 28  1 29  0.0000000  0 10G 5G30G16G14G 6G18G 3G22G31G21
 127382660.16747  99259199.82947  24240126.5734   24240130.2854   24240126.5004
        42.000          37.000
 118314681.04347  92193251.71947  22514539.4994   22514542.5184   22514539.1154
        49.000          43.000
 135391683.47047  87707805.06547  23861240.9484   23861243.4334   23861241.1594
        45.000          38.000
 124195332.37247  96775573.34047  23633593.3964   23633595.2194   23633593.5094
        45.000          39.000
 124719004.52947  97183615.98947  23733257.2484   23733260.7354   23733257.1354
        45.000          38.000
 115270132.14247  89820869.41147  21935186.9334   21935188.7604   21935187.4834
        51.000          44.000
 140186450.23847  91443981.72647  24773660.4784   24773664.5124   24773660.9354
        41.000          35.000
 114932226.46547  89557583.44547  21870872.1274   21870872.1654   21870872.2264
        52.000          45.000
 107272276.53047  83588778.56747  20413241.4254   20413242.6074   20413241.0854
        55.000          50.000
 114663017.92247  89347815.35947  21819637.9634   21819639.6824   21819638.5774
        51.000          44.000
 09  1 28  1 29 30.0000000  0 10G 5G30G16G14G 6G18G 3G22G31G21
 127435297.65947  99300216.07747  24250143.5534   24250146.4834   24250143.3024
        42.000          37.000
 118330717.43547  92205747.62747  22517591.6754   22517593.9104   22517591.4644
        49.000          43.000
 135309153.76347  87643496.22847  23845536.0694   23845538.1334   23845536.3004
        45.000          38.000
 124225238.27847  96798876.65647  23639283.7604   23639285.9844   23639284.0614
        45.000          39.000
 124716954.42347  97182018.46347  23732867.3154   23732870.7964   23732867.8994
        44.000          38.000
 115256070.79847  89809912.50347  21932510.8954   21932512.8914   21932511.3764
        51.000          44.000
 140182851.04847  91441177.21447  24772974.9334   24772978.9914   24772974.9534
        42.000          35.000
 114879352.49147  89516382.94047  21860810.3624   21860810.6464   21860810.3564
        53.000          45.000
 107279281.35147  83594236.86747  20414574.3334   20414575.5804   20414573.9694
        55.000          50.000
 114756595.40447  89420732.86247  21837445.2254   21837446.7824   21837445.5594
        51.000          44.000
 09  1 28  1 30  0.0000000  0 10G 5G30G16G14G 6G18G 3G22G31G21
 127488310.20647  99341524.57947  24260231.1124   24260234.2954   24260231.2914
        42.000          36.000
 118347157.51047  92218558.07147  22520720.0384   22520722.4874   22520719.7154
        50.000          43.000
 135226485.09447  87579079.10047  23829804.5914   23829806.7714   23829805.1234
        44.000          38.000
 124254946.94247  96822026.26447  23644937.0534   23644939.4934   23644937.6684
        45.000          39.000
 124714878.75047  97180401.00647  23732472.0224   23732475.4894   23732471.7734
        44.000          38.000
 115242348.97247  89799220.17847  21929899.6834   21929901.9464   21929900.1484
        51.000          44.000
 140179195.24247  91438328.49147  24772280.0784   24772283.0464   24772280.5114
        41.000          35.000
 114826606.45747  89475282.12747  21850773.3864   21850773.3274   21850773.5724
        52.000          45.000
 107286844.02547  83600129.85747  20416013.4764   20416014.7424   20416013.1164
        55.000          50.000
 114850434.39547  89493854.13747  21855302.2604   21855303.7124   21855302.7174
        51.000          44.000
 09  1 28  1 30 30.0000000  0 10G 5G30G16G14G 6G18G 3G22G31G21
 127541699.12747  99383126.34347  24270391.1544   24270393.7754   24270391.1664
        43.000          37.000
 118364003.94747  92231685.15647  22523926.0534   22523928.1484   22523925.6594
        50.000          43.000
 135143681.31347  87514556.77147  23814047.5264   23814049.8384   23814048.6024
        44.000          38.000
 124284459.08647  96845022.74447  23650552.8524   23650555.1404   23650553.2444
        45.000          39.000
 124712777.63047  97178763.72447  23732071.9994   23732076.4144   23732072.3164
        44.000          38.000
 115228970.76347  89788795.59547  21927354.1544   21927355.8004   21927354.5864
        51.000          44.000
 140175482.99047  91435435.82547  24771572.8194   24771576.9094   24771573.5254
        41.000          35.000
 114773992.49847  89434284.23447  21840761.1274   21840761.4384   21840761.1074
        52.000          45.000
 107294965.31047  83606458.13047  20417558.7884   20417560.1984   20417558.4404
        55.000          50.000
 114944533.59547  89567178.16547  21873208.5974   21873210.2534   21873209.1164
        51.000          44.000
 09  1 28  1 31  0.0000000  0 10G 5G30G16G14G 6G18G 3G22G31G21
 127595463.90447  99425020.98447  24280621.8554   24280625.5364   24280622.6254
        42.000          37.000
 118381257.98747  92245129.87847  22527209.6554   22527211.7964   22527209.4244
        50.000          43.000
 135060743.69447  87449930.06947  23798264.4184   23798267.5594   23798265.6924
        45.000          38.000
 124313773.57547  96867865.19947  23656132.1444   23656133.8694   23656132.0134
        45.000          39.000
 124710649.47347  97177105.39447  23731667.2724   23731670.9034   23731667.2954
        44.000          38.000
 115215937.97947  89778640.18447  21924873.9944   21924875.6014   21924874.4444
        51.000          44.000
 140171712.23047  91432497.52147  24770855.3394   24770858.6134   24770855.8164
        39.000          35.000
 114721512.83347  89393390.98347  21830774.2774   21830774.8534   21830774.2484
        52.000          46.000
 107303644.19947  83613220.90447  20419210.2404   20419211.6324   20419209.9204
        55.000          50.000
 115038889.99447  89640702.61547  21891164.0854   21891165.7704   21891164.6844
        51.000          44.000
 09  1 28  1 31 30.0000000  0 10G 5G30G16G14G 6G18G 3G22G31G21
 127649604.17447  99467208.19947  24290924.3834   24290928.5724   24290925.3464
        43.000          37.000
 118398920.89047  92258893.18547  22530570.1834   22530572.7564   22530569.8284
        50.000          43.000
 134977674.41847  87385200.78047  23782456.9144   23782459.5134   23782457.2014
        44.000          38.000
 124342889.39347  96890552.84947  23661672.6974   23661674.2574   23661672.7084
        46.000          39.000
 124708492.78847  97175424.82947  23731256.4724   23731260.2694   23731256.2624
        43.000          38.000
 115203253.29847  89768756.01247  21922460.2554   21922462.1044   21922460.7304
        51.000          44.000
 140167881.54347  91429512.58847  24770126.6834   24770131.1514   24770126.0784
        41.000          35.000
 114669170.85747  89352605.02747  21820814.2584   21820814.4634   21820814.2554
        52.000          46.000
 107312879.71147  83620417.40247  20420967.6344   20420969.1264   20420967.2234
        55.000          50.000
 115133500.40447  89714424.99847  21909167.4774   21909169.6664   21909167.8464
        50.000          44.000
 09  1 28  1 32  0.0000000  0 10G 5G30G16G14G 6G18G 3G22G31G21
 127704118.03247  99509686.56447  24301298.2164   24301300.5484   24301298.5544
        42.000          37.000
 118416991.72947  92272974.38047  22534008.9764   22534011.7134   22534008.7074
        50.000          43.000
 134894473.85247  87320369.18347  23766624.2394   23766626.8014   23766624.4874
        44.000          38.000
 124371804.04447  96913083.73847  23667174.9394   23667176.6474   23667174.8894
        45.000          39.000
 124706304.35547  97173719.51047  23730840.3594   23730843.4634   23730840.4894
        43.000          38.000
 115190916.97747  89759143.28347  21920112.8134   21920114.2854   21920113.2284
        51.000          44.000
 140163987.91347  91426478.54547  24769385.7224   24769389.9424   24769386.7454
        42.000          35.000
 114616967.32747  89311926.95047  21810880.3654   21810880.3754   21810880.3394
        53.000          46.000
 107322669.12047  83628045.51547  20422830.5404   20422831.9264   20422830.2054
        55.000          50.000
 115228360.37347  89788341.83847  21927218.8184   21927221.0884   21927219.3444
        50.000          43.000
 09  1 28  1 32 30.0000000  0 10G 5G30G16G14G 6G18G 3G22G31G21
 127759006.13547  99552456.53247  24311743.1054   24311746.5134   24311742.9964
        43.000          37.000
 118435473.49147  92287375.76747  22537526.2474   22537528.2854   22537525.8224
        50.000          43.000
 134811145.41447  87255437.96247  23750767.2164   23750769.5774   23750767.5684
        45.000          38.000
 124400517.60647  96935457.94547  23672638.6304   23672640.8044   23672638.9924
        45.000          39.000
 124704084.00047  97171989.33047  23730417.9244   23730421.7964   23730417.8724
        44.000          38.000
 115178932.39447  89749804.64847  21917832.0384   21917833.6464   21917832.5744
        51.000          44.000
 140160031.25247  91423395.48947  24768633.1644   24768636.3954   24768633.3174
        42.000          35.000
 114564906.23247  89271359.85147  21800973.5664   21800973.7394   21800973.7194
        53.000          46.000
 107333012.69847  83636105.44447  20424798.9534   20424800.2944   20424798.5424
        55.000          50.000
 115323468.11947  89862451.75447  21945317.0644   21945319.4734   21945317.5584
        50.000          44.000
 09  1 28  1 33  0.0000000  0 10G 5G30G16G14G 6G18G 3G22G31G21
 127814267.87247  99595517.66847  24322258.8714   24322262.5914   24322259.2474
        43.000          37.000
 118454366.50747  92302097.59847  22541121.2334   22541123.7454   22541121.1344
        50.000          43.000
 134727690.32447  87190408.04047  23734886.7934   23734888.7504   23734887.0684
        45.000          38.000
 124429028.92147  96957674.55447  23678064.2574   23678066.0914   23678064.5494
        44.000          39.000
 124701830.04047  97170232.99647  23729988.8334   23729991.9534   23729988.3834
        43.000          38.000
 115167301.69747  89740741.76747  21915618.8654   21915620.4674   21915619.3334
        51.000          44.000
 140156009.32447  91420261.49347  24767868.5104   24767871.8734   24767868.9074
        42.000          36.000
 114512989.96047  89230905.60047  21791094.2724   21791094.5674   21791094.2744
        52.000          46.000
 107343909.09547  83644596.14547  20426872.5064   20426873.8064   20426872.1564
        55.000          50.000
 115418820.42747  89936752.23147  21963462.4354   21963464.2784   21963462.8474
        51.000          43.000
 09  1 28  1 33 30.0000000  0 10G 5G30G16G14G 6G18G 3G22G31G21
 127869903.69547  99638870.27247  24332846.3984   24332849.5564   24332847.0074
        42.000          37.000
 118473672.74247  92317141.41647  22544794.7604   22544797.4914   22544794.4924
        49.000          43.000
 134644111.77847  87125281.94947  23718981.8024   23718984.1824   23718982.2224
        45.000          38.000
 124457338.11647  96979733.66447  23683451.1474   23683452.8124   23683451.1924
        45.000          39.000
 124699541.82947  97168449.95447  23729553.1724   23729556.7184   23729553.6814
        43.000          38.000
 115156027.73347  89731956.83947  21913473.2704   21913475.0144   21913473.6814
        51.000          44.000
 140151921.15147  91417075.94347  24767090.2264   24767093.3514   24767089.6984
        43.000          36.000
 114461222.67447  89190567.45347  21781243.2504   21781243.3224   21781243.1174
        53.000          46.000
 107355358.12547  83653517.47147  20429051.2904   20429052.5034   20429050.9364
        55.000          50.000
 115514414.85747  90011241.38647  21981653.3314   21981655.1264   21981653.9224
        51.000          43.000
 09  1 28  1 34  0.0000000  0 10G 5G30G16G14G 6G18G 3G22G31G21
 127925910.64847  99682512.03447  24343504.0954   24343507.4764   24343504.7884
        43.000          37.000
 118493390.56947  92332505.98547  22548547.2584   22548549.1844   22548546.9504
        49.000          42.000
 134560409.23047  87060059.20847  23703053.4854   23703055.9174   23703053.5954
        45.000          38.000
 124485441.82647  97001632.65747  23688799.1844   23688800.8954   23688799.1214
        45.000          39.000
 124697215.37247  97166637.14347  23729110.6634   23729113.8294   23729110.2404
        44.000          38.000
 115145110.35547  89723449.77447  21911395.9614   21911397.8804   21911396.3584
        51.000          44.000
 140147763.13947  91413835.89247  24766299.3294   24766302.2164   24766299.7514
        42.000          36.000
 114409603.99447  89150345.10147  21771420.4904   21771420.6014   21771420.5934
        53.000          46.000
 107367356.08847  83662866.53147  20431334.2734   20431335.6344   20431333.8384
        55.000          50.000
 115610246.07047  90085915.03447  21999889.6414   21999891.3644   21999890.2034
        51.000          43.000
 09  1 28  1 34 30.0000000  0 10G 5G30G16G14G 6G18G 3G22G31G21
 127982290.71347  99726444.55847  24354232.6544   24354236.1334   24354233.0244
        42.000          36.000
 118513523.98247  92348194.34247  22552378.2134   22552380.6634   22552378.0514
        49.000          43.000
 134476587.50847  86994743.60647  23687102.4924   23687104.9184   23687102.9084
        44.000          38.000
 124513341.39047  97023372.57747  23694108.4554   23694110.2644   23694108.8504
        45.000          39.000
 124694851.69047  97164795.33947  23728661.0044   23728665.0804   23728661.1344
        44.000          38.000
 115134554.26747  89715224.24447  21909387.4204   21909388.9244   21909387.7984
        51.000          44.000
 140143536.55147  91410542.38447  24765494.0034   24765498.4064   24765494.0894
        42.000          36.000
 114358139.10647  89110242.59547  21761626.8844   21761627.2644   21761626.9694
        53.000          46.000
 107379904.54247  83672644.54447  20433722.2174   20433723.5364   20433721.8934
        55.000          50.000
 115706313.67447  90160772.87147  22018170.6744   22018172.1354   22018170.9684
        50.000          43.000
 09  1 28  1 35  0.0000000  0 10G 5G30G16G14G 6G18G 3G22G31G21
 128039041.45247  99770665.93947  24365032.1294   24365034.4624   24365032.1704
        42.000          36.000
 118534071.52047  92364205.42647  22556289.0464   22556290.9844   22556288.7684
        49.000          43.000
 134392646.13847  86929334.77947  23671129.4414   23671131.4294   23671129.7974
        45.000          38.000
 124541033.74347  97044951.02447  23699377.7644   23699379.8704   23699378.5164
        44.000          39.000
 124692447.13447  97162921.62347  23728203.8074   23728207.4574   23728204.1234
        43.000          38.000
 115124359.21247  89707280.04247  21907447.3594   21907448.9004   21907447.7774
        51.000          44.000
 140139237.41347  91407192.37547  24764675.9784   24764679.6754   24764676.6034
        43.000          36.000
 114306828.90747  89070260.62047  21751863.0984   21751863.3604   21751863.1594
        53.000          46.000
 107393000.10747  83682848.87747  20436214.2694   20436215.5234   20436213.8484
        55.000          50.000
 115802612.41547  90235810.82847  22036495.5784   22036497.0274   22036495.8904
        50.000          43.000
 09  1 28  1 35 30.0000000  0 10G 5G30G16G14G 6G18G 3G22G31G21
 128096162.03547  99815175.50147  24375900.6104   24375904.3034   24375901.7474
        43.000          37.000
 118555034.03447  92380539.85847  22560277.5384   22560280.0334   22560277.4584
        50.000          43.000
 134308587.07347  86863834.24047  23655133.9444   23655135.2944   23655134.5124
        45.000          38.000
 124568517.58247  97066366.98747  23704607.7824   23704609.8824   23704607.6624
        44.000          39.000
 124690000.14347  97161014.87247  23727737.1524   23727741.2214   23727737.5824
        42.000          38.000
 115114527.66147  89699619.10347  21905576.2994   21905578.2204   21905576.7984
        51.000          44.000
 140134864.36347  91403784.83947  24763843.8824   24763848.5824   24763844.6954
        41.000          36.000
 114255676.02847  89030401.23347  21742129.1504   21742129.1934   21742129.1164
        53.000          46.000
 107406641.42347  83693478.48147  20438809.9534   20438811.3574   20438809.5394
        55.000          50.000
 115899139.21747  90311026.48747  22054864.0434   22054865.8124   22054864.4984
        50.000          43.000
 09  1 28  1 36  0.0000000  0 10G 5G30G16G14G 6G18G 3G22G31G21
 128153653.56147  99859974.10647  24386841.6764   24386845.4984   24386842.1944
        43.000          37.000
 118576414.28747  92397199.80747  22564346.2744   22564348.6684   22564346.1394
        50.000          43.000
 134224414.38647  86798245.17547  23639116.5574   23639118.5024   23639117.2654
        46.000          38.000
 124595794.45247  97087621.69547  23709798.0364   23709800.7234   23709798.5814
        45.000          39.000
 124687511.16747  97159075.47147  23727264.5114   23727267.1874   23727264.6224
        44.000          38.000
 115105063.16147  89692244.17147  21903775.2944   21903776.9824   21903775.7444
        52.000          44.000
 140130417.49347  91400319.72547  24762997.7104   24763001.5804   24762997.4204
        42.000          36.000
 114204684.81047  88990667.80647  21732425.4014   21732425.9384   21732425.4414
        53.000          46.000
 107420829.01847  83704533.75747  20441509.9124   20441511.0784   20441509.5534
        55.000          50.000
 115995893.01447  90386419.02547  22073275.6754   22073277.5504   22073275.8754
        50.000          43.000
 09  1 28  1 36 30.0000000  0 10G 5G30G16G14G 6G18G 3G22G31G21
 128211513.66947  99905059.90647  24397851.4714   24397856.0004   24397851.4874
        43.000          36.000
 118598211.50347  92414184.65947  22568493.9174   22568496.3654   22568493.6344
        49.000          43.000
 134140127.89347  86732567.42947  23623077.3614   23623078.8484   23623077.9304
        46.000          39.000
 124622861.20847  97108712.69347  23714949.0924   23714951.0444   23714949.5214
        44.000          39.000
 124684976.47547  97157100.38647  23726781.7254   23726785.0084   23726781.6694
        44.000          38.000
 115095965.73947  89685155.26347  21902044.3864   21902045.9424   21902044.7204
        52.000          44.000
 140125893.44847  91396794.48447  24762137.4744   24762140.4474   24762136.9454
        42.000          36.000
 114153855.97647  88951060.91447  21722753.1544   21722753.5094   21722753.2034
        53.000          46.000
 107435559.50947  83716012.07147  20444312.9024   20444314.2494   20444312.3744
        55.000          50.000
 116092868.64947  90461984.42147  22091729.6554   22091731.4864   22091730.1014
        50.000          43.000
 09  1 28  1 37  0.0000000  0 10G 5G30G16G14G 6G18G 3G22G31G21
 128269744.72647  99950434.77247  24408932.9504   24408936.7754   24408933.4934
        44.000          37.000
 118620429.29847  92431497.23347  22572721.5594   22572724.2644   22572721.1354
        50.000          43.000
 134055732.31947  86666804.67447  23607017.1084   23607018.7934   23607017.2464
        46.000          39.000
 124649719.88247  97129641.54247  23720060.4994   23720062.1654   23720060.6024
        44.000          38.000
 124682397.91647  97155091.12747  23726291.0644   23726295.0334   23726290.6754
        43.000          38.000
 115087240.60547  89678356.45447  21900383.9664   21900385.7844   21900384.4654
        52.000          44.000
 140121293.49447  91393210.13947  24761262.1354   24761264.5994   24761261.8154
        42.000          36.000
 114103195.52647  88911585.23847  21713112.6854   21713113.0744   21713112.6984
        52.000          46.000
 107450834.79847  83727914.89947  20447219.7984   20447221.0784   20447219.4584
        55.000          50.000
 116190065.85147  90537722.47147  22110225.6914   22110227.4014   22110226.2214
        50.000          43.000
 09  1 28  1 37 30.0000000  0 10G 5G30G16G14G 6G18G 3G22G31G21
 128328338.77647  99996092.48747  24420083.7384   24420086.3874   24420084.3984
        43.000          37.000
 118643061.36147  92449132.61947  22577028.6784   22577031.1254   22577028.3934
        50.000          43.000
 133971222.83947  86600953.15847  23590936.0414   23590937.4624   23590935.5254
        46.000          39.000
 124676362.61347  97150402.10947  23725130.3124   23725131.6994   23725130.7934
        44.000          38.000
 124679766.53047  97153040.71047  23725789.9624   23725793.5574   23725790.0874
        44.000          38.000
 115078882.56947  89671843.70247  21898793.2624   21898795.0864   21898793.7054
        51.000          44.000
 140116608.66747  91389559.58647  24760370.7814   24760373.8754   24760370.0294
        41.000          36.000
 114052699.09847  88872237.36147  21703503.6924   21703503.9024   21703503.7834
        52.000          46.000
 107466646.30047  83740235.55747  20450228.7304   20450230.0494   20450228.3264
        55.000          50.000
 116287474.53847  90613625.31747  22128762.0614   22128763.7774   22128762.4834
        50.000          43.000
 09  1 28  1 38  0.0000000  0 10G 5G30G16G14G 6G18G 3G22G31G21
 128387303.81247 100042039.25747  24431304.1984   24431307.6474   24431304.2134
        43.000          37.000
 118666117.05947  92467098.10247  22581415.8974   22581418.2824   22581415.3024
        50.000          43.000
 133886610.29447  86535021.34247  23574834.0684   23574836.1724   23574834.5284
        45.000          39.000
 124702797.00347  97171000.32947  23730160.1724   23730162.3594   23730160.4964
        44.000          39.000
 124677089.51947  97150954.72247  23725280.7134   23725283.9844   23725281.2654
        44.000          38.000
 115070902.08747  89665625.14847  21897274.4334   21897276.5334   21897274.8504
        51.000          44.000
 140111846.45447  91385848.76847  24759464.4644   24759467.4784   24759464.8684
        42.000          36.000
 114002377.61847  88833025.81347  21693928.0774   21693928.2254   21693928.1944
        52.000          46.000
 107483001.34247  83752979.75047  20453340.8934   20453342.2374   20453340.5294
        55.000          50.000
 116385100.13147  90689697.18047  22147339.5514   22147341.3364   22147339.8094
        49.000          43.000
 09  1 28  1 38 30.0000000  0 10G 5G30G16G14G 6G18G 3G22G31G21
 128446634.51847 100088270.99747  24442594.1314   24442597.6594   24442594.8734
        44.000          37.000
 118689592.62447  92485390.74347  22585883.3514   22585885.2344   22585883.0354
        50.000          43.000
 133801891.93547  86469007.06947  23558712.9984   23558714.9544   23558712.8424
        46.000          39.000
 124729016.98347  97191431.50047  23735150.0284   23735151.7854   23735150.3834
        44.000          39.000
 124674360.75747  97148828.42847  23724761.3474   23724765.0514   23724760.8664
        44.000          38.000
 115063296.59547  89659698.77547  21895827.1804   21895829.1074   21895827.5794
        51.000          44.000
 140107000.32747  91382072.53847  24758541.8704   24758545.1984   24758541.8784
        42.000          36.000
 113952228.83947  88793948.83947  21684384.7914   21684385.1374   21684384.9034
        52.000          46.000
 107499893.61647  83766142.56547  20456555.4144   20456556.6874   20456555.0974
        55.000          50.000
 116482934.87947  90765932.01047  22165956.9244   22165958.4274   22165957.1914
        50.000          43.000
 09  1 28  1 39  0.0000000  0 10G 5G30G16G14G 6G18G 3G22G31G21
 128506331.34647 100134788.03247  24453954.4744   24453956.8914   24453955.4084
        42.000          37.000
 118713490.04947  92504012.13147  22590430.8414   22590432.9184   22590430.5094
        50.000          43.000
 133717071.30947  86402913.10047  23542571.5904   23542574.4764   23542572.0744
        45.000          39.000
 124755023.54347  97211696.36647  23740099.0894   23740100.7884   23740099.5944
        44.000          39.000
 124671579.92547  97146661.56047  23724231.8304   23724235.9064   23724232.0744
        43.000          38.000
 115056069.06947  89654066.93947  21894451.9954   21894453.8504   21894452.4774
        51.000          44.000
 140102070.00447  91378230.73847  24757603.3364   24757607.9544   24757602.9554
        42.000          36.000
 113902257.18247  88755009.88447  21674875.4004   21674875.8854   21674875.4264
        53.000          46.000
 107517323.11247  83779723.99747  20459872.0504   20459873.4644   20459871.6184
        55.000          50.000
 116580977.25247  90842328.62647  22184613.8474   22184615.4074   22184614.2654
        50.000          43.000
 09  1 28  1 39 30.0000000  0 10G 5G30G16G14G 6G18G 3G22G31G21
 128566392.45647 100181588.90747  24465382.9844   24465386.4564   24465384.1584
        42.000          36.000
 118737808.85147  92522961.86647  22595058.0994   22595060.7724   22595057.6104
        49.000          43.000
 133632148.60747  86336739.54947  23526411.9114   23526413.5554   23526412.1794
        46.000          39.000
 124780814.28447  97231793.07447  23745006.5494   23745008.5254   23745006.8964
        44.000          39.000
 124668744.36047  97144452.04447  23723692.8324   23723696.3484   23723693.2704
        44.000          38.000
 115049220.68847  89648730.54147  21893148.9224   21893150.7794   21893149.2564
        51.000          44.000
 140097053.05847  91374321.42147  24756649.4024   24756653.4064   24756650.2674
        41.000          36.000
 113852463.86947  88716209.89947  21665400.2894   21665400.2414   21665400.2004
        53.000          46.000
 107535287.12147  83793721.93947  20463290.6614   20463291.8154   20463290.3134
        55.000          50.000
 116679222.72447  90918883.49847  22203309.0654   22203310.8834   22203309.3834
        50.000          43.000
 09  1 28  1 40  0.0000000  0 10G 5G30G16G14G 6G18G 3G22G31G21
 128626817.50147 100228673.34547  24476882.0434   24476885.5264   24476882.1174
        43.000          36.000
 118762550.06447  92542240.75647  22599766.4064   22599768.2104   22599765.9154
        49.000          43.000
 133547126.61447  86270488.67147  23510232.4004   23510234.2054   23510233.2494
        46.000          39.000
 124806389.45047  97251721.77547  23749873.3584   23749875.0644   23749873.5984
        43.000          39.000
 124665853.03347  97142199.06247  23723143.1114   23723146.2474   23723143.1884
        44.000          39.000
 115042753.55347  89643691.20547  21891918.0284   21891920.1004   21891918.4634
        51.000          44.000
 140091948.07747  91370343.45547  24755676.9644   24755681.2934   24755676.5094
        39.000          35.000
 113802852.06147  88677551.33947  21655959.4874   21655959.3944   21655959.5804
        53.000          46.000
 107553784.50847  83808135.49647  20466810.5804   20466811.8064   20466810.1634
        55.000          50.000
 116777668.70247  90995594.61547  22222042.8054   22222044.5474   22222043.3544
        50.000          42.000
 09  1 28  1 40 30.0000000  0 10G 5G30G16G14G 6G18G 3G22G31G21
 128687607.34747 100276042.06147  24488448.8744   24488453.4884   24488450.0984
        41.000          36.000
 118787716.01147  92561850.60347  22604555.1804   22604557.7124   22604554.8044
        49.000          43.000
 133462009.12347  86204163.38747  23494034.8974   23494036.8574   23494035.0604
        46.000          39.000
 124831749.16747  97271482.59347  23754699.2624   23754701.2844   23754699.5064
        44.000          39.000
 124662906.13547  97139902.77847  23722582.3704   23722585.6924   23722582.5584
        44.000          39.000
 115036671.25847  89638951.74347  21890760.6754   21890762.7214   21890760.9004
        51.000          44.000
 140086755.93947  91366297.70047  24754689.6204   24754692.9484   24754689.6174
        42.000          36.000
 113753426.16547  88639037.65047  21646553.8244   21646553.9334   21646553.9394
        52.000          46.000
 107572815.55247  83822964.88547  20470431.9244   20470433.2544   20470431.5204
        55.000          50.000
 116876313.80147  91072460.89147  22240814.1594   22240815.8314   22240814.4934
        49.000          42.000
 09  1 28  1 41  0.0000000  0 10G 5G30G16G14G 6G18G 3G22G31G21
 128748758.10647 100323692.01547  24500086.5974   24500090.7024   24500086.9044
        41.000          36.000
 118813304.53247  92581789.72247  22609424.5824   22609427.0234   22609423.9264
        49.000          43.000
 133376795.32947  86137763.05647  23477819.3064   23477821.5574   23477819.2924
        45.000          39.000
 124856889.66247  97291072.62447  23759483.2724   23759485.4404   23759483.8664
        43.000          39.000
 124659899.16247  97137559.69847  23722009.8184   23722013.2424   23722009.5544
        44.000          39.000
 115030972.68447  89634511.28547  21889676.1204   21889678.0094   21889676.5354
        51.000          44.000
 140081471.16747  91362179.73247  24753683.6294   24753687.6264   24753684.3694
        42.000          36.000
 113704185.68047  88600668.44647  21637183.6054   21637184.0024   21637183.7384
        53.000          46.000
 107592375.46747  83838206.38547  20474154.1994   20474155.2574   20474153.8804
        55.000          50.000
 116975151.67647  91149477.38247  22259622.7294   22259624.3144   22259623.1674
        49.000          42.000
 09  1 28  1 41 30.0000000  0 10G 5G30G16G14G 6G18G 3G22G31G21
 128810272.75247 100371625.51847  24511792.5124   24511795.2544   24511792.7114
        42.000          36.000
 118839319.84447  92602061.39847  22614375.2294   22614377.5764   22614374.7604
        49.000          42.000
 133291491.23047  86071292.36547  23461587.0714   23461588.4934   23461586.7064
        45.000          39.000
 124881813.82847  97310494.06347  23764226.3724   23764228.4664   23764226.4724
        43.000          39.000
 124656834.23447  97135171.39747  23721426.4374   23721429.7354   23721426.3344
        44.000          38.000
 115025663.13247  89630373.97747  21888665.5834   21888667.8684   21888665.9764
        51.000          44.000
 140076095.86847  91357991.16347  24752661.0554   24752664.8724   24752660.7044
        42.000          36.000
 113655137.08847  88562448.76247  21627850.3644   21627850.5664   21627850.3664
        53.000          46.000
 107612466.40947  83853861.66947  20477977.2574   20477978.5234   20477976.7194
        55.000          50.000
 117074183.48647  91226644.99347  22278467.9984   22278469.4924   22278468.6534
        49.000          42.000
 09  1 28  1 42  0.0000000  0 10G 5G30G16G14G 6G18G 3G22G31G21
 128872145.85247 100419838.33347  24523565.8764   24523569.3434   24523566.2634
        41.000          36.000
 118865758.26947  92622662.77747  22619406.5064   22619408.5394   22619406.3124
        49.000          43.000
 133206093.93347  86004749.01947  23445336.0664   23445337.8004   23445336.2524
        46.000          39.000
 124906516.33447  97329742.77747  23768927.2234   23768928.9354   23768927.2744
        43.000          38.000
 124653705.36247  97132733.31647  23720830.4904   23720834.3694   23720830.7414
        44.000          38.000
 115020740.41047  89626538.07047  21887729.1914   21887731.2574   21887729.8164
        51.000          45.000
 140070624.27047  91353727.58047  24751619.3774   24751623.2394   24751619.4894
        42.000          36.000
 113606278.33147  88524377.00947  21618552.4934   21618553.0074   21618552.3794
        52.000          46.000
 107633082.36347  83869926.06047  20481900.2224   20481901.6374   20481899.8794
        55.000          50.000
 117173400.99547  91303957.29747  22297348.5824   22297349.9384   22297348.7894
        49.000          42.000
 09  1 28  1 42 30.0000000  0 10G 5G30G16G14G 6G18G 3G22G31G21
 128934379.79347 100468332.32347  24535408.6844   24535412.2954   24535408.9804
        41.000          36.000
 118892623.52947  92643596.76147  22624518.7004   22624521.1024   22624518.5014
        49.000          42.000
 133120608.71147  85938137.17547  23429068.6334   23429071.0474   23429069.3144
        46.000          39.000
 124930999.73947  97348820.77247  23773586.0244   23773587.5094   23773586.2364
        44.000          38.000
 124650514.46447  97130246.90847  23720223.5304   23720227.3764   23720223.5014
        44.000          38.000
 115016209.21547  89623007.26047  21886867.2464   21886868.8784   21886867.7204
        51.000          44.000
 140065058.28247  91349390.43247  24750560.3814   24750564.1284   24750560.7484
        42.000          36.000
 113557615.26347  88486457.74147  21609291.9514   21609292.4704   21609292.0754
        53.000          46.000
 107654225.05747  83886400.89147  20485923.4794   20485924.8824   20485923.0054
        55.000          50.000
 117272804.67747  91381414.68547  22316263.8194   22316266.0034   22316264.1134
        49.000          42.000
 09  1 28  1 43  0.0000000  0 10G 5G30G16G14G 6G18G 3G22G31G21
 128996973.77847 100517106.85847  24547319.9524   24547323.9344   24547320.6544
        42.000          36.000
 118919916.03847  92664863.65047  22629712.0054   22629714.6624   22629711.8954
        49.000          43.000
 133035038.00447  85871458.70347  23412785.2834   23412787.0424   23412785.6304
        46.000          39.000
 124955263.19147  97367727.40547  23778203.0774   23778204.5864   23778203.2954
        44.000          38.000
 124647260.03147  97127711.01247  23719604.6324   23719607.9394   23719604.5214
        44.000          38.000
 115012071.21447  89619782.86647  21886079.5974   21886081.6724   21886079.9424
        51.000          44.000
 140059396.06347  91344978.32547  24749483.1044   24749486.2774   24749482.3124
        43.000          36.000
 113509150.45547  88448692.94747  21600069.8114   21600069.8584   21600069.8624
        53.000          46.000
 107675892.86047  83903284.89147  20490046.8814   20490048.0904   20490046.5634
        55.000          50.000
 117372391.73147  91459014.95847  22335214.6784   22335217.2204   22335215.0294
        49.000          42.000
 09  1 28  1 43 30.0000000  0 10G 5G30G16G14G 6G18G 3G22G31G21
 129059925.89247 100566160.46147  24559299.9214   24559302.7524   24559300.0764
        42.000          37.000
 118947635.64347  92686463.35047  22634987.2394   22634989.7174   22634986.8904
        49.000          43.000
 132949382.96047  85804714.52147  23396485.7394   23396487.0854   23396485.9654
        46.000          39.000
 124979305.08647  97386461.38647  23782778.1744   23782780.1204   23782778.8824
        45.000          39.000
 124643939.67247  97125123.72647  23718972.4504   23718976.1054   23718972.0624
        44.000          38.000
 115008327.90247  89616866.01547  21885367.2734   21885368.9844   21885367.8194
        51.000          44.000
 140053635.35847  91340489.43847  24748387.2694   24748390.7724   24748388.0294
        43.000          36.000
 113460885.62747  88411083.98947  21590885.3594   21590885.7354   21590885.3174
        53.000          47.000
 107698082.75547  83920575.72347  20494269.5064   20494270.6744   20494269.1174
        55.000          50.000
 117472157.89947  91536754.79447  22354199.8424   22354201.7474   22354200.1834
        49.000          42.000
 09  1 28  1 44  0.0000000  0 10G 5G30G16G14G 6G18G 3G22G31G21
 129123234.54747 100615491.90947  24571347.1084   24571350.4114   24571347.9264
        43.000          37.000
 118975782.04047  92708395.62347  22640343.0134   22640345.8144   22640342.9084
        49.000          43.000
 132863644.94147  85737905.68547  23380170.2064   23380171.8204   23380170.4404
        46.000          39.000
 125003123.70747  97405021.35047  23787310.6444   23787312.7574   23787311.0124
        44.000          39.000
 124640551.13647  97122483.31747  23718327.4214   23718331.3104   23718327.6494
        43.000          38.000
 115004979.64447  89614256.97547  21884729.9504   21884732.0164   21884730.3454
        51.000          44.000
 140047773.63447  91335921.84347  24747271.5224   24747275.2624   24747271.5904
        43.000          36.000
 113412823.02047  88373632.62447  21581739.1064   21581739.8204   21581739.1794
        53.000          46.000
 107720792.48147  83938271.61847  20498591.1104   20498592.1844   20498590.7404
        55.000          50.000
 117572099.17347  91614631.07847  22373218.0194   22373220.1814   22373218.5134
        49.000          42.000
 09  1 28  1 44 30.0000000  0 10G 5G30G16G14G 6G18G 3G22G31G21
 129186900.58547 100665101.81947  24583461.6544   24583465.1954   24583462.9584
        42.000          36.000
 119004357.40047  92730662.14647  22645780.8394   22645783.4034   22645780.4134
        49.000          42.000
 132777827.81147  85671035.16147  23363839.4424   23363841.8534   23363839.9074
        47.000          39.000
 125026719.83647  97423407.95847  23791801.0294   23791802.4944   23791801.3164
        44.000          39.000
 124637094.71547  97119790.01147  23717669.4744   23717673.4244   23717669.2264
        44.000          38.000
 115002030.34847  89611958.84147  21884168.6074   21884170.6724   21884169.2664
        51.000          44.000
 140041811.56947  91331276.04347  24746137.3504   24746140.6464   24746137.1894
        43.000          36.000
 113364967.08947  88336342.30247  21572632.6304   21572632.8974   21572632.7504
        53.000          46.000
 107744022.10747  83956372.62847  20503011.5944   20503012.7074   20503011.3184
        55.000          50.000
 117672214.47947  91692642.98947  22392269.1334   22392271.6644   22392269.5394
        49.000          42.000
 09  1 28  1 45  0.0000000  0 10G 5G30G16G14G 6G18G 3G22G31G21
 129250921.53447 100714988.27647  24595643.5694   24595647.3434   24595644.6084
        41.000          36.000
 119033361.08347  92753262.44047  22651300.0494   22651302.5054   22651299.7174
        49.000          42.000
 132691932.51147  85604103.81347  23347494.2374   23347496.4624   23347494.5764
        46.000          40.000
 125050091.75147  97441619.83647  23796248.3434   23796250.1064   23796248.5354
        44.000          39.000
 124633567.47447  97117041.51347  23716998.9594   23717002.3664   23716999.2084
        45.000          38.000
 114999480.35247  89609971.81447  21883683.5634   21883685.4974   21883683.9514
        51.000          44.000
 140035746.05347  91326549.62847  24744982.6974   24744986.0984   24744983.4054
        42.000          36.000
 113317318.84347  88299213.79247  21563565.6504   21563565.4424   21563565.8194
        53.000          46.000
 107767768.55547  83974876.36047  20507530.3754   20507531.3814   20507529.9964
        55.000          50.000
 117772499.15247  91770786.87147  22411352.8954   22411355.0534   22411352.8494
        49.000          42.000
 09  1 28  1 45 30.0000000  0 10G 5G30G16G14G 6G18G 3G22G31G21
 129315297.52247 100765151.35447  24607894.6644   24607898.1974   24607895.4204
        42.000          36.000
 119062794.78247  92776197.79347  22656900.7984   22656903.3454   22656900.2774
        49.000          42.000
 132605962.01347  85537113.80347  23331134.9094   23331137.2284   23331134.6364
        46.000          40.000
 125073239.71847  97459657.23847  23800653.0854   23800654.9634   23800653.4344
        44.000          39.000
 124629969.14147  97114237.63047  23716314.7544   23716318.2064   23716315.2914
        44.000          38.000
 114997332.21947  89608297.94547  21883274.6004   21883276.8434   21883275.0294
        51.000          44.000
 140029576.56347  91321742.23947  24743808.2264   24743812.1074   24743808.2384
        42.000          36.000
 113269882.22747  88262250.19947  21554538.6224   21554538.7704   21554538.6514
        53.000          46.000
 107792030.94047  83993782.12047  20512147.2914   20512148.4054   20512146.9894
        55.000          50.000
 117872951.22847  91849061.18147  22430468.3754   22430470.3894   22430469.1964
        49.000          41.000
 09  1 28  1 46  0.0000000  0 10G 5G30G16G14G 6G18G 3G22G31G21
 129380026.43247 100815589.47747  24620212.9614   24620215.3974   24620213.0684
        43.000          37.000
 119092657.27047  92799467.27147  22662583.5164   22662586.0414   22662583.4364
        48.000          42.000
 132519917.58047  85470066.23747  23314761.4314   23314763.6544   23314761.6414
        46.000          40.000
 125096161.51247  97477518.39647  23805015.2834   23805017.0894   23805015.4254
        45.000          39.000
 124626297.21547  97111376.40847  23715615.3174   23715619.0854   23715615.4634
        43.000          38.000
 114995586.56847  89606937.68647  21882942.6734   21882944.4754   21882943.0364
        51.000          44.000
 140023300.30347  91316851.64247  24742614.2044   24742618.2864   24742615.3234
        42.000          36.000
 113222658.46347  88225452.45347  21545552.2104   21545552.3704   21545552.2084
        54.000          47.000
 107816806.33147  84013087.62147  20516861.8394   20516862.9754   20516861.4584
        55.000          50.000
 117973566.37347  91927462.54547  22449614.7054   22449616.6764   22449615.4034
        49.000          41.000
 09  1 28  1 46 30.0000000  0 10G 5G30G16G14G 6G18G 3G22G31G21
 129445107.31947 100866301.87047  24632597.0764   24632600.8504   24632597.7044
        42.000          37.000
 119122949.24347  92823071.42147  22668347.8154   22668349.8704   22668347.6084
        49.000          42.000
 132433801.39547  85402962.74647  23298373.9384   23298376.0924   23298374.3114
        47.000          40.000
 125118856.72847  97495203.00247  23809334.0154   23809335.6624   23809334.1064
        45.000          38.000
 124622550.11847  97108456.59947  23714901.8624   23714905.9814   23714901.4104
        43.000          38.000
 114994245.08947  89605892.36847  21882687.3064   21882689.3064   21882687.7564
        51.000          44.000
 140016916.04747  91311876.85947  24741399.3164   24741403.5064   24741399.6904
        42.000          36.000
 113175650.06447  88188822.53447  21536607.0054   21536607.0884   21536607.0734
        53.000          47.000
 107842092.99147  84032791.51747  20521673.5234   20521675.0164   20521673.1134
        55.000          50.000
 118074341.99847  92005988.95847  22468791.8084   22468793.7474   22468792.1454
        48.000          41.000
 09  1 28  1 47  0.0000000  0 10G 5G30G16G14G 6G18G 3G22G31G21
 129510540.47847 100917288.73947  24645048.9804   24645051.8384   24645049.4794
        43.000          37.000
 119153672.56747  92847011.67547  22674194.8714   22674196.6524   22674194.4064
        49.000          43.000
 132347616.91847  85335806.04647  23281973.6184   23281975.1774   23281973.5124
        46.000          40.000
 125141326.01647  97512711.57047  23813609.2594   23813611.3244   23813609.6954
        44.000          38.000
 124618727.95847  97105478.28947  23714174.3274   23714178.2654   23714174.6714
        44.000          38.000
 114993310.93647  89605164.45147  21882509.4414   21882511.2544   21882509.8984
        51.000          44.000
 140010423.35547  91306817.63347  24740163.7324   24740168.0724   24740163.4344
        41.000          36.000
 113128861.42547  88152363.85747  21527703.2974   21527703.4564   21527703.2674
        53.000          47.000
 107867890.54947  84052893.51647  20526582.7164   20526584.0344   20526582.3704
        55.000          50.000
 118175276.20747  92084638.94447  22487998.8404   22488000.7834   22487999.2284
        48.000          41.000
 09  1 28  1 47 30.0000000  0 10G 5G30G16G14G 6G18G 3G22G31G21
 129576324.34747 100968548.87447  24657566.8164   24657569.6554   24657568.1804
        43.000          37.000
 119184826.99247  92871287.84647  22680123.4314   22680125.5234   22680123.0194
        49.000          42.000
 132261365.86647  85268597.43747  23265560.1534   23265561.9084   23265560.4324
        47.000          40.000
 125163568.08047  97530043.05547  23817842.2034   23817843.6944   23817842.2264
        44.000          38.000
 124614828.74547  97102439.94847  23713432.5824   23713436.1814   23713432.3394
        44.000          38.000
 114992785.39347  89604754.92847  21882409.3714   21882411.0944   21882409.7264
        51.000          44.000
 140003820.61447  91301672.61247  24738907.0094   24738910.4694   24738906.9154
        43.000          36.000
 113082294.65847  88116078.05947  21518841.9324   21518842.0114   21518841.9904
        53.000          47.000
 107894196.58547  84073391.73047  20531588.6784   20531589.7264   20531588.3024
        55.000          50.000
 118276365.22247  92163409.55347  22507235.7054   22507237.5904   22507236.3474
        49.000          42.000
 09  1 28  1 48  0.0000000  0 10G 5G30G16G14G 6G18G 3G22G31G21
 129642464.93247 101020086.98947  24670153.2734   24670156.0654   24670154.5184
        43.000          37.000
 119216419.57447  92895905.45747  22686134.8364   22686137.2754   22686134.6204
        49.000          42.000
 132175057.55847  85201344.23247  23249135.9544   23249138.2174   23249136.9414
        46.000          40.000
 125185589.33647  97547202.48247  23822032.2814   23822034.3394   23822032.7774
        43.000          38.000
 124610858.07447  97099345.91047  23712677.5044   23712680.1944   23712677.7164
        45.000          38.000
 114992676.52647  89604670.10347  21882388.6964   21882390.6354   21882389.1964
        51.000          44.000
 139997113.25047  91296446.02247  24737631.1584   24737634.9774   24737632.3394
        42.000          36.000
 113035959.14247  88079972.47147  21510024.6574   21510024.7094   21510024.6824
        53.000          47.000
 107921016.12347  84094290.07047  20536692.2364   20536693.4504   20536691.8754
        55.000          50.000
 118377613.18747  92242304.03847  22526502.6764   22526504.6344   22526503.6564
        49.000          41.000
 09  1 28  1 48 30.0000000  0 10G 5G30G16G14G 6G18G 3G22G31G21
 129708945.44847 101071889.98947  24682803.7554   24682807.2164   24682803.8954
        42.000          36.000
 119248435.27147  92920852.74447  22692227.2434   22692229.4694   22692226.9694
        50.000          42.000
 132088678.45447  85134035.87147  23232698.7994   23232701.2144   23232699.3674
        47.000          40.000
 125207373.35447  97564177.05347  23826177.6884   23826179.6804   23826178.0714
        44.000          38.000
 124606798.80047  97096182.85347  23711905.1524   23711908.3914   23711905.6084
        44.000          38.000
 114992970.75147  89604899.36647  21882445.0394   21882446.7854   21882445.4054
        51.000          44.000
 139990284.05447  91291124.49147  24736331.6484   24736335.6504   24736331.7774
        42.000          36.000
 112989841.74547  88044036.82947  21501248.7404   21501248.7784   21501248.6684
        53.000          47.000
 107948331.39447  84115574.69947  20541890.1524   20541891.4664   20541889.7764
        55.000          50.000
 118479001.66747  92321308.01347  22545796.4194   22545797.9864   22545796.9784
        49.000          41.000
 09  1 28  1 49  0.0000000  0 10G 5G30G16G14G 6G18G 3G22G31G21
 129775775.15047 101123965.08747  24695520.7664   24695524.7454   24695521.4974
        42.000          37.000
 119280884.76247  92946138.07647  22698402.5844   22698404.4094   22698402.4984
        49.000          43.000
 132002240.99947  85066682.00847  23216250.2264   23216252.5444   23216250.7514
        47.000          40.000
 125228929.94947  97580974.42747  23830280.1384   23830281.9534   23830280.3354
        44.000          38.000
 124602659.98647  97092957.81647  23711117.3944   23711121.0084   23711117.2324
        43.000          39.000
 114993680.13047  89605452.13047  21882579.7874   21882581.7374   21882580.2924
        51.000          44.000
 139983341.67247  91285714.82647  24735010.1814   24735014.2324   24735009.8654
        42.000          36.000
 112943955.61047  88008281.40347  21492516.9644   21492517.0594   21492517.0824
        54.000          47.000
 107976151.14147  84137252.42847  20547184.0514   20547185.2924   20547183.7204
        55.000          50.000
 118580537.33347  92400426.67047  22565117.8934   22565119.7924   22565118.1374
        48.000          41.000
 09  1 28  1 49 30.0000000  0 10G 5G30G16G14G 6G18G 3G22G31G21
 129842950.47047 101176309.48147  24708304.1394   24708307.4554   24708304.6584
        43.000          37.000
 119313765.82847  92971759.69647  22704659.3234   22704661.2194   22704659.3984
        49.000          42.000
 131915745.45947  84999282.88847  23199790.7084   23199792.7084   23199791.2074
        47.000          40.000
 125250255.82947  97597592.03947  23834337.8344   23834340.0184   23834338.1194
        44.000          38.000
 124598437.67547  97089667.71047  23710313.8234   23710318.1724   23710313.3054
        44.000          39.000
 114994803.45347  89606327.43047  21882793.3774   21882795.4154   21882793.7244
        50.000          44.000
 139976282.67547  91280214.24047  24733667.8384   24733671.6454   24733667.4824
        43.000          36.000
 112898300.86247  87972706.27947  21483829.2154   21483829.2014   21483829.3834
        53.000          47.000
 108004470.90847  84159319.78247  20552573.2624   20552574.4784   20552572.9714
        55.000          50.000
 118682215.15047  92479656.07847  22584466.3404   22584468.6224   22584466.6824
        48.000          41.000
 09  1 28  1 50  0.0000000  0 10G 5G30G16G14G 6G18G 3G22G31G21
 129910470.71947 101228922.65847  24721153.7484   24721156.5824   24721153.9734
        42.000          37.000
 119347079.51847  92997718.43347  22710999.0724   22711000.7814   22710998.8294
        49.000          42.000
 131829194.38147  84931840.51247  23183320.7064   23183322.2214   23183320.9124
        47.000          40.000
 125271350.99547  97614029.85447  23838352.7044   23838353.7784   23838352.8014
        44.000          39.000
 124594131.17847  97086312.00147  23709494.4244   23709498.1834   23709494.8814
        44.000          39.000
 114996342.58147  89607526.74547  21883086.2674   21883088.4024   21883086.7274
        51.000          44.000
 139969105.77847  91274621.86247  24732302.6094   24732305.3804   24732302.7094
        42.000          36.000
 112852880.66447  87937313.93647  21475185.8214   21475186.1834   21475185.9254
        53.000          47.000
 108033288.77347  84181775.26847  20558057.1354   20558058.1854   20558056.6684
        55.000          50.000
 118784032.04947  92558993.86947  22603841.6934   22603843.6304   22603842.4214
        48.000          41.000
 09  1 28  1 50 30.0000000  0 10G 5G30G16G14G 6G18G 3G22G31G21
 129978334.40547 101281803.44547  24734066.5444   24734070.3384   24734067.7434
        42.000          36.000
 119380825.26247  93024013.81947  22717420.3014   22717422.8124   22717420.0964
        48.000          42.000
 131742589.20347  84864355.97347  23166839.9744   23166841.8824   23166840.5624
        47.000          40.000
 125292214.38147  97630287.06947  23842322.6674   23842324.3154   23842322.7234
        44.000          39.000
 124589738.60147  97082889.20847  23708658.3694   23708662.0264   23708659.2164
        44.000          38.000
 114998299.04647  89609051.26547  21883458.7214   21883460.6214   21883459.1644
        51.000          44.000
 139961809.15747  91268936.16447  24730913.1114   24730916.6564   24730912.8014
        41.000          36.000
 112807697.07547  87902105.93947  21466587.6214   21466587.9854   21466587.6204
        53.000          47.000
 108062602.83647  84204617.40247  20563635.4094   20563636.5294   20563635.0724
        55.000          50.000
 118885985.32147  92638437.92647  22623242.5464   22623244.5544   22623243.0564
        47.000          41.000
 09  1 28  1 51  0.0000000  0 10G 5G30G16G14G 6G18G 3G22G31G21
 130046543.17747 101334953.17847  24747046.5654   24747049.6634   24747047.3374
        42.000          36.000
 119415006.10447  93050648.25547  22723924.4644   22723926.8264   22723924.8864
        48.000          42.000
 131655935.22947  84796833.39047  23150350.5604   23150352.2304   23150350.7094
        47.000          40.000
 125312848.11447  97646365.32647  23846248.7714   23846251.2724   23846249.0844
        44.000          39.000
 124585261.26447  97079400.38947  23707806.2704   23707809.6174   23707806.2884
        44.000          38.000
 115000676.94947  89610904.18247  21883911.3044   21883913.0164   21883911.7754
        51.000          44.000
 139954394.25447  91263158.29347  24729501.5714   24729506.1944   24729501.6434
        42.000          36.000
 112762755.66747  87867086.64947  21458035.5884   21458035.8624   21458035.5714
        53.000          47.000
 108092413.78947  84227846.71647  20569308.1484   20569309.3874   20569307.8014
        55.000          50.000
 118988074.23047  92717987.66647  22642669.4164   22642671.6304   22642669.5364
        47.000          41.000
 09  1 28  1 51 30.0000000  0 10G 5G30G16G14G 6G18G 3G22G31G21
 130115092.44547 101388368.24147  24760091.7074   24760093.9854   24760091.8974
        43.000          36.000
 119449619.22247  93077619.53247  22730511.2964   22730513.5484   22730511.4634
        49.000          42.000
 131569231.48447  84729272.06547  23133851.5384   23133853.7684   23133851.4194
        47.000          41.000
 125333248.29947  97662261.57647  23850130.5074   23850132.9324   23850130.6034
        45.000          39.000
 124580694.38147  97075841.77447  23706937.7674   23706940.5494   23706938.0474
        44.000          38.000
 115003474.68647  89613084.24547  21884443.9764   21884445.7084   21884444.4024
        51.000          44.000
 139946855.92547  91257284.27347  24728066.9404   24728072.1084   24728068.0204
        42.000          36.000
 112718055.49947  87832255.33847  21449529.5044   21449529.7624   21449529.5294
        53.000          47.000
 108122715.79647  84251458.67847  20575074.4154   20575075.5284   20575074.0914
        54.000          50.000
 119090292.44147  92797638.16347  22662121.0534   22662123.0014   22662121.1994
        47.000          41.000
 09  1 28  1 52  0.0000000  0 10G 5G30G16G14G 6G18G 3G22G31G21
 130183982.17947 101442048.55147  24773200.7694   24773203.1004   24773201.3104
        42.000          36.000
 119484665.96147  93104928.67747  22737180.1534   22737183.1124   22737179.9224
        49.000          42.000
 131482481.44147  84661674.67447  23117343.6334   23117345.8514   23117344.0284
        48.000          41.000
 125353415.60447  97677976.36447  23853969.1584   23853970.5354   23853969.0324
        46.000          39.000
 124576037.97547  97072213.38347  23706051.3034   23706055.2504   23706051.2224
        44.000          38.000
 115006694.52947  89615593.21447  21885056.3754   21885058.3284   21885056.8654
        51.000          44.000
 139939194.37947  91251314.21747  24726609.9394   24726613.0284   24726610.0234
        42.000          36.000
 112673600.28547  87797614.90447  21441069.8864   21441070.0314   21441069.9174
        53.000          47.000
 108153508.22447  84275452.77347  20580933.8934   20580935.2884   20580933.4504
        55.000          50.000
 119192638.19447  92877388.04547  22681596.4784   22681598.8484   22681597.0214
        47.000          40.000
 09  1 28  1 52 30.0000000  0 10G 5G30G16G14G 6G18G 3G22G31G21
 130253210.64047 101495992.80347  24786373.8634   24786377.7384   24786374.4124
        43.000          36.000
 119520145.23547  93132574.85947  22743931.6824   22743934.4404   22743931.0814
        49.000          42.000
 131395687.10247  84594042.77747  23100827.4764   23100829.5854   23100827.5384
        48.000          41.000
 125373348.72147  97693508.68747  23857761.9964   23857763.5904   23857762.2434
        45.000          39.000
 124571290.07647  97068513.74547  23705147.5634   23705151.2954   23705147.4204
        43.000          38.000
 115010337.49247  89618431.89647  21885749.4664   21885751.5694   21885749.8604
        51.000          44.000
 139931407.20047  91245246.25247  24725127.7354   24725131.1214   24725127.5394
        42.000          36.000
 112629392.05447  87763166.91647  21432657.2884   21432657.6764   21432657.2934
        53.000          47.000
 108184788.54747  84299827.05647  20586886.5414   20586887.5924   20586886.2514
        55.000          50.000
 119295107.81747  92957234.44547  22701096.0264   22701098.1704   22701096.6784
        47.000          40.000
 09  1 28  1 53  0.0000000  0 10G 5G30G16G14G 6G18G 3G22G31G21
 130322779.08047 101550201.97347  24799613.0004   24799615.3304   24799612.8834
        43.000          36.000
 119556060.41647  93160560.73347  22750766.4824   22750768.2794   22750766.3294
        49.000          42.000
 131308852.92747  84526379.81347  23084303.0194   23084305.1494   23084303.1374
        47.000          40.000
 125393049.91247  97708860.28947  23861510.4264   23861512.6174   23861510.9364
        45.000          38.000
 124566451.81947  97064743.68647  23704227.1004   23704230.6954   23704226.9164
        43.000          38.000
 115014407.72847  89621603.50047  21886523.8864   21886526.2164   21886524.3404
        51.000          44.000
 139923496.03647  91239081.75347  24723622.7434   24723626.1484   24723622.9224
        43.000          36.000
 112585436.19747  87728915.58047  21424292.8174   21424293.1254   21424292.9184
        53.000          47.000
 108216557.11147  84324581.78147  20592931.7494   20592933.0524   20592931.2674
        55.000          50.000
 119397701.05547  93037177.18347  22720618.6684   22720621.0614   22720619.0074
        47.000          40.000
 09  1 28  1 53 30.0000000  0 10G 5G30G16G14G 6G18G 3G22G31G21
 130392681.49847 101604671.38647  24812914.9224   24812917.6274   24812915.2184
        43.000          36.000
 119592406.70247  93188882.52447  22757682.6594   22757684.9344   22757682.6294
        48.000          42.000
 131221976.67447  84458684.05647  23067770.6924   23067773.1294   23067771.3894
        47.000          41.000
 125412513.35747  97724026.60547  23865214.9434   23865216.1864   23865214.9554
        45.000          38.000
 124561516.93747  97060898.31647  23703288.0974   23703291.2324   23703287.3974
        43.000          38.000
 115018901.52647  89625105.15147  21887379.1774   21887381.3184   21887379.4944
        51.000          44.000
 139915454.11647  91232815.27847  24722092.5504   24722096.4364   24722093.4834
        43.000          36.000
 112541730.40447  87694859.12747  21415975.9034   21415976.3614   21415975.9604
        53.000          47.000
 108248806.83547  84349711.43947  20599068.8614   20599069.9314   20599068.4514
        55.000          50.000
 119500409.91547  93117209.99847  22740164.0054   22740165.9134   22740164.1254
        47.000          40.000
 09  1 28  1 54  0.0000000  0 10G 5G30G16G14G 6G18G 3G22G31G21
 130462922.19247 101659404.39347  24826280.9154   24826284.0644   24826281.1014
        42.000          36.000
 119629189.74247  93217544.64447  22764682.2064   22764684.7724   22764681.7954
        49.000          42.000
 131135066.13747  84390961.58947  23051232.3144   23051234.3814   23051232.7994
        48.000          41.000
 125431744.41847  97739011.85947  23868874.0614   23868876.2284   23868874.3644
        44.000          38.000
 124556490.00547  97056981.21347  23702331.0054   23702334.6484   23702331.2384
        44.000          38.000
 115023826.23047  89628942.58947  21888316.4614   21888318.1674   21888316.6934
        51.000          44.000
 139907285.74247  91226450.27947  24720537.5584   24720542.1514   24720537.8414
        41.000          36.000
 112498282.71147  87661003.78847  21407708.1304   21407707.9624   21407708.1724
        53.000          47.000
 108281541.27347  84375218.80047  20605297.8724   20605299.2414   20605297.4764
        55.000          50.000
 119603237.03147  93197334.96347  22759731.0104   22759733.5654   22759731.6514
        47.000          40.000
