     2.11           OBSERVATION DATA    G (GPS)             RINEX VERSION / TYPE
teqc  2008Oct2      gpsops              20090122 00:09:56UTCPGM / RUN BY / DATE
    30.0000                                                 INTERVAL
     1     1                                                WAVELENGTH FACT L1/2
     7    L1    L2    P1    P2    C1    S1    S2            # / TYPES OF OBSERV
Linux 2.4.20-8|Pentium IV|gcc -static|Linux|486/DX+         COMMENT
     2.10           OBSERVATION DATA    GPS                 COMMENT
soc2rnx ver 1.20    gpsops              22-Jan-2009 00:09:47COMMENT
S1, if present, is the SNR for the C/A data stream on L1.   COMMENT
 SNR is mapped to RINEX snr flag value [1,4-9]              COMMENT
    SNR:   >316  >100  >31.6  >10  >3.2    >0 bad=0         COMMENT
L1 & L2:      9     8     7     6     5     4     1         COMMENT
                                                            COMMENT
This data is provided as a public service by NASA/JPL.      COMMENT
No warranty is expressed or implied regarding suitability   COMMENT
for use.  For further information, contact:                 COMMENT
Dave Stowers, NASA/JPL m/s 238-600                          COMMENT
4800 Oak Grove Drive, Pasadena CA 91109 USA                 COMMENT
                                                            COMMENT
Forced Modulo Decimation to 30 seconds                      COMMENT
  2009     1    21     0     0    0.0000000     GPS         TIME OF FIRST OBS
GGN                 JPL                                     OBSERVER / AGENCY
CR519992104         ASH701945B_M    SCIT                    ANT # / TYPE
   -33801.4662 -6377516.5323   -82154.3508                  APPROX POSITION XYZ
        0.0083        0.0000        0.0000                  ANTENNA: DELTA H/E/N
ZR220013847         ASHTECH UZ-12       CQ00                REC # / TYPE / VERS
GLPS                                                        MARKER NAME
42005M002                                                   MARKER NUMBER
                                                            END OF HEADER
 09  1 21  0  0  0.0000000  0 12G 9G14G 5G 6G22G29G24G18G31G12G30G21
 119469628.53147  93093186.96847  22734337.1974   22734343.0664   22734337.8314
        47.000          41.000
 115702902.32747  90158086.71847  22017546.9354   22017549.4524   22017545.7154
        50.000          44.000
 124153698.02047  96743121.23947  23625679.2174   23625684.9144   23625679.6244
        45.000          39.000
 128185093.95247  99884447.01647  24392844.0564   24392850.3994   24392844.9004
        43.000          37.000
 126246146.84147  98373616.11647  24023848.0264   24023848.6674   24023846.8984
        46.000          40.000
 120206659.80547  93667512.59247  22874577.5184   22874582.4364   22874576.5044
        49.000          43.000
 114852777.71047  89495657.39747  21855765.0174   21855772.1904   21855765.5554
        51.000          45.000
 122813453.68547  95698777.93447  23370638.4084   23370640.8374   23370638.7554
        47.000          40.000
 120102023.57447  93585976.51947  22854667.1174   22854670.6614   22854666.7564
        49.000          43.000
 128178238.33647  99879116.80847  24391532.1164   24391538.4364   24391531.2864
        44.000          39.000
 121841698.82347  94941558.95947  23185723.2984   23185728.7264   23185722.9434
        47.000          41.000
 105523345.75047  82225961.62847  20080441.0044   20080443.9204   20080441.4874
        54.000          49.000
 09  1 21  0  0 30.0000000  0 12G 9G14G 5G 6G22G29G24G18G31G12G30G21
 119550994.46247  93156588.99047  22749820.8564   22749825.7034   22749820.6394
        46.000          41.000
 115724248.89147  90174720.40147  22021608.1114   22021611.9264   22021608.3944
        50.000          44.000
 124140894.79547  96733144.69047  23623242.6814   23623249.0844   23623243.0864
        45.000          39.000
 128143869.75147  99852324.25047  24384999.1474   24385006.1664   24384999.1324
        42.000          37.000
 126217039.78447  98350935.34547  24018308.4324   24018310.3344   24018308.2894
        45.000          39.000
 120281849.73047  93726102.12747  22888884.6544   22888889.4614   22888884.6184
        48.000          43.000
 114902659.10747  89534525.98847  21865257.3284   21865263.5364   21865257.2924
        51.000          45.000
 122784174.26247  95675962.80847  23365066.7474   23365069.0424   23365067.2384
        47.000          40.000
 120003392.73347  93509121.38047  22835897.8304   22835901.5784   22835897.7634
        49.000          43.000
 128180090.60847  99880560.15847  24391884.1594   24391890.5294   24391883.7474
        44.000          38.000
 121815692.70047  94921294.47047  23180775.0184   23180780.1404   23180774.2224
        48.000          41.000
 105494992.87547  82203868.47747  20075045.4984   20075048.2384   20075045.9324
        54.000          49.000
 09  1 21  0  1  0.0000000  0 12G 9G14G 5G 6G22G29G24G18G31G12G30G21
 119632760.67147  93220302.92647  22765380.5014   22765385.2044   22765380.4344
        46.000          41.000
 115745913.23047  90191601.69847  22025730.8094   22025734.3254   22025730.9314
        50.000          44.000
 124128166.08647  96723226.23447  23620820.3744   23620826.6364   23620820.6364
        45.000          39.000
 128102949.11847  99820438.04347  24377212.7084   24377219.6664   24377212.8464
        42.000          38.000
 126187706.88747  98328078.60247  24012726.1854   24012728.1294   24012726.1284
        46.000          39.000
 120357004.00147  93784663.88347  22903186.0324   22903190.9054   22903185.6204
        48.000          43.000
 114952988.95147  89573744.03147  21874835.0814   21874840.7644   21874835.2604
        51.000          45.000
 122754731.61947  95653020.49847  23359463.7334   23359465.9414   23359464.2024
        48.000          40.000
 119904936.58047  93432402.35247  22817162.2674   22817165.7834   22817162.3014
        48.000          43.000
 128182011.19047  99882056.74047  24392249.2594   24392255.2544   24392249.3734
        43.000          38.000
 121789614.20847  94900973.57947  23175812.4984   23175817.6844   23175812.5664
        48.000          41.000
 105467201.44747  82182212.81047  20069756.9554   20069759.7174   20069757.2574
        54.000          49.000
 09  1 21  0  1 30.0000000  0 12G 9G14G 5G 6G22G29G24G18G31G12G30G21
 119714921.77147  93284324.58047  22781015.3294   22781019.7924   22781015.3084
        47.000          41.000
 115767889.94347  90208726.40047  22029912.7234   22029916.3844   22029912.7684
        50.000          44.000
 124115511.10847  96713365.24847  23618411.9864   23618418.1894   23618412.3474
        45.000          39.000
 128062329.21547  99788786.14747  24369482.7454   24369489.6084   24369482.9144
        41.000          37.000
 126158145.12547  98305043.51647  24007100.5994   24007102.4524   24007100.5934
        45.000          39.000
 120432117.43747  93843193.82447  22917479.5504   22917484.3894   22917479.3484
        48.000          43.000
 115003763.37447  89613308.49347  21884497.1754   21884502.8164   21884497.2044
        51.000          45.000
 122725123.84047  95629949.51647  23353829.6894   23353832.3814   23353830.0644
        48.000          40.000
 119806655.02047  93355819.36647  22798460.0404   22798463.4524   22798459.1174
        48.000          43.000
 128183999.20847  99883605.87147  24392627.8564   24392634.3354   24392627.3504
        44.000          38.000
 121763462.37847  94880595.54647  23170835.7954   23170840.7124   23170835.4234
        48.000          41.000
 105439970.48547  82160993.87347  20064575.1144   20064577.7884   20064575.5564
        54.000          49.000
 09  1 21  0  2  0.0000000  0 12G 9G14G 5G 6G22G29G24G18G31G12G30G21
 119797477.64447  93348653.84547  22796725.4784   22796729.8384   22796725.2364
        48.000          41.000
 115790179.49847  90226094.88047  22034154.3574   22034157.8534   22034154.6504
        50.000          44.000
 124102934.23347  96703565.11247  23616018.9374   23616024.8494   23616019.4994
        46.000          39.000
 128022011.94447  99757370.11047  24361810.7674   24361817.4294   24361810.9474
        42.000          37.000
 126128356.97547  98281832.01947  24001431.9724   24001433.9584   24001432.2084
        46.000          39.000
 120507190.08347  93901691.97447  22931765.5374   22931770.4434   22931765.0134
        48.000          42.000
 115054983.55747  89653220.29647  21894244.0934   21894249.4554   21894244.3644
        51.000          45.000
 122695354.68047  95606752.77447  23348164.2894   23348167.7754   23348164.9094
        47.000          40.000
 119708553.25747  93279376.48847  22779791.7914   22779795.2554   22779791.1624
        49.000          43.000
 128186058.75647  99885210.75147  24393019.7464   24393025.9274   24393019.0524
        42.000          38.000
 121737241.32447  94860163.56247  23165846.0834   23165851.6654   23165845.7194
        48.000          42.000
 105413304.12047  82140214.88147  20059500.6344   20059503.3734   20059501.0974
        54.000          49.000
 09  1 21  0  2 30.0000000  0 12G 9G14G 5G 6G22G29G24G18G31G12G30G21
 119880423.02847  93413286.62847  22812509.3694   22812513.6444   22812509.3854
        48.000          41.000
 115812776.08947  90243702.61447  22038454.1894   22038457.8864   22038454.4814
        50.000          44.000
 124090434.60047  96693825.16247  23613640.4784   23613646.1484   23613641.1244
        46.000          39.000
 127981993.81447  99726187.13647  24354195.4934   24354202.2464   24354195.9514
        41.000          37.000
 126098339.54647  98258441.85347  23995719.7884   23995722.1764   23995720.1334
        45.000          39.000
 120582216.60647  93960154.20247  22946042.6624   22946047.1974   22946042.3724
        48.000          42.000
 115106645.02847  89693475.96647  21904074.7234   21904080.2254   21904074.8804
        51.000          45.000
 122665422.21947  95583428.78447  23342468.7624   23342471.9114   23342469.2984
        48.000          40.000
 119610631.23947  93203073.68547  22761157.5324   22761161.1664   22761157.4414
        49.000          43.000
 128188188.65947  99886870.44047  24393424.8864   24393430.9064   24393424.1924
        43.000          38.000
 121710949.58147  94839676.50747  23160843.0954   23160848.1824   23160842.7174
        48.000          42.000
 105387200.85747  82119874.66847  20054533.4144   20054536.1604   20054533.8374
        54.000          49.000
 09  1 21  0  3  0.0000000  0 12G 9G14G 5G 6G22G29G24G18G31G12G30G21
 119963761.06247  93478225.36547  22828368.1954   22828372.3624   22828368.0334
        47.000          41.000
 115835682.85847  90261552.04847  22042813.0314   22042816.8504   22042813.3054
        50.000          44.000
 124078019.68047  96684151.22647  23611277.9044   23611283.9434   23611278.6274
        46.000          39.000
 127942279.72247  99695241.10047  24346638.0294   24346644.8744   24346638.1034
        42.000          37.000
 126068098.44247  98234877.41547  23989965.1774   23989967.2594   23989965.0824
        45.000          39.000
 120657200.38347  94018583.11847  22960311.6804   22960316.2054   22960311.3044
        48.000          42.000
 115158752.30747  89734079.01747  21913990.4764   21913996.1734   21913990.5904
        51.000          45.000
 122635333.06247  95559982.68647  23336743.2434   23336746.3374   23336743.7804
        47.000          40.000
 119512897.42347  93126917.51447  22742559.2714   22742562.8484   22742558.6444
        48.000          43.000
 128190396.16347  99888590.60647  24393844.4824   24393850.8294   24393843.7194
        43.000          38.000
 121684594.47447  94819140.07747  23155827.6914   23155833.0164   23155827.3924
        48.000          41.000
 105361668.05947  82099978.96547  20049674.7524   20049677.3464   20049675.1484
        54.000          49.000
 09  1 21  0  3 30.0000000  0 12G 9G14G 5G 6G22G29G24G18G31G12G30G21
 120047485.23147  93543464.99447  22844300.1454   22844304.3084   22844300.3154
        48.000          41.000
 115858893.48547  90279638.24747  22047230.0534   22047233.6924   22047230.3164
        50.000          44.000
 124065687.48247  96674541.74947  23608931.2414   23608936.8724   23608931.7924
        46.000          39.000
 127902865.35947  99664528.58147  24339138.5494   24339144.6604   24339138.7414
        43.000          37.000
 126037629.48547  98211135.42247  23984167.1854   23984169.0504   23984167.3634
        44.000          39.000
 120732135.24147  94076973.92147  22974571.3944   22974575.8884   22974571.2044
        48.000          43.000
 115211300.17147  89775025.37947  21923990.0194   21923995.9454   21923990.0804
        51.000          45.000
 122605084.42147  95536412.30947  23330986.9374   23330990.2684   23330987.4674
        47.000          40.000
 119415350.41147  93050906.92047  22723996.5324   22724000.2304   22723996.3344
        49.000          43.000
 128192679.15147  99890369.57047  24394279.1734   24394285.3404   24394278.5004
        44.000          38.000
 121658174.07747  94798552.76447  23150800.1704   23150804.9624   23150799.3864
        48.000          41.000
 105336703.02047  82080525.68147  20044924.0154   20044926.7994   20044924.3394
        54.000          49.000
 09  1 21  0  4  0.0000000  0 12G 9G14G 5G 6G22G29G24G18G31G12G30G21
 120131594.43647  93609004.65247  22860305.9884   22860310.0234   22860305.9134
        47.000          41.000
 115882407.04147  90297960.50047  22051704.3964   22051708.2194   22051704.6844
        50.000          44.000
 124053441.77747  96664999.67547  23606600.7434   23606606.7154   23606601.3004
        45.000          39.000
 127863751.83847  99634050.52247  24331695.1864   24331701.5164   24331694.8074
        43.000          37.000
 126006934.58347  98187217.35447  23978325.9664   23978327.4164   23978326.0514
        46.000          38.000
 120807020.42247  94135326.01047  22988821.6294   22988826.1514   22988821.3534
        48.000          42.000
 115264289.19847  89816315.50147  21934073.4234   21934079.6794   21934073.6014
        51.000          45.000
 122574679.27247  95512719.99847  23325200.9884   23325204.0694   23325201.4234
        47.000          40.000
 119317994.91247  92975045.55047  22705470.6654   22705474.1934   22705469.9624
        49.000          43.000
 128195041.33947  99892210.26147  24394729.2474   24394735.0744   24394728.9444
        44.000          39.000
 121631691.73247  94777917.21447  23145760.3984   23145765.6154   23145760.4764
        48.000          42.000
 105312308.93047  82061517.28847  20040281.9584   20040284.6854   20040282.3864
        54.000          49.000
 09  1 21  0  4 30.0000000  0 12G 9G14G 5G 6G22G29G24G18G31G12G30G21
 120216085.10047  93674841.54747  22876383.8544   22876388.3314   22876383.9404
        47.000          41.000
 115906219.75847  90316515.87547  22056236.0094   22056239.9234   22056236.0634
        50.000          44.000
 124041283.36447  96655525.59847  23604287.1874   23604293.2784   23604287.4284
        45.000          39.000
 127824937.39847  99603805.49447  24324309.4044   24324315.2904   24324308.8894
        42.000          37.000
 125976012.68347  98163122.41547  23972441.4974   23972443.2024   23972441.8524
        44.000          38.000
 120881852.54247  94193636.75947  23003061.6864   23003065.9294   23003061.2304
        47.000          42.000
 115317716.85847  89857947.42447  21944240.3724   21944246.5824   21944240.4554
        51.000          45.000
 122544117.14547  95488905.35247  23319385.0374   23319387.9264   23319385.8824
        46.000          40.000
 119220832.42247  92899334.58747  22686981.1154   22686984.7274   22686981.1814
        49.000          43.000
 128197483.10847  99894112.96247  24395193.9654   24395200.1694   24395193.5764
        44.000          39.000
 121605147.89847  94757233.71847  23140709.5814   23140714.4114   23140708.9624
        48.000          42.000
 105288485.99847  82042953.95147  20035748.5504   20035751.2664   20035748.9434
        54.000          49.000
 09  1 21  0  5  0.0000000  0 12G 9G14G 5G 6G22G29G24G18G31G12G30G21
 120300956.41447  93740975.05047  22892534.1944   22892538.3384   22892534.1604
        47.000          41.000
 115930330.95747  90335303.82247  22060824.4514   22060828.1204   22060824.5524
        51.000          45.000
 124029216.05147  96646122.51847  23601990.7884   23601996.5444   23601991.4304
        45.000          39.000
 127786423.33747  99573794.54447  24316979.7174   24316986.1604   24316979.4194
        42.000          37.000
 125944865.47647  98138851.92547  23966514.3734   23966516.3384   23966514.2064
        45.000          38.000
 120956631.24447  94251905.88647  23017291.3474   23017296.0794   23017290.9664
        48.000          42.000
 115371583.37347  89899921.30547  21954490.8414   21954497.1714   21954491.0534
        51.000          45.000
 122513401.22347  95464970.85847  23313540.0764   23313542.7054   23313540.4744
        47.000          40.000
 119123867.45647  92823777.52747  22668529.2624   22668533.0754   22668528.3784
        49.000          43.000
 128200008.10447  99896080.51347  24395674.5434   24395680.7154   24395674.2644
        44.000          39.000
 121578546.33447  94736505.26247  23135647.4704   23135652.3454   23135647.2994
        48.000          42.000
 105265237.66947  82024838.35547  20031324.6714   20031327.3664   20031325.0364
        54.000          49.000
 09  1 21  0  5 30.0000000  0 12G 9G14G 5G 6G22G29G24G18G31G12G30G21
 120386204.62747  93807402.23947  22908756.5584   22908760.4934   22908756.5464
        47.000          40.000
 115954737.12547  90354321.61447  22065468.7184   22065472.3294   22065468.9224
        50.000          44.000
 124017240.70047  96636791.11147  23599711.5594   23599717.9144   23599712.0304
        45.000          39.000
 127748207.81947  99544016.22947  24309707.6464   24309714.1514   24309707.2834
        42.000          37.000
 125913491.92247  98114405.05447  23960544.2784   23960545.5004   23960544.0804
        45.000          38.000
 121031352.90547  94310130.56447  23031510.6294   23031515.2434   23031510.0754
        47.000          42.000
 115425886.43247  89942235.35547  21964824.4464   21964830.3874   21964824.4924
        51.000          44.000
 122482531.76547  95440916.73547  23307665.9774   23307668.5654   23307666.3684
        47.000          40.000
 119027101.90447  92748375.87147  22650115.4964   22650118.7644   22650115.1174
        49.000          43.000
 128202617.12847  99898113.54147  24396171.0844   24396176.5714   24396170.9444
        44.000          39.000
 121551887.46447  94715732.14447  23130574.3334   23130579.3634   23130574.0364
        48.000          42.000
 105242564.16747  82007170.67647  20027009.9774   20027012.7064   20027010.3634
        54.000          49.000
 09  1 21  0  6  0.0000000  0 12G 9G14G 5G 6G22G29G24G18G31G12G30G21
 120471827.17147  93874121.12147  22925049.8164   22925053.8754   22925050.0354
        47.000          40.000
 115979435.30747  90373566.94547  22070168.6344   22070172.3874   22070168.9134
        51.000          44.000
 124005359.10847  96627532.77147  23597450.4344   23597457.0204   23597451.0084
        45.000          39.000
 127710290.23247  99514470.07647  24302491.9744   24302498.7264   24302491.9104
        42.000          37.000
 125881891.93147  98089781.72547  23954531.0634   23954532.4764   23954530.7104
        45.000          38.000
 121106015.38247  94368309.11647  23045718.2014   23045722.8854   23045718.0634
        47.000          42.000
 115480624.58347  89984888.44147  21975240.8584   21975246.6514   21975241.1024
        51.000          44.000
 122451509.68647  95416743.67447  23301762.5064   23301765.6274   23301763.0564
        47.000          40.000
 118930538.37047  92673131.62347  22631739.9284   22631743.0984   22631739.9224
        50.000          43.000
 128205311.37147  99900212.96947  24396683.5294   24396689.0064   24396683.2524
        44.000          38.000
 121525173.04247  94694915.72547  23125490.9824   23125495.6084   23125490.5564
        48.000          41.000
 105220466.78747  81989951.91847  20022805.1374   20022807.7604   20022805.5474
        54.000          50.000
 09  1 21  0  6 30.0000000  0 12G 9G14G 5G 6G22G29G24G18G31G12G30G21
 120557825.07347  93941132.48547  22941414.5634   22941418.8934   22941414.9424
        46.000          40.000
 116004426.61947  90393040.68347  22074924.4094   22074928.0664   22074924.6744
        50.000          44.000
 123993576.95547  96618351.89247  23595208.4834   23595214.9264   23595208.9904
        45.000          39.000
 127672673.45047  99485158.30947  24295334.0684   24295340.0924   24295334.0174
        42.000          37.000
 125850069.17247  98064984.81447  23948475.2524   23948476.9484   23948475.3354
        45.000          39.000
 121180620.03347  94426442.61247  23059915.0944   23059919.5904   23059915.0374
        47.000          42.000
 115535800.14647  90027882.35647  21985740.2294   21985746.1154   21985740.3044
        51.000          44.000
 122420339.76547  95392455.43547  23295830.9844   23295834.3444   23295831.2544
        47.000          40.000
 118834183.33147  92598049.83047  22613404.2104   22613407.3614   22613404.0084
        49.000          43.000
 128208096.71547  99902383.38447  24397213.5944   24397219.4924   24397213.2644
        43.000          38.000
 121498408.44847  94674060.21747  23120397.5964   23120402.5514   23120396.8614
        48.000          41.000
 105198950.58447  81973186.03247  20018710.5694   20018713.4154   20018710.8814
        54.000          49.000
 09  1 21  0  7  0.0000000  0 12G 9G14G 5G 6G22G29G24G18G31G12G30G21
 120644190.68547  94008430.38547  22957849.3294   22957854.0224   22957849.4854
        46.000          41.000
 116029703.38147  90412736.86047  22079734.4164   22079738.0334   22079734.5574
        50.000          45.000
 123981891.03547  96609245.98147  23592984.8894   23592991.2014   23592985.1234
        45.000          39.000
 127635351.92647  99456076.61047  24288231.2304   24288238.0844   24288232.3434
        42.000          37.000
 125818018.71447  98040010.46647  23942376.8594   23942378.1784   23942376.9844
        46.000          39.000
 121255159.32647  94484525.18347  23074099.5014   23074104.1054   23074099.2364
        47.000          42.000
 115591406.35447  90071211.83647  21996322.1164   21996327.8834   21996322.3334
        51.000          44.000
 122389018.10447  95368048.95247  23289870.6674   23289873.5744   23289871.4274
        47.000          40.000
 118738033.92647  92523128.27247  22595107.5554   22595110.7474   22595107.0144
        49.000          43.000
 128210969.56747  99904621.98947  24397759.9694   24397766.1834   24397759.5854
        44.000          39.000
 121471590.14147  94653162.84647  23115294.0544   23115299.5554   23115293.8914
        48.000          42.000
 105178011.66347  81956869.96747  20014726.1444   20014728.7624   20014726.5214
        54.000          49.000
 09  1 21  0  7 30.0000000  0 12G 9G14G 5G 6G22G29G24G18G31G12G30G21
 120730924.66447  94076015.30547  22974354.3834   22974358.8514   22974354.7974
        47.000          40.000
 116055266.04347  90432655.81547  22084598.6684   22084602.3494   22084599.0794
        50.000          44.000
 123970306.43647  96600219.04247  23590780.1774   23590786.4504   23590780.8394
        45.000          39.000
 127598327.84747  99427226.70447  24281186.0874   24281192.7514   24281186.1354
        43.000          37.000
 125785743.65747  98014861.12947  23936234.5094   23936236.3824   23936234.5994
        44.000          39.000
 121329634.20347  94542557.56147  23088271.2904   23088276.1434   23088270.8804
        47.000          42.000
 115647444.90147  90114878.21647  22006985.8984   22006991.6454   22006986.0864
        51.000          44.000
 122357548.83747  95343527.44747  23283882.7634   23283885.2084   23283883.2064
        47.000          41.000
 118642096.81147  92448372.13447  22576851.2554   22576854.4574   22576850.8104
        50.000          43.000
 128213934.69847  99906932.52147  24398323.9644   24398329.7724   24398323.9384
        44.000          38.000
 121444722.99147  94632227.42447  23110181.3904   23110187.0144   23110181.2244
        48.000          41.000
 105157654.55547  81941007.27747  20010852.1884   20010855.0144   20010852.6554
        54.000          49.000
 09  1 21  0  8  0.0000000  0 12G 9G14G 5G 6G22G29G24G18G31G12G30G21
 120818025.64647  94143886.21147  22990929.2104   22990933.5144   22990929.4424
        46.000          40.000
 116081113.81547  90452796.93547  22089517.4144   22089520.8314   22089517.6124
        51.000          44.000
 123958826.61847  96591273.74647  23588595.6724   23588602.2074   23588596.0534
        45.000          39.000
 127561602.19747  99398609.30847  24274197.7144   24274203.8364   24274197.7254
        43.000          37.000
 125753245.45147  97989537.88847  23930050.2874   23930051.7824   23930049.8764
        46.000          39.000
 121404044.04247  94600539.27847  23102430.9014   23102435.6664   23102430.4244
        47.000          42.000
 115703915.92047  90158881.58047  22017732.0714   22017737.5374   22017732.2394
        51.000          44.000
 122325934.99447  95318893.28347  23277867.0084   23277869.6564   23277867.5144
        47.000          41.000
 118546375.94747  92373784.51747  22558635.9214   22558639.3364   22558635.6274
        49.000          44.000
 128216995.50647  99909317.57547  24398906.6664   24398912.6264   24398906.4084
        43.000          39.000
 121417810.20347  94611256.43947  23105060.2494   23105065.0434   23105059.8014
        47.000          41.000
 105137881.88247  81925599.98347  20007089.7044   20007092.3994   20007090.1184
        54.000          49.000
 09  1 21  0  8 30.0000000  0 12G 9G14G 5G 6G22G29G24G18G31G12G30G21
 120905487.94547  94212038.67947  23007572.4424   23007576.9754   23007572.4504
        46.000          41.000
 116107240.98747  90473155.77047  22094489.0264   22094492.7634   22094489.5014
        50.000          44.000
 123947450.92247  96582409.59447  23586431.1734   23586437.7004   23586431.2804
        45.000          39.000
 127525171.56147  99370221.81547  24267265.4244   24267272.1284   24267265.4884
        43.000          37.000
 125720521.68847  97964038.89947  23923823.3404   23923824.8224   23923823.3964
        45.000          39.000
 121478383.92347  94658466.47947  23116577.5524   23116581.9864   23116577.0664
        47.000          42.000
 115760815.06647  90203218.55647  22028559.8034   22028565.1684   22028559.8624
        51.000          44.000
 122294174.62147  95294144.95947  23271822.4444   23271825.6604   23271822.9174
        47.000          41.000
 118450871.11547  92299365.22647  22540461.8324   22540465.3624   22540461.4814
        49.000          44.000
 128220150.81647  99911776.29747  24399507.1844   24399512.9674   24399506.7764
        44.000          38.000
 121390851.04847  94590249.31247  23099929.8374   23099934.7334   23099929.2014
        47.000          41.000
 105118692.06847  81910646.86547  20003437.9884   20003440.7014   20003438.3314
        54.000          50.000
 09  1 21  0  9  0.0000000  0 12G 9G14G 5G 6G22G29G24G18G31G12G30G21
 120993311.21447  94280472.41847  23024284.7494   23024289.3324   23024284.7824
        48.000          40.000
 116133647.26447  90493732.09147  22099513.8844   22099517.7114   22099514.0404
        50.000          44.000
 123936183.44647  96573629.75747  23584286.6704   23584293.5424   23584286.9904
        45.000          39.000
 127489037.32347  99342065.27747  24260389.4904   24260395.2664   24260389.4064
        42.000          37.000
 125687574.54347  97938365.84847  23917553.6414   23917555.5814   23917553.5754
        46.000          39.000
 121552653.56947  94716338.93947  23130710.2504   23130715.0094   23130710.0024
        47.000          42.000
 115818142.91647  90247889.58147  22039468.7744   22039474.5404   22039468.8974
        51.000          44.000
 122262271.74447  95269285.57747  23265751.5914   23265754.7524   23265752.0934
        48.000          41.000
 118355587.76447  92225118.51647  22522329.9244   22522333.5274   22522329.4174
        49.000          44.000
 128223404.78147  99914311.91147  24400125.7724   24400132.0854   24400125.3114
        44.000          39.000
 121363849.48047  94569209.13047  23094791.5554   23094796.6884   23094791.1734
        48.000          41.000
 105100088.44747  81896150.52147  19999897.9224   19999900.6064   19999898.2344
        54.000          50.000
 09  1 21  0  9 30.0000000  0 12G 9G14G 5G 6G22G29G24G18G31G12G30G21
 121081491.60847  94349184.43747  23041064.8854   23041069.1774   23041065.2304
        47.000          40.000
 116160328.67547  90514522.80547  22104591.4554   22104595.1454   22104591.5904
        51.000          44.000
 123925024.83147  96564934.77047  23582163.2644   23582169.2424   23582163.6764
        45.000          39.000
 127453197.44847  99314138.11647  24253568.5184   24253575.8064   24253568.4654
        42.000          37.000
 125654402.89847  97912517.86647  23911240.9594   23911242.5984   23911241.0874
        45.000          39.000
 121626849.74347  94774154.16047  23144829.3934   23144833.9074   23144829.4244
        47.000          41.000
 115875896.92847  90292892.68547  22050458.7364   22050464.6984   22050458.9894
        51.000          44.000
 122230225.72247  95244314.64847  23259653.6294   23259656.6204   23259653.9964
        48.000          41.000
 118260527.03747  92151045.27747  22504240.3414   22504244.1194   22504239.9074
        50.000          44.000
 128226757.79347  99916924.70947  24400763.9124   24400769.7914   24400764.0514
        44.000          38.000
 121336806.07247  94548136.36947  23089645.3964   23089650.6024   23089645.4024
        48.000          41.000
 105082071.07947  81882110.99847  19996469.4494   19996472.0204   19996469.7864
        54.000          50.000
 09  1 21  0 10  0.0000000  0 12G 9G14G 5G 6G22G29G24G18G31G12G30G21
 121170028.09547  94418173.94247  23057912.9484   23057917.0734   23057913.1084
        48.000          40.000
 116187283.97747  90535526.93947  22109720.9494   22109724.5734   22109721.2204
        50.000          44.000
 123913978.55547  96556327.29547  23580060.9344   23580067.6504   23580061.1594
        45.000          39.000
 127417652.65847  99286440.86947  24246805.1174   24246811.5834   24246805.5604
        41.000          37.000
 125621009.02147  97886496.72647  23904886.3114   23904887.6384   23904886.5384
        46.000          39.000
 121700971.83147  94831911.64247  23158934.6394   23158938.6354   23158934.9884
        48.000          41.000
 115934076.97947  90338227.75847  22061530.0484   22061536.1244   22061530.2644
        51.000          44.000
 122198039.45747  95219234.44247  23253529.0214   23253532.1514   23253529.4304
        48.000          41.000
 118165693.00347  92077148.67247  22486194.0114   22486197.6984   22486193.6184
        49.000          44.000
 128230213.17747  99919617.24247  24401421.7564   24401426.9434   24401420.8344
        44.000          38.000
 121309724.00047  94527033.46847  23084491.8744   23084496.8744   23084491.2784
        48.000          42.000
 105064642.63147  81868530.37147  19993152.8484   19993155.5594   19993153.2814
        54.000          50.000
 09  1 21  0 10 30.0000000  0 12G 9G14G 5G 6G22G29G24G18G31G12G30G21
 121258918.31147  94487439.08247  23074828.0294   23074831.8544   23074828.2944
        46.000          40.000
 116214511.68147  90556743.33547  22114902.0264   22114905.7174   22114902.2314
        50.000          44.000
 123903047.43847  96547809.56847  23577980.8044   23577987.5424   23577981.4324
        45.000          39.000
 127382403.13647  99258973.71847  24240096.7904   24240103.0914   24240096.6144
        42.000          36.000
 125587392.77347  97860302.31147  23898489.5924   23898490.9854   23898489.9444
        45.000          39.000
 121775018.24847  94889610.16547  23173025.5554   23173029.2994   23173025.5154
        47.000          41.000
 115992682.29947  90383894.22047  22072682.4444   22072688.0534   22072682.5294
        51.000          44.000
 122165715.18847  95194046.69947  23247377.9954   23247380.8754   23247378.2704
        48.000          41.000
 118071089.65247  92003431.82347  22468191.8494   22468195.4124   22468191.1934
        50.000          44.000
 128233773.38647  99922391.48147  24402098.7914   24402105.0284   24402098.7704
        44.000          38.000
 121282605.84147  94505902.45147  23079331.4354   23079336.6334   23079331.0754
        47.000          42.000
 105047805.16547  81855410.25147  19989948.7424   19989951.5324   19989949.0624
        54.000          50.000
 09  1 21  0 11  0.0000000  0 12G 9G14G 5G 6G22G29G24G18G31G12G30G21
 121348157.58047  94556976.21947  23091809.5074   23091813.6084   23091809.8854
        46.000          40.000
 116242006.55747  90578167.92147  22120134.0774   22120137.8814   22120134.2874
        50.000          44.000
 123892230.96147  96539381.15247  23575922.5164   23575929.2354   23575922.8654
        44.000          39.000
 127347445.66347  99231734.12747  24233445.4874   24233451.1974   24233445.4854
        43.000          37.000
 125553552.10147  97833932.98147  23892049.8194   23892051.4264   23892049.6704
        45.000          39.000
 121848984.31847  94947246.08047  23187100.6544   23187104.8284   23187100.4614
        47.000          41.000
 116051708.84347  90429888.90947  22083914.7354   22083920.4964   22083914.7394
        51.000          44.000
 122133251.20147  95168750.09247  23241200.2204   23241203.1194   23241200.6764
        48.000          41.000
 117976717.34547  91929895.00747  22450233.2624   22450237.0954   22450233.1524
        50.000          44.000
 128237437.16747  99925246.42347  24402796.5854   24402801.4924   24402795.9354
        44.000          38.000
 121255451.09347  94484742.91847  23074163.9174   23074169.2314   23074163.5464
        48.000          41.000
 105031556.83447  81842749.20647  19986856.6464   19986859.5654   19986856.9834
        54.000          50.000
 09  1 21  0 11 30.0000000  0 12G 9G14G 5G 6G22G29G24G18G31G12G30G21
 121437746.05947  94626785.45247  23108857.9574   23108861.9384   23108858.0614
        47.000          40.000
 116269768.89147  90599800.91847  22125417.0144   22125421.0064   22125417.3124
        51.000          44.000
 123881534.21747  96531046.05947  23573886.9784   23573893.9404   23573887.5664
        45.000          39.000
 127312782.45947  99204723.81947  24226849.3644   24226855.3274   24226849.7894
        42.000          37.000
 125519490.63647  97807391.62847  23885567.7994   23885569.6404   23885567.8724
        45.000          39.000
 121922871.09947  95004820.20647  23201160.5884   23201165.3354   23201160.2774
        47.000          42.000
 116111158.10747  90476212.98147  22095227.5894   22095233.2954   22095227.6474
        50.000          44.000
 122100652.47647  95143348.48447  23234996.7724   23234999.8354   23234997.1994
        48.000          41.000
 117882581.70747  91856542.60647  22432319.7804   22432323.5844   22432319.2284
        50.000          44.000
 128241210.43247  99928186.67347  24403514.2094   24403519.7914   24403514.0884
        44.000          38.000
 121228264.76347  94463558.76847  23068990.2884   23068995.9524   23068989.9104
        48.000          41.000
 105015902.27947  81830550.83747  19983877.8614   19983880.6194   19983878.3254
        54.000          50.000
 09  1 21  0 12  0.0000000  0 12G 9G14G 5G 6G22G29G24G18G31G12G30G21
 121527678.38747  94696862.62547  23125971.3484   23125975.9494   23125971.1214
        46.000          40.000
 116297793.42247  90621638.21747  22130750.0624   22130753.6564   22130750.3224
        51.000          44.000
 123870956.41747  96522803.66447  23571874.6704   23571880.5664   23571874.9564
        46.000          39.000
 127278409.99747  99177940.08647  24220307.7274   24220314.3684   24220308.3264
        42.000          37.000
 125485205.78447  97780676.22947  23879043.6674   23879045.5464   23879043.3344
        45.000          39.000
 121996673.79647  95062328.81547  23215204.8184   23215209.3564   23215204.5794
        47.000          42.000
 116171025.80347  90522863.11047  22106619.9864   22106625.9924   22106620.2364
        50.000          44.000
 122067917.35847  95117840.58847  23228767.4704   23228770.6734   23228767.9344
        48.000          41.000
 117788683.04247  91783374.85547  22414451.6144   22414455.2094   22414450.9344
        50.000          44.000
 128245091.18947  99931210.69447  24404253.0654   24404258.4564   24404253.2404
        44.000          38.000
 121201045.60647  94442349.07247  23063810.6804   23063816.2714   23063810.6904
        48.000          42.000
 105000839.53547  81818813.62547  19981011.6854   19981014.3394   19981012.1484
        54.000          50.000
 09  1 21  0 12 30.0000000  0 12G 9G14G 5G 6G22G29G24G18G31G12G30G21
 121617953.24147  94767206.69947  23143150.0084   23143154.6334   23143150.2794
        46.000          40.000
 116326078.84747  90643678.81747  22136132.6834   22136136.2134   22136133.0794
        50.000          44.000
 123860500.98447  96514656.56847  23569884.9674   23569891.1834   23569885.0054
        45.000          39.000
 127244328.95447  99151383.40947  24213823.2914   24213828.3404   24213823.1864
        43.000          37.000
 125450699.14247  97753787.99147  23872476.7824   23872478.7464   23872477.2254
        45.000          39.000
 122070391.57947  95119771.25447  23229232.5014   23229237.4624   23229232.2304
        46.000          42.000
 116231311.94547  90569839.30447  22118092.0944   22118098.1434   22118092.2914
        50.000          44.000
 122035048.76547  95092228.69347  23222512.4094   23222515.8224   23222513.0914
        47.000          41.000
 117695025.33847  91710394.87247  22396629.1234   22396632.6584   22396629.2894
        50.000          44.000
 128249082.80647  99934321.09647  24405011.6444   24405018.5694   24405011.3164
        43.000          38.000
 121173797.12747  94421116.50747  23058626.0754   23058630.9474   23058625.4384
        49.000          42.000
 104986371.09447  81807539.50447  19978258.3944   19978261.0704   19978258.8504
        54.000          50.000
 09  1 21  0 13  0.0000000  0 12G 9G14G 5G 6G22G29G24G18G31G12G30G21
 121708569.98747  94837817.18647  23160394.1124   23160398.3114   23160393.7694
        46.000          40.000
 116354624.76347  90665922.39147  22141564.6914   22141568.3254   22141564.8494
        50.000          44.000
 123850172.15147  96506608.14447  23567919.4144   23567925.7734   23567919.4804
        45.000          39.000
 127210540.86347  99125055.00747  24207393.6724   24207399.0764   24207393.5314
        42.000          37.000
 125415973.32047  97726728.94247  23865868.8044   23865870.9644   23865868.6364
        45.000          39.000
 122144024.85347  95177147.84747  23243244.3894   23243249.3904   23243244.5444
        46.000          41.000
 116292016.84847  90617141.80747  22129643.9574   22129649.7954   22129643.8854
        50.000          44.000
 122002050.26147  95066515.55047  23216233.5734   23216236.2514   23216233.9704
        47.000          41.000
 117601613.66147  91637606.60347  22378853.2754   22378857.0314   22378852.7574
        50.000          45.000
 128253189.70947  99937521.32947  24405794.1334   24405799.8264   24405794.0524
        44.000          38.000
 121146523.48247  94399864.32347  23053435.7844   23053440.7854   23053435.5104
        48.000          42.000
 104972500.56947  81796731.29047  19975618.7934   19975621.5904   19975619.1714
        54.000          50.000
 09  1 21  0 13 30.0000000  0 12G 9G14G 5G 6G22G29G24G18G31G12G30G21
 121799522.36147  94908689.19347  23177701.3834   23177705.9144   23177701.4304
        46.000          40.000
 116383425.26147  90688364.33647  22147045.2864   22147048.6544   22147045.6804
        50.000          44.000
 123839968.62947  96498657.35247  23565977.3164   23565984.2794   23565977.9334
        45.000          39.000
 127177041.37647  99098951.50347  24201018.7024   24201024.2734   24201018.5064
        43.000          37.000
 125381024.99947  97699496.51947  23859218.3824   23859219.9074   23859218.0204
        46.000          39.000
 122217568.05147  95234454.23947  23257239.3974   23257244.3644   23257239.0894
        47.000          42.000
 116353135.46147  90664766.68147  22141274.3104   22141280.5104   22141274.5574
        50.000          44.000
 121968919.54247  95040699.40047  23209928.2344   23209931.9354   23209928.8444
        47.000          40.000
 117508447.24147  91565009.43647  22361124.1194   22361127.8884   22361123.4174
        50.000          45.000
 128257409.95947  99940809.85847  24406596.5584   24406603.0044   24406596.7094
        43.000          38.000
 121119223.25347  94378591.44447  23048240.6474   23048245.8614   23048240.5074
        48.000          42.000
 104959225.03747  81786386.70847  19973092.5394   19973095.2984   19973092.9714
        54.000          50.000
 09  1 21  0 14  0.0000000  0 12G 9G14G 5G 6G22G29G24G18G31G12G30G21
 121890810.96647  94979823.21347  23195073.1444   23195077.0824   23195073.3214
        46.000          40.000
 116412480.75047  90711004.97647  22152574.2254   22152578.0204   22152574.5294
        50.000          44.000
 123829895.47247  96490808.17447  23564060.4444   23564067.2034   23564061.3394
        45.000          39.000
 127143832.95147  99073074.78247  24194698.8564   24194704.6074   24194698.7544
        42.000          37.000
 125345857.85547  97672093.59647  23852526.2814   23852527.7374   23852525.9924
        45.000          39.000
 122291022.36247  95291691.36947  23271217.3474   23271222.1714   23271217.2734
        47.000          42.000
 116414669.50547  90712715.26147  22152983.9574   22152990.0044   22152984.2784
        51.000          44.000
 121935661.30347  95014783.90047  23203599.7994   23203602.8994   23203600.2884
        47.000          41.000
 117415532.73447  91492608.56347  22343443.0514   22343446.6044   22343442.3804
        50.000          44.000
 128261748.63447  99944190.67147  24407422.2204   24407428.9284   24407422.2534
        43.000          38.000
 121091901.44047  94357301.73647  23043041.5274   23043046.8604   23043041.3604
        48.000          42.000
 104946548.35447  81776508.76447  19970680.3014   19970682.8724   19970680.6824
        54.000          49.000
 09  1 21  0 14 30.0000000  0 12G 9G14G 5G 6G22G29G24G18G31G12G30G21
 121982430.94347  95051215.44347  23212508.0114   23212511.4294   23212507.9634
        45.000          39.000
 116441786.18747  90733840.38047  22158150.7994   22158154.7124   22158150.8094
        50.000          44.000
 123819952.51347  96483060.44047  23562168.6554   23562174.7794   23562169.1634
        45.000          39.000
 127110912.53747  99047422.49847  24188434.3444   24188441.0434   24188433.9484
        42.000          37.000
 125310469.76047  97644518.49147  23845792.0794   23845793.8934   23845792.3844
        45.000          39.000
 122364383.48447  95348855.91147  23285177.7384   23285182.4364   23285177.3864
        46.000          41.000
 116476615.18447  90760984.60847  22164772.3344   22164777.9004   22164772.3854
        51.000          44.000
 121902274.83447  94988768.46647  23197246.8174   23197249.6334   23197247.0544
        48.000          40.000
 117322870.31947  91420404.13147  22325809.9334   22325813.3044   22325809.6314
        50.000          44.000
 128266205.56447  99947663.64047  24408270.6674   24408276.8994   24408270.9004
        43.000          38.000
 121064557.70947  94335994.95247  23037838.3964   23037843.5494   23037837.9034
        49.000          42.000
 104934470.27547  81767097.26347  19968381.9784   19968384.5954   19968382.3424
        54.000          50.000
 09  1 21  0 15  0.0000000  0 12G 9G14G 5G 6G22G29G24G18G31G12G30G21
 122074380.54647  95122864.51847  23230005.3304   23230008.8924   23230005.4544
        45.000          39.000
 116471340.24747  90756869.51147  22163774.7184   22163778.5214   22163774.8944
        50.000          44.000
 123810142.78147  96475416.49747  23560301.8414   23560307.9314   23560302.4144
        45.000          39.000
 127078280.40747  99021994.83647  24182224.7504   24182230.8624   24182224.7064
        42.000          37.000
 125274862.19047  97616772.35447  23839016.6614   23839017.9854   23839016.2104
        46.000          39.000
 122437650.42247  95405947.04547  23299119.8444   23299124.7664   23299119.6434
        46.000          41.000
 116538971.60647  90809574.00247  22176638.0214   22176643.8054   22176638.3164
        51.000          44.000
 121868762.73547  94962655.15247  23190869.8354   23190872.5724   23190870.2524
        47.000          41.000
 117230463.86547  91348399.13247  22308225.7204   22308229.2964   22308224.7954
        50.000          45.000
 128270782.89147  99951230.41747  24409141.1124   24409147.2104   24409141.0404
        42.000          38.000
 121037195.09747  94314673.44647  23032631.4874   23032636.4554   23032631.2944
        49.000          42.000
 104922992.12547  81758153.23947  19966197.8594   19966200.5474   19966198.2834
        54.000          50.000
 09  1 21  0 15 30.0000000  0 12G 9G14G 5G 6G22G29G24G18G31G12G30G21
 122166658.06447  95194769.13047  23247565.0954   23247568.8894   23247565.3824
        45.000          39.000
 116501141.29047  90780091.10847  22169445.9124   22169449.4114   22169445.7864
        50.000          44.000
 123800469.47847  96467878.86847  23558461.0654   23558467.3424   23558461.7864
        45.000          39.000
 127045936.75647  98996792.00047  24176070.1014   24176075.6884   24176070.5124
        43.000          37.000
 125239036.55847  97588856.31247  23832199.3714   23832200.5874   23832199.3334
        46.000          39.000
 122510822.26447  95462964.09247  23313044.1624   23313048.5454   23313043.9044
        46.000          41.000
 116601738.49247  90858483.23447  22188582.3404   22188587.9794   22188582.5504
        50.000          44.000
 121835127.26747  94936445.69447  23184468.8334   23184471.8734   23184469.3594
        48.000          41.000
 117138317.10647  91276596.51947  22290690.4754   22290694.1394   22290690.6494
        50.000          45.000
 128275483.79447  99954893.47347  24410036.2724   24410042.3084   24410036.0004
        43.000          38.000
 121009816.61147  94293339.57247  23027421.3674   23027426.5534   23027421.0144
        48.000          42.000
 104912116.03747  81749678.35547  19964128.0484   19964130.8844   19964128.4364
        54.000          49.000
 09  1 21  0 16  0.0000000  0 12G 9G14G 5G 6G22G29G24G18G31G12G30G21
 122259259.32847  95266925.99147  23265186.3114   23265190.0014   23265186.6264
        45.000          39.000
 116531185.52447  90803502.19947  22175162.9484   22175166.6704   22175163.0144
        50.000          44.000
 123790933.39147  96460448.17347  23556646.4714   23556652.5424   23556647.4234
        45.000          39.000
 127013879.50247  98971812.30347  24169969.5104   24169975.3504   24169970.2314
        44.000          38.000
 125202991.91447  97560769.60747  23825340.0414   23825341.7114   23825340.0904
        46.000          39.000
 122583895.66547  95519904.42447  23326949.6554   23326953.9344   23326949.3234
        46.000          41.000
 116664912.83547  90907709.98347  22200604.1264   22200609.8244   22200604.3164
        50.000          44.000
 121801368.83247  94910140.43747  23178044.5244   23178048.0304   23178045.2194
        47.000          40.000
 117046432.01447  91204997.78547  22273205.5044   22273209.1164   22273204.7564
        50.000          45.000
 128280308.88547  99958653.32247  24410954.2824   24410960.0754   24410954.1314
        43.000          38.000
 120982423.05547  94271993.95447  23022208.8394   23022213.4904   23022208.7494
        49.000          42.000
 104901841.42147  81741672.15047  19962172.8434   19962175.6284   19962173.1794
        54.000          49.000
 09  1 21  0 16 30.0000000  0 12G 9G14G 5G 6G22G29G24G18G31G12G30G21
 122352182.05447  95339333.35647  23282869.0154   23282872.9354   23282869.0654
        45.000          39.000
 116561470.09347  90827100.56247  22180925.6004   22180929.6024   22180925.8774
        50.000          44.000
 123781536.43147  96453125.87047  23554858.6884   23554864.1014   23554859.0294
        45.000          39.000
 126982107.86347  98947055.16247  24163923.6294   24163929.8704   24163923.7464
        43.000          38.000
 125166728.54747  97532512.47447  23818439.1264   23818440.6514   23818439.3924
        45.000          39.000
 122656868.75847  95576766.59347  23340835.8684   23340840.1594   23340835.8474
        46.000          41.000
 116728492.73447  90957252.73847  22212702.9904   22212708.3824   22212703.1894
        50.000          44.000
 121767488.71147  94883740.34147  23171597.6814   23171600.7054   23171597.9734
        47.000          40.000
 116954811.06447  91133604.88047  22255770.8214   22255774.1834   22255770.0334
        51.000          45.000
 128285259.90047  99962511.28847  24411895.9374   24411902.4204   24411895.2004
        42.000          38.000
 120955016.44047  94250638.15347  23016993.5334   23016998.2324   23016993.0214
        49.000          42.000
 104892169.41847  81734135.51847  19960332.2204   19960335.1594   19960332.5174
        54.000          49.000
 09  1 21  0 17  0.0000000  0 12G 9G14G 5G 6G22G29G24G18G31G12G30G21
 122445426.51847  95411991.43147  23300612.5824   23300616.5334   23300612.8954
        45.000          39.000
 116591995.66047  90850886.72247  22186734.9364   22186738.4294   22186734.9324
        50.000          44.000
 123772284.10247  96445916.28147  23553097.7444   23553103.9324   23553098.5764
        45.000          39.000
 126950624.22947  98922522.43347  24157932.3564   24157938.9334   24157932.5234
        43.000          37.000
 125130250.31847  97504087.90747  23811497.5284   23811499.2224   23811497.6024
        46.000          39.000
 122729743.18047  95633551.88247  23354703.5204   23354707.5504   23354703.3714
        47.000          41.000
 116792480.25347  91007113.12247  22224879.0704   22224884.9674   22224879.2544
        50.000          44.000
 121733491.90947  94857249.33547  23165127.8954   23165130.9754   23165128.3344
        47.000          40.000
 116863460.64947  91062422.78047  22238387.3974   22238390.6274   22238387.1394
        51.000          45.000
 128290341.87547  99966471.30547  24412862.7834   24412869.4364   24412862.2954
        42.000          38.000
 120927601.62347  94229275.96147  23011776.4664   23011781.4664   23011776.0974
        48.000          42.000
 104883104.30447  81727071.78647  19958607.3544   19958610.0504   19958607.6964
        54.000          49.000
 09  1 21  0 17 30.0000000  0 12G 9G14G 5G 6G22G29G24G18G31G12G30G21
 122538984.91447  95484894.12447  23318416.1124   23318420.4324   23318416.5384
        46.000          40.000
 116622754.85547  90874854.92647  22192588.0704   22192591.7824   22192588.1914
        50.000          44.000
 123763173.25947  96438816.93347  23551363.7254   23551370.4964   23551364.2774
        46.000          39.000
 126919422.61747  98898209.46647  24151995.3334   24152001.4694   24151994.9804
        43.000          38.000
 125093552.71347  97475492.40447  23804514.3644   23804515.7504   23804514.3944
        46.000          39.000
 122802511.48247  95690254.45647  23368550.7514   23368554.9674   23368550.6734
        46.000          41.000
 116856868.33447  91057285.62747  22237131.8684   22237137.8784   22237131.9384
        50.000          43.000
 121699374.84147  94830664.62047  23158636.2284   23158639.0664   23158636.5934
        47.000          40.000
 116772378.32147  90991449.58247  22221054.7064   22221058.2554   22221054.5784
        50.000          45.000
 128295551.41347  99970530.69147  24413854.2244   24413860.2604   24413853.4564
        43.000          38.000
 120900175.84747  94207905.23447  23006557.6324   23006562.7874   23006557.2954
        48.000          42.000
 104874641.43147  81720477.33247  19956996.8324   19956999.6124   19956997.1754
        54.000          49.000
 09  1 21  0 18  0.0000000  0 12G 9G14G 5G 6G22G29G24G18G31G12G30G21
 122632858.06147  95558042.09347  23336280.0194   23336283.9304   23336280.1414
        46.000          40.000
 116653748.33547  90899005.68447  22198486.0874   22198489.8904   22198486.3834
        50.000          44.000
 123754209.54047  96431832.23547  23549658.3884   23549664.3694   23549658.9094
        45.000          39.000
 126888505.82147  98874118.43947  24146111.9134   24146117.6034   24146111.9974
        43.000          38.000
 125056639.68247  97446729.03147  23797489.6014   23797491.3204   23797489.5494
        45.000          39.000
 122875175.59547  95746875.87947  23382378.1724   23382382.1894   23382377.8684
        46.000          41.000
 116921659.09347  91107771.91347  22249461.2134   22249466.8294   22249461.4314
        50.000          43.000
 121665142.35647  94803989.94547  23152121.9964   23152124.6754   23152122.6594
        48.000          40.000
 116681570.66347  90920690.40047  22203774.8554   22203777.8754   22203774.1084
        51.000          45.000
 128300894.16247  99974693.89747  24414872.0094   24414877.1654   24414871.6994
        44.000          39.000
 120872744.76247  94186530.37147  23001337.5574   23001342.7454   23001337.5664
        49.000          42.000
 104866785.30547  81714355.66647  19955501.8704   19955504.7154   19955502.2204
        54.000          49.000
 09  1 21  0 18 30.0000000  0 12G 9G14G 5G 6G22G29G24G18G31G12G30G21
 122727042.61047  95631432.71047  23354202.9154   23354206.4724   23354202.9074
        45.000          40.000
 116684972.94747  90923336.55447  22204428.0894   22204431.5874   22204428.0284
        50.000          44.000
 123745394.34447  96424963.25547  23547980.5574   23547987.0914   23547980.6874
        45.000          39.000
 126857872.31547  98850248.16847  24140282.0804   24140289.0964   24140281.8744
        43.000          37.000
 125019510.80447  97417797.46647  23790423.9104   23790425.8484   23790423.8714
        45.000          39.000
 122947732.98747  95803414.13547  23396185.3274   23396189.2904   23396185.0874
        46.000          41.000
 116986849.73547  91158569.78647  22261866.1314   22261872.2244   22261866.3414
        50.000          43.000
 121630795.33747  94777226.04347  23145585.9794   23145588.9804   23145586.2254
        47.000          41.000
 116591039.72047  90850146.84447  22186547.1814   22186550.4194   22186546.7364
        50.000          45.000
 128306371.06347  99978961.64347  24415913.9964   24415919.3694   24415913.2344
        42.000          38.000
 120845309.38047  94165152.15547  22996116.8674   22996121.6654   22996116.4744
        49.000          42.000
 104859535.76247  81708706.66447  19954122.3654   19954125.0014   19954122.7224
        54.000          49.000
 09  1 21  0 19  0.0000000  0 12G 9G14G 5G 6G22G29G24G18G31G12G30G21
 122821535.57747  95705063.65247  23372184.3114   23372188.1664   23372184.0824
        46.000          40.000
 116716425.85447  90947845.31747  22210413.2214   22210416.8284   22210413.1514
        50.000          44.000
 123736729.70347  96418211.61347  23546331.5804   23546338.2084   23546331.8554
        45.000          39.000
 126827521.07847  98826597.81847  24134507.0554   24134512.5394   24134507.4394
        43.000          37.000
 124982166.76447  97388698.24847  23783318.3384   23783319.4044   23783318.3444
        46.000          40.000
 123020181.59447  95859867.60947  23409971.8124   23409976.2174   23409971.7674
        47.000          41.000
 117052438.52547  91209677.92047  22274347.4134   22274353.8044   22274347.5954
        49.000          43.000
 121596335.72247  94750374.41647  23139028.3444   23139031.1834   23139028.6264
        47.000          41.000
 116500788.48647  90779821.24447  22169372.6654   22169375.9674   22169372.2204
        51.000          45.000
 128311984.10947  99983335.50547  24416981.8184   24416987.8354   24416981.3954
        43.000          38.000
 120817872.04947  94143772.42447  22990895.8064   22990900.7374   22990895.4914
        49.000          42.000
 104852893.85747  81703531.14047  19952858.6444   19952861.1124   19952859.0834
        54.000          49.000
 09  1 21  0 19 30.0000000  0 12G 9G14G 5G 6G22G29G24G18G31G12G30G21
 122916334.46547  95778932.96547  23390223.5814   23390227.9634   23390223.7974
        45.000          39.000
 116748104.95247  90972530.33347  22216441.5584   22216445.2914   22216441.5604
        50.000          44.000
 123728217.91847  96411579.07547  23544711.8934   23544718.5834   23544712.2294
        45.000          39.000
 126797451.61947  98803167.07347  24128784.8154   24128791.0014   24128784.7544
        42.000          37.000
 124944608.02147  97359431.71647  23776170.8774   23776172.6384   23776170.9844
        45.000          39.000
 123092519.91847  95916235.16447  23423737.3754   23423741.2964   23423737.3224
        46.000          41.000
 117118424.17147  91261095.29347  22286903.9094   22286910.1064   22286904.0244
        49.000          43.000
 121561765.11647  94723436.29247  23132449.7274   23132452.8314   23132450.0844
        47.000          41.000
 116410820.05547  90709716.00447  22152252.3664   22152255.6014   22152251.9094
        51.000          45.000
 128317734.82247  99987816.61047  24418076.2124   24418081.6914   24418075.8184
        43.000          39.000
 120790435.25947  94122393.11947  22985674.5454   22985679.6714   22985674.0144
        49.000          42.000
 104846860.44447  81698829.77047  19951710.4074   19951712.9954   19951710.7594
        54.000          49.000
 09  1 21  0 20  0.0000000  0 12G 9G14G 5G 6G22G29G24G18G31G12G30G21
 123011435.62947  95853037.81247  23408320.7154   23408324.7514   23408321.1374
        44.000          39.000
 116780006.53947  90997388.71247  22222512.3254   22222515.7984   22222512.2384
        50.000          44.000
 123719860.15847  96405066.52147  23543122.0774   23543127.4584   23543122.2624
        45.000          39.000
 126767662.08347  98779954.44147  24123116.3404   24123122.2004   24123116.3344
        43.000          37.000
 124906834.40947  97329997.74947  23768982.6004   23768984.7544   23768982.3954
        45.000          39.000
 123164745.16547  95972514.61147  23437480.9554   23437485.2784   23437481.2314
        46.000          41.000
 117184804.10047  91312819.88747  22299535.7604   22299541.8834   22299535.9134
        49.000          43.000
 121527084.16547  94696412.19147  23125850.3134   23125853.2834   23125850.8274
        47.000          41.000
 116321136.39147  90639832.66247  22135186.1374   22135189.3964   22135185.9284
        51.000          45.000
 128323624.28347  99992405.82747  24419197.0304   24419202.9994   24419196.4904
        44.000          39.000
 120762999.84847  94101014.89047  22980453.6804   22980458.9804   22980453.5834
        49.000          42.000
 104841435.53147  81694602.55747  19950678.1084   19950680.7444   19950678.5364
        54.000          49.000
 09  1 21  0 20 30.0000000  0 12G 9G14G 5G 6G22G29G24G18G31G12G30G21
 123106837.30447  95927376.83947  23426475.3274   23426478.9074   23426475.5504
        45.000          38.000
 116812128.72047  91022418.99247  22228624.7944   22228628.5304   22228625.1804
        50.000          44.000
 123711659.29647  96398676.24447  23541561.2714   23541567.0444   23541561.7614
        45.000          39.000
 126738152.32147  98756959.80547  24117500.7904   24117506.9494   24117500.3364
        43.000          38.000
 124868847.35847  97300397.46947  23761753.9654   23761755.3014   23761753.8284
        45.000          40.000
 123236856.59347  96028705.34447  23451203.4424   23451207.9224   23451203.0554
        46.000          41.000
 117251577.29547  91364850.93547  22312242.1354   22312248.5154   22312242.1004
        49.000          43.000
 121492295.22347  94669303.94447  23119230.1654   23119233.1874   23119230.4424
        48.000          41.000
 116231741.08047  90570174.02247  22118174.8244   22118177.9854   22118174.2974
        51.000          45.000
 128329655.42047  99997105.42847  24420344.1094   24420350.9044   24420344.2194
        43.000          39.000
 120735568.71747  94079639.97847  22975233.6054   22975239.1984   22975233.1744
        48.000          42.000
 104836620.48847  81690850.56847  19949761.7564   19949764.6134   19949762.1964
        54.000          49.000
 09  1 21  0 21  0.0000000  0 12G 9G14G 5G 6G22G29G24G18G31G12G30G21
 123202536.86247  96001947.97047  23444685.8374   23444690.1734   23444685.9984
        44.000          38.000
 116844469.32147  91047619.46747  22234779.0664   22234782.7664   22234779.2004
        50.000          44.000
 123703617.83947  96392410.18147  23540030.7524   23540037.4724   23540030.9574
        45.000          39.000
 126708921.90547  98734182.86147  24111938.5614   24111944.8014   24111938.6844
        44.000          37.000
 124830647.56847  97270631.41347  23754485.0064   23754486.5234   23754485.2914
        46.000          39.000
 123308852.69847  96084806.23247  23464903.8674   23464908.2814   23464903.2904
        46.000          41.000
 117318742.04047  91417187.07447  22325023.1674   22325029.1574   22325023.3844
        50.000          43.000
 121457400.33447  94642113.13547  23112590.0154   23112593.0464   23112590.5764
        48.000          41.000
 116142637.37747  90500742.59947  22101219.0874   22101221.9474   22101218.4454
        51.000          45.000
 128335830.11047 100001916.87747  24421519.8864   24421525.6204   24421519.7124
        45.000          39.000
 120708144.71147  94058270.61847  22970015.0394   22970020.3994   22970014.5434
        49.000          42.000
 104832416.02547  81687574.35547  19948961.5974   19948964.4454   19948961.9324
        54.000          49.000
 09  1 21  0 21 30.0000000  0 12G 9G14G 5G 6G22G29G24G18G31G12G30G21
 123298529.64847  96076747.59447  23462952.7684   23462956.6054   23462952.6384
        45.000          39.000
 116877023.72747  91072986.55547  22240974.0124   22240977.5774   22240974.2274
        50.000          44.000
 123695735.66547  96386268.22747  23538530.6774   23538537.3244   23538531.2534
        45.000          39.000
 126679967.84047  98711621.22647  24106428.7724   24106435.2894   24106428.4914
        43.000          38.000
 124792233.70447  97240698.55447  23747174.8474   23747176.5774   23747175.0424
        45.000          39.000
 123380729.52747  96140814.17647  23478581.4774   23478585.9004   23478580.7644
        46.000          41.000
 117386294.70947  91469825.50147  22337878.4814   22337884.0654   22337878.5104
        49.000          43.000
 121422399.29347  94614839.60747  23105929.4754   23105932.1154   23105929.6924
        48.000          41.000
 116053826.11147  90431539.04847  22084318.8894   22084321.7044   22084318.4964
        52.000          45.000
 128342148.34247 100006840.20247  24422721.8454   24422728.1184   24422721.3444
        44.000          39.000
 120680727.74947  94036906.76047  22964797.9804   22964802.7504   22964797.6224
        49.000          42.000
 104828820.96847  81684773.00147  19948277.4264   19948280.5074   19948277.8024
        54.000          50.000
 09  1 21  0 22  0.0000000  0 12G 9G14G 5G 6G22G29G24G18G31G12G30G21
 123394816.79047  96151776.61347  23481275.0994   23481279.1274   23481275.5514
        45.000          38.000
 116909793.35747  91098521.34347  22247209.4714   22247213.5694   22247209.8064
        50.000          44.000
 123688018.90147  96380255.14547  23537062.1684   23537069.0664   23537062.8024
        45.000          39.000
 126651293.10847  98689277.27147  24100971.4724   24100978.6484   24100971.6884
        43.000          38.000
 124753610.38547  97210602.47447  23739824.9364   23739827.0704   23739824.9294
        45.000          39.000
 123452489.16447  96196730.78947  23492236.9584   23492241.7714   23492236.3614
        46.000          41.000
 117454237.72247  91522768.08047  22350807.3274   22350813.8124   22350807.3704
        49.000          43.000
 121387297.59047  94587487.64147  23099249.4494   23099252.7264   23099250.1164
        48.000          41.000
 115965313.99447  90362568.60347  22067475.4344   22067478.3714   22067475.0924
        51.000          45.000
 128348615.57247 100011879.61747  24423952.2834   24423958.2234   24423952.2814
        43.000          39.000
 120653323.52147  94015552.83247  22959582.9044   22959587.8794   22959582.3314
        49.000          42.000
 104825839.77347  81682449.98047  19947710.1834   19947713.1934   19947710.5394
        54.000          50.000
 09  1 21  0 22 30.0000000  0 12G 9G14G 5G 6G22G29G24G18G31G12G30G21
 123491393.29847  96227031.09747  23499652.9834   23499657.6534   23499653.5574
        45.000          39.000
 116942773.57547  91124220.21947  22253485.7004   22253489.4914   22253485.8634
        50.000          44.000
 123680467.62547  96374371.03647  23535625.3104   23535631.7894   23535626.2764
        46.000          39.000
 126622894.69547  98667148.61747  24095568.4484   24095574.4534   24095568.1924
        43.000          38.000
 124714775.93847  97180341.87247  23732435.2694   23732436.5954   23732435.2754
        46.000          40.000
 123524127.85547  96252553.18447  23505869.3434   23505874.1154   23505869.0694
        46.000          41.000
 117522567.18147  91576011.79947  22363810.2924   22363816.0444   22363810.5304
        50.000          43.000
 121352094.97647  94560057.02947  23092550.8874   23092553.5024   23092551.7134
        48.000          41.000
 115877102.07747  90293832.08247  22050689.3474   22050692.3284   22050688.7684
        51.000          45.000
 128355231.79847 100017035.12547  24425211.3844   24425217.2774   24425211.0724
        44.000          39.000
 120625932.44547  93994209.14547  22954370.8494   22954375.9554   22954370.5904
        49.000          42.000
 104823470.83347  81680604.03647  19947259.6254   19947262.2674   19947260.0064
        54.000          49.000
 09  1 21  0 23  0.0000000  0 12G 9G14G 5G 6G22G29G24G18G31G12G30G21
 123588256.09247  96302508.66447  23518085.6624   23518090.1694   23518085.9264
        45.000          39.000
 116975961.02147  91150080.58447  22259800.7504   22259804.6964   22259801.2004
        49.000          44.000
 123673083.27847  96368616.99547  23534220.2944   23534226.8504   23534220.9114
        45.000          40.000
 126594771.28347  98645234.25947  24090216.0214   24090222.5674   24090216.4224
        43.000          38.000
 124675730.35247  97149916.74947  23725005.4884   23725006.8024   23725005.6914
        47.000          40.000
 123595643.44247  96308279.62547  23519478.3174   23519483.0824   23519478.3074
        46.000          41.000
 117591280.76647  91629554.83247  22376886.3804   22376891.8814   22376886.5144
        50.000          43.000
 121316792.53147  94532548.64447  23085832.9604   23085836.0134   23085833.4604
        48.000          41.000
 115789192.41647  90225331.08447  22033960.4834   22033963.6294   22033960.0494
        51.000          45.000
 128361998.19747 100022307.66747  24426499.3114   24426504.6004   24426498.8894
        44.000          39.000
 120598556.17147  93972876.99447  22949161.0804   22949166.3474   22949160.8654
        49.000          42.000
 104821714.41947  81679235.38647  19946925.2704   19946927.9964   19946925.6894
        54.000          49.000
 09  1 21  0 23 30.0000000  0 12G 9G14G 5G 6G22G29G24G18G31G12G30G21
 123685403.96347  96378208.36847  23536572.2864   23536576.1474   23536572.3674
        45.000          39.000
 117009354.49747  91176101.48247  22266155.3874   22266159.2024   22266155.6094
        50.000          44.000
 123665869.53747  96362995.91547  23532847.6834   23532853.7074   23532848.3174
        45.000          40.000
 126566923.33547  98623534.53447  24084916.7074   24084923.6764   24084916.6154
        43.000          38.000
 124636476.00847  97119328.96347  23717535.0154   23717536.7314   23717535.1384
        46.000          40.000
 123667035.68547  96363909.95847  23533063.6404   23533068.7024   23533063.7964
        45.000          41.000
 117660377.87547  91683396.70647  22390034.9864   22390040.5504   22390035.2934
        49.000          43.000
 121281393.47947  94504964.99847  23079096.6994   23079099.3674   23079097.0024
        47.000          41.000
 115701589.56947  90157069.16347  22017289.9564   22017293.4104   22017289.6404
        51.000          45.000
 128368918.28747 100027699.96047  24427815.7224   24427821.4884   24427815.5034
        44.000          39.000
 120571198.63547  93951559.45247  22943955.2184   22943960.4124   22943954.6824
        49.000          42.000
 104820572.27347  81678345.38847  19946707.8544   19946710.5624   19946708.1424
        54.000          49.000
 09  1 21  0 24  0.0000000  0 12G 9G14G 5G 6G22G29G24G18G31G12G30G21
 123782833.25447  96454127.36047  23555112.2594   23555116.4314   23555112.4834
        44.000          38.000
 117042950.84947  91202280.47047  22272548.6344   22272552.4244   22272549.0144
        50.000          44.000
 123658827.51747  96357508.63547  23531508.0564   23531514.0744   23531508.3484
        46.000          40.000
 126539349.00247  98602048.02947  24079669.8154   24079676.3944   24079669.7424
        42.000          38.000
 124597012.83947  97088578.44447  23710025.5284   23710027.3604   23710025.7414
        47.000          40.000
 123738302.31247  96419442.40447  23546625.0604   23546629.9804   23546624.9814
        45.000          40.000
 117729855.93047  91737535.43047  22403255.9664   22403261.9754   22403256.0894
        49.000          43.000
 121245898.55447  94477306.63547  23072341.8714   23072345.2674   23072342.5324
        48.000          41.000
 115614295.66047  90089047.96547  22000678.4184   22000682.0224   22000677.5094
        51.000          46.000
 128375992.74647 100033212.55147  24429161.6884   24429167.0044   24429161.6694
        43.000          38.000
 120543860.52147  93930257.03847  22938752.7894   22938758.0214   22938752.3384
        49.000          42.000
 104820044.34547  81677933.99847  19946607.5024   19946610.1584   19946607.9054
        54.000          49.000
 09  1 21  0 24 30.0000000  0 12G 9G14G 5G 6G22G29G24G18G31G12G30G21
 123880540.34947  96530262.80547  23573705.2964   23573709.5444   23573705.3224
        44.000          38.000
 117076746.31247  91228614.60347  22278979.7474   22278983.4604   22278979.9244
        50.000          44.000
 123651958.71347  96352156.34647  23530200.8794   23530206.5734   23530201.1174
        45.000          40.000
 126512046.66147  98580773.48047  24074474.3554   24074480.8334   24074474.3884
        44.000          38.000
 124557340.59147  97057665.00747  23702476.7034   23702478.0754   23702476.9994
        47.000          40.000
 123809440.83547  96474875.02947  23560162.2884   23560167.0834   23560161.8974
        45.000          40.000
 117799712.59747  91791969.16947  22416549.1444   22416555.1764   22416549.3604
        49.000          43.000
 121210309.03047  94449574.54947  23065569.6334   23065572.5584   23065569.7884
        47.000          41.000
 115527312.60047  90021268.99947  21984126.1774   21984129.5634   21984125.6994
        51.000          46.000
 128383222.79947 100038846.40347  24430537.8564   24430543.5934   24430537.3514
        44.000          39.000
 120516543.55947  93908971.09947  22933554.6234   22933559.4654   22933554.6504
        49.000          42.000
 104820130.23747  81678000.90547  19946623.9284   19946626.5894   19946624.2714
        54.000          49.000
 09  1 21  0 25  0.0000000  0 12G 9G14G 5G 6G22G29G24G18G31G12G30G21
 123978523.38547  96606613.26047  23592350.6494   23592354.9064   23592350.5424
        43.000          38.000
 117110739.61547  91255102.90347  22285448.4814   22285452.1754   22285448.7774
        50.000          44.000
 123645266.03347  96346941.29347  23528927.1734   23528932.9104   23528927.8664
        46.000          40.000
 126485016.27147  98559710.81247  24069330.3294   24069336.9154   24069330.0414
        43.000          38.000
 124517460.80447  97026589.84847  23694887.4624   23694889.2264   23694887.4604
        46.000          40.000
 123880450.01647  96530206.88947  23573675.1994   23573679.7424   23573674.8234
        46.000          41.000
 117869946.75947  91846697.07847  22429914.3384   22429920.5144   22429914.4394
        49.000          43.000
 121174627.36847  94421770.68647  23058779.2504   23058782.6384   23058779.5764
        47.000          41.000
 115440644.34547  89953735.33947  21967633.5974   21967637.0764   21967633.2644
        51.000          45.000
 128390611.13647 100044603.58847  24431944.1094   24431949.9394   24431943.5844
        44.000          39.000
 120489250.73847  93887703.98347  22928361.1074   22928365.9684   22928360.9574
        49.000          42.000
 104820831.31247  81678547.17847  19946757.2904   19946760.1104   19946757.5804
        54.000          49.000
 09  1 21  0 25 30.0000000  0 12G 9G14G 5G 6G22G29G24G18G31G12G30G21
 124076779.10147  96683176.20647  23611048.4254   23611052.0864   23611047.8364
        44.000          38.000
 117144927.52547  91281742.83947  22291954.1914   22291958.0444   22291954.5224
        50.000          44.000
 123638750.99547  96341864.64747  23527687.2364   23527693.3344   23527688.2794
        45.000          40.000
 126458256.22947  98538858.82347  24064238.0644   24064244.7564   24064238.0244
        43.000          38.000
 124477373.59647  96995353.06347  23687258.9194   23687260.9534   23687258.4054
        47.000          40.000
 123951327.91847  96585436.46147  23587162.9064   23587167.6434   23587162.3254
        46.000          41.000
 117940555.96547  91901717.23047  22443350.7094   22443357.0564   22443350.7604
        49.000          43.000
 121138854.92847  94393896.06747  23051972.3734   23051975.3944   23051972.6084
        47.000          41.000
 115354292.96847  89886448.59447  21951201.5424   21951204.7134   21951201.2524
        51.000          45.000
 128398159.03747 100050485.10347  24433380.1574   24433385.5074   24433379.8634
        43.000          39.000
 120461983.50447  93866456.82647  22923172.0084   22923177.4804   22923171.8524
        49.000          42.000
 104822147.29147  81679572.59247  19947007.7044   19947010.6524   19947008.0114
        54.000          50.000
 09  1 21  0 26  0.0000000  0 12G 9G14G 5G 6G22G29G24G18G31G12G30G21
 124175307.59047  96759951.68247  23629797.6624   23629801.7804   23629797.7134
        44.000          38.000
 117179310.27647  91308534.60147  22298497.1064   22298500.6484   22298497.3774
        50.000          44.000
 123632418.76947  96336930.45847  23526482.5674   23526488.2364   23526482.6794
        45.000          39.000
 126431768.58847  98518219.07847  24059197.2064   24059204.5734   24059197.2054
        43.000          37.000
 124437082.81847  96963957.65147  23679592.1674   23679593.5844   23679592.3714
        47.000          40.000
 124022076.08047  96640564.92747  23600625.8544   23600630.4654   23600625.3664
        46.000          41.000
 118011541.55247  91957030.65547  22456858.6764   22456865.3874   22456858.7364
        49.000          43.000
 121102996.44947  94365954.39947  23045148.7144   23045151.7464   23045148.9884
        47.000          41.000
 115268264.70747  89819413.63547  21934830.9704   21934834.0114   21934830.8494
        51.000          46.000
 128405871.06747 100056494.53947  24434847.3774   24434853.1824   24434846.9354
        43.000          38.000
 120434747.36647  93845233.86847  22917989.2894   22917994.3434   22917989.0404
        49.000          42.000
 104824081.66747  81681079.87947  19947375.8884   19947378.6604   19947376.2944
        54.000          50.000
 09  1 21  0 26 30.0000000  0 12G 9G14G 5G 6G22G29G24G18G31G12G30G21
 124274101.31447  96836933.85947  23648597.2554   23648601.1594   23648597.4854
        44.000          39.000
 117213880.69347  91335472.59947  22305075.3564   22305079.4824   22305075.6094
        49.000          44.000
 123626266.42447  96332136.43647  23525311.2084   23525317.3024   23525311.8424
        45.000          40.000
 126405547.37747  98497786.95047  24054208.3924   24054214.4534   24054208.4924
        43.000          38.000
 124396584.39647  96932400.44747  23671885.5794   23671886.4314   23671885.7814
        47.000          40.000
 124092687.81147  96695587.07947  23614062.8234   23614067.5804   23614062.5634
        45.000          41.000
 118082896.78347  92012632.12347  22470437.1604   22470443.5504   22470437.1324
        49.000          43.000
 121067048.92647  94337943.35147  23038308.1804   23038311.0744   23038308.4494
        48.000          41.000
 115182557.18347  89752628.58847  21918521.4774   21918524.3734   21918520.7854
        51.000          46.000
 128413744.23747 100062629.52847  24436345.7954   24436351.4014   24436345.3214
        44.000          39.000
 120407539.56847  93824032.98747  22912811.7874   22912816.6724   22912811.5864
        49.000          42.000
 104826630.01547  81683065.58947  19947860.7724   19947863.4954   19947861.1934
        54.000          49.000
 09  1 21  0 27  0.0000000  0 12G 9G14G 5G 6G22G29G24G18G31G12G30G21
 124373160.63547  96914122.97847  23667447.9024   23667451.3444   23667447.7914
        44.000          39.000
 117248639.10947  91362557.09147  22311689.5644   22311693.5804   22311689.5394
        49.000          44.000
 123620299.25147  96327486.69947  23524175.7954   23524182.0954   23524175.9984
        45.000          40.000
 126379594.91347  98477564.24247  24049269.4564   24049275.9104   24049269.8484
        43.000          38.000
 124355882.28347  96900684.52047  23664140.0514   23664141.4664   23664139.8094
        47.000          40.000
 124163164.90347  96750504.32447  23627474.1544   23627478.5124   23627473.8904
        46.000          40.000
 118154622.75447  92068522.47947  22484086.0394   22484092.6174   22484086.2344
        49.000          42.000
 121031017.20347  94309866.67347  23031451.7784   23031454.6104   23031452.2084
        48.000          41.000
 115097176.59747  89686098.30947  21902274.0144   21902277.0774   21902273.7124
        51.000          46.000
 128421783.75847 100068894.14447  24437875.8324   24437881.1974   24437875.5264
        44.000          39.000
 120380365.37047  93802858.29347  22907640.9244   22907645.6474   22907640.5274
        49.000          42.000
 104829795.92047  81685532.50847  19948463.1774   19948465.9894   19948463.5434
        54.000          49.000
 09  1 21  0 27 30.0000000  0 12G 9G14G 5G 6G22G29G24G18G31G12G30G21
 124472481.12847  96991515.62247  23686347.5634   23686351.0574   23686347.5554
        44.000          38.000
 117283581.36847  91389784.83347  22318339.0254   22318342.6684   22318339.2544
        50.000          44.000
 123614517.79247  96322981.67747  23523075.8894   23523081.5224   23523076.3004
        45.000          40.000
 126353908.40747  98457548.75847  24044381.5184   24044388.2114   24044381.6524
        44.000          37.000
 124314975.59147  96868809.17547  23656356.0674   23656357.6194   23656355.8154
        47.000          40.000
 124233503.98547  96805314.01847  23640859.2184   23640863.6044   23640859.2994
        46.000          40.000
 118226715.93547  92124698.98047  22497804.8084   22497811.5314   22497805.3304
        48.000          42.000
 120994901.56147  94281724.62547  23024578.9534   23024582.0234   23024579.1434
        47.000          41.000
 115012124.08647  89619823.67247  21886088.7684   21886092.2034   21886088.6524
        52.000          46.000
 128429989.48647 100075288.25847  24439436.5834   24439442.7434   24439436.4304
        44.000          39.000
 120353225.40847  93781710.27147  22902475.8184   22902481.3994   22902475.5304
        48.000          42.000
 104833577.51847  81688479.19547  19949182.9304   19949185.6584   19949183.4064
        54.000          49.000
 09  1 21  0 28  0.0000000  0 12G 9G14G 5G 6G22G29G24G18G31G12G30G21
 124572061.53447  97069110.79747  23705297.2624   23705300.9204   23705296.8154
        44.000          38.000
 117318706.42147  91417155.00547  22325023.1144   22325026.8704   22325023.4554
        49.000          44.000
 123608925.63947  96318624.16447  23522011.9074   23522017.7134   23522012.3314
        45.000          40.000
 126328488.57547  98437741.08147  24039544.2214   24039550.7184   24039544.1354
        43.000          37.000
 124273866.61947  96836776.21847  23648533.4034   23648534.3784   23648533.3094
        46.000          39.000
 124303704.98747  96860016.13047  23654217.7754   23654222.2894   23654217.5904
        45.000          40.000
 118299176.14447  92181161.47347  22511593.4294   22511600.3624   22511593.5934
        48.000          42.000
 120958705.46647  94253519.85947  23017690.6854   23017694.0654   23017691.5404
        47.000          41.000
 114927404.15747  89553808.17447  21869967.1344   21869970.4504   21869966.4044
        51.000          46.000
 128438364.81647 100081814.51647  24441030.8124   24441036.9484   24441030.4864
        44.000          39.000
 120326123.67147  93760592.03047  22897318.6494   22897323.7134   22897318.2694
        49.000          42.000
 104837977.06247  81691907.39747  19950020.1594   19950022.8664   19950020.4504
        54.000          50.000
 09  1 21  0 28 30.0000000  0 12G 9G14G 5G 6G22G29G24G18G31G12G30G21
 124671897.79747  97146905.32647  23724295.1854   23724299.1914   23724295.2514
        44.000          38.000
 117354010.37147  91444664.58547  22331741.3894   22331745.0354   22331741.7064
        50.000          43.000
 123603523.66647  96314414.83647  23520983.7594   23520990.0444   23520984.0304
        45.000          40.000
 126303332.95747  98418139.28947  24034757.2794   24034764.0264   24034757.3494
        43.000          37.000
 124232555.04847  96804585.41747  23640671.6924   23640673.1024   23640671.8274
        47.000          40.000
 124373765.44647  96914608.70947  23667549.7084   23667554.7724   23667549.3004
        44.000          40.000
 118372000.13647  92237907.43247  22525451.8184   22525458.4444   22525452.0914
        48.000          42.000
 120922429.36647  94225252.76847  23010787.7664   23010790.7984   23010788.0734
        48.000          41.000
 114843018.26947  89488052.97647  21853909.1544   21853912.4464   21853908.9094
        52.000          46.000
 128446910.50547 100088473.53147  24442656.9344   24442662.5914   24442656.7404
        45.000          39.000
 120299061.21647  93739504.41747  22892168.9254   22892173.8664   22892168.5094
        49.000          42.000
 104842993.52547  81695816.32047  19950974.7694   19950977.4554   19950975.1994
        54.000          50.000
 09  1 21  0 29  0.0000000  0 12G 9G14G 5G 6G22G29G24G18G31G12G30G21
 124771988.08147  97224897.79447  23743341.8974   23743345.7664   23743341.7604
        44.000          38.000
 117389491.39847  91472312.14147  22338493.0394   22338496.8954   22338493.2564
        49.000          44.000
 123598314.68247  96310355.90747  23519992.2554   23519998.6804   23519993.0494
        45.000          40.000
 126278441.40347  98398743.24747  24030020.8774   24030027.0384   24030020.5564
        44.000          37.000
 124191042.36547  96772237.89347  23632772.2834   23632773.4504   23632772.2604
        46.000          40.000
 124443684.32547  96969090.95447  23680854.6894   23680859.5194   23680854.1294
        44.000          40.000
 118445186.72447  92294935.92747  22539378.5864   22539385.4484   22539378.3854
        48.000          42.000
 120886076.15547  94196925.56747  23003870.3904   23003873.2704   23003870.6624
        48.000          41.000
 114758970.22547  89422561.02747  21837915.1934   21837918.7624   21837914.6934
        52.000          46.000
 128455629.15147 100095267.32847  24444316.1844   24444321.7534   24444315.8624
        45.000          39.000
 120272040.89047  93718449.63447  22887027.2934   22887032.1924   22887027.0204
        49.000          42.000
 104848627.88847  81700206.71747  19952046.9584   19952049.7954   19952047.3994
        54.000          50.000
 09  1 21  0 29 30.0000000  0 12G 9G14G 5G 6G22G29G24G18G31G12G30G21
 124872328.32047  97303085.03347  23762435.9344   23762439.7704   23762435.7554
        44.000          38.000
 117425145.96347  91500094.91947  22345277.8454   22345281.6584   22345278.1984
        49.000          44.000
 123593299.71847  96306448.16647  23519038.0984   23519044.0224   23519038.5324
        45.000          40.000
 126253811.75147  98379551.30947  24025333.6314   24025340.6864   24025333.7114
        45.000          38.000
 124149328.33847  96739733.48547  23624834.4274   23624835.5694   23624834.2054
        46.000          40.000
 124513459.26847  97023461.04847  23694132.5574   23694137.3494   23694131.9204
        44.000          40.000
 118518732.91947  92352244.64647  22553374.1804   22553380.3954   22553374.1854
        48.000          42.000
 120849646.40147  94168538.72547  22996938.0804   22996940.6674   22996938.4454
        48.000          41.000
 114675261.76747  89357333.70147  21821985.7624   21821989.5184   21821985.2924
        52.000          46.000
 128464521.24647 100102196.27147  24446008.2734   24446013.9214   24446008.0014
        44.000          39.000
 120245063.91347  93697428.62147  22881893.4554   22881898.8824   22881892.8724
        48.000          42.000
 104854879.36347  81705077.98547  19953236.6124   19953239.4744   19953236.9844
        54.000          50.000
 09  1 21  0 30  0.0000000  0 12G 9G14G 5G 6G22G29G24G18G31G12G30G21
 124972916.32947  97381465.35347  23781577.0374   23781581.3284   23781577.0614
        44.000          38.000
 117460972.09147  91528011.38147  22352095.6344   22352099.0844   22352095.8064
        49.000          44.000
 123588481.46747  96302693.71047  23518121.2444   23518126.8894   23518121.7034
        45.000          40.000
 126229443.59147  98360563.12547  24020697.0794   24020703.2404   24020697.1284
        44.000          38.000
 124107414.37147  96707073.27647  23616857.8404   23616859.4664   23616857.5974
        46.000          40.000
 124583089.00947  97077717.99047  23707382.4104   23707387.1094   23707382.0614
        45.000          39.000
 118592637.41247  92409832.55247  22567437.9264   22567443.8764   22567438.0934
        48.000          42.000
 120813142.83047  94140094.36647  22989991.8674   22989994.2814   22989992.2874
        48.000          41.000
 114591896.11047  89292373.48247  21806122.0514   21806125.4884   21806121.5644
        52.000          46.000
 128473589.08747 100109262.18147  24447732.9694   24447739.5214   24447732.6914
        44.000          39.000
 120218133.38547  93676443.81447  22876768.8034   22876773.7484   22876768.6464
        49.000          42.000
 104861748.65747  81710430.66847  19954543.7734   19954546.6144   19954544.2614
        54.000          49.000
 09  1 21  0 30 30.0000000  0 12G 9G14G 5G 6G22G29G24G18G31G12G30G21
 125073750.64447  97460037.59447  23800765.2294   23800769.6494   23800765.3134
        44.000          38.000
 117496968.36247  91556060.43647  22358945.1494   22358948.8964   22358945.4084
        49.000          43.000
 123583863.09747  96299095.00047  23517241.9624   23517248.2374   23517242.1564
        45.000          39.000
 126205337.06347  98341778.81247  24016109.4314   24016116.3444   24016109.4774
        43.000          38.000
 124065302.49347  96674258.85447  23608844.2204   23608845.8884   23608844.4494
        46.000          40.000
 124652573.49647  97131861.77147  23720605.1794   23720609.5824   23720604.9964
        45.000          40.000
 118666899.45247  92467699.08647  22581569.4104   22581575.1974   22581569.2764
        48.000          42.000
 120776568.38447  94111594.77447  22983031.7204   22983034.3624   22983032.2854
        49.000          42.000
 114508877.49647  89227683.68547  21790324.4374   21790327.3504   21790323.8564
        52.000          46.000
 128482835.89047 100116467.52447  24449493.4244   24449498.8634   24449493.4644
        44.000          39.000
 120191252.46747  93655497.65347  22871653.7204   22871658.5204   22871653.7654
        49.000          42.000
 104869237.13447  81716265.83147  19955968.6964   19955971.6034   19955969.1434
        54.000          49.000
 09  1 21  0 31  0.0000000  0 12G 9G14G 5G 6G22G29G24G18G31G12G30G21
 125174827.33747  97538798.71147  23819999.8004   23820003.4044   23819999.6294
        44.000          37.000
 117533131.17647  91584239.25347  22365826.6394   22365830.4764   22365826.8744
        49.000          44.000
 123579445.71047  96295652.90447  23516401.1444   23516407.6204   23516401.7924
        45.000          39.000
 126181489.88447  98323196.56347  24011571.9294   24011578.0284   24011571.7704
        44.000          38.000
 124022992.67847  96641290.18347  23600793.3974   23600794.5824   23600793.3554
        47.000          40.000
 124721910.01747  97185890.23847  23733799.3074   23733803.6684   23733799.2814
        44.000          40.000
 118741516.17047  92525841.97847  22595768.4994   22595774.2604   22595768.9114
        48.000          42.000
 120739924.05047  94083040.72847  22976058.2964   22976061.5034   22976058.7824
        49.000          42.000
 114426207.67547  89163265.67747  21774592.5674   21774595.6614   21774592.2914
        52.000          46.000
 128492262.33347 100123812.83747  24451287.5184   24451293.0544   24451286.8304
        44.000          39.000
 120164422.58747  93634591.26147  22866547.7784   22866552.9364   22866547.7144
        49.000          42.000
 104877343.65947  81722582.59247  19957511.1634   19957514.2084   19957511.5284
        54.000          49.000
 09  1 21  0 31 30.0000000  0 12G 9G14G 5G 6G22G29G24G18G31G12G30G21
 125276143.04347  97617746.07247  23839279.3484   23839282.9894   23839279.2664
        44.000          37.000
 117569457.45947  91612545.45747  22372739.2224   22372743.1004   22372739.6314
        49.000          43.000
 123575230.72147  96292368.50247  23515599.2594   23515605.6434   23515599.4714
        46.000          40.000
 126157900.54447  98304815.24747  24007082.9204   24007088.6954   24007082.7974
        43.000          38.000
 123980485.29747  96608167.56347  23592704.4014   23592705.3764   23592704.2684
        47.000          40.000
 124791096.85147  97239802.06447  23746965.2764   23746969.6894   23746964.8324
        45.000          40.000
 118816484.93147  92584259.19147  22610034.7414   22610040.3894   22610034.6564
        48.000          42.000
 120703211.12247  94054433.22647  22969072.2444   22969075.4854   22969072.7004
        48.000          41.000
 114343888.85547  89099121.18647  21758927.7044   21758930.8174   21758927.5164
        52.000          46.000
 128501869.38647 100131298.89847  24453115.2194   24453120.6904   24453115.1304
        44.000          39.000
 120137645.14547  93613725.73547  22861452.2764   22861457.3804   22861452.1274
        48.000          42.000
 104886067.79547  81729380.60547  19959171.4424   19959174.4374   19959171.8494
        54.000          49.000
 09  1 21  0 32  0.0000000  0 12G 9G14G 5G 6G22G29G24G18G31G12G30G21
 125377694.98647  97696877.50947  23858604.2174   23858607.5474   23858604.1084
        44.000          37.000
 117605944.47647  91640976.90647  22379682.6984   22379686.3484   22379682.7294
        49.000          43.000
 123571220.38947  96289243.60447  23514836.3494   23514842.5294   23514837.0284
        45.000          39.000
 126134567.93047  98286633.97247  24002643.0254   24002649.4964   24002642.8234
        43.000          38.000
 123937780.99047  96574891.49347  23584577.9734   23584579.3574   23584578.1304
        47.000          40.000
 124860132.40547  97293596.02447  23760102.0594   23760106.7944   23760101.5594
        44.000          40.000
 118891803.69047  92642949.13347  22624367.4974   22624373.1944   22624367.6894
        48.000          42.000
 120666431.62647  94025773.86547  22962073.4414   22962076.6744   22962073.7274
        48.000          42.000
 114261923.88047  89035252.40247  21743330.5264   21743333.2774   21743329.9044
        52.000          46.000
 128511659.07947 100138927.28447  24454978.0524   24454983.5244   24454978.1384
        43.000          38.000
 120110922.85147  93592903.17547  22856366.9074   22856372.4434   22856366.6014
        49.000          42.000
 104895409.73447  81736660.02747  19960949.2444   19960952.1824   19960949.6024
        54.000          49.000
 09  1 21  0 32 30.0000000  0 12G 9G14G 5G 6G22G29G24G18G31G12G30G21
 125479481.68647  97776191.88947  23877973.6954   23877977.2694   23877973.6304
        44.000          37.000
 117642591.18847  91669532.78947  22386656.2824   22386659.9264   22386656.4624
        49.000          43.000
 123567418.09547  96286280.78547  23514112.3734   23514118.8704   23514112.8394
        45.000          39.000
 126111492.47347  98268653.08247  23998252.0004   23998257.9964   23998251.7794
        44.000          38.000
 123894882.44347  96541464.06947  23576414.8314   23576416.2504   23576414.6874
        47.000          40.000
 124929016.84247  97347272.22747  23773210.2464   23773214.7064   23773209.9524
        45.000          39.000
 118967471.89747  92701911.36447  22638766.5704   22638772.2064   22638766.7854
        49.000          42.000
 120629588.96947  93997065.30047  22955062.3774   22955065.7304   22955063.0364
        49.000          42.000
 114180317.12047  88971662.75847  21727801.1074   21727803.9054   21727801.2804
        52.000          46.000
 128521634.60347 100146700.46447  24456875.8224   24456881.6884   24456875.9484
        44.000          39.000
 120084259.31747  93572126.40347  22851293.3484   22851298.4794   22851293.3304
        48.000          42.000
 104905370.80047  81744421.88347  19962844.8164   19962847.5934   19962845.1704
        54.000          49.000
 09  1 21  0 33  0.0000000  0 12G 9G14G 5G 6G22G29G24G18G31G12G30G21
 125581497.35047  97855684.66947  23897386.3184   23897389.9144   23897386.4084
        43.000          37.000
 117679391.64147  91698208.47547  22393659.2154   22393662.9644   22393659.5214
        49.000          43.000
 123563822.56947  96283479.09147  23513428.6064   23513434.6994   23513428.8554
        45.000          39.000
 126088669.64247  98250869.02847  23993908.7344   23993914.9314   23993908.8324
        42.000          38.000
 123851787.21547  96507883.40847  23568213.3614   23568215.5604   23568213.5154
        47.000          40.000
 124997745.16147  97400826.76847  23786289.1184   23786293.0984   23786289.0414
        44.000          40.000
 119043484.43347  92761141.91747  22653231.3504   22653237.2514   22653231.4194
        48.000          42.000
 120592681.75147  93968306.41747  22948039.3524   22948042.1764   22948039.8944
        48.000          42.000
 114099067.85647  88908351.67747  21712339.8014   21712342.7554   21712339.2434
        52.000          46.000
 128531794.66647 100154617.45047  24458809.5804   24458815.2084   24458809.7554
        44.000          38.000
 120057653.41447  93551394.53747  22846230.6134   22846235.3754   22846230.2624
        49.000          42.000
 104915947.71947  81752663.62447  19964857.4254   19964860.2854   19964857.8704
        54.000          49.000
 09  1 21  0 33 30.0000000  0 12G 9G14G 5G 6G22G29G24G18G31G12G30G21
 125683744.27247  97935357.62047  23916843.1304   23916846.3924   23916843.0204
        42.000          37.000
 117716348.30947  91727005.88947  22400691.9514   22400695.3314   22400692.3164
        49.000          43.000
 123560440.91747  96280844.07147  23512784.8264   23512791.5824   23512785.2014
        46.000          40.000
 126066103.45947  98233284.98747  23989614.1584   23989620.5854   23989614.0464
        42.000          38.000
 123808501.22747  96474154.07147  23559976.5884   23559977.9424   23559976.4814
        47.000          40.000
 125066321.02947  97454262.52847  23799338.4274   23799342.4854   23799338.2484
        45.000          40.000
 119119844.11447  92820642.96447  22667761.8844   22667768.0034   22667761.9584
        48.000          42.000
 120555717.25747  93939502.90347  22941005.0824   22941008.0954   22941005.6484
        49.000          42.000
 114018184.16847  88845325.46147  21696948.1034   21696951.0774   21696947.6914
        52.000          46.000
 128542145.50647 100162683.09547  24460779.3184   24460784.1744   24460779.3804
        44.000          39.000
 120031112.59547  93530713.40247  22841179.8324   22841184.7444   22841179.8554
        49.000          42.000
 104927145.74047  81761389.34547  19966988.4264   19966991.2934   19966988.8154
        54.000          49.000
 09  1 21  0 34  0.0000000  0 12G 9G14G 5G 6G22G29G24G18G31G12G30G21
 125786215.20947  98015205.14547  23936342.2374   23936346.2214   23936342.5564
        42.000          36.000
 117753454.64547  91755919.92447  22407753.0474   22407756.6534   22407753.2324
        49.000          43.000
 123557271.10247  96278374.09647  23512182.0184   23512188.0344   23512182.4444
        46.000          40.000
 126043788.56547  98215896.73247  23985367.5804   23985374.2504   23985368.0974
        43.000          37.000
 123765021.39647  96440273.70347  23551702.6814   23551704.3534   23551702.5964
        46.000          40.000
 125134739.07047  97507575.30147  23812358.1524   23812362.3234   23812358.1744
        45.000          40.000
 119196544.77047  92880409.71147  22682357.4124   22682363.5164   22682357.6894
        48.000          42.000
 120518693.02647  93910652.85147  22933959.7564   22933962.7924   22933960.3204
        49.000          42.000
 113937664.77747  88782583.11647  21681625.8074   21681628.8224   21681625.4514
        52.000          46.000
 128552685.00847 100170895.75547  24462785.1894   24462790.3894   24462785.3954
        44.000          39.000
 120004635.30947  93510081.77247  22836141.4734   22836146.2754   22836141.4024
        49.000          42.000
 104938960.57447  81770595.69847  19969236.7794   19969239.4094   19969237.2704
        54.000          49.000
 09  1 21  0 34 30.0000000  0 12G 9G14G 5G 6G22G29G24G18G31G12G30G21
 125888908.64347  98095226.02947  23955883.7474   23955888.2804   23955884.2464
        42.000          37.000
 117790709.30547  91784949.54447  22414842.3114   22414846.0684   22414842.4294
        49.000          43.000
 123554316.40447  96276071.75047  23511619.8504   23511625.3734   23511620.3344
        46.000          40.000
 126021725.05747  98198704.37947  23981169.2864   23981175.8344   23981169.4724
        43.000          37.000
 123721349.83547  96406243.94047  23543392.5264   23543393.7374   23543392.3814
        47.000          40.000
 125202999.25747  97560765.06947  23825347.5214   23825352.3174   23825347.3744
        44.000          40.000
 119273585.90747  92940441.77247  22697017.7174   22697024.1654   22697017.5624
        48.000          42.000
 120481612.54747  93881758.95247  22926903.9614   22926906.4224   22926904.1804
        49.000          42.000
 113857513.41047  88720127.53647  21666373.4704   21666376.5154   21666372.8764
        52.000          46.000
 128563416.07947 100179257.67947  24464826.5364   24464832.5934   24464825.9464
        43.000          38.000
 119978224.87647  93489502.23647  22831115.8544   22831120.5964   22831115.5504
        49.000          42.000
 104951393.11847  81780283.37947  19971602.6114   19971605.4804   19971603.0134
        54.000          49.000
 09  1 21  0 35  0.0000000  0 12G 9G14G 5G 6G22G29G24G18G31G12G30G21
 125991821.22547  98175417.68647  23975467.6964   23975471.6094   23975467.5374
        42.000          37.000
 117828109.03647  91814092.18747  22421959.1454   22421962.8394   22421959.5094
        49.000          43.000
 123551578.24247  96273938.12247  23511098.8824   23511104.0454   23511099.4454
        46.000          40.000
 125999911.32447  98181706.64447  23977018.2224   23977025.0334   23977018.2554
        42.000          37.000
 123677487.08047  96372065.17447  23535045.4474   23535047.0194   23535045.4834
        47.000          40.000
 125271099.67547  97613830.34647  23838306.7524   23838311.0694   23838306.7914
        45.000          40.000
 119350964.85747  93000737.05947  22711742.5244   22711748.8434   22711742.8344
        48.000          42.000
 120444477.19447  93852822.28647  22919837.1454   22919840.0794   22919837.6774
        49.000          42.000
 113777732.41047  88657960.56547  21651191.5214   21651194.6214   21651191.4114
        52.000          47.000
 128574339.77747 100187769.68847  24466905.0624   24466910.8154   24466904.7854
        45.000          39.000
 119951882.78747  93468975.95347  22826102.9254   22826107.7994   22826102.7264
        49.000          42.000
 104964442.78547  81790451.93847  19974085.7344   19974088.6384   19974086.1114
        54.000          49.000
 09  1 21  0 35 30.0000000  0 12G 9G14G 5G 6G22G29G24G18G31G12G30G21
 126094951.44747  98255778.92947  23995092.2684   23995096.3954   23995092.3104
        42.000          37.000
 117865652.81247  91843347.09647  22429103.5134   22429107.2374   22429103.9024
        49.000          43.000
 123549060.08347  96271975.94347  23510619.9654   23510625.4814   23510620.7104
        46.000          40.000
 125978347.59247  98164903.70847  23972914.9714   23972921.5884   23972915.7084
        43.000          38.000
 123633435.61147  96337739.36247  23526662.7264   23526663.9894   23526662.9454
        46.000          40.000
 125339040.32947  97666771.14347  23851235.3644   23851239.5484   23851235.3434
        45.000          39.000
 119428680.95447  93061295.07547  22726532.0084   22726537.7164   22726532.0114
        48.000          42.000
 120407290.36547  93823845.50947  22912760.7724   22912763.7714   22912760.9994
        48.000          41.000
 113698326.22347  88596085.64747  21636080.9094   21636084.1884   21636080.4404
        52.000          46.000
 128585459.43747 100196434.37647  24469021.6884   24469027.4154   24469021.1254
        44.000          38.000
 119925613.11347  93448506.08847  22821104.3804   22821109.0334   22821103.5704
        49.000          42.000
 104978110.73747  81801102.27747  19976686.7594   19976689.4244   19976687.2114
        54.000          49.000
 09  1 21  0 36  0.0000000  0 12G 9G14G 5G 6G22G29G24G18G31G12G30G21
 126198295.23247  98336306.57547  24014757.9954   24014761.9744   24014758.1704
        42.000          37.000
 117903336.90647  91872711.34247  22436274.7354   22436278.3634   22436275.0224
        50.000          43.000
 123546762.79947  96270185.87947  23510182.3014   23510188.0304   23510182.9624
        45.000          40.000
 125957031.52947  98148293.77047  23968858.9214   23968865.0384   23968859.0434
        43.000          38.000
 123589195.16847  96303266.29447  23518244.3544   23518245.8334   23518244.2374
        46.000          40.000
 125406818.65047  97719585.45647  23864133.1824   23864136.9204   23864132.9364
        45.000          39.000
 119506730.92947  93122113.25347  22741384.2274   22741390.1214   22741384.1974
        48.000          42.000
 120370053.01647  93794829.36247  22905674.2784   22905677.6294   22905674.8114
        48.000          41.000
 113619295.80747  88534503.54647  21621041.9834   21621044.9584   21621041.8124
        53.000          47.000
 128596775.70347 100205252.27747  24471174.8194   24471180.5974   24471174.5344
        44.000          38.000
 119899417.19947  93428093.71047  22816119.1034   22816124.1184   22816119.0004
        49.000          43.000
 104992395.93347  81812233.58647  19979405.0824   19979407.8864   19979405.4964
        54.000          49.000
 09  1 21  0 36 30.0000000  0 12G 9G14G 5G 6G22G29G24G18G31G12G30G21
 126301850.14247  98416998.73747  24034464.0854   24034468.2334   24034464.5774
        43.000          38.000
 117941158.79747  91902182.95047  22443471.9854   22443475.6664   22443472.0924
        49.000          43.000
 123544688.33447  96268569.41547  23509787.7334   23509793.3294   23509787.8744
        45.000          39.000
 125935961.85747  98131875.83347  23964849.2474   23964856.0284   23964849.7424
        43.000          38.000
 123544766.75247  96268646.77447  23509789.8744   23509791.1284   23509789.9544
        47.000          40.000
 125474433.18647  97772272.14347  23877000.0884   23877003.4194   23876999.8174
        45.000          39.000
 119585112.82747  93183190.06047  22756299.6794   22756305.9004   22756300.0414
        49.000          42.000
 120332767.05447  93765775.32647  22898579.2304   22898582.3454   22898579.6514
        48.000          41.000
 113540644.14847  88473216.57147  21606075.0504   21606077.9344   21606074.4434
        52.000          47.000
 128608290.08247 100214224.56847  24473365.7044   24473371.2424   24473365.5994
        44.000          38.000
 119873297.04447  93407740.37547  22811148.7114   22811153.9184   22811148.4334
        49.000          43.000
 105007298.29447  81823845.80247  19982240.9764   19982243.6914   19982241.3744
        54.000          49.000
 09  1 21  0 37  0.0000000  0 12G 9G14G 5G 6G22G29G24G18G31G12G30G21
 126405614.66947  98497854.24647  24054209.9534   24054213.7214   24054210.5084
        44.000          38.000
 117979116.85247  91931760.66347  22450695.2634   22450698.8604   22450695.4124
        49.000          43.000
 123542840.08047  96267129.24747  23509435.1694   23509441.0684   23509435.7384
        45.000          39.000
 125915138.72147  98115649.99747  23960886.6794   23960893.4864   23960886.7264
        42.000          37.000
 123500152.79147  96233882.65547  23501300.0704   23501301.0894   23501300.0954
        47.000          40.000
 125541883.97347  97824831.22147  23889835.4614   23889839.0314   23889835.0164
        44.000          39.000
 119663825.95547  93244524.97047  22771278.3894   22771284.2814   22771278.5264
        48.000          42.000
 120295435.66847  93736685.88747  22891475.3264   22891478.2474   22891475.7044
        48.000          42.000
 113462375.49047  88412228.04347  21591181.2854   21591183.9144   21591180.9654
        53.000          47.000
 128620005.68547 100223353.63947  24475595.4384   24475600.5094   24475595.7024
        43.000          38.000
 119847256.52047  93387449.07447  22806193.1614   22806198.3064   22806192.7834
        49.000          42.000
 105022818.25847  81835939.26747  19985194.4184   19985197.0344   19985194.8634
        54.000          49.000
 09  1 21  0 37 30.0000000  0 12G 9G14G 5G 6G22G29G24G18G31G12G30G21
 126509582.83447  98578868.44347  24073994.4394   24073998.4004   24073994.8544
        43.000          38.000
 118017205.66047  91961440.27047  22457943.3634   22457946.6314   22457943.6374
        49.000          43.000
 123541216.91147  96265864.46247  23509126.9544   23509132.5164   23509127.4444
        46.000          40.000
 125894557.73447  98099612.85847  23956969.6114   23956977.5344   23956969.7934
        41.000          37.000
 123455351.35047  96198972.45947  23492774.2354   23492775.9034   23492774.1394
        46.000          40.000
 125609166.75047  97877259.37347  23902638.5464   23902642.7304   23902638.1814
        44.000          39.000
 119742864.88747  93306113.76947  22786319.1834   22786324.9384   22786319.1664
        49.000          42.000
 120258058.32947  93707560.65947  22884362.6454   22884365.7844   22884363.2274
        48.000          41.000
 113384489.27747  88351537.52847  21576359.9804   21576362.8664   21576359.6624
        52.000          47.000
 128631921.02047 100232638.33447  24477862.5484   24477868.2944   24477861.8814
        43.000          38.000
 119821294.68447  93367219.09247  22801253.2364   22801257.7964   22801252.9104
        49.000          42.000
 105038952.53647  81848511.42347  19988264.7164   19988267.2734   19988265.1494
        54.000          49.000
 09  1 21  0 38  0.0000000  0 12G 9G14G 5G 6G22G29G24G18G31G12G30G21
 126613755.45447  98660041.94847  24093818.0984   24093821.9084   24093818.1634
        43.000          38.000
 118055426.30147  91991222.60047  22465216.2854   22465220.0124   22465216.4854
        49.000          43.000
 123539824.48647  96264779.45847  23508861.6504   23508867.8674   23508861.7654
        45.000          39.000
 125874221.49447  98083766.42547  23953099.7224   23953107.6684   23953099.9584
        43.000          37.000
 123410366.96547  96163919.68347  23484214.2254   23484215.5324   23484213.8884
        46.000          40.000
 125676283.86547  97929558.43947  23915410.4364   23915414.8744   23915409.8934
        44.000          39.000
 119822231.20347  93367957.65647  22801422.1244   22801427.9394   22801422.4714
        48.000          42.000
 120220640.58447  93678403.93147  22877242.6534   22877245.4764   22877243.1974
        48.000          41.000
 113306992.10147  88291150.15247  21561612.6354   21561615.5354   21561612.0804
        53.000          47.000
 128644041.27147 100242082.70447  24480168.9234   24480175.0774   24480168.6124
        44.000          39.000
 119795417.47247  93347055.04547  22796328.7374   22796333.4524   22796327.9844
        48.000          42.000
 105055704.61447  81861564.97747  19991452.6264   19991455.2524   19991453.0214
        54.000          49.000
 09  1 21  0 38 30.0000000  0 12G 9G14G 5G 6G22G29G24G18G31G12G30G21
 126718126.89047  98741370.39547  24113679.2914   24113683.1864   24113679.4314
        43.000          38.000
 118093773.58347  92021103.59647  22472513.6724   22472517.3804   22472513.7554
        49.000          43.000
 123538662.01647  96263873.64247  23508640.3204   23508646.3734   23508640.8394
        45.000          39.000
 125854126.01747  98068107.59947  23949276.7034   23949283.2694   23949276.4244
        42.000          37.000
 123365198.19747  96128723.23647  23475619.0214   23475619.8564   23475619.0614
        46.000          40.000
 125743231.36147  97981725.33447  23928149.9264   23928154.3404   23928150.0564
        44.000          39.000
 119901920.07447  93430052.89547  22816586.5484   22816592.1464   22816586.6014
        48.000          42.000
 120183181.77947  93649215.23747  22870114.4954   22870117.1264   22870114.6814
        48.000          41.000
 113229883.90147  88231065.88747  21546939.2484   21546942.4544   21546938.9574
        53.000          47.000
 128656365.66547 100251686.14047  24482514.2844   24482520.1444   24482513.9494
        43.000          39.000
 119769624.86247  93326956.92047  22791420.1264   22791424.9934   22791420.0134
        49.000          43.000
 105073071.57747  81875097.66047  19994757.3724   19994760.2174   19994757.7584
        54.000          49.000
 09  1 21  0 39  0.0000000  0 12G 9G14G 5G 6G22G29G24G18G31G12G30G21
 126822695.27147  98822852.29847  24133578.0094   24133581.5354   24133577.9514
        44.000          38.000
 118132245.97147  92051082.09547  22479834.7324   22479838.1294   22479834.9764
        49.000          43.000
 123537732.37847  96263149.25347  23508463.8104   23508469.6314   23508464.0814
        45.000          40.000
 125834270.77547  98052635.97347  23945498.3024   23945504.6034   23945498.2094
        43.000          37.000
 123319847.02047  96093384.65747  23466988.9894   23466990.4334   23466989.0334
        47.000          40.000
 125810009.08847  98033759.94447  23940857.2944   23940861.6944   23940857.4944
        44.000          39.000
 119981930.32747  93492398.56647  22831811.7984   22831817.6464   22831811.6794
        48.000          42.000
 120145684.86047  93619996.82047  22862978.7644   22862982.1264   22862979.1954
        48.000          41.000
 113153168.07847  88171287.36147  21532340.7014   21532343.8124   21532340.0274
        53.000          47.000
 128668896.47947 100261450.41647  24484898.9524   24484904.6274   24484898.9804
        44.000          38.000
 119743919.88247  93306927.07347  22786528.7494   22786533.5884   22786528.3764
        49.000          42.000
 105091054.45047  81889110.27847  19998179.3774   19998182.2064   19998179.7574
        54.000          49.000
 09  1 21  0 39 30.0000000  0 12G 9G14G 5G 6G22G29G24G18G31G12G30G21
 126927456.95247  98904484.82147  24153513.3684   24153516.9124   24153513.7004
        43.000          38.000
 118170840.16047  92081155.48747  22487178.8124   22487182.2644   22487179.0614
        49.000          43.000
 123537037.08947  96262607.47447  23508331.7074   23508337.0634   23508332.4874
        45.000          39.000
 125814654.21547  98037350.34047  23941764.7394   23941771.4664   23941764.8514
        43.000          37.000
 123274313.70847  96057904.15547  23458324.1104   23458325.5364   23458324.0334
        47.000          41.000
 125876614.65847  98085660.42847  23953532.3684   23953536.3384   23953531.9454
        44.000          39.000
 120062259.28047  93554992.56147  22847097.7224   22847103.5924   22847097.9174
        48.000          41.000
 120108151.48047  93590749.99347  22855836.3094   22855839.8964   22855836.7904
        48.000          41.000
 113076846.68447  88111816.18947  21517817.3464   21517820.2644   21517817.3344
        53.000          47.000
 128681635.13447 100271376.65247  24487323.1264   24487329.0354   24487322.8504
        43.000          38.000
 119718304.37047  93286966.95447  22781654.2014   22781659.1854   22781653.8604
        49.000          42.000
 105109651.48347  81903601.45647  20001718.2654   20001721.1714   20001718.6924
        54.000          49.000
 09  1 21  0 40  0.0000000  0 12G 9G14G 5G 6G22G29G24G18G31G12G30G21
 127032412.45347  98986268.39247  24173485.5824   24173489.1254   24173485.9184
        43.000          37.000
 118209556.60447  92111324.15147  22494546.2594   22494549.6634   22494546.6234
        49.000          43.000
 123536581.11747  96262252.16447  23508244.5254   23508250.5684   23508245.4874
        45.000          40.000
 125795277.93747  98022251.91047  23938078.3594   23938084.6394   23938078.2494
        42.000          37.000
 123228602.59447  96022285.09747  23449625.6844   23449626.8704   23449625.5504
        47.000          41.000
 125943050.05647  98137428.31747  23966174.7794   23966178.3834   23966174.3424
        44.000          39.000
 120142907.72947  93617835.52147  22862444.6394   22862450.6394   22862444.6554
        48.000          41.000
 120070586.38747  93561478.46547  22848687.8584   22848691.2424   22848688.3214
        49.000          42.000
 113000925.61047  88052656.93847  21503370.0794   21503372.8764   21503369.3724
        53.000          47.000
 128694586.20947 100281468.39747  24489787.4534   24489793.0664   24489787.0684
        43.000          38.000
 119692783.69647  93267080.73447  22776797.7804   22776802.5414   22776797.5724
        49.000          42.000
 105128865.27847  81918573.23247  20005374.4634   20005377.2464   20005374.8334
        54.000          49.000
 09  1 21  0 40 30.0000000  0 12G 9G14G 5G 6G22G29G24G18G31G12G30G21
 127137555.88647  99068198.40047  24193493.4574   24193496.9114   24193493.8564
        42.000          37.000
 118248389.80247  92141583.78747  22501935.7344   22501939.3034   22501936.1044
        49.000          43.000
 123536363.30047  96262082.45147  23508203.2334   23508209.2214   23508203.4784
        45.000          40.000
 125776137.81547  98007337.54647  23934435.5694   23934442.6264   23934435.4314
        43.000          38.000
 123182711.82247  95986526.05747  23440893.1454   23440894.4004   23440893.3774
        47.000          41.000
 126009311.31847  98189060.49747  23978783.9534   23978787.5434   23978783.5304
        44.000          39.000
 120223870.56747  93680923.46147  22877851.2414   22877857.2474   22877851.2234
        48.000          41.000
 120032989.07147  93532181.82647  22841533.4514   22841536.9504   22841533.8384
        48.000          42.000
 112925404.39747  87993809.27447  21488998.9454   21489001.4934   21488998.6464
        53.000          47.000
 128707748.33947 100291724.61347  24492292.4844   24492297.7544   24492292.1284
        44.000          38.000
 119667357.00647  93247267.75647  22771959.4794   22771964.2494   22771958.9934
        49.000          42.000
 105148692.64047  81934023.10947  20009147.4454   20009150.3244   20009147.8184
        54.000          49.000
 09  1 21  0 41  0.0000000  0 12G 9G14G 5G 6G22G29G24G18G31G12G30G21
 127242883.27547  99150271.76247  24213536.8424   24213540.2434   24213536.9444
        42.000          36.000
 118287336.05247  92171931.51547  22509346.9824   22509350.7284   22509347.4324
        49.000          43.000
 123536384.51347  96262098.98447  23508207.1044   23508213.1514   23508207.6954
        45.000          39.000
 125757231.28847  97992605.15947  23930838.4684   23930844.6204   23930838.5264
        43.000          38.000
 123136641.41047  95950627.02447  23432125.8384   23432127.4874   23432125.8454
        46.000          41.000
 126075396.04347  98240555.09847  23991359.0734   23991362.9484   23991358.3784
        44.000          39.000
 120305144.52747  93744253.82347  22893317.1364   22893323.1014   22893317.3194
        48.000          41.000
 119995360.74747  93502861.03747  22834373.1354   22834376.4964   22834373.5504
        49.000          42.000
 112850284.77447  87935274.54047  21474703.9244   21474706.4684   21474703.4494
        53.000          47.000
 128721121.84347 100302145.50647  24494837.1734   24494842.6634   24494836.7134
        43.000          38.000
 119642025.85447  93227529.22647  22767138.8324   22767143.8914   22767138.5084
        50.000          43.000
 105169131.79047  81949949.70347  20013036.8584   20013039.8784   20013037.2224
        54.000          49.000
 09  1 21  0 41 30.0000000  0 12G 9G14G 5G 6G22G29G24G18G31G12G30G21
 127348395.00747  99232488.75447  24233614.6334   24233618.3994   24233615.3334
        42.000          36.000
 118326396.10547  92202367.91947  22516779.8324   22516783.8594   22516780.2194
        49.000          43.000
 123536650.06747  96262305.91347  23508257.3414   23508263.2074   23508257.6474
        44.000          39.000
 125738560.38947  97978056.41447  23927284.7634   23927291.1474   23927284.8584
        43.000          37.000
 123090395.69847  95914591.41647  23423325.3494   23423327.1774   23423325.2674
        47.000          41.000
 126141306.19747  98291913.68247  24003901.3354   24003905.9674   24003901.1154
        44.000          39.000
 120386730.74647  93807827.52447  22908842.2824   22908848.2884   22908842.3764
        47.000          41.000
 119957706.17947  93473519.80047  22827207.4604   22827211.3534   22827207.8624
        49.000          42.000
 112775572.79147  87877057.44847  21460486.7004   21460489.3224   21460486.2164
        53.000          47.000
 128734711.86447 100312735.16747  24497423.1484   24497428.5114   24497423.5464
        44.000          38.000
 119616795.87247  93207869.52847  22762338.0944   22762342.5544   22762337.9314
        49.000          42.000
 105190185.48647  81966355.16547  20017043.4894   20017046.3154   20017043.9104
        54.000          49.000
 09  1 21  0 42  0.0000000  0 12G 9G14G 5G 6G22G29G24G18G31G12G30G21
 127454083.82847  99314843.74547  24253726.5934   24253730.0174   24253727.1264
        41.000          36.000
 118365563.16247  92232887.70647  22524233.2034   22524236.9824   22524233.4444
        49.000          43.000
 123537157.49847  96262701.32447  23508353.9964   23508359.9864   23508354.3784
        45.000          39.000
 125720119.54247  97963686.89947  23923776.4484   23923782.4894   23923776.4554
        43.000          37.000
 123043971.73747  95878416.90447  23414491.5424   23414493.0584   23414491.6134
        47.000          41.000
 126207036.50847  98343132.15447  24016409.2224   24016413.8704   24016408.5654
        44.000          39.000
 120468622.82247  93871639.53847  22924425.5214   22924432.1384   22924425.6614
        47.000          41.000
 119920023.80847  93444156.90147  22820037.0694   22820040.2524   22820037.5094
        49.000          42.000
 112701266.17247  87819156.22747  21446346.4964   21446349.1484   21446346.2704
        53.000          47.000
 128748515.66447 100323491.38247  24500049.5444   24500055.7934   24500049.3674
        44.000          38.000
 119591665.19247  93188287.20847  22757555.8214   22757560.5904   22757555.3354
        49.000          43.000
 105211849.03347  81983235.83647  20021165.8314   20021168.8324   20021166.2924
        54.000          49.000
 09  1 21  0 42 30.0000000  0 12G 9G14G 5G 6G22G29G24G18G31G12G30G21
 127559950.50847  99397337.31847  24273873.0474   24273875.9924   24273872.9914
        39.000          36.000
 118404838.11747  92263491.57647  22531706.9994   22531710.6254   22531706.9194
        48.000          43.000
 123537912.15647  96263289.36547  23508497.8274   23508503.8194   23508498.5434
        45.000          39.000
 125701910.80447  97949498.26347  23920310.9284   23920317.0044   23920310.4634
        41.000          37.000
 122997374.21447  95842107.14947  23405624.1044   23405626.1134   23405624.1894
        47.000          41.000
 126272588.97747  98394212.03447  24028883.3654   24028887.4924   24028883.3594
        44.000          39.000
 120550821.75947  93935690.66247  22940067.6314   22940073.8224   22940067.2074
        47.000          41.000
 119882318.85847  93414776.38247  22812862.3104   22812864.9524   22812862.4734
        49.000          42.000
 112627371.26947  87761575.81447  21432284.6594   21432287.4494   21432284.3604
        53.000          47.000
 128762538.10047 100334417.99147  24502718.7814   24502723.8234   24502718.3114
        44.000          38.000
 119566639.42747  93168786.64147  22752793.7314   22752798.2924   22752793.4164
        49.000          43.000
 105234125.19547  82000593.87347  20025404.8604   20025407.8574   20025405.2194
        54.000          49.000
 09  1 21  0 43  0.0000000  0 12G 9G14G 5G 6G22G29G24G18G31G12G30G21
 127665992.38147  99479967.41247  24294051.0824   24294055.3414   24294051.0464
        40.000          36.000
 118444218.30147  92294177.42747  22539200.7934   22539204.6124   22539201.0734
        49.000          43.000
 123538915.98947  96264071.58347  23508688.7984   23508694.6494   23508689.6184
        45.000          39.000
 125683932.95147  97935489.55447  23916889.5004   23916896.3444   23916889.8044
        43.000          37.000
 122950604.04347  95805662.87247  23396724.2284   23396725.7614   23396724.0964
        47.000          42.000
 126337962.44747  98445152.43747  24041323.7964   24041327.2694   24041323.7414
        44.000          38.000
 120633325.44147  93999979.25947  22955767.6544   22955773.8064   22955767.6684
        46.000          41.000
 119844593.59447  93385380.05547  22805683.3994   22805685.9814   22805683.8304
        49.000          42.000
 112553890.66847  87704318.23647  21418301.5224   21418304.7974   21418300.9994
        52.000          47.000
 128776780.98447 100345516.36947  24505428.1054   24505433.8614   24505427.4544
        44.000          38.000
 119541720.95947  93149369.68547  22748051.5284   22748056.4294   22748051.1674
        49.000          43.000
 105257013.42847  82018428.84647  20029760.3444   20029763.3214   20029760.7194
        54.000          49.000
 09  1 21  0 43 30.0000000  0 12G 9G14G 5G 6G22G29G24G18G31G12G30G21
 127772205.79947  99562731.15947  24314262.7974   24314267.2614   24314262.1514
        38.000          35.000
 118483700.62047  92324942.87047  22546714.0704   22546717.8574   22546714.2774
        49.000          43.000
 123540170.20447  96265048.88647  23508927.1054   23508934.1284   23508927.6754
        44.000          39.000
 125666183.90247  97921659.12847  23913512.4554   23913518.4734   23913512.1364
        43.000          38.000
 122903661.70347  95769084.43847  23387791.5704   23387793.0024   23387791.7664
        48.000          42.000
 126403155.13947  98495951.96947  24053729.2294   24053733.0434   24053729.2774
        44.000          39.000
 120716131.23147  94064503.27647  22971524.9324   22971531.0544   22971524.8254
        47.000          40.000
 119806849.64347  93355969.15347  22798500.8174   22798503.8454   22798501.3254
        49.000          42.000
 112480826.26247  87647384.97347  21404397.8804   21404401.2344   21404397.6144
        53.000          47.000
 128791245.01347 100356787.07447  24508180.9204   24508186.6514   24508180.7454
        44.000          38.000
 119516911.58347  93130037.73747  22743330.3304   22743335.4614   22743329.9974
        49.000          43.000
 105280512.05847  82036739.45747  20034231.9224   20034235.0324   20034232.3034
        54.000          49.000
 09  1 21  0 44  0.0000000  0 12G 9G14G 5G 6G22G29G24G18G31G12G30G21
 127878585.52847  99645624.50347  24334505.8924   24334510.0094   24334506.8504
        39.000          35.000
 118523280.32147  92355784.18647  22554245.8614   22554249.5494   22554245.8624
        48.000          43.000
 123541674.29047  96266220.89747  23509213.3064   23509219.8274   23509214.0324
        44.000          39.000
 125648660.06747  97908004.17647  23910177.7544   23910184.0204   23910177.8224
        43.000          38.000
 122856546.07247  95732370.98347  23378825.9424   23378827.1474   23378826.2514
        48.000          42.000
 126468163.61847  98546607.96547  24066100.0154   24066104.1534   24066099.9394
        44.000          39.000
 120799234.54547  94129259.12747  22987339.0074   22987345.0284   22987339.0654
        47.000          40.000
 119769086.71447  93326543.46447  22791314.7684   22791317.7484   22791315.3574
        49.000          42.000
 112408178.21947  87590776.13547  21390573.3704   21390576.5734   21390573.0964
        53.000          47.000
 128805929.73247 100368229.75447  24510975.1024   24510981.1694   24510974.9824
        43.000          38.000
 119492211.19847  93110790.71347  22738630.1934   22738634.8134   22738629.9344
        49.000          43.000
 105304618.31647  82055523.54247  20038819.1504   20038822.2034   20038819.4944
        54.000          49.000
 09  1 21  0 44 30.0000000  0 12G 9G14G 5G 6G22G29G24G18G31G12G30G21
 127985132.15947  99728647.92747  24354781.6834   24354785.5564   24354782.3094
        40.000          35.000
 118562957.88047  92386701.76447  22561795.8864   22561799.9264   22561795.9414
        48.000          43.000
 123543433.60847  96267591.78047  23509548.1614   23509554.5544   23509548.5354
        45.000          39.000
 125631363.32947  97894526.19547  23906886.5344   23906893.0544   23906886.6204
        43.000          38.000
 122809262.05347  95695526.30847  23369827.9584   23369829.3304   23369828.0504
        48.000          42.000
 126532990.25447  98597122.25747  24078436.1694   24078440.3564   24078435.9974
        45.000          39.000
 120882636.38447  94194247.59247  23003209.8194   23003215.8624   23003209.9204
        47.000          41.000
 119731310.52847  93297107.46747  22784126.0864   22784129.1574   22784126.5924
        48.000          42.000
 112335952.57247  87534496.44247  21376829.5544   21376832.4504   21376829.1674
        53.000          47.000
 128820839.81147 100379848.05147  24513812.6524   24513818.0484   24513812.1284
        44.000          38.000
 119467625.63347  93091633.13947  22733951.3744   22733956.8064   22733951.1904
        49.000          43.000
 105329334.94047  82074783.23447  20043522.6084   20043525.6764   20043523.0244
        54.000          49.000
 09  1 21  0 45  0.0000000  0 12G 9G14G 5G 6G22G29G24G18G31G12G30G21
 128091841.89047  99811798.42747  24375087.9264   24375091.4724   24375087.7914
        41.000          35.000
 118602729.98647  92417693.00947  22569364.5554   22569368.3404   22569364.6604
        49.000          43.000
 123545449.02147  96269162.23547  23509932.4304   23509937.9234   23509932.9214
        45.000          39.000
 125614291.33547  97881223.34347  23903637.7774   23903644.2084   23903638.0354
        44.000          38.000
 122761809.76447  95658550.51247  23360798.0574   23360799.4534   23360797.9424
        47.000          42.000
 126597632.73847  98647493.06647  24090737.0864   24090741.4994   24090736.9884
        45.000          39.000
 120966333.55547  94259466.18047  23019137.0354   23019143.1254   23019137.1424
        47.000          40.000
 119693522.07947  93267661.90847  22776935.0294   22776938.5764   22776935.3384
        48.000          42.000
 112264150.90147  87478547.12047  21363166.1504   21363168.9604   21363166.0054
        53.000          47.000
 128835975.84847 100391642.40747  24516693.5104   24516698.4244   24516693.2764
        44.000          38.000
 119443156.18047  93072566.05347  22729294.9574   22729300.4034   22729294.4844
        49.000          43.000
 105354660.07747  82094517.09347  20048341.9164   20048344.8224   20048342.2564
        54.000          49.000
 09  1 21  0 45 30.0000000  0 12G 9G14G 5G 6G22G29G24G18G31G12G30G21
 128198710.69247  99895072.84947  24395423.5764   24395427.8034   24395423.4224
        40.000          35.000
 118642593.01047  92448755.10447  22576950.3744   22576953.8484   22576950.6594
        48.000          43.000
 123547721.32047  96270932.84847  23510364.4244   23510370.0134   23510365.0034
        45.000          39.000
 125597441.74047  97868093.79247  23900431.2054   23900437.6184   23900431.2884
        43.000          38.000
 122714189.47547  95621443.81047  23351735.7404   23351737.4494   23351735.8624
        48.000          42.000
 126662089.17347  98697718.91047  24103003.0934   24103006.8284   24103003.1404
        43.000          39.000
 121050322.76547  94324912.35247  23035119.5234   23035125.7834   23035119.7734
        47.000          40.000
 119655722.71147  93238207.82447  22769742.4974   22769745.8074   22769742.8224
        49.000          42.000
 112192774.66147  87422929.30347  21349583.6214   21349586.4754   21349583.2084
        53.000          47.000
 128851338.39547 100403613.27547  24519616.3704   24519621.1114   24519616.1594
        43.000          38.000
 119418804.07347  93053590.39847  22724660.9414   22724665.8894   22724660.5424
        49.000          43.000
 105380591.91647  82114723.70947  20053276.5154   20053279.4474   20053276.9154
        54.000          49.000
 09  1 21  0 46  0.0000000  0 12G 9G14G 5G 6G22G29G24G18G31G12G30G21
 128305736.39647  99978469.56547  24415789.4214   24415794.2224   24415789.9624
        40.000          35.000
 118682544.99847  92479886.50547  22584552.8744   22584556.6884   22584553.2964
        49.000          43.000
 123550252.68147  96272905.32647  23510846.0364   23510852.3124   23510846.5044
        45.000          39.000
 125580813.64947  97855136.83647  23897266.8544   23897273.0754   23897266.7954
        43.000          38.000
 122666402.50847  95584207.22747  23342642.3184   23342643.7714   23342642.4844
        48.000          42.000
 126726358.50247  98747798.93347  24115232.8514   24115236.7214   24115232.4094
        44.000          38.000
 121134601.96247  94390584.46747  23051157.3114   23051163.5224   23051157.8874
        47.000          41.000
 119617914.88947  93208747.16847  22762547.9764   22762550.9434   22762548.3384
        48.000          42.000
 112121826.63847  87367645.15947  21336082.6674   21336085.3704   21336082.1054
        53.000          47.000
 128866929.27147 100415762.03847  24522582.7204   24522589.2514   24522582.3454
        43.000          38.000
 119394572.05847  93034708.32047  22720049.9384   22720054.8584   22720049.6284
        49.000          43.000
 105407129.95247  82135402.69147  20058326.6684   20058329.4834   20058327.1754
        54.000          49.000
 09  1 21  0 46 30.0000000  0 12G 9G14G 5G 6G22G29G24G18G31G12G30G21
 128412916.72247 100061986.76747  24436186.2624   24436189.1864   24436186.3534
        40.000          35.000
 118722584.23747  92511085.90747  22592172.0034   22592175.5844   22592172.4074
        48.000          42.000
 123553045.98847  96275081.92647  23511377.2734   23511383.7454   23511377.9104
        45.000          39.000
 125564406.43647  97842351.99647  23894145.0614   23894151.2304   23894145.3204
        44.000          38.000
 122618451.40447  95546842.74347  23333517.4374   23333519.2624   23333517.6564
        47.000          42.000
 126790440.64047  98797733.11747  24127426.9514   24127431.0034   24127426.6904
        44.000          39.000
 121219169.96647  94456481.64347  23067250.2814   23067256.5924   23067250.1574
        47.000          40.000
 119580101.75947  93179282.37347  22755352.0774   22755355.6784   22755352.3064
        49.000          42.000
 112051310.36847  87312697.45147  21322663.7404   21322666.5804   21322663.5564
        53.000          47.000
 128882751.01047 100428090.70947  24525593.7004   24525599.2954   24525593.0704
        43.000          37.000
 119370463.67247  93015922.59947  22715462.1674   22715467.2614   22715462.0124
        50.000          43.000
 105434274.25447  82156554.08947  20063492.0904   20063494.9224   20063492.4854
        54.000          49.000
 09  1 21  0 47  0.0000000  0 12G 9G14G 5G 6G22G29G24G18G31G12G30G21
 128520248.46247 100145621.97847  24456609.7524   24456614.0874   24456611.2474
        41.000          34.000
 118762707.71747  92542350.95347  22599807.1824   22599810.6504   22599807.4534
        48.000          43.000
 123556102.57547  96277463.67347  23511959.4244   23511965.2984   23511959.7964
        46.000          40.000
 125548218.20147  97829737.80947  23891064.0834   23891070.4314   23891064.1424
        44.000          38.000
 122570336.84647  95509350.89347  23324361.6544   23324363.2724   23324361.7004
        48.000          42.000
 126854334.09547  98847520.26247  24139585.5754   24139589.9434   24139585.4164
        44.000          39.000
 121304024.03947  94522601.72647  23083397.4744   23083403.7534   23083397.8084
        47.000          41.000
 119542285.01947  93149814.74147  22748156.0324   22748159.4844   22748156.3464
        49.000          42.000
 111981227.73947  87258087.63947  21309327.2764   21309330.4014   21309326.5474
        52.000          48.000
 128898804.70447 100440600.12747  24528648.3104   24528654.1024   24528648.0004
        43.000          37.000
 119346480.94347  92997234.77147  22710898.2354   22710903.1464   22710898.1034
        49.000          43.000
 105462023.53647  82178176.90147  20068772.5744   20068775.5934   20068772.9964
        54.000          49.000
 09  1 21  0 47 30.0000000  0 12G 9G14G 5G 6G22G29G24G18G31G12G30G21
 128627728.71347 100229372.86947  24477064.4294   24477067.2574   24477063.5964
        39.000          34.000
 118802912.45447  92573679.29847  22607458.0904   22607461.8924   22607458.5114
        48.000          43.000
 123559423.73747  96280051.58447  23512591.1304   23512597.7504   23512592.0084
        45.000          40.000
 125532247.13147  97817292.81047  23888025.2264   23888031.2944   23888025.3214
        43.000          38.000
 122522059.63547  95471732.28847  23315175.0354   23315176.2194   23315175.2944
        48.000          42.000
 126918037.39147  98897159.24647  24151708.1504   24151712.3434   24151708.0134
        44.000          39.000
 121389161.51947  94588942.65547  23099598.5454   23099604.9204   23099598.6354
        47.000          41.000
 119504466.45847  93120345.70747  22740959.6634   22740962.6514   22740960.3024
        49.000          42.000
 111911580.85247  87203817.37447  21296074.1234   21296077.1514   21296073.6714
        53.000          48.000
 128915091.12347 100453290.87247  24531747.8654   24531753.0144   24531747.3724
        43.000          37.000
 119322625.59147  92978646.19547  22706359.0214   22706363.6744   22706358.9084
        50.000          43.000
 105490376.55047  82200270.15447  20074167.9634   20074171.0034   20074168.3424
        54.000          49.000
 09  1 21  0 48  0.0000000  0 12G 9G14G 5G 6G22G29G24G18G31G12G30G21
 138735397.76657  90313280.83057  24497542.6905   24497548.1785   24497542.9965
        39.000          34.000
 118843194.29547  92605067.74247  22615123.5544   22615127.2464   22615123.8884
        48.000          43.000
 123563009.83647  96282845.95747  23513273.4854   23513279.9814   23513274.2034
        45.000          40.000
 125516490.26247  97805014.74247  23885026.5354   23885033.1654   23885026.2224
        44.000          38.000
 122473619.72447  95433986.91147  23305957.0454   23305958.4374   23305957.1604
        48.000          42.000
 126981548.15647  98946648.20247  24163794.0464   24163797.6954   24163793.4264
        45.000          39.000
 121474578.63347  94655501.47647  23115852.8684   23115859.1114   23115853.0724
        47.000          41.000
 119466647.07747  93090876.02047  22733762.7914   22733765.9244   22733763.1674
        49.000          42.000
 111842370.68347  87149887.41247  21282903.7114   21282906.9374   21282903.5204
        53.000          48.000
 128931610.56147 100466163.20447  24534891.4224   24534896.1784   24534891.0494
        42.000          37.000
 119298898.73047  92960157.73647  22701844.2444   22701848.8004   22701843.8484
        49.000          43.000
 105519330.88847  82222831.96947  20079677.7454   20079680.7414   20079678.1524
        54.000          49.000
 09  1 21  0 48 30.0000000  0 11G14G 5G 6G22G29G24G18G31G12G30G21
 118883553.66347  92636516.59047  22622803.6194   22622807.2964   22622803.8564
        48.000          42.000
 123566865.27447  96285850.19447  23514007.5654   23514013.5014   23514008.0624
        46.000          40.000
 125500948.89747  97792904.58747  23882069.2594   23882075.3784   23882069.4884
        43.000          38.000
 122425021.10347  95396117.85047  23296709.1934   23296710.2584   23296709.2504
        48.000          41.000
 127044867.72447  98995988.18347  24175843.1294   24175846.7874   24175842.8374
        44.000          39.000
 121560275.55747  94722278.34647  23132160.4084   23132166.6224   23132160.5884
        47.000          40.000
 119428831.24547  93061409.11147  22726566.5274   22726569.7634   22726566.9924
        49.000          42.000
 111773602.06547  87096301.50747  21269817.4794   21269820.5294   21269816.7724
        53.000          48.000
 128948366.82647 100479220.06847  24538079.8414   24538084.9494   24538079.3434
        43.000          37.000
 119275305.00847  92941773.02847  22697354.1624   22697358.8284   22697354.1644
        50.000          43.000
 105548888.25147  82245863.67547  20085302.3944   20085305.1674   20085302.7194
        54.000          49.000
 09  1 21  0 49  0.0000000  0 11G14G 5G 6G22G29G24G18G31G12G30G21
 118923987.21047  92668023.24647  22630497.8104   22630501.3574   22630498.1094
        48.000          42.000
 123570991.28147  96289065.27047  23514792.5974   23514798.7144   23514793.1084
        45.000          40.000
 125485620.92147  97780960.71647  23879152.0274   23879158.9904   23879151.8174
        44.000          38.000
 122376264.24547  95358125.51047  23287431.1814   23287432.2754   23287431.1224
        48.000          41.000
 127107994.63247  99045178.03647  24187855.2234   24187859.5084   24187855.0694
        44.000          39.000
 121646249.63547  94789271.17347  23148520.8064   23148526.8634   23148520.8324
        47.000          40.000
 119391020.97447  93031946.53647  22719371.1954   22719374.9724   22719371.8034
        49.000          42.000
 111705276.93747  87043061.18947  21256815.5134   21256818.6124   21256815.3904
        53.000          48.000
 128965361.02347 100492462.35847  24541314.1354   24541319.0054   24541314.0794
        43.000          37.000
 119251846.31347  92923493.53847  22692890.6274   22692894.6644   22692890.3514
        50.000          43.000
 105579046.86947  82269363.89547  20091041.3774   20091044.1904   20091041.7904
        54.000          49.000
 09  1 21  0 49 30.0000000  0 11G14G 5G 6G22G29G24G18G31G12G30G21
 118964492.00547  92699585.41747  22638205.8354   22638209.1104   22638205.8974
        48.000          42.000
 123575389.03747  96292492.09647  23515629.5414   23515635.5424   23515629.7244
        45.000          40.000
 125470504.38847  97769181.61247  23876275.9274   23876282.7044   23876275.8384
        44.000          38.000
 122327350.10847  95320010.58347  23278123.0354   23278124.2054   23278123.0054
        48.000          41.000
 127170927.25947  99094216.52647  24199830.8784   24199835.3144   24199830.7994
        44.000          39.000
 121732497.86947  94856477.61547  23164933.3734   23164939.0184   23164933.2764
        46.000          40.000
 119353217.99047  93002489.63347  22712177.8884   22712180.8874   22712178.2374
        49.000          42.000
 111637397.36347  86990168.04847  21243898.2474   21243901.5744   21243897.6474
        53.000          48.000
 128982594.02847 100505890.68347  24544593.0904   24544598.3304   24544593.0124
        43.000          37.000
 119228524.47647  92905320.67847  22688452.5054   22688456.6794   22688452.1344
        50.000          43.000
 105609805.24047  82293331.45247  20096894.3634   20096897.3904   20096894.6834
        54.000          49.000
 09  1 21  0 50  0.0000000  0 11G14G 5G 6G22G29G24G18G31G12G30G21
 119005066.39747  92731201.82247  22645926.8494   22645930.3584   22645927.1554
        48.000          42.000
 123580061.32447  96296132.85247  23516518.3794   23516524.3294   23516518.7774
        45.000          40.000
 125455598.69947  97757566.80847  23873439.0874   23873445.9994   23873439.2394
        44.000          38.000
 122278281.01547  95281774.92247  23268785.2904   23268786.9214   23268785.1864
        47.000          41.000
 127233665.60647  99143103.60047  24211770.0974   24211773.9024   24211769.7164
        44.000          39.000
 121819018.96547  94923896.69147  23181397.6114   23181403.5214   23181397.6484
        47.000          40.000
 119315425.42347  92973040.84447  22704986.3174   22704989.2174   22704986.5594
        49.000          42.000
 111569966.57047  86937624.61047  21231066.7884   21231069.7754   21231066.5984
        53.000          48.000
 129000068.09147 100519506.88647  24547917.5844   24547923.8234   24547918.0034
        43.000          37.000
 119205342.88147  92887257.10447  22684041.0414   22684045.6014   22684040.8774
        50.000          43.000
 105641163.37647  82317766.35747  20102861.6604   20102864.5974   20102862.0754
        54.000          49.000
 09  1 21  0 50 30.0000000  0 11G14G 5G 6G22G29G24G18G31G12G30G21
 119045706.92447  92762869.75947  22653660.2494   22653664.0094   22653660.2074
        48.000          42.000
 123585008.74147  96299987.97347  23517460.0284   23517465.9514   23517460.2294
        46.000          40.000
 125440901.28847  97746114.30447  23870642.2504   23870649.2314   23870642.2864
        44.000          38.000
 122229056.99347  95243418.55047  23259418.0404   23259419.7704   23259418.0694
        48.000          41.000
 127296207.34847  99191837.48647  24223671.0404   24223675.6154   24223671.1404
        44.000          39.000
 121905809.29047  94991525.55047  23197913.1584   23197919.3684   23197913.5324
        47.000          40.000
 119277644.29947  92943600.98647  22697796.6294   22697799.7344   22697797.2824
        49.000          42.000
 111502985.57847  86885431.66847  21218320.6874   21218323.5744   21218320.2744
        53.000          48.000
 129017783.85547 100533311.42647  24551289.9114   24551294.5994   24551289.8614
        43.000          37.000
 119182302.35047  92869303.45947  22679656.6044   22679660.9044   22679656.1184
        50.000          43.000
 105673118.93347  82342666.79047  20108942.5254   20108945.6154   20108942.8964
        54.000          49.000
 09  1 21  0 51  0.0000000  0 11G14G 5G 6G22G29G24G18G31G12G30G21
 119086410.31247  92794586.68647  22661405.7394   22661409.8514   22661405.9704
        48.000          42.000
 123590232.43147  96304058.39047  23518454.2294   23518460.1744   23518454.6984
        45.000          40.000
 125426410.00147  97734822.40347  23867885.2154   23867890.9144   23867885.1504
        43.000          38.000
 122179678.77147  95204942.00747  23250021.8844   23250023.4044   23250021.7104
        47.000          41.000
 127358551.15147  99240417.14847  24235534.7624   24235539.0504   24235534.4894
        44.000          39.000
 121992866.05247  95059362.01647  23214479.9434   23214485.1054   23214479.9444
        47.000          40.000
 119239876.40447  92914171.43547  22690609.6954   22690612.8744   22690610.3194
        49.000          42.000
 111436456.37147  86833590.76247  21205660.6494   21205663.6314   21205660.0534
        53.000          48.000
 129035741.86247 100547304.71347  24554706.9094   24554712.2444   24554706.3294
        42.000          37.000
 119159404.84447  92851461.24747  22675299.4364   22675303.7034   22675299.0324
        50.000          43.000
 105705670.20247  82368031.41547  20115136.7824   20115139.8474   20115137.1334
        54.000          49.000
 09  1 21  0 51 30.0000000  0 11G14G 5G 6G22G29G24G18G31G12G30G21
 119127176.24447  92826352.34047  22669163.0604   22669167.4364   22669163.3134
        48.000          42.000
 123595736.23547  96308347.08347  23519501.3964   23519507.7654   23519501.3434
        46.000          40.000
 125412125.63847  97723691.74647  23865166.2524   23865172.2834   23865166.4834
        43.000          37.000
 122130150.31047  95166348.38447  23240596.7844   23240598.5174   23240596.8364
        48.000          41.000
 127420698.25047  99288843.51747  24247361.1144   24247364.9094   24247360.7264
        44.000          39.000
 122080188.89547  95127405.84047  23231096.9764   23231102.0944   23231097.1714
        46.000          40.000
 119202126.06547  92884755.56347  22683425.9954   22683429.3034   22683426.4794
        49.000          42.000
 111370383.30147  86782105.29547  21193087.3954   21193090.2064   21193087.1324
        54.000          48.000
 129053945.70047 100561489.56447  24558170.7404   24558176.0894   24558170.6134
        42.000          37.000
 119136655.16347  92833734.23347  22670970.1364   22670974.6074   22670969.8674
        50.000          43.000
 105738818.52747  82393861.27347  20121444.8284   20121447.8394   20121445.2924
        54.000          49.000
 09  1 21  0 52  0.0000000  0 11G14G 5G 6G22G29G24G18G31G12G30G21
 119168001.36947  92858164.11747  22676932.3754   22676936.0104   22676932.5184
        48.000          42.000
 123601521.11647  96312854.80147  23520601.9984   23520608.4064   23520602.5184
        46.000          39.000
 125398045.70047  97712720.37647  23862487.5564   23862493.6704   23862487.0904
        43.000          38.000
 122080471.83247  95127637.86547  23231143.3934   23231144.7264   23231143.2844
        48.000          41.000
 127482646.45347  99337114.90247  24259149.5024   24259153.2654   24259149.5444
        44.000          39.000
 122167774.68747  95195654.53447  23247763.7404   23247769.3794   23247763.7634
        46.000          40.000
 119164394.96547  92855354.68447  22676246.1364   22676249.3224   22676246.4794
        49.000          42.000
 111304767.86847  86730976.42747  21180601.2174   21180604.0334   21180600.9504
        54.000          48.000
 129072395.73547 100575866.25547  24561681.3154   24561687.4924   24561680.9284
        41.000          37.000
 119114054.69547  92816123.49447  22666669.0144   22666674.0274   22666668.8484
        49.000          43.000
 105772561.58147  82420154.56047  20127865.9474   20127868.8984   20127866.2894
        54.000          49.000
 09  1 21  0 52 30.0000000  0 11G14G 5G 6G22G29G24G18G31G12G30G21
 119208881.40147  92890018.68347  22684711.6104   22684715.0784   22684711.8334
        48.000          42.000
 123607586.74947  96317581.27147  23521755.7594   23521762.6854   23521756.4844
        46.000          40.000
 125384166.98247  97701905.82547  23859846.2064   23859852.2234   23859846.2924
        43.000          38.000
 122030642.77347  95088810.01147  23221661.4514   23221662.6584   23221661.4184
        48.000          41.000
 127544393.28547  99385229.39247  24270898.7374   24270903.3134   24270898.9044
        44.000          39.000
 122255619.09547  95264104.77547  23264479.3604   23264485.4054   23264479.4464
        46.000          40.000
 119126683.34747  92825968.98747  22669069.8514   22669073.0514   22669070.3454
        49.000          42.000
 111239610.37547  86680204.39247  21168202.1694   21168204.9104   21168201.5984
        54.000          48.000
 129091091.67847 100590434.58747  24565239.7464   24565245.0134   24565239.5764
        42.000          37.000
 119091603.88647  92798629.36547  22662396.9014   22662401.8594   22662396.6324
        49.000          43.000
 105806895.86047  82446908.53547  20134399.5674   20134402.4054   20134399.9744
        54.000          49.000
 09  1 21  0 53  0.0000000  0 11G14G 5G 6G22G29G24G18G31G12G30G21
 119249816.07747  92921915.83347  22692501.3234   22692504.7424   22692501.5644
        48.000          42.000
 123613937.01047  96322529.54647  23522964.4404   23522970.8064   23522965.0974
        45.000          39.000
 125370489.97847  97691248.44547  23857243.5694   23857249.7414   23857243.7814
        44.000          38.000
 121980667.04747  95049867.85747  23212151.2014   23212152.2414   23212151.4854
        48.000          41.000
 127605939.99447  99433187.94647  24282610.7054   24282614.8014   24282610.8534
        44.000          39.000
 122343721.86747  95332756.32347  23281244.8614   23281250.7374   23281245.0464
        45.000          40.000
 119088995.74347  92796602.00747  22661897.9524   22661901.4564   22661898.4234
        49.000          42.000
 111174915.59547  86629792.91847  21155891.1334   21155893.6974   21155890.9124
        53.000          48.000
 129110036.91047 100605197.16147  24568844.5054   24568849.2684   24568844.0054
        42.000          37.000
 119069307.27047  92781255.38647  22658153.7094   22658158.6344   22658153.5494
        49.000          43.000
 105841822.87747  82474124.38947  20141045.9694   20141048.9784   20141046.2984
        54.000          49.000
 09  1 21  0 53 30.0000000  0 11G14G 5G 6G22G29G24G18G31G12G30G21
 119290802.96047  92953853.65147  22700300.4964   22700304.4674   22700300.8254
        48.000          43.000
 123620573.72247  96327700.99947  23524227.7344   23524233.7944   23524227.9654
        45.000          39.000
 125357013.25947  97680747.13047  23854679.0514   23854685.4334   23854679.3584
        43.000          38.000
 121930545.91247  95010812.40147  23202613.6494   23202614.8844   23202613.9594
        48.000          41.000
 127667285.67447  99480989.84947  24294284.9054   24294288.5524   24294284.1564
        43.000          38.000
 122432080.92947  95401607.58047  23298059.0264   23298064.7654   23298059.1774
        46.000          40.000
 119051334.68547  92767255.70047  22654731.4184   22654735.0404   22654732.0554
        49.000          42.000
 111110685.37047  86579743.43247  21143668.4434   21143671.0234   21143667.9154
        54.000          48.000
 129129232.97347 100620155.22247  24572497.4504   24572502.4514   24572497.1484
        42.000          37.000
 119047167.33047  92764003.48547  22653940.7874   22653945.4274   22653940.5634
        49.000          43.000
 105877341.39247  82501801.14747  20147804.9504   20147807.7694   20147805.4634
        54.000          49.000
 09  1 21  0 54  0.0000000  0 11G14G 5G 6G22G29G24G18G31G12G30G21
 119331838.17147  92985829.13747  22708109.2364   22708112.8304   22708109.3324
        48.000          42.000
 123627497.13847  96333095.86947  23525545.1884   23525551.1104   23525545.6624
        45.000          39.000
 125343733.91647  97670399.61547  23852151.9334   23852157.9424   23852151.7794
        44.000          38.000
 121880279.35047  94971643.61047  23193048.2634   23193049.4864   23193048.4334
        48.000          41.000
 127728427.83547  99528633.15247  24305919.7214   24305923.2234   24305919.2834
        43.000          38.000
 122520692.52947  95470655.62247  23314921.2244   23314926.8714   23314921.5594
        46.000          39.000
 119013700.65347  92737930.44147  22647570.0564   22647573.3614   22647570.4054
        49.000          42.000
 111046920.95947  86530056.92547  21131534.6344   21131537.1544   21131534.3884
        54.000          48.000
 129148679.76347 100635308.65847  24576198.6294   24576203.2714   24576198.1774
        43.000          37.000
 119025184.97147  92746874.38047  22649758.0664   22649762.4804   22649757.8464
        50.000          43.000
 105913448.62847  82529936.65247  20154675.6114   20154678.8904   20154675.9964
        54.000          49.000
 09  1 21  0 54 30.0000000  0 11G14G 5G 6G22G29G24G18G31G12G30G21
 119372920.27847  93017841.16447  22715927.1884   22715930.5674   22715927.2024
        48.000          42.000
 123634710.25947  96338716.48747  23526917.1684   23526923.6554   23526917.9794
        45.000          39.000
 125330651.69347  97660205.68347  23849662.3864   23849668.5894   23849662.6744
        43.000          38.000
 121829870.30047  94932363.79347  23183455.9404   23183457.2294   23183456.1804
        48.000          41.000
 127789366.96447  99576118.26147  24317515.9624   24317519.9124   24317515.8104
        44.000          39.000
 122609555.62547  95539899.64847  23331831.3344   23331837.2144   23331831.4894
        45.000          40.000
 118976097.34047  92708629.14647  22640414.2574   22640417.5184   22640414.4554
        49.000          42.000
 110983625.86147  86480736.10647  21119489.9424   21119492.3324   21119489.4444
        54.000          48.000
 129168380.06547 100650659.60347  24579946.4374   24579951.6134   24579946.2284
        42.000          37.000
 119003363.83047  92729870.90147  22645605.6894   22645610.2834   22645605.3824
        50.000          43.000
 105950144.47547  82558530.81347  20161658.6984   20161661.9484   20161659.0834
        54.000          49.000
 09  1 21  0 55  0.0000000  0 11G14G 5G 6G22G29G24G18G31G12G30G21
 119414047.38047  93049888.25347  22723753.4404   22723756.9604   22723753.7974
        48.000          42.000
 123642214.72647  96344564.12947  23528345.6944   23528351.8854   23528346.0894
        45.000          39.000
 125317765.08447  97650164.20447  23847210.4784   23847216.3904   23847210.9484
        44.000          38.000
 121779320.19047  94892974.05247  23173836.3204   23173837.9284   23173836.6424
        47.000          41.000
 127850102.57347  99623444.78547  24329074.1484   24329077.3164   24329073.9934
        44.000          38.000
 122698667.71347  95609337.69347  23348788.7734   23348794.4354   23348789.0554
        46.000          40.000
 118938527.37047  92679353.81747  22633264.5424   22633267.9334   22633264.8234
        49.000          42.000
 110920802.17247  86431782.61947  21107534.7384   21107537.2804   21107534.4704
        53.000          48.000
 129188335.13447 100666209.10747  24583743.7074   24583749.3964   24583743.7244
        41.000          36.000
 118981706.45047  92712995.03847  22641484.4014   22641488.9744   22641484.1824
        50.000          43.000
 105987427.94647  82587582.87047  20168753.4614   20168756.5954   20168753.8014
        54.000          49.000
 09  1 21  0 55 30.0000000  0 11G14G 5G 6G22G29G24G18G31G12G30G21
 119455214.70747  93081966.68947  22731586.9574   22731590.8354   22731587.4554
        48.000          42.000
 123650010.49947  96350638.77747  23529829.0784   23529835.2564   23529829.2974
        45.000          39.000
 125305070.76847  97640272.55947  23844794.9094   23844800.9554   23844794.8624
        44.000          38.000
 121728628.65547  94853474.13547  23164189.5404   23164192.0024   23164189.7234
        46.000          41.000
 127910631.48247  99670610.25847  24340591.7084   24340595.6314   24340591.3484
        44.000          38.000
 122788024.85347  95678966.68747  23365792.6014   23365798.4824   23365792.4744
        45.000          40.000
 118900991.09847  92650104.74047  22626122.1524   22626125.2384   22626122.4524
        49.000          43.000
 110858450.25947  86383196.74847  21095669.3324   21095672.0684   21095668.8604
        53.000          48.000
 129208544.50847 100681956.73147  24587588.9304   24587594.3994   24587588.4434
        42.000          36.000
 118960213.11647  92696246.99647  22637394.4854   22637399.1074   22637393.9694
        49.000          43.000
 106025295.72547  82617090.22647  20175959.7504   20175962.6464   20175960.2564
        54.000          49.000
 09  1 21  0 56  0.0000000  0 11G14G 5G 6G22G29G24G18G31G12G30G21
 119496420.04347  93114074.73547  22739428.1514   22739431.7824   22739428.5024
        48.000          42.000
 123658098.95247  96356941.46147  23531368.5634   23531374.6944   23531368.6964
        45.000          40.000
 125292567.13647  97630529.48247  23842415.4684   23842421.6294   23842415.4264
        44.000          38.000
 121677797.20647  94813865.15747  23154516.9364   23154518.6894   23154516.8434
        47.000          41.000
 127970953.04647  99717614.17347  24352069.8774   24352073.8144   24352069.6894
        42.000          37.000
 122877624.45247  95748784.61547  23382842.8694   23382849.0814   23382842.4454
        46.000          40.000
 118863490.81047  92620883.69647  22618986.3884   22618989.1064   22618986.7194
        50.000          42.000
 110796572.26047  86334980.16547  21083894.2424   21083897.3624   21083893.8814
        53.000          48.000
 129229009.43747 100697903.51747  24591483.7544   24591488.4974   24591483.3514
        41.000          37.000
 118938886.34847  92679628.74647  22633336.0344   22633340.3514   22633335.4694
        49.000          43.000
 106063746.48747  82647051.86247  20183276.5714   20183279.7214   20183276.8794
        55.000          49.000
 09  1 21  0 56 30.0000000  0 11G14G 5G 6G22G29G24G18G31G12G30G21
 119537664.47647  93146213.24847  22747276.6934   22747280.1834   22747276.9284
        47.000          42.000
 123666485.29547  96363476.28647  23532964.5304   23532970.7084   23532964.8144
        45.000          40.000
 125280255.94747  97620936.37147  23840072.5534   23840078.9884   23840072.4894
        44.000          39.000
 121626831.01947  94774151.19847  23144818.2464   23144819.9154   23144818.5414
        47.000          41.000
 128031069.73847  99764458.42547  24363509.8074   24363513.3734   24363509.7224
        43.000          37.000
 122967467.72247  95818792.41047  23399939.5664   23399945.6124   23399939.6604
        46.000          40.000
 118826032.45647  92591695.33047  22611857.9774   22611860.9714   22611858.3884
        50.000          42.000
 110735173.88347  86287137.31347  21072210.6044   21072213.4404   21072210.0814
        54.000          48.000
 129249734.62047 100714053.08747  24595427.3194   24595432.3894   24595426.7754
        42.000          37.000
 118917731.96147  92663144.81847  22629310.2174   22629314.9464   22629309.9474
        50.000          43.000
 106102781.88647  82677469.04747  20190704.8834   20190707.9544   20190705.4424
        54.000          49.000
 09  1 21  0 57  0.0000000  0 11G14G 5G 6G22G29G24G18G31G12G30G21
 119578942.55447  93178377.96847  22755131.6344   22755135.3004   22755131.6834
        48.000          42.000
 123675168.39147  96370242.35147  23534616.8334   23534623.1194   23534617.1334
        45.000          40.000
 125268133.02747  97611489.96747  23837765.6474   23837771.9564   23837765.9104
        44.000          38.000
 121575728.69747  94734331.16147  23135093.9764   23135095.8514   23135094.0434
        47.000          41.000
 128090978.31547  99811140.47747  24374910.1694   24374913.3174   24374909.7044
        42.000          37.000
 123057549.13647  95888985.76247  23417081.5524   23417087.4644   23417081.6634
        45.000          40.000
 118788615.47547  92562539.21047  22604737.9934   22604740.9844   22604738.5134
        50.000          42.000
 110674254.59747  86239667.77547  21060618.0454   21060620.7904   21060617.7684
        54.000          48.000
 129270718.63547 100730404.36047  24599420.7234   24599425.4534   24599420.7584
        42.000          37.000
 118896749.20547  92646794.62747  22625317.8084   22625322.0354   22625317.5054
        50.000          43.000
 106142397.88147  82708338.65347  20198243.5674   20198246.5044   20198243.8984
        55.000          49.000
 09  1 21  0 57 30.0000000  0 11G14G 5G 6G22G29G24G18G31G12G30G21
 119620251.91847  93210567.08247  22762992.3544   22762996.3094   22762992.5214
        47.000          42.000
 123684149.74247  96377240.80847  23536325.6734   23536332.2614   23536326.0504
        46.000          39.000
 125256196.68847  97602188.95947  23835494.0394   23835500.5644   23835494.3934
        45.000          39.000
 121524491.53047  94694406.05747  23125343.9754   23125345.8674   23125344.0344
        48.000          41.000
 128150677.87447  99857659.68947  24386269.8674   24386274.2344   24386269.9784
        42.000          37.000
 123147866.61647  95959363.07047  23434268.1144   23434274.0194   23434268.0974
        46.000          40.000
 118751242.51747  92533417.38147  22597625.8274   22597629.0904   22597626.4374
        50.000          42.000
 110613816.49947  86192573.18847  21049117.1154   21049119.7004   21049116.7194
        54.000          48.000
 129291962.76347 100746958.30347  24603464.0374   24603467.9614   24603463.5184
        41.000          37.000
 118875940.96347  92630580.41647  22621357.6384   22621362.6344   22621357.2364
        50.000          43.000
 106182593.08747  82739659.59447  20205892.6474   20205895.3034   20205893.1154
        54.000          49.000
 09  1 21  0 58  0.0000000  0 11G14G 5G 6G22G29G24G18G31G12G30G21
 119661591.03647  93242779.38347  22770859.2374   22770862.7344   22770859.3254
        47.000          42.000
 123693431.44547  96384473.32147  23538091.7814   23538098.3444   23538092.0154
        45.000          39.000
 125244445.82247  97593032.44947  23833257.7974   23833264.7104   23833258.1474
        44.000          39.000
 121473121.38647  94654377.32747  23115569.0754   23115570.3174   23115569.1444
        47.000          41.000
 128210167.75347  99904015.48647  24397591.0494   24397595.1874   24397590.5954
        43.000          37.000
 123238417.91147  96029922.58947  23451499.4904   23451505.3604   23451499.7334
        47.000          39.000
 118713916.09347  92504331.82547  22590523.3164   22590526.6864   22590523.6724
        49.000          42.000
 110553861.92547  86145855.37147  21037708.1304   21037710.7874   21037707.6244
        54.000          48.000
 129313468.47147 100763716.08147  24607555.9874   24607560.1784   24607555.2384
        42.000          37.000
 118855309.74447  92614504.16047  22617431.4774   22617436.5334   22617431.3044
        49.000          43.000
 106223366.41547  82771431.01947  20213651.1684   20213654.2164   20213651.6574
        54.000          49.000
 09  1 21  0 58 30.0000000  0 11G14G 5G 6G22G29G24G18G31G12G30G21
 119702957.09847  93275012.67147  22778730.8644   22778734.7974   22778730.8264
        47.000          42.000
 123703015.41447  96391941.36547  23539915.1674   23539922.0684   23539915.3744
        44.000          39.000
 125232879.33247  97584019.63547  23831057.1024   23831063.5664   23831056.9224
        44.000          39.000
 121421620.89247  94614247.02347  23105768.5114   23105769.7974   23105768.5554
        48.000          41.000
 128269447.69747  99950207.73847  24408871.8694   24408875.0714   24408871.1494
        43.000          37.000
 123329201.13847  96100662.82747  23468774.8714   23468780.3994   23468775.3904
        46.000          39.000
 118676639.11147  92475284.77547  22583429.2804   22583433.3964   22583429.8814
        50.000          43.000
 110494393.62747  86099516.46747  21026391.7644   21026394.3854   21026391.4114
        54.000          48.000
 129335237.67147 100780679.17647  24611698.1084   24611703.1524   24611698.1984
        43.000          37.000
 118834858.17347  92598567.88247  22613539.6104   22613544.7084   22613539.4544
        50.000          43.000
 106264716.79847  82803652.10147  20221519.8934   20221523.0004   20221520.2954
        54.000          49.000
 09  1 21  0 59  0.0000000  0 11G14G 5G 6G22G29G24G18G31G12G30G21
 119744347.33047  93307264.80447  22786607.1954   22786611.1314   22786607.2224
        48.000          42.000
 123712902.31647  96399645.46247  23541796.8244   23541803.2394   23541797.0354
        45.000          39.000
 125221494.52147  97575148.38547  23828890.6844   23828896.9374   23828890.7734
        44.000          38.000
 121369990.15847  94574015.25347  23095943.3594   23095945.0584   23095943.5804
        48.000          41.000
 128328516.22547  99996235.21547  24420111.9454   24420115.6684   24420111.6144
        44.000          38.000
 123420213.09247  96171581.30447  23486094.1794   23486099.4484   23486094.4944
        46.000          39.000
 118639413.00347  92446277.36647  22576345.4794   22576349.1954   22576346.1884
        50.000          43.000
 110435412.59947  86053557.25547  21015168.0084   21015170.5444   21015167.6054
        54.000          48.000
 129357270.41147 100797847.64447  24615890.8854   24615895.5824   24615891.0054
        42.000          37.000
 118814587.94947  92582772.90347  22609682.3964   22609687.3094   22609682.1504
        50.000          43.000
 106306641.90647  82836321.02047  20229498.1664   20229501.2354   20229498.6214
        55.000          49.000
 09  1 21  0 59 30.0000000  0 11G14G 5G 6G22G29G24G18G31G12G30G21
 119785760.30547  93339534.65447  22794488.1774   22794491.9134   22794488.3894
        48.000          42.000
 123723094.77647  96407587.64447  23543736.0414   23543742.6554   23543736.7444
        45.000          39.000
 125210290.87547  97566418.31047  23826758.4684   23826765.2404   23826758.1584
        43.000          38.000
 121318231.74547  94533683.98047  23086093.9724   23086096.0314   23086094.3574
        48.000          41.000
 128387373.42647 100042098.02847  24431312.3664   24431315.6864   24431312.0484
        44.000          38.000
 123511452.38747  96242676.91447  23503456.4344   23503461.8964   23503456.2544
        45.000          39.000
 118602240.94547  92417312.07347  22569272.2364   22569275.6934   22569272.7504
        50.000          42.000
 110376921.83447  86007980.06447  21004037.3384   21004040.2274   21004036.8774
        54.000          48.000
 129379569.18847 100815223.42747  24620133.8524   24620138.5624   24620133.5774
        42.000          37.000
 118794502.28147  92567121.76447  22605860.1804   22605864.7744   22605859.9284
        49.000          43.000
 106349141.06847  82869437.25447  20237585.3594   20237588.5384   20237585.7124
        54.000          49.000
 09  1 21  1  0  0.0000000  0 11G14G 5G 6G22G29G24G18G31G12G30G21
 119827193.78747  93371820.48447  22802372.8064   22802376.1034   22802373.0074
        48.000          42.000
 123733594.40347  96415769.20247  23545734.9334   23545740.5464   23545735.4644
        46.000          39.000
 125199267.03647  97557828.33747  23824660.2904   23824667.2344   23824660.6494
        43.000          38.000
 121266347.71747  94493254.84247  23076221.0774   23076223.0134   23076221.0304
        48.000          41.000
 128446018.67947 100087795.68847  24442471.8244   24442474.9604   24442472.1504
        43.000          38.000
 123602916.62847  96313947.79747  23520861.5204   23520866.6974   23520861.4944
        46.000          39.000
 118565125.58547  92388390.95147  22562209.6264   22562212.6304   22562210.0464
        50.000          43.000
 110318923.71247  85962786.74647  20993000.7944   20993003.5054   20993000.5274
        54.000          48.000
 129402135.25947 100832807.48147  24624427.4924   24624432.5414   24624427.1954
        42.000          37.000
 118774603.63047  92551616.33647  22602073.7834   22602078.3114   22602073.4744
        50.000          43.000
 106392212.40547  82902999.33747  20245781.5354   20245784.6674   20245781.9334
        55.000          49.000
 09  1 21  1  0 30.0000000  0 11G14G 5G 6G22G29G24G18G31G12G30G21
 119868644.09047  93404119.43247  22810260.0484   22810263.6574   22810260.2094
        48.000          42.000
 123744401.67147  96424190.46347  23547791.0844   23547797.0514   23547792.0084
        45.000          39.000
 125188420.25847  97549376.33747  23822596.6604   23822603.0854   23822596.8984
        43.000          38.000
 121214338.49747  94452728.16147  23066324.5214   23066325.6264   23066324.5924
        48.000          42.000
 128504450.12147 100133326.71247  24453591.1894   24453594.5614   24453591.7934
        43.000          38.000
 123694602.44147  96385391.35047  23538308.7794   23538313.8764   23538308.9604
        46.000          39.000
 118528068.67147  92359515.38647  22555157.7674   22555160.9534   22555158.3174
        49.000          43.000
 110261419.47947  85917978.28447  20982057.9644   20982060.8264   20982057.6764
        54.000          48.000
 129424968.77247 100850599.90447  24628771.9864   24628777.9734   24628771.7364
        42.000          36.000
 118754893.62347  92536257.89647  22598323.3134   22598327.5264   22598322.9474
        50.000          43.000
 106435853.73847  82937005.57647  20254086.3504   20254089.4234   20254086.8134
        54.000          49.000
 09  1 21  1  1  0.0000000  0 11G14G 5G 6G22G29G24G18G31G12G30G21
 119910109.58447  93436430.23047  22818150.6704   22818154.4394   22818150.7264
        48.000          42.000
 123755518.47247  96432852.93547  23549907.1764   23549912.2224   23549907.8624
        46.000          40.000
 125177749.22647  97541061.29847  23820565.8674   23820572.2024   23820566.4144
        43.000          38.000
 121162206.06347  94412105.47847  23056403.5834   23056405.4704   23056403.6564
        48.000          42.000
 128562667.59447 100178691.02747  24464669.9104   24464672.8234   24464669.2804
        42.000          37.000
 123786507.54047  96457005.78447  23555797.4324   23555802.7704   23555797.1204
        45.000          39.000
 118491072.67447  92330687.28947  22548117.7834   22548121.1874   22548118.2404
        49.000          43.000
 110204410.60447  85873555.80747  20971209.4194   20971212.2914   20971208.8824
        54.000          48.000
 129448071.20047 100868601.90247  24633168.6424   24633173.6044   24633168.4694
        42.000          36.000
 118735374.87747  92521048.50747  22594608.7164   22594613.8224   22594608.4144
        50.000          43.000
 106480063.69547  82971454.89947  20262499.0484   20262502.2454   20262499.3524
        54.000          49.000
 09  1 21  1  1 30.0000000  0 11G14G 5G 6G22G29G24G18G31G12G30G21
 119951587.60047  93468750.77147  22826044.0484   22826047.5614   22826044.2194
        48.000          42.000
 123766946.30747  96441757.76947  23552081.5514   23552087.1854   23552082.1324
        46.000          39.000
 125167252.38347  97532881.98647  23818568.3044   23818574.7534   23818568.3254
        44.000          38.000
 121109951.87147  94371387.90947  23046460.0584   23046461.9364   23046459.9084
        48.000          42.000
 128620670.26347 100223887.97147  24475706.7254   24475710.2854   24475706.8064
        42.000          37.000
 123878629.60847  96528789.28447  23573327.4304   23573332.9184   23573327.6074
        45.000          39.000
 118454140.10047  92301908.60547  22541089.5364   22541093.1124   22541089.8164
        50.000          43.000
 110147899.52847  85829521.22747  20960455.6244   20960458.2824   20960455.3024
        54.000          48.000
 129471443.74447 100886814.37447  24637616.9644   24637621.4624   24637616.0954
        42.000          37.000
 118716049.46547  92505989.74847  22590930.9084   22590935.8654   22590930.7534
        50.000          43.000
 106524840.64647  83006346.03347  20271019.8394   20271022.9614   20271020.2454
        54.000          49.000
 09  1 21  1  2  0.0000000  0 11G14G 5G 6G22G29G24G18G31G12G30G21
 119993075.22547  93501078.79947  22833938.9094   22833942.8274   22833939.3334
        48.000          42.000
 123778686.13547  96450905.71647  23554315.4264   23554321.2784   23554316.2014
        46.000          39.000
 125156927.66447  97524836.79847  23816603.7644   23816609.4444   23816603.9574
        43.000          38.000
 121057577.32247  94330576.57347  23036493.2224   23036495.3114   23036493.2224
        48.000          42.000
 128678456.97547 100268916.59647  24486703.5644   24486706.8114   24486703.0754
        42.000          37.000
 123970965.81047  96600739.64647  23590898.6654   23590903.8684   23590898.7644
        45.000          39.000
 118417272.79847  92273180.78347  22534074.2484   22534077.3454   22534074.5964
        49.000          42.000
 110091888.05847  85785875.94747  20949797.1274   20949799.6974   20949796.7094
        54.000          48.000
 129495087.09247 100905237.82347  24642115.8904   24642120.6954   24642115.0334
        43.000          37.000
 118696919.02747  92491082.93547  22587290.6324   22587295.3894   22587290.2294
        50.000          43.000
 106570182.37847  83041677.25547  20279647.9894   20279651.1734   20279648.2324
        54.000          49.000
 09  1 21  1  2 30.0000000  0 11G14G 5G 6G22G29G24G18G31G12G30G21
 120034572.44247  93533414.30047  22841835.5674   22841839.2894   22841835.6684
        48.000          42.000
 123790741.85947  96460299.82647  23556609.2774   23556615.0444   23556609.8124
        45.000          39.000
 125146775.59847  97516926.14347  23814671.6744   23814678.0884   23814671.7464
        44.000          39.000
 121005086.44647  94289674.59147  23026504.9544   23026506.6404   23026504.7244
        49.000          42.000
 128736029.25847 100313778.14247  24497658.8694   24497662.8034   24497658.6484
        42.000          38.000
 124063515.80047  96672856.60347  23608510.2624   23608515.3204   23608510.0234
        45.000          39.000
 118380475.60547  92244507.58347  22527071.7284   22527074.9064   22527072.1284
        49.000          42.000
 110036380.23747  85742623.12447  20939234.3884   20939237.0254   20939234.0344
        54.000          48.000
 129519004.77547 100923875.06447  24646667.2454   24646671.9254   24646666.3854
        43.000          37.000
 118677988.49847  92476331.89647  22583688.2864   22583693.0694   22583688.0324
        50.000          43.000
 106616089.74247  83077449.23647  20288384.0354   20288386.8994   20288384.5314
        54.000          49.000
 09  1 21  1  3  0.0000000  0 11G14G 5G 6G22G29G24G18G31G12G30G21
 120076073.97447  93565753.16747  22849732.8184   22849736.4934   22849732.8364
        48.000          42.000
 123803111.52947  96469938.57347  23558962.7684   23558969.6104   23558963.2754
        45.000          39.000
 125136791.37947  97509146.29247  23812771.8654   23812777.9134   23812772.4574
        44.000          38.000
 120952477.37047  94248680.50747  23016493.8464   23016495.7354   23016493.9294
        49.000          42.000
 128793383.40447 100358469.71047  24508572.7684   24508576.4444   24508572.4854
        42.000          37.000
 124156273.72947  96745135.58747  23626161.3584   23626166.5784   23626161.5274
        45.000          38.000
 118343747.43747  92215888.18247  22520082.6244   22520085.7724   22520082.8184
        49.000          42.000
 109981374.46547  85699761.50747  20928767.1784   20928769.8284   20928766.7054
        54.000          49.000
 129543194.57747 100942724.34347  24651270.8744   24651275.1354   24651270.4804
        42.000          37.000
 118659256.74847  92461735.75247  22580123.5374   22580128.6934   22580123.2734
        50.000          43.000
 106662557.24847  83113657.68747  20297226.3564   20297229.4224   20297226.6654
        54.000          49.000
 09  1 21  1  3 30.0000000  0 11G14G 5G 6G22G29G24G18G31G12G30G21
 120117579.06647  93598094.79747  22857631.1534   22857634.6564   22857631.2454
        48.000          42.000
 123815798.49347  96479824.53947  23561377.5554   23561383.2524   23561378.0004
        45.000          39.000
 125126975.23447  97501497.38847  23810903.5364   23810909.7754   23810903.6314
        44.000          38.000
 120899753.71647  94207597.14547  23006460.7594   23006462.5254   23006461.0354
        49.000          43.000
 128850520.57047 100402992.19647  24519445.9894   24519449.7874   24519445.3124
        42.000          37.000
 124249239.29347  96817576.37147  23643851.8964   23643857.6274   23643852.5034
        45.000          39.000
 118307092.61847  92187325.95247  22513107.5514   22513111.0714   22513107.9114
        49.000          43.000
 109926874.55747  85657294.07147  20918396.2134   20918398.9384   20918395.9744
        54.000          49.000
 129567659.61247 100961788.05447  24655926.1404   24655930.4914   24655925.9754
        42.000          37.000
 118640728.27547  92447298.00447  22576598.1414   22576602.5284   22576597.7974
        50.000          43.000
 106709584.90847  83150302.63047  20306175.5354   20306178.5544   20306175.8114
        54.000          49.000
 09  1 21  1  4  0.0000000  0 11G14G 5G 6G22G29G24G18G31G12G30G21
 120159086.00347  93630437.87147  22865529.6534   22865533.2764   22865529.7844
        48.000          42.000
 123828804.78147  96489959.33347  23563852.6774   23563858.4094   23563853.0564
        45.000          39.000
 125117326.01047  97493978.56947  23809067.0314   23809073.8484   23809067.5994
        43.000          38.000
 120846917.76147  94166426.28347  22996406.6834   22996408.3604   22996406.5044
        49.000          43.000
 128907440.61447 100447345.50247  24530276.5554   24530280.8974   24530276.7524
        42.000          37.000
 124342410.64147  96890177.47547  23661582.1244   23661587.3634   23661582.3924
        45.000          38.000
 118270514.48447  92158823.47547  22506147.1764   22506150.4734   22506147.4274
        50.000          43.000
 109872882.94347  85615222.70647  20908121.9134   20908124.6704   20908121.3714
        54.000          49.000
 129592401.48247 100981067.51047  24660634.0364   24660638.6414   24660634.2584
        42.000          37.000
 118622405.93747  92433020.86847  22573111.2434   22573115.7124   22573110.8664
        50.000          43.000
 106757171.75847  83187383.30347  20315231.0554   20315234.0754   20315231.5494
        55.000          48.000
 09  1 21  1  4 30.0000000  0 11G14G 5G 6G22G29G24G18G31G12G30G21
 120200591.23347  93662779.62847  22873427.7714   22873431.2964   22873427.9974
        48.000          42.000
 123842130.52747  96500343.06447  23566388.2974   23566394.1004   23566388.8374
        46.000          39.000
 125107840.86847  97486587.59747  23807262.2804   23807268.9514   23807262.1394
        44.000          39.000
 120793969.79047  94125168.13347  22986330.7784   22986332.3884   22986330.9724
        49.000          43.000
 128964141.65747 100491528.13447  24541067.3084   24541071.2184   24541066.9814
        43.000          37.000
 124435784.00247  96962936.00147  23679350.5294   23679356.1994   23679350.5134
        44.000          39.000
 118234013.92347  92130381.44047  22499201.7384   22499204.8964   22499202.1524
        50.000          43.000
 109819400.49247  85573548.09047  20897944.5264   20897947.2094   20897944.1854
        54.000          49.000
 129617419.86747 101000562.44147  24665394.6654   24665399.5054   24665394.5674
        41.000          36.000
 118604290.54547  92418904.99647  22569664.3444   22569668.5524   22569663.9604
        50.000          43.000
 106805314.82147  83224897.38947  20324392.3644   20324395.2754   20324392.8234
        54.000          49.000
 09  1 21  1  5  0.0000000  0 11G14G 5G 6G22G29G24G18G31G12G30G21
 120242091.46847  93695117.48847  22881324.8004   22881328.7754   22881325.0574
        47.000          42.000
 123855776.29547  96510976.16447  23568984.7644   23568991.0154   23568984.7984
        45.000          39.000
 125098517.24147  97479322.47547  23805488.4914   23805494.5114   23805488.7234
        45.000          39.000
 120740910.64547  94083823.35547  22976234.2414   22976235.5784   22976234.1884
        49.000          43.000
 129020622.10347 100535538.87647  24551814.9734   24551818.7614   24551815.0004
        43.000          38.000
 124529356.14947  97035849.45247  23697156.2064   23697162.2624   23697156.3004
        44.000          39.000
 118197592.71147  92102001.23247  22492270.5614   22492273.9654   22492271.0554
        50.000          43.000
 109766427.89247  85532270.76047  20887864.0554   20887866.7364   20887863.5974
        54.000          49.000
 129642715.33347 101020273.23947  24670207.7534   24670213.3114   24670208.0284
        41.000          36.000
 118586383.88647  92404951.76747  22566256.4844   22566261.3524   22566256.1064
        50.000          43.000
 106854011.29447  83262842.70047  20333659.1124   20333661.8294   20333659.4524
        55.000          48.000
 09  1 21  1  5 30.0000000  0 11G14G 5G 6G22G29G24G18G31G12G30G21
 120283587.60447  93727452.14547  22889220.9654   22889225.0954   22889221.4144
        47.000          42.000
 123869746.48047  96521862.05647  23571643.0444   23571649.6974   23571643.4804
        46.000          39.000
 125089356.50347  97472184.28947  23803745.5844   23803750.9994   23803746.0954
        44.000          39.000
 120687745.23347  94042395.76247  22966116.9624   22966118.3524   22966117.0444
        49.000          42.000
 129076884.46347 100579379.66747  24562521.4934   24562525.1214   24562521.4424
        42.000          37.000
 124623127.81147  97108918.34847  23715000.0434   23715006.4634   23715000.1984
        44.000          38.000
 118161256.07247  92073686.93547  22485355.7124   22485359.4734   22485356.0354
        50.000          43.000
 109713970.04347  85491394.54047  20877881.6264   20877884.3684   20877881.2554
        54.000          49.000
 129668291.46147 101040202.74847  24675075.6904   24675079.4274   24675075.2504
        42.000          37.000
 118568691.04747  92391165.15847  22562889.3214   22562894.7554   22562889.2134
        49.000          43.000
 106903262.32147  83301220.14447  20343031.2774   20343033.8454   20343031.7064
        55.000          48.000
 09  1 21  1  6  0.0000000  0 11G14G 5G 6G22G29G24G18G31G12G30G21
 120325073.62147  93759778.93347  22897116.0084   22897119.5264   22897116.0744
        48.000          42.000
 123884038.84947  96532998.98947  23574363.0764   23574369.0714   23574363.4224
        46.000          39.000
 125080353.27047  97465168.84747  23802031.2974   23802038.0474   23802031.0934
        43.000          38.000
 120634471.65347  94000883.88547  22955979.4174   22955981.1614   22955979.3244
        49.000          42.000
 129132924.65247 100623047.37947  24573185.2874   24573189.2824   24573185.0824
        42.000          37.000
 124717092.78247  97182137.89247  23732881.2364   23732886.8774   23732881.6204
        44.000          39.000
 118125003.15547  92045437.88747  22478457.1754   22478460.8294   22478457.7064
        50.000          43.000
 109662025.27047  85450918.12147  20867996.9654   20867999.7244   20867996.6324
        54.000          49.000
 129694146.32547 101060349.46847  24679994.8254   24680000.4404   24679994.5794
        40.000          36.000
 118551210.90747  92377544.28447  22559562.9674   22559568.1174   22559562.5304
        49.000          43.000
 106953062.54347  83340025.52347  20352507.8694   20352510.6094   20352508.3224
        54.000          48.000
 09  1 21  1  6 30.0000000  0 11G14G 5G 6G22G29G24G18G31G12G30G21
 120366550.61147  93792098.68547  22905008.3014   22905012.3934   22905008.7294
        47.000          42.000
 123898658.21847  96544390.75247  23577145.2804   23577150.8444   23577145.7924
        45.000          39.000
 125071509.31647  97458277.51147  23800348.2934   23800355.2474   23800348.3714
        44.000          39.000
 120581095.22547  93959291.86947  22945822.2074   22945823.9354   22945822.1104
        49.000          43.000
 129188745.41647 100666544.09847  24583807.7894   24583811.4274   24583807.4724
        42.000          38.000
 124811251.95147  97255508.76547  23750798.8074   23750804.2254   23750799.2784
        44.000          38.000
 118088839.63347  92017258.50047  22471575.6564   22471579.1694   22471576.2844
        50.000          43.000
 109610598.65147  85410845.45847  20858210.5704   20858213.4884   20858210.2364
        54.000          49.000
 129720283.92847 101080716.47347  24684968.9154   24684973.7344   24684969.2804
        41.000          36.000
 118533949.09747  92364093.52647  22556278.3444   22556283.2744   22556277.9804
        50.000          43.000
 107003413.29247  83379259.89147  20362089.3784   20362092.0074   20362089.7594
        55.000          48.000
 09  1 21  1  7  0.0000000  0 11G14G 5G 6G22G29G24G18G31G12G30G21
 120408012.35947  93824406.55447  22912897.8524   22912902.2004   22912898.1574
        47.000          42.000
 123913602.12547  96556035.36847  23579988.3754   23579994.7984   23579988.8154
        46.000          39.000
 125062819.19447  97451506.05247  23798694.6904   23798701.2234   23798694.9814
        44.000          38.000
 120527613.49447  93917617.78947  22935644.9324   22935646.3714   22935644.9104
        49.000          43.000
 129244342.46247 100709866.48247  24594387.9264   24594391.4014   24594386.9094
        41.000          38.000
 124905598.82347  97329025.91147  23768752.5844   23768757.8544   23768752.7654
        44.000          38.000
 118052764.03147  91989147.61047  22464710.9374   22464714.4074   22464711.2804
        50.000          43.000
 109559688.33847  85371175.10347  20848522.6514   20848525.6184   20848522.1694
        54.000          49.000
 129746701.46247 101101301.61847  24689996.2384   24690001.1864   24689996.1534
        41.000          36.000
 118516904.17847  92350811.77347  22553035.1304   22553039.9444   22553034.7054
        50.000          43.000
 107054308.80947  83418918.75347  20371774.3854   20371777.1184   20371774.8444
        54.000          48.000
 09  1 21  1  7 30.0000000  0 11G14G 5G 6G22G29G24G18G31G12G30G21
 120449460.89047  93856704.13247  22920785.4404   22920789.4534   22920785.9394
        47.000          41.000
 123928876.08347  96567937.16747  23582896.0304   23582901.0914   23582896.3894
        45.000          39.000
 125054285.42447  97444856.41847  23797071.3404   23797076.3924   23797071.5704
        45.000          38.000
 120474032.75947  93875866.57147  22925448.6024   22925450.2944   22925448.5134
        49.000          42.000
 129299719.66547 100753017.53047  24604925.4494   24604929.4864   24604924.5514
        41.000          37.000
 125000135.35747  97402690.82947  23786742.2514   23786747.0484   23786742.8154
        44.000          38.000
 118016783.57547  91961110.86047  22457864.0134   22457867.5944   22457864.5164
        51.000          43.000
 109509300.08747  85331911.55847  20838934.1414   20838936.9754   20838933.9544
        54.000          49.000
 129773404.33847 101122109.12047  24695077.0094   24695081.4554   24695076.9784
        42.000          37.000
 118500082.68547  92337704.12447  22549833.9834   22549838.6444   22549833.7904
        50.000          43.000
 107105751.44047  83459003.93947  20381563.5024   20381566.3014   20381563.9184
        55.000          48.000
 09  1 21  1  8  0.0000000  0 11G14G 5G 6G22G29G24G18G31G12G30G21
 120490890.98247  93888987.34747  22928669.7454   22928673.0324   22928670.0544
        47.000          42.000
 123944478.51647  96580094.93147  23585864.4144   23585870.1544   23585864.6064
        45.000          39.000
 125045903.26647  97438324.94747  23795475.8144   23795482.1064   23795475.6364
        44.000          38.000
 120420351.60547  93834037.11147  22915233.6014   22915235.0104   22915233.5854
        49.000          42.000
 129354873.01347 100795994.13247  24615420.5664   24615425.1534   24615420.8734
        41.000          37.000
 125094856.35147  97476499.47447  23804766.9474   23804772.2654   23804767.2784
        44.000          38.000
 117980897.35647  91933147.55147  22451035.0384   22451038.5834   22451035.6664
        50.000          43.000
 109459432.53847  85293053.75247  20829444.6054   20829447.3474   20829444.0624
        54.000          49.000
 129800390.45147 101143137.33647  24700212.5844   24700216.7614   24700212.0724
        41.000          36.000
 118483483.57947  92324769.77247  22546675.4104   22546679.7854   22546675.2364
        50.000          43.000
 107157736.02747  83499511.43147  20391455.7324   20391458.5924   20391456.1084
        54.000          48.000
 09  1 21  1  8 30.0000000  0 11G14G 5G 6G22G29G24G18G31G12G30G21
 120532305.20247  93921258.17647  22936550.5484   22936554.1914   22936550.6214
        48.000          42.000
 123960415.38047  96592513.28647  23588896.9574   23588903.0934   23588897.5654
        45.000          39.000
 125037675.88347  97431914.04647  23793909.7994   23793916.3054   23793909.6744
        43.000          38.000
 120366576.46547  93792134.40547  22905000.5204   22905001.9604   22905000.4994
        48.000          42.000
 129409806.67347 100838799.57747  24625874.4474   24625878.8044   24625874.6384
        42.000          37.000
 125189763.99347  97550453.58047  23822827.5924   23822832.3944   23822827.3584
        44.000          38.000
 117945112.61847  91905263.31347  22444225.1774   22444229.1724   22444225.5434
        50.000          43.000
 109410092.08947  85254606.67447  20820055.3404   20820057.9944   20820054.8624
        54.000          49.000
 129827665.48747 101164390.70147  24705402.7064   24705407.4294   24705402.0834
        41.000          36.000
 118467114.06847  92312014.32147  22543560.4294   22543564.6584   22543560.0084
        50.000          43.000
 107210265.44647  83540443.45947  20401451.7054   20401454.7004   20401452.1654
        55.000          48.000
 09  1 21  1  9  0.0000000  0 11G14G 5G 6G22G29G24G18G31G12G30G21
 120573692.93947  93953508.38647  22944426.4614   22944430.2974   22944426.6884
        47.000          42.000
 123976679.73747  96605186.82947  23591991.7444   23591998.1504   23591992.2974
        44.000          39.000
 125029593.24747  97425615.95647  23792371.5604   23792378.1804   23792372.0414
        43.000          38.000
 120312701.08847  93750153.57847  22894748.3064   22894749.3674   22894748.2504
        48.000          42.000
 129464512.17047 100881427.26347  24636284.3204   24636288.8214   24636284.0864
        41.000          37.000
 125284847.32747  97624544.57647  23840921.0574   23840926.0504   23840921.4984
        44.000          38.000
 117909423.64947  91877453.69747  22437433.7804   22437437.5774   22437434.1074
        50.000          43.000
 109361272.22547  85216565.24847  20810765.5224   20810767.9364   20810765.2704
        54.000          49.000
 129855222.69047 101185863.87547  24710645.8544   24710651.1984   24710645.3204
        41.000          36.000
 118450968.11247  92299433.08047  22540487.9804   22540492.0944   22540487.6614
        50.000          43.000
 107263329.34047  83581791.96347  20411549.5204   20411552.4674   20411549.8704
        54.000          48.000
 09  1 21  1  9 30.0000000  0 11G14G 5G 6G22G29G24G18G31G12G30G21
 120615056.99247  93985740.14747  22952297.5924   22952301.4714   22952297.8774
        47.000          42.000
 123993277.99347  96618120.55847  23595150.5894   23595156.3404   23595150.8514
        45.000          39.000
 125021658.75047  97419433.29647  23790862.2584   23790868.1854   23790862.4374
        43.000          38.000
 120258732.51047  93708100.13347  22884478.3754   22884479.6034   22884478.5004
        48.000          42.000
 129518994.30847 100923880.86747  24646652.3214   24646656.1794   24646652.9274
        41.000          37.000
 125380108.99447  97698774.55447  23859048.3154   23859053.5734   23859048.3264
        43.000          38.000
 117873838.01447  91849724.59547  22430662.3164   22430665.8044   22430662.6964
        50.000          43.000
 109312979.81347  85178934.82247  20801575.6324   20801578.1554   20801575.1354
        54.000          49.000
 129883067.69147 101207561.36247  24715945.7164   24715950.3234   24715945.3974
        42.000          36.000
 118435053.41647  92287032.03347  22537459.3674   22537463.5024   22537459.0844
        50.000          43.000
 107316930.99547  83623559.50447  20421749.5424   20421752.4644   20421750.0614
        54.000          48.000
 09  1 21  1 10  0.0000000  0 11G14G 5G 6G22G29G24G18G31G12G30G21
 120656396.51647  94017952.78647  22960164.2684   22960167.9664   22960164.2034
        47.000          42.000
 124010212.25347  96631316.11147  23598373.0804   23598379.0534   23598373.8384
        44.000          39.000
 125013871.54747  97413365.40847  23789380.1144   23789386.6474   23789380.1524
        44.000          38.000
 120204673.46547  93665976.19847  22874191.3344   22874193.2204   22874191.4644
        48.000          42.000
 129573253.76147 100966160.97547  24656976.8944   24656981.7414   24656977.1704
        42.000          37.000
 125475547.51847  97773142.33147  23877209.2224   23877214.9874   23877209.1144
        43.000          38.000
 117838358.78947  91822078.39947  22423911.1204   22423914.4084   22423911.5984
        50.000          43.000
 109265217.16547  85141717.20047  20792486.6214   20792489.2514   20792486.2954
        54.000          49.000
 129911202.56447 101229484.72847  24721298.6294   24721303.9434   24721298.4574
        40.000          36.000
 118419372.91647  92274813.48647  22534475.1284   22534480.0984   22534474.8454
        50.000          43.000
 107371069.07047  83665745.04647  20432051.5714   20432054.5904   20432051.8854
        54.000          48.000
 09  1 21  1 10 30.0000000  0 11G14G 5G 6G22G29G24G18G31G12G30G21
 120697705.26847  94050141.44447  22968025.2714   22968028.5784   22968025.4514
        47.000          42.000
 124027479.94947  96644771.48247  23601658.7834   23601664.8204   23601659.3484
        44.000          39.000
 125006226.16347  97407408.01747  23787925.2404   23787931.3324   23787925.0584
        43.000          38.000
 120150522.10347  93623780.33247  22863886.7394   22863888.4104   22863886.6914
        48.000          43.000
 129627285.55847 101008263.64247  24667258.6004   24667263.1344   24667258.4074
        40.000          36.000
 125571156.53347  97847642.95447  23895403.4854   23895408.6254   23895403.4954
        45.000          38.000
 117802984.94747  91794514.34047  22417179.4134   22417183.1394   22417179.6234
        49.000          43.000
 109217982.52647  85104911.01247  20783498.1024   20783500.9324   20783497.7044
        54.000          49.000
 129939624.43447 101251631.71947  24726707.6864   24726712.7474   24726706.6354
        41.000          36.000
 118403925.02447  92262776.20447  22531535.7414   22531540.1784   22531535.4794
        50.000          43.000
 107425737.96347  83708344.20547  20442454.6894   20442457.6884   20442455.1034
        54.000          48.000
 09  1 21  1 11  0.0000000  0 11G14G 5G 6G22G29G24G18G31G12G30G21
 120738984.53047  94082307.12147  22975880.3464   22975883.8254   22975880.3694
        47.000          41.000
 124045086.61747  96658490.98247  23605009.5514   23605015.4354   23605010.2744
        44.000          39.000
 124998725.08747  97401563.09747  23786496.9104   23786504.2764   23786496.8844
        44.000          38.000
 120096283.72347  93581516.66147  22853565.7214   22853567.0244   22853565.6664
        49.000          43.000
 129681093.17147 101050191.62447  24677499.1264   24677502.6354   24677498.1634
        41.000          36.000
 125666937.58347  97922277.62847  23913629.9834   23913634.6854   23913630.2204
        44.000          38.000
 117767723.34147  91767037.73647  22410469.1994   22410472.7724   22410469.6804
        49.000          43.000
 109171280.95147  85068520.20047  20774611.1674   20774613.6754   20774610.8284
        54.000          49.000
 129968337.80847 101274005.86047  24732171.2264   24732176.3314   24732171.0174
        40.000          36.000
 118388716.29847  92250925.26547  22528641.0644   22528646.1514   22528640.9304
        50.000          43.000
 107480939.29247  83751358.25047  20452959.1804   20452962.1534   20452959.5604
        54.000          48.000
 09  1 21  1 11 30.0000000  0 11G14G 5G 6G22G29G24G18G31G12G30G21
 120780229.18747  94114445.84747  22983728.4664   22983732.5094   22983728.4974
        47.000          42.000
 124063029.84747  96672472.72447  23608423.8714   23608429.7354   23608424.7384
        44.000          39.000
 124991362.99147  97395826.45747  23785096.7934   23785102.8404   23785097.2904
        43.000          38.000
 120041957.39947  93539184.46147  22843227.6344   22843229.1654   22843227.7844
        49.000          43.000
 129734673.24847 101091942.36147  24687695.0694   24687698.1884   24687694.4764
        40.000          36.000
 125762884.86947  97997041.82147  23931887.8124   23931893.1794   23931887.5044
        43.000          38.000
 117732572.88947  91739647.75147  22403779.8514   22403784.2604   22403780.3824
        49.000          43.000
 109125110.69447  85032543.40347  20765825.3474   20765827.7124   20765824.9624
        54.000          49.000
 129997340.47247 101296605.42247  24737689.9534   24737694.5234   24737689.9974
        41.000          36.000
 118373745.26047  92239259.54947  22525792.8504   22525797.3084   22525792.5054
        50.000          43.000
 107536667.74247  83794783.03947  20463563.9474   20463566.8834   20463564.2744
        55.000          48.000
 09  1 21  1 12  0.0000000  0 11G14G 5G 6G22G29G24G18G31G12G30G21
 120821440.22147  94146558.36047  22991571.0154   22991574.6904   22991571.0414
        47.000          41.000
 124081313.88547  96686720.04347  23611903.3114   23611908.7624   23611903.4504
        43.000          39.000
 124984141.26147  97390199.21347  23783722.1704   23783728.9824   23783722.2724
        44.000          38.000
 119987547.61047  93496787.21047  22832873.6624   22832875.2664   22832873.7304
        49.000          42.000
 129788028.32347 101133517.74547  24697847.1144   24697851.9884   24697846.6934
        40.000          36.000
 125858999.07247  98071936.09047  23950177.4484   23950183.0494   23950177.5474
        43.000          38.000
 117697538.88847  91712348.49247  22397113.5654   22397117.5954   22397113.8314
        50.000          43.000
 109079476.46047  84996984.28547  20757141.2824   20757143.8234   20757140.9024
        54.000          49.000
 130026636.75547 101319433.77647  24743264.9484   24743270.3354   24743264.5364
        41.000          36.000
 118359017.47847  92227783.38647  22522990.0764   22522994.7124   22522989.5784
        50.000          43.000
 107592924.09047  83838619.17847  20474269.3374   20474272.1284   20474269.8074
        55.000          48.000
 09  1 21  1 12 30.0000000  0 11G14G 5G 6G22G29G24G18G31G12G30G21
 120862612.89447  94178640.97247  22999405.8304   22999409.6694   22999406.0694
        47.000          41.000
 124099937.81947  96701232.22847  23615447.1154   23615453.4704   23615447.5064
        44.000          38.000
 124977055.92547  97384678.23147  23782374.5094   23782380.1644   23782374.7184
        44.000          38.000
 119933054.38847  93454324.95547  22822504.0414   22822505.2904   22822504.2234
        49.000          42.000
 129841155.71947 101174915.72847  24707958.1204   24707960.4784   24707957.3864
        42.000          37.000
 125955275.48947  98146956.76447  23968499.1454   23968503.9844   23968499.2544
        43.000          38.000
 117662621.75147  91685140.29647  22390469.3974   22390472.7924   22390469.7564
        50.000          43.000
 109034377.62247  84961842.36947  20748559.3394   20748561.8364   20748559.1824
        54.000          49.000
 130056224.82547 101342489.47947  24748895.3754   24748899.8664   24748894.6414
        40.000          36.000
 118344532.68347  92216496.55447  22520233.8694   22520238.2244   22520233.3044
        50.000          43.000
 107649703.65647  83882863.02147  20485074.0414   20485076.9494   20485074.4844
        55.000          48.000
 09  1 21  1 13  0.0000000  0 11G14G 5G 6G22G29G24G18G31G12G30G21
 120903744.53547  94210691.61347  23007232.8784   23007236.4554   23007233.1614
        47.000          41.000
 124118902.43347  96716009.87047  23619055.8084   23619061.5444   23619056.5694
        44.000          38.000
 124970105.04747  97379262.03847  23781051.6214   23781057.4244   23781051.1944
        44.000          39.000
 119878478.89447  93411798.58447  22812118.9254   22812119.8724   22812118.8344
        49.000          43.000
 129894054.76847 101216135.77347  24718024.5434   24718027.2624   24718023.9814
        41.000          36.000
 126051711.22947  98222101.55647  23986850.0614   23986855.2594   23986850.5564
        44.000          38.000
 117627823.84447  91658025.02447  22383847.3214   22383850.9994   22383847.7334
        50.000          43.000
 108989815.17147  84927118.40447  20740079.4754   20740082.1324   20740078.9144
        55.000          49.000
 130086105.38947 101365773.10547  24754581.5274   24754586.0634   24754580.8514
        40.000          36.000
 118330292.91547  92205400.65347  22517524.0284   22517528.2624   22517523.8164
        50.000          43.000
 107707004.22147  83927512.83847  20495978.0434   20495980.8444   20495978.5434
        55.000          48.000
 09  1 21  1 13 30.0000000  0 11G14G 5G 6G22G29G24G18G31G12G30G21
 120944841.12547  94242714.96047  23015053.5884   23015056.6954   23015054.0154
        47.000          41.000
 124138217.01147  96731060.21147  23622731.2724   23622736.8534   23622732.0834
        44.000          38.000
 124963294.80047  97373955.42947  23779755.5464   23779761.5464   23779755.4504
        45.000          38.000
 119823831.05147  93369215.83047  22801719.5834   22801720.5084   22801719.4604
        49.000          42.000
 129946732.99347 101257183.78547  24728047.7964   24728051.3624   24728048.3254
        41.000          36.000
 126148311.60547  98297374.62447  24005232.5784   24005237.6774   24005233.2594
        44.000          38.000
 117593155.43647  91631010.66147  22377250.3864   22377253.7204   22377250.9004
        50.000          43.000
 108945798.44947  84892819.68547  20731703.2104   20731705.9294   20731702.7694
        54.000          49.000
 130116287.32347 101389291.58947  24760325.5754   24760329.8624   24760325.0964
        41.000          36.000
 118316308.46047  92194503.69447  22514862.8114   22514867.3724   22514862.5134
        50.000          43.000
 107764831.68747  83972573.22647  20506982.0704   20506984.8924   20506982.4724
        54.000          48.000
 09  1 21  1 14  0.0000000  0 11G14G 5G 6G22G29G24G18G31G12G30G21
 120985887.14047  94274698.89147  23022864.0894   23022867.8414   23022864.1884
        47.000          41.000
 124157869.07447  96746373.52247  23626471.4834   23626476.5634   23626472.2464
        44.000          39.000
 124956610.08447  97368746.62447  23778483.3784   23778489.3424   23778483.5954
        43.000          38.000
 119769099.50647  93326567.86647  22791304.7534   22791305.9124   22791304.8174
        49.000          43.000
 129999176.67447 101298049.00647  24738028.1114   24738030.3994   24738027.9944
        41.000          36.000
 126245061.05047  98372763.83347  24023643.3284   24023648.6264   24023643.5854
        43.000          38.000
 117558605.86147  91604088.88747  22370675.9424   22370679.5054   22370676.4844
        50.000          43.000
 108902315.74647  84858937.09147  20723428.8104   20723431.4534   20723428.4184
        54.000          49.000
 130146757.69547 101413034.80147  24766123.9664   24766127.5154   24766123.6304
        41.000          36.000
 118302568.28747  92183797.09447  22512247.9174   22512252.9064   22512247.7024
        50.000          43.000
 107823170.04147  84018031.71647  20518083.4834   20518086.2074   20518083.8764
        55.000          48.000
 09  1 21  1 14 30.0000000  0 11G14G 5G 6G22G29G24G18G31G12G30G21
 121026886.71047  94306646.60647  23030665.8444   23030669.6774   23030666.0114
        47.000          41.000
 124177866.09047  96761955.61047  23630276.3124   23630282.4434   23630276.9974
        44.000          39.000
 124950055.28847  97363639.05147  23777235.7094   23777242.3714   23777235.2314
        44.000          38.000
 119714292.31947  93283860.95447  22780874.7404   22780876.8444   22780874.9594
        49.000          43.000
 130051391.58647 101338735.88447  24747964.4054   24747966.9724   24747963.9744
        41.000          36.000
 126341963.24147  98448272.04547  24042082.4634   24042088.0534   24042082.9224
        43.000          37.000
 117524183.63647  91577266.34747  22364125.2444   22364129.0344   22364125.4884
        50.000          43.000
 108859374.52047  84825476.41947  20715257.2914   20715259.7164   20715256.7524
        54.000          49.000
 130177523.99847 101437008.59247  24771978.3624   24771982.3694   24771977.5124
        42.000          36.000
 118289080.69747  92173287.30647  22509681.2614   22509685.8944   22509680.9564
        50.000          43.000
 107882023.39547  84063891.49547  20529282.8834   20529285.7364   20529283.3344
        54.000          48.000
 09  1 21  1 15  0.0000000  0 11G14G 5G 6G22G29G24G18G31G12G30G21
 121067838.18547  94338556.85247  23038458.8864   23038462.4054   23038458.7514
        47.000          41.000
 124198209.90747  96777807.94447  23634147.5304   23634153.2634   23634148.0384
        44.000          39.000
 124943629.55547  97358632.06247  23776013.5504   23776019.2634   23776013.9834
        43.000          38.000
 119659412.34047  93241097.32147  22770431.7984   22770433.1894   22770431.7774
        49.000          43.000
 130103377.82347 101379244.58647  24757857.4774   24757859.9164   24757857.1904
        41.000          36.000
 126439016.54747  98523898.04647  24060552.0014   24060556.7274   24060551.9544
        43.000          37.000
 117489892.24547  91550545.75947  22357599.9234   22357603.6714   22357600.5534
        50.000          43.000
 108816976.92047  84792439.35747  20707189.0494   20707191.7684   20707188.6474
        54.000          49.000
 130208587.59947 101461214.10047  24777888.6604   24777893.5194   24777888.9264
        41.000          36.000
 118275848.66247  92162976.64247  22507163.4164   22507167.9804   22507162.9434
        49.000          43.000
 107941390.44147  84110151.55947  20540580.0364   20540582.8374   20540580.4834
        54.000          48.000
 09  1 21  1 15 30.0000000  0 12G16G14G 5G 6G22G29G24G18G31G12G30G21
 141586871.96957  92535214.92657  25040154.7295   25040159.0985   25040155.9155
        41.000          34.000
 121108739.71347  94370428.18147  23046242.3214   23046245.7464   23046242.4954
        47.000          41.000
 124218901.76147  96793931.48547  23638084.7374   23638090.8934   23638085.1534
        44.000          39.000
 124937330.93947  97353724.13247  23774814.3404   23774820.2674   23774814.0474
        43.000          38.000
 119604461.64547  93198278.58747  22759975.1334   22759976.5764   22759975.1034
        49.000          43.000
 130155135.28947 101419575.03647  24767706.0914   24767709.3424   24767705.7974
        41.000          37.000
 126536218.57047  98599639.91347  24079048.5244   24079053.2214   24079048.5544
        43.000          37.000
 117455734.14247  91523929.04347  22351100.1704   22351103.5814   22351100.5254
        50.000          43.000
 108775124.23147  84759826.90747  20699224.9704   20699227.4214   20699224.6664
        54.000          49.000
 130239949.64547 101485652.11947  24783856.7584   24783861.9154   24783856.1634
        41.000          36.000
 118262874.28247  92152866.75247  22504694.2804   22504699.0324   22504694.2304
        50.000          43.000
 108001269.05847  84156810.25547  20551974.6164   20551977.1494   20551974.9254
        54.000          48.000
 09  1 21  1 16  0.0000000  0 12G16G14G 5G 6G22G29G24G18G31G12G30G21
 141521013.16847  92483896.52447  25027621.8704   25027626.0574   25027623.0904
        40.000          34.000
 121149587.56947  94402257.68147  23054015.1614   23054018.6044   23054015.7204
        47.000          41.000
 124239940.89947  96810325.60647  23642088.7464   23642094.9664   23642089.4274
        45.000          39.000
 124931156.18447  97348912.68347  23773639.4484   23773645.7264   23773639.7084
        44.000          38.000
 119549440.25747  93155404.76747  22749504.6124   22749506.4454   22749504.6194
        49.000          43.000
 130206662.19447 101459725.83947  24777511.2374   24777514.5354   24777511.1904
        41.000          36.000
 126633564.96047  98675494.32247  24097573.1974   24097578.0744   24097573.2334
        44.000          37.000
 117421710.03747  91497416.74447  22344625.0384   22344629.0094   22344625.7434
        50.000          43.000
 108733816.28747  84727638.92447  20691364.3454   20691366.7314   20691363.7954
        54.000          49.000
 130271609.01847 101510321.84947  24789881.2924   24789885.8244   24789882.0524
        40.000          36.000
 118250158.39647  92142958.28747  22502274.6174   22502279.3704   22502274.1354
        50.000          43.000
 108061654.86547  84203864.15647  20563465.6124   20563468.3414   20563466.0804
        55.000          48.000
 09  1 21  1 16 30.0000000  0 12G16G14G 5G 6G22G29G24G18G31G12G30G21
 141454913.36147  92432390.33647  25015043.8074   25015048.2584   25015044.2694
        41.000          34.000
 121190381.65747  94434045.29447  23061778.2354   23061781.5794   23061778.3164
        47.000          41.000
 124261330.67147  96826992.96047  23646159.5514   23646165.1054   23646159.8364
        45.000          39.000
 124925105.67147  97344198.06747  23772487.9324   23772493.6834   23772488.0484
        43.000          38.000
 119494352.40147  93112479.16347  22739021.5824   22739023.3694   22739021.5054
        49.000          43.000
 130257960.19547 101499698.28347  24787272.3094   24787276.5254   24787272.9294
        41.000          36.000
 126731055.16747  98751460.78047  24116124.8344   24116129.1514   24116124.8234
        43.000          37.000
 117387824.62847  91471012.52947  22338177.2934   22338181.1084   22338177.7094
        50.000          43.000
 108693056.69747  84695878.23247  20683607.8884   20683610.4114   20683607.5194
        54.000          49.000
 130303568.58047 101535225.48247  24795963.7024   24795967.1214   24795963.4724
        41.000          35.000
 118237705.25347  92133254.55447  22499904.9884   22499909.8384   22499904.5654
        50.000          43.000
 108122547.58147  84251313.06047  20575053.0834   20575055.8404   20575053.6414
        54.000          48.000
 09  1 21  1 17  0.0000000  0 12G16G14G 5G 6G22G29G24G18G31G12G30G21
 141388571.86547  92380695.78947  25002419.1174   25002424.6894   25002419.0764
        40.000          34.000
 121231118.87547  94465788.59547  23069530.1864   23069533.8084   23069530.7504
        47.000          41.000
 124283071.08347  96843933.54547  23650296.0214   23650302.2004   23650296.3334
        44.000          39.000
 124919176.69247  97339578.16147  23771359.7914   23771366.1184   23771359.6094
        44.000          38.000
 119439199.03947  93069502.50247  22728526.4154   22728528.2424   22728526.5744
        49.000          43.000
 130309028.10047 101539491.40347  24796990.9974   24796994.0124   24796990.2324
        40.000          36.000
 126828686.12347  98827536.89447  24134703.3364   24134707.1364   24134703.0894
        43.000          37.000
 117354079.26547  91444717.43247  22331755.6874   22331759.5164   22331756.0114
        50.000          43.000
 108652845.36447  84664544.76247  20675956.1904   20675958.5394   20675956.0244
        55.000          49.000
 130335828.03547 101560362.83547  24802102.2304   24802105.7804   24802101.9254
        40.000          35.000
 118225515.68347  92123756.20147  22497584.9784   22497589.8374   22497584.6734
        49.000          43.000
 108183944.23847  84299154.64547  20586736.4344   20586739.3054   20586736.8194
        54.000          48.000
 09  1 21  1 17 30.0000000  0 12G16G14G 5G 6G22G29G24G18G31G12G30G21
 141321987.55047  92328812.07147  24989749.0414   24989753.3384   24989748.4074
        39.000          34.000
 121271795.13247  94497484.38747  23077270.6444   23077274.3094   23077270.8324
        47.000          41.000
 124305161.20547  96861146.62447  23654499.6904   23654505.6534   23654499.8914
        44.000          39.000
 124913365.53347  97335050.05047  23770253.8484   23770259.9614   23770253.9184
        43.000          38.000
 119383980.23547  93026474.84947  22718018.8254   22718020.4404   22718018.6374
        49.000          43.000
 130359863.45247 101579103.33247  24806663.7934   24806667.3394   24806663.8784
        41.000          36.000
 126926453.33847  98903719.18947  24153307.5564   24153311.5314   24153307.8414
        43.000          37.000
 117320475.13847  91418532.38347  22325360.9064   22325364.5384   22325361.4594
        50.000          43.000
 108613181.62247  84633637.97047  20668408.2104   20668410.7724   20668407.6874
        55.000          49.000
 130368386.01947 101585732.80547  24808298.3334   24808301.3404   24808297.6604
        40.000          35.000
 118213590.02747  92114463.48447  22495315.7874   22495320.5854   22495315.5944
        50.000          43.000
 108245840.34547  84347385.40747  20598514.9804   20598517.5564   20598515.4164
        54.000          48.000
 09  1 21  1 18  0.0000000  0 12G16G14G 5G 6G22G29G24G18G31G12G30G21
 141255165.36247  92276742.98147  24977032.3354   24977037.6114   24977032.3274
        40.000          34.000
 121312413.06547  94529134.72547  23084999.9874   23085003.1914   23085000.3334
        47.000          41.000
 124327606.49047  96878636.46347  23658770.8254   23658776.7974   23658770.8614
        44.000          39.000
 124907674.77947  97330615.76647  23769170.6374   23769176.4704   23769170.5694
        44.000          38.000
 119328702.36647  92983401.18047  22707499.6514   22707501.3474   22707499.8244
        49.000          43.000
 130410470.53447 101618537.38547  24816293.5954   24816297.0454   24816294.1124
        41.000          36.000
 127024358.76047  98980009.14747  24171938.4174   24171942.2714   24171939.1924
        43.000          37.000
 117287019.12547  91392462.74347  22318994.4224   22318997.8554   22318994.6474
        50.000          43.000
 108574071.39747  84603162.50547  20660965.9184   20660968.3084   20660965.6804
        55.000          49.000
 130401248.17947 101611339.75247  24814551.1194   24814555.0614   24814551.4344
        43.000          36.000
 118201935.04747  92105381.69947  22493097.7724   22493102.5164   22493097.5274
        49.000          43.000
 108308237.83347  84396006.85947  20610388.6724   20610391.3944   20610389.0764
        54.000          48.000
 09  1 21  1 18 30.0000000  0 12G16G14G 5G 6G22G29G24G18G31G12G30G21
 141188098.23847  92224483.05147  24964269.5504   24964274.7944   24964270.0944
        41.000          35.000
 121352962.20647  94560731.47447  23092716.3334   23092719.3664   23092716.3884
        47.000          41.000
 124350399.86347  96896397.51647  23663108.0254   23663114.3394   23663108.8304
        45.000          39.000
 124902094.61947  97326267.65247  23768108.6464   23768114.6344   23768109.1314
        43.000          38.000
 119273359.39747  92940276.78247  22696968.1454   22696969.9234   22696968.2904
        49.000          43.000
 130460840.98947 101657787.06547  24825879.0674   24825883.0004   24825879.5024
        41.000          36.000
 127122391.89147  99056398.63747  24190593.4624   24190597.3204   24190594.3384
        43.000          37.000
 117253705.54647  91366504.09447  22312655.1694   22312658.9604   22312655.7074
        50.000          43.000
 108535507.53047  84573112.76647  20653627.5154   20653629.7874   20653627.0404
        55.000          50.000
 130434407.00947 101637177.89147  24820861.1004   24820865.8784   24820860.4194
        41.000          35.000
 118190544.72647  92096506.14447  22490930.3074   22490934.5184   22490930.2454
        50.000          43.000
 108371126.34847  84445010.93047  20622355.8914   20622358.7524   20622356.2194
        54.000          48.000
 09  1 21  1 19  0.0000000  0 12G16G14G 5G 6G22G29G24G18G31G12G30G21
 141120795.44347  92172039.44247  24951463.1234   24951466.9374   24951462.9674
        40.000          35.000
 121393448.88047  94592279.54647  23100420.4064   23100423.8014   23100420.3674
        46.000          41.000
 124373550.75647  96914437.16047  23667514.2314   23667519.5104   23667514.8034
        45.000          39.000
 124896631.74447  97322010.96147  23767069.5774   23767074.7514   23767069.8454
        44.000          38.000
 119217961.77847  92897109.79747  22686426.5144   22686428.2844   22686426.6284
        49.000          43.000
 130510982.88547 101696858.62047  24835421.8474   24835424.3784   24835420.9314
        41.000          37.000
 127220558.67647  99132892.26747  24209274.2904   24209278.2004   24209274.3614
        43.000          37.000
 117220545.21047  91340664.86147  22306345.0174   22306348.9654   22306345.5044
        50.000          43.000
 108497500.04147  84543496.56647  20646394.7684   20646397.1324   20646394.4124
        55.000          50.000
 130467871.56347 101663254.26647  24827228.0924   24827233.0674   24827228.1214
        39.000          35.000
 118179429.87447  92087845.23247  22488815.6064   22488820.0264   22488815.1004
        50.000          43.000
 108434511.74547  84494402.17647  20634417.9004   20634420.5254   20634418.2184
        54.000          48.000
 09  1 21  1 19 30.0000000  0 12G16G14G 5G 6G22G29G24G18G31G12G30G21
 141053256.73447  92119412.01047  24938609.9294   24938614.9024   24938611.0114
        41.000          34.000
 121433869.86347  94623776.42147  23108112.3704   23108115.7674   23108112.6774
        46.000          41.000
 124397059.07347  96932755.33047  23671986.9884   23671993.0414   23671987.4274
        45.000          39.000
 124891283.36747  97317843.47547  23766051.1004   23766056.5574   23766051.0524
        43.000          38.000
 119162510.56347  92853901.05847  22675874.3014   22675876.2764   22675874.6864
        49.000          43.000
 130560895.09047 101735751.18747  24844919.2404   24844922.9094   24844918.6204
        40.000          36.000
 127318855.46347  99209487.19247  24227978.9674   24227983.7314   24227978.8954
        42.000          36.000
 117187539.38847  91314946.03247  22300064.1794   22300067.9394   22300064.7014
        50.000          43.000
 108460048.67147  84514313.71047  20639268.0784   20639270.2334   20639267.7884
        55.000          49.000
 140501753.37457  91689679.49157  24833656.3835   24833655.9195   24833653.2325
        38.000          34.000
 118168591.39047  92079399.69347  22486752.9954   22486757.6614   22486752.5414
        50.000          44.000
 108498390.76947  84544178.06847  20646573.7954   20646576.2244   20646574.2024
        54.000          48.000
 09  1 21  1 20  0.0000000  0 12G16G14G 5G 6G22G29G24G18G31G12G30G21
 140985481.30747  92066600.10947  24925713.2004   24925717.3974   24925713.9614
        41.000          34.000
 121474221.58447  94655219.33947  23115790.9564   23115794.4764   23115791.1964
        46.000          41.000
 124420924.00647  96951351.39647  23676528.2444   23676534.4644   23676529.0464
        45.000          39.000
 124886045.85647  97313762.36647  23765054.2434   23765060.3684   23765055.0094
        44.000          38.000
 119107005.66947  92810650.48647  22665311.8874   22665313.9084   22665311.9404
        49.000          43.000
 130610575.79347 101774463.34147  24854373.5694   24854377.1814   24854373.4044
        41.000          37.000
 127417277.96047  99286180.03647  24246708.1774   24246713.0474   24246708.5834
        43.000          37.000
 117154689.21247  91289348.48547  22293812.9794   22293816.7804   22293813.6524
        51.000          43.000
 108423152.80847  84485563.71447  20632246.8004   20632249.3724   20632246.3194
        55.000          49.000
 120535675.25457 111716079.65457  24840137.4825   24840142.8025   24840138.5435
        40.000          35.000
 118158029.71347  92071169.82747  22484743.1584   22484747.7674   22484742.7094
        50.000          44.000
 108562758.92947  84594335.10747  20658822.3974   20658825.0954   20658822.8214
        54.000          48.000
 09  1 21  1 20 30.0000000  0 12G16G14G 5G 6G22G29G24G18G31G12G30G21
 140917467.83247  92013602.73147  24912770.9214   24912775.5274   24912772.7274
        41.000          34.000
 121514500.38447  94686605.45647  23123455.3964   23123459.7274   23123455.5764
        46.000          40.000
 124445144.79547  96970224.73847  23681137.8204   23681143.5834   23681138.5274
        45.000          39.000
 124880915.71547  97309764.91747  23764078.4454   23764083.9434   23764078.0664
        43.000          38.000
 119051447.67147  92767358.53147  22654739.9624   22654741.4944   22654740.0724
        50.000          43.000
 130660022.75847 101812993.39147  24863782.7964   24863786.0914   24863783.2704
        40.000          36.000
 127515821.88847  99362967.54347  24265460.4284   24265464.3684   24265461.3124
        43.000          36.000
 117121995.34947  91263872.74047  22287591.8814   22287595.2934   22287592.2944
        51.000          43.000
 108386812.10347  84457246.31147  20625331.2304   20625333.7294   20625330.9344
        54.000          49.000
 120570052.11647 111742866.89647  24846681.0964   24846684.6024   24846681.3064
        39.000          35.000
 118147745.44047  92063156.12747  22482786.2204   22482790.4754   22482785.6734
        50.000          43.000
 108627611.98347  84644869.98347  20671163.3884   20671166.0394   20671163.8124
        54.000          48.000
 09  1 21  1 21  0.0000000  0 12G16G14G 5G 6G22G29G24G18G31G12G30G21
 140849218.45647  91960421.50647  24899783.3454   24899786.5754   24899783.8094
        41.000          35.000
 121554705.25947  94717933.95447  23131106.5114   23131109.8334   23131106.7494
        46.000          41.000
 124469723.55147  96989377.01747  23685815.1844   23685820.9304   23685815.7184
        44.000          39.000
 124875892.39847  97305850.72247  23763122.6144   23763128.7394   23763123.2724
        44.000          39.000
 118995839.78047  92724027.68647  22644157.9304   22644159.7204   22644158.1564
        50.000          43.000
 130709236.75647 101851341.90647  24873148.0194   24873152.2284   24873147.3414
        41.000          36.000
 127614486.17247  99439848.85347  24284235.5704   24284240.6444   24284236.2744
        43.000          36.000
 117089461.64747  91238521.80547  22281400.7254   22281404.4994   22281401.2634
        50.000          43.000
 108351028.57247  84429363.06447  20618521.9564   20618524.3024   20618521.6334
        54.000          49.000
 120604734.03147 111769891.89447  24853280.3194   24853284.6844   24853279.9554
        39.000          34.000
 118137741.49547  92055360.84947  22480882.5964   22480886.7664   22480882.2074
        50.000          44.000
 108692948.90547  84695781.89647  20683596.6904   20683599.2894   20683597.0724
        54.000          48.000
 09  1 21  1 21 30.0000000  0 12G16G14G 5G 6G22G29G24G18G31G12G30G21
 140780735.71147  91907058.50147  24886750.5254   24886754.8264   24886751.7654
        41.000          35.000
 121594835.73147  94749204.47747  23138743.4294   23138746.2654   23138743.6764
        47.000          41.000
 124494662.79947  97008810.20947  23690561.1724   23690566.2464   23690561.8414
        45.000          39.000
 124870975.79947  97302019.68147  23762186.9904   23762192.3464   23762186.7494
        43.000          39.000
 118940185.91547  92680661.01547  22633567.6624   22633569.1364   22633567.5024
        49.000          43.000
 130758219.64447 101889510.36447  24882469.3744   24882472.5824   24882469.1194
        40.000          36.000
 127713270.29847  99516823.55147  24303033.9404   24303038.2354   24303034.2154
        42.000          36.000
 117057092.36847  91213298.98947  22275240.5904   22275244.8134   22275241.1434
        50.000          43.000
 108315805.13047  84401916.25447  20611818.9904   20611821.4544   20611818.6084
        54.000          49.000
 140639832.34957  91797264.39457  24859939.0055   24859941.6865   24859937.8965
        39.000          35.000
 118128021.53847  92047786.87947  22479032.6324   22479037.2124   22479032.4254
        50.000          44.000
 108758768.89947  84747070.22647  20696121.5714   20696124.4484   20696121.9044
        54.000          47.000
 09  1 21  1 22  0.0000000  0 12G16G14G 5G 6G22G29G24G18G31G12G30G21
 140712019.13747  91853513.25447  24873674.2014   24873678.3514   24873675.8204
        40.000          35.000
 121634888.68147  94780414.59447  23146365.0284   23146368.1184   23146365.4794
        46.000          41.000
 124519962.37847  97028524.15947  23695375.5604   23695380.8324   23695376.2294
        44.000          39.000
 124866163.07047  97298269.58447  23761270.5954   23761276.7704   23761270.9724
        44.000          38.000
 118884486.83047  92637259.11647  22622968.5494   22622969.7924   22622968.3124
        50.000          43.000
 130806969.83047 101927497.49347  24891746.5354   24891750.2474   24891745.5704
        40.000          37.000
 127812170.37647  99593888.56847  24321853.3654   24321858.4664   24321853.4464
        42.000          36.000
 117024888.59647  91188205.13747  22269112.8664   22269116.4124   22269113.4754
        51.000          43.000
 108281141.26047  84374905.47147  20605222.6444   20605225.0714   20605222.2704
        54.000          49.000
 120675110.07857 111824748.64157  24866656.1545   24866660.0005   24866654.4125
        40.000          34.000
 118118586.68147  92040435.05847  22477237.6274   22477241.6434   22477237.0074
        50.000          44.000
 108825068.15247  84798732.00847  20708737.8484   20708740.7184   20708738.1994
        54.000          47.000
 09  1 21  1 22 30.0000000  0 12G16G14G 5G 6G22G29G24G18G31G12G30G21
 140643070.42147  91799787.12947  24860554.4554   24860557.5554   24860555.3934
        42.000          35.000
 121674862.91647  94811563.37247  23153971.7374   23153975.0544   23153971.8924
        47.000          41.000
 124545623.58847  97048519.92647  23700258.6084   23700264.0654   23700258.8434
        44.000          39.000
 124861452.97947  97294599.44547  23760374.6064   23760380.6224   23760374.7534
        43.000          39.000
 118828745.02647  92593823.91647  22612360.9374   22612362.6254   22612361.0334
        50.000          43.000
 130855488.01347 101965303.82747  24900978.8994   24900983.3314   24900978.2294
        41.000          37.000
 127911184.44447  99671042.37247  24340695.7384   24340700.0234   24340695.0814
        42.000          36.000
 116992853.69747  91163242.88147  22263016.7994   22263020.7294   22263017.3654
        50.000          43.000
 108247038.86147  84348332.19747  20598733.1964   20598735.6534   20598732.8414
        54.000          49.000
 120710713.60647 111852491.73447  24873429.9564   24873433.1634   24873428.9954
        38.000          34.000
 118109439.73447  92033307.57947  22475496.6294   22475501.2414   22475496.3244
        50.000          44.000
 108891844.59547  84850765.62747  20721445.1764   20721447.9244   20721445.5004
        54.000          48.000
 09  1 21  1 23  0.0000000  0 12G16G14G 5G 6G22G29G24G18G31G12G30G21
 140573888.23247  91745879.09347  24847388.8494   24847392.7394   24847389.9044
        41.000          35.000
 121714753.86647  94842647.26547  23161562.7974   23161566.1914   23161563.2504
        47.000          41.000
 124571645.01547  97068796.35247  23705209.5804   23705216.1514   23705209.5974
        44.000          38.000
 124856841.38047  97291006.08747  23759496.7774   23759502.9324   23759496.6514
        44.000          38.000
 118772960.57547  92550355.49647  22601745.5164   22601747.2584   22601745.6254
        49.000          43.000
 130903771.62647 102002927.38647  24910166.8064   24910171.2754   24910166.8574
        40.000          36.000
 128010307.49947  99748281.13947  24359558.1794   24359562.1794   24359558.1064
        42.000          36.000
 116960987.88447  91138412.36647  22256952.8614   22256956.7364   22256953.4504
        50.000          43.000
 108213496.49847  84322195.31347  20592350.1764   20592352.7724   20592349.8024
        54.000          49.000
 120746623.22647 111880473.32847  24880262.6904   24880267.1604   24880261.8684
        38.000          34.000
 118100580.36347  92026404.17147  22473810.9114   22473815.4824   22473810.6604
        50.000          43.000
 108959093.49847  84903167.39647  20734242.3034   20734244.8854   20734242.7594
        54.000          47.000
 09  1 21  1 23 30.0000000  0 12G16G14G 5G 6G22G29G24G18G31G12G30G21
 140504474.05847  91691790.25047  24834179.5854   24834183.8174   24834180.7504
        40.000          35.000
 121754560.38147  94873665.37447  23169137.7474   23169141.1234   23169138.1744
        46.000          41.000
 124598028.56147  97089354.96147  23710230.3274   23710236.5134   23710230.5524
        45.000          38.000
 124852327.58047  97287488.90747  23758638.2204   23758643.7244   23758638.5074
        44.000          39.000
 118717136.53847  92506856.21747  22591122.5894   22591124.5264   22591122.6274
        49.000          43.000
 130951821.26847 102040368.63247  24919310.6384   24919314.0364   24919310.1834
        40.000          36.000
 128109538.45547  99825603.94647  24378440.7534   24378445.2914   24378440.9264
        43.000          36.000
 116929294.73947  91113716.40347  22250922.3164   22250925.5264   22250922.7774
        50.000          43.000
 108180515.95947  84296496.21747  20586074.3734   20586076.7924   20586074.0114
        55.000          50.000
 120782840.72947 111908694.83947  24887153.9674   24887159.0414   24887154.4604
        38.000          35.000
 118092011.56547  92019727.19947  22472180.3244   22472184.7534   22472180.1464
        50.000          43.000
 109026813.25647  84955936.06247  20747128.7864   20747131.3464   20747129.2114
        54.000          47.000
 09  1 21  1 24  0.0000000  0 12G16G14G 5G 6G22G29G24G18G31G12G30G21
 140434832.21247  91637524.01447  24820927.5004   24820929.9274   24820928.1124
        41.000          35.000
 121794284.12147  94904618.97547  23176696.5734   23176700.2854   23176696.7314
        45.000          41.000
 124624778.15747  97110198.79947  23715321.2754   23715326.7344   23715321.6474
        45.000          39.000
 124847912.70547  97284048.84947  23757797.5154   23757803.6204   23757797.3244
        44.000          39.000
 118661278.10947  92463330.14447  22580493.0764   22580494.7994   22580493.1774
        50.000          43.000
 130999640.21847 102077630.12147  24928410.4484   24928413.8734   24928409.7504
        41.000          36.000
 128208877.81747  99903011.24447  24397344.1334   24397348.6394   24397344.5354
        42.000          36.000
 116897779.63847  91089159.18347  22244924.7564   22244928.4804   22244925.2554
        50.000          43.000
 108148101.37347  84271238.12147  20579906.2264   20579908.4544   20579905.8314
        55.000          50.000
 120819369.15547 111937158.65347  24894106.7754   24894110.2164   24894106.2804
        38.000          34.000
 118083738.72747  92013280.84047  22470605.7344   22470610.6474   22470605.6044
        50.000          43.000
 109095004.26647  85009071.93447  20760105.1524   20760107.8404   20760105.4874
        54.000          47.000
 09  1 21  1 24 30.0000000  0 12G16G14G 5G 6G22G29G24G18G31G12G30G21
 140364959.00847  91583077.50347  24807629.7844   24807634.1874   24807630.9184
        40.000          35.000
 121833918.54047  94935502.97047  23184238.8394   23184242.5544   23184238.8614
        46.000          41.000
 124651890.16347  97131325.03747  23720480.0094   23720486.0804   23720480.3534
        45.000          38.000
 124843590.64847  97280681.07647  23756975.6034   23756980.9844   23756975.7184
        43.000          39.000
 118605382.56847  92419775.15347  22569856.1834   22569858.2534   22569856.3374
        49.000          43.000
 131047223.89947 102114708.28347  24937465.1964   24937468.7594   24937465.1884
        40.000          36.000
 128308318.89247  99980497.75247  24416267.1654   24416272.2644   24416266.9764
        42.000          36.000
 116866440.79047  91064739.28847  22238961.1864   22238965.1504   22238961.4694
        50.000          43.000
 108116249.24047  84246418.30147  20573844.8504   20573847.3154   20573844.3724
        55.000          50.000
 120856205.27647 111965862.21947  24901115.4654   24901118.9284   24901115.0764
        38.000          34.000
 118075759.38447  92007063.17647  22469087.6784   22469092.3294   22469087.3824
        50.000          43.000
 109163659.64747  85062569.65847  20773169.8994   20773172.5354   20773170.3114
        54.000          47.000
 09  1 21  1 25  0.0000000  0 12G16G14G 5G 6G22G29G24G18G31G12G30G21
 140294858.36447  91528453.73947  24794290.4754   24794295.1434   24794290.9764
        40.000          35.000
 121873464.02447  94966317.67147  23191764.0864   23191767.3494   23191764.1854
        46.000          41.000
 124679367.90347  97152736.26747  23725708.9694   23725714.9564   23725709.3014
        45.000          38.000
 124839362.30447  97277386.34947  23756169.9964   23756176.2084   23756170.0624
        44.000          38.000
 118549455.02747  92376195.22647  22559213.6584   22559215.9164   22559213.6824
        50.000          43.000
 131094574.53947 102151604.82947  24946476.0004   24946479.9384   24946475.3704
        40.000          36.000
 128407861.54347 100058063.43347  24435209.4894   24435214.2014   24435208.9054
        40.000          35.000
 116835283.42047  91040460.82647  22233032.0404   22233036.1864   22233032.5084
        50.000          43.000
 108084963.18147  84222039.57847  20567891.2944   20567893.6264   20567890.9884
        55.000          50.000
 120893351.76447 111994807.64147  24908183.9824   24908187.8394   24908184.1884
        39.000          34.000
 118068078.17247  92001077.82847  22467625.4294   22467630.1754   22467625.0834
        49.000          44.000
 109232779.38647  85116429.22547  20786322.6914   20786325.3304   20786322.9554
        54.000          47.000
 09  1 21  1 25 30.0000000  0 12G16G14G 5G 6G22G29G24G18G31G12G30G21
 140224530.30647  91473652.80047  24780907.0654   24780911.8524   24780908.0164
        39.000          35.000
 121912918.16247  94997061.19147  23199271.7684   23199275.3194   23199271.9754
        46.000          40.000
 124707211.57447  97174432.64247  23731007.3714   23731013.4334   23731007.8544
        44.000          38.000
 124835225.13947  97274162.64747  23755383.6574   23755388.6084   23755383.9104
        44.000          38.000
 118493497.22647  92332591.71747  22548565.4734   22548567.2834   22548565.7794
        50.000          43.000
 131141691.79447 102188319.53847  24955441.5694   24955446.8304   24955441.0374
        40.000          36.000
 128507502.86647 100135706.01847  24454170.4774   24454175.5574   24454169.9474
        41.000          36.000
 116804309.62947  91016325.38347  22227137.8984   22227141.6124   22227138.5214
        50.000          43.000
 108054243.57847  84198102.24847  20562045.5384   20562047.7734   20562045.1354
        55.000          50.000
 140930666.68757  92023854.98457  24915309.3885   24915316.3935   24915312.1945
        38.000          34.000
 118060696.45847  91995325.84847  22466221.1714   22466225.7134   22466220.8414
        50.000          43.000
 109302360.10347  85170647.99347  20799563.6324   20799565.9984   20799564.1124
        54.000          47.000
 09  1 21  1 26  0.0000000  0 12G16G14G 5G 6G22G29G24G18G31G12G30G21
 140153975.62047  91418675.23547  24767481.0834   24767485.8944   24767481.3334
        40.000          35.000
 121952278.69147  95027731.78147  23206761.7054   23206764.9994   23206761.8294
        47.000          41.000
 124735421.84647  97196414.69047  23736375.5634   23736381.8634   23736376.0274
        43.000          38.000
 124831177.42347  97271008.68447  23754612.4424   23754618.6804   23754612.2634
        45.000          38.000
 118437510.89447  92288965.97347  22537911.6184   22537913.3654   22537911.6154
        50.000          44.000
 131188575.46847 102224852.38247  24964364.0124   24964367.8234   24964363.7584
        41.000          36.000
 128607240.19747 100213423.40447  24473150.4524   24473154.5464   24473150.0244
        41.000          36.000
 116773521.63847  90992334.72547  22221279.3904   22221283.0824   22221279.9554
        50.000          43.000
 108024090.83647  84174606.62547  20556307.4634   20556310.0944   20556307.0144
        55.000          50.000
 140968434.23147  92053284.37047  24922499.4134   24922501.8204   24922499.4144
        39.000          34.000
 118053616.30947  91989808.86847  22464873.8284   22464878.2134   22464873.6754
        50.000          44.000
 109372398.94847  85225223.74747  20812891.4654   20812894.0514   20812891.8214
        54.000          47.000
 09  1 21  1 26 30.0000000  0 12G16G14G 5G 6G22G29G24G18G31G12G30G21
 140083196.32447  91363522.63847  24754013.4184   24754016.8724   24754013.5304
        40.000          35.000
 121991545.10847  95058329.03447  23214234.0394   23214237.2974   23214234.2384
        46.000          41.000
 124764000.49647  97218683.78947  23741814.0634   23741819.2674   23741814.3444
        45.000          38.000
 124827218.29347  97267923.71047  23753859.5404   23753864.8074   23753860.2374
        45.000          38.000
 118381499.46847  92245320.67547  22527253.2474   22527254.8724   22527253.0944
        50.000          43.000
 131235226.38747 102261203.89547  24973240.6584   24973244.4334   24973241.4514
        40.000          36.000
 128707072.06847 100291214.44047  24492147.3674   24492151.9554   24492148.0174
        42.000          36.000
 116742922.77447  90968491.43147  22215456.1764   22215460.5214   22215456.5614
        50.000          43.000
 107994506.62647  84151554.01547  20550677.8744   20550680.1294   20550677.4804
        55.000          50.000
 141006513.96147  92082957.03947  24929744.6794   24929749.3864   24929744.7104
        39.000          34.000
 118046840.56447  91984529.07547  22463584.6134   22463589.0224   22463584.1764
        50.000          44.000
 109442894.45547  85280155.32947  20826306.2564   20826308.9404   20826306.7084
        54.000          47.000
 09  1 21  1 27  0.0000000  0 12G16G14G 5G 6G22G29G24G18G31G12G30G21
 140012191.56647  91308194.40647  24740500.4754   24740504.9294   24740501.4514
        40.000          35.000
 122030713.27847  95088849.72947  23221687.5954   23221690.9754   23221687.6994
        46.000          41.000
 124792946.21247  97241238.91347  23747321.8764   23747328.2414   23747322.5974
        45.000          38.000
 124823343.93347  97264904.81347  23753121.9484   23753127.3884   23753121.7064
        43.000          38.000
 118325462.96347  92201655.83747  22516590.2104   22516591.7084   22516590.2584
        50.000          44.000
 131281642.48647 102297372.27447  24982073.4844   24982077.0364   24982072.6984
        38.000          36.000
 128806994.05747 100369075.72747  24511161.8514   24511166.5564   24511162.4224
        41.000          36.000
 116712513.92647  90944796.20547  22209669.8494   22209673.5754   22209670.2924
        50.000          43.000
 107965489.94747  84128943.64447  20545156.1534   20545158.4504   20545155.7894
        55.000          50.000
 141044904.48047  92112871.83847  24937050.4184   24937053.8924   24937049.9344
        39.000          34.000
 118040369.10547  91979486.38747  22462352.7584   22462357.4464   22462352.3784
        49.000          44.000
 109513841.84047  85335439.03147  20839807.1734   20839809.7234   20839807.5744
        54.000          47.000
 09  1 21  1 27 30.0000000  0 12G16G14G 5G 6G22G29G24G18G31G12G30G21
 139940962.65747  91252691.48847  24726946.1764   24726950.2244   24726946.7134
        39.000          35.000
 122069781.86647  95119292.82447  23229121.9534   23229125.1884   23229122.1654
        46.000          41.000
 124822260.22847  97264081.01647  23752900.3044   23752905.9134   23752900.4824
        44.000          38.000
 124819553.00247  97261950.92547  23752400.4774   23752406.4274   23752400.7964
        43.000          38.000
 118269403.90847  92157973.41847  22505922.5624   22505923.9224   22505922.4734
        50.000          43.000
 131327823.78347 102333357.76947  24990859.8964   24990865.6744   24990860.3874
        39.000          35.000
 128907004.35747 100447005.80347  24530193.9704   24530198.1514   24530193.3494
        41.000          36.000
 116682298.03647  90921251.33547  22203919.9094   22203923.7224   22203920.2874
        50.000          43.000
 107937041.91147  84106776.36847  20539742.4504   20539745.0374   20539742.0514
        54.000          50.000
 141083606.51247  92143029.38847  24944414.7144   24944418.9364   24944414.6624
        39.000          34.000
 118034204.64147  91974682.92447  22461179.9464   22461184.3834   22461179.5414
        49.000          44.000
 109585238.95947  85391073.17147  20853393.8324   20853396.0644   20853394.3104
        54.000          47.000
 09  1 21  1 28  0.0000000  0 12G16G14G 5G 6G22G29G24G18G31G12G30G21
 139869512.07247  91197015.81347  24713349.0614   24713353.7424   24713349.4014
        41.000          35.000
 122108750.36047  95149657.94947  23236537.3934   23236540.7764   23236537.5494
        47.000          41.000
 124851944.39447  97287211.57347  23758549.4404   23758554.6814   23758549.8394
        44.000          38.000
 124815845.21547  97259061.81647  23751694.9644   23751700.6854   23751695.2774
        44.000          38.000
 118213325.88047  92114276.23547  22495250.9824   22495252.7154   22495251.0964
        49.000          43.000
 131373772.08147 102369161.75747  24999605.2474   24999609.5334   24999604.9284
        39.000          36.000
 129007101.95447 100525003.92447  24549240.8924   24549246.3774   24549241.2714
        41.000          36.000
 116652278.93847  90897859.82247  22198207.5364   22198211.5964   22198207.7514
        50.000          43.000
 107909164.67847  84085053.87947  20534437.6264   20534440.1254   20534437.2264
        54.000          50.000
 141122622.11147  92173431.28147  24951840.2464   24951843.1814   24951838.9654
        40.000          35.000
 118028350.85947  91970121.54347  22460065.9334   22460070.6874   22460065.7304
        50.000          44.000
 109657084.60747  85447056.82147  20867065.5514   20867067.8064   20867065.7694
        54.000          47.000
 09  1 21  1 28 30.0000000  0 12G16G14G 5G 6G22G29G24G18G31G12G30G21
 139797839.39647  91141167.11647  24699710.3304   24699714.0374   24699711.2804
        41.000          35.000
 122147615.43347  95179942.46547  23243933.0434   23243936.6304   23243933.3854
        46.000          41.000
 124881998.17847  97310630.12747  23764268.0804   23764274.1714   23764268.1224
        43.000          38.000
 124812217.35847  97256235.00647  23751004.8834   23751010.5494   23751005.1544
        44.000          39.000
 118157229.82447  92070564.99047  22484576.0194   22484578.2164   22484575.9474
        50.000          43.000
 131419485.67047 102404782.86747  25008303.6424   25008307.2254   25008303.1114
        39.000          35.000
 129107282.90047 100603066.97547  24568304.6614   24568309.8274   24568304.7734
        41.000          35.000
 116622457.81447  90874622.55847  22192533.0414   22192536.5614   22192533.5484
        51.000          43.000
 107881857.30947  84063775.44447  20529241.2024   20529243.6364   20529240.9704
        55.000          50.000
 141161950.05147  92204076.53347  24959323.3604   24959326.7694   24959323.3884
        39.000          35.000
 118022807.99147  91965802.43247  22459011.0274   22459015.6854   22459010.9874
        50.000          43.000
 109729374.75347  85503386.82747  20880821.7014   20880824.2804   20880822.0624
        54.000          47.000
 09  1 21  1 29  0.0000000  0 12G16G14G 5G 6G22G29G24G18G31G12G30G21
 139725946.73147  91085146.96247  24686030.0574   24686033.7954   24686030.0044
        41.000          35.000
 122186376.35247  95210145.80047  23251308.7544   23251312.3914   23251309.0934
        46.000          41.000
 124912423.19447  97334337.97047  23770057.5014   23770063.7844   23770057.8764
        44.000          38.000
 124808668.64747  97253469.85847  23750329.5924   23750334.7024   23750329.7144
        44.000          38.000
 118101119.00247  92026842.24847  22473898.5414   22473900.5704   22473898.4534
        50.000          43.000
 131464965.61247 102440221.70747  25016957.9864   25016962.9924   25016957.5104
        39.000          35.000
 129207545.78347 100681193.86247  24587384.3434   24587389.4804   24587384.0184
        41.000          35.000
 116592838.16847  90851542.29447  22186896.3874   22186899.9634   22186896.8914
        50.000          43.000
 107855121.54347  84042942.40947  20524153.5524   20524155.9424   20524153.1084
        55.000          50.000
 141201591.78547  92234966.29147  24966866.3874   24966870.7664   24966865.8954
        39.000          34.000
 118017578.96947  91961727.88247  22458016.4454   22458020.9234   22458016.1074
        50.000          43.000
 109802107.28847  85560061.55347  20894662.4104   20894664.7594   20894662.8134
        54.000          47.000
 09  1 21  1 29 30.0000000  0 12G16G14G 5G 6G22G29G24G18G31G12G30G21
 139653841.12447  91028960.91847  24672307.7334   24672311.6084   24672307.7264
        41.000          35.000
 122225037.22747  95240271.19647  23258665.7714   23258669.1474   23258666.0274
        46.000          41.000
 124943226.38647  97358340.48747  23775919.0124   23775925.2914   23775919.2554
        44.000          38.000
 124805203.47147  97250769.79947  23749669.2994   23749675.4174   23749669.2824
        43.000          38.000
 118045001.82247  91983114.53947  22463219.8364   22463221.6864   22463220.0314
        50.000          44.000
 131510218.40747 102475483.75247  25025569.7434   25025573.1724   25025568.7734
        40.000          35.000
 129307894.30247 100759387.46147  24606479.8934   24606485.5544   24606479.9744
        41.000          35.000
 116563428.60347  90828625.71847  22181300.0334   22181303.9254   22181300.3454
        50.000          43.000
 107828964.37747  84022560.23647  20519176.0714   20519178.3174   20519175.8124
        55.000          50.000
 141241553.81447  92266105.63147  24974470.8034   24974473.8494   24974470.4424
        38.000          34.000
 118012671.94447  91957904.24847  22457082.0374   22457086.8274   22457081.8324
        49.000          43.000
 109875285.83547  85617083.82147  20908587.6344   20908590.1744   20908587.8624
        54.000          47.000
 09  1 21  1 30  0.0000000  0 12G16G14G 5G 6G22G29G24G18G31G12G30G21
 139581509.98147  90972599.10547  24658543.9724   24658547.6124   24658543.8414
        41.000          36.000
 122263582.31547  95270306.36547  23266000.8464   23266004.3644   23266001.1464
        47.000          41.000
 124974394.17847  97382627.11947  23781850.0404   23781856.2834   23781850.3804
        44.000          38.000
 124801806.04947  97248122.51347  23749023.4474   23749028.5494   23749023.8304
        43.000          38.000
 117988866.37147  91939372.59147  22452537.8024   22452539.2764   22452537.7684
        50.000          44.000
 131555229.92847 102510557.85547  25034135.0854   25034138.0034   25034135.3314
        40.000          35.000
 129408311.83547 100837634.83247  24625589.0574   24625593.8994   24625589.2114
        41.000          35.000
 116534217.72047  90805863.97547  22175741.2554   22175745.1324   22175741.6574
        50.000          43.000
 107803372.23947  84002618.34047  20514305.9924   20514308.2374   20514305.5054
        55.000          50.000
 141281822.65547  92297484.02547  24982132.6724   24982137.6064   24982133.1554
        38.000          34.000
 118008074.85747  91954322.11747  22456207.4504   22456211.8924   22456207.1834
        50.000          43.000
 109948893.53947  85674440.49547  20922594.7194   20922597.4004   20922595.0914
        54.000          47.000
 09  1 21  1 30 30.0000000  0 12G16G14G 5G 6G22G29G24G18G31G12G30G21
 139508962.96347  90916069.09247  24644739.4684   24644743.1454   24644739.5424
        42.000          36.000
 122302018.51747  95300256.67547  23273315.0354   23273318.2414   23273315.1414
        46.000          41.000
 125005935.93947  97407205.15147  23787852.6674   23787858.4634   23787852.7944
        44.000          38.000
 124798483.26647  97245533.42347  23748390.2034   23748396.5224   23748390.7204
        43.000          38.000
 117932723.86847  91895625.15747  22441854.4554   22441855.8314   22441854.3564
        50.000          44.000
 131600009.09747 102545450.82147  25042655.7904   25042659.8104   25042656.1114
        38.000          35.000
 129508804.91447 100915941.08447  24644713.1104   24644717.4374   24644712.7954
        41.000          36.000
 116505216.85847  90783265.88847  22170222.8004   22170226.4154   22170223.2524
        51.000          43.000
 107778354.64547  83983124.14647  20509545.4144   20509547.6114   20509545.0474
        55.000          50.000
 141322407.20047  92329108.43947  24989857.9644   24989859.7454   24989856.4334
        38.000          34.000
 118003798.37347  91950989.79347  22455393.5004   22455398.0994   22455393.2324
        50.000          44.000
 110022936.67847  85732136.47447  20936684.7064   20936687.1004   20936685.1494
        54.000          47.000
 09  1 21  1 31  0.0000000  0 12G16G14G 5G 6G22G29G24G18G31G12G30G21
 139436194.62547  90859366.61047  24630892.2574   24630895.3534   24630892.2214
        42.000          36.000
 122340337.29647  95330115.49247  23280606.8254   23280610.1404   23280607.0974
        46.000          41.000
 125037845.62247  97432069.89947  23793924.5304   23793930.4924   23793925.1894
        45.000          38.000
 124795226.70447  97242995.92447  23747770.9174   23747776.9184   23747770.8434
        43.000          38.000
 117876569.72147  91851868.65247  22431168.4834   22431170.0884   22431168.7014
        50.000          44.000
 131644549.34047 102580157.76347  25051131.0164   25051135.0634   25051131.1964
        39.000          35.000
 129609364.35647 100994299.03247  24663849.4964   24663852.8344   24663848.4934
        42.000          36.000
 116476421.69447  90760828.07047  22164743.5394   22164746.7364   22164744.1604
        51.000          44.000
 107753904.92347  83964072.45047  20504892.7994   20504895.1284   20504892.4144
        55.000          50.000
 141363301.12147  92360973.93447  24997638.3334   24997642.0064   24997638.3404
        39.000          34.000
 117999837.81147  91947903.65447  22454640.0904   22454644.5144   22454639.8454
        50.000          44.000
 110097405.47247  85790164.13447  20950855.6034   20950858.0294   20950856.0344
        54.000          47.000
 09  1 21  1 31 30.0000000  0 12G16G14G 5G 6G22G29G24G18G31G12G30G21
 139363215.13947  90802499.58547  24617004.0724   24617007.5654   24617004.3254
        42.000          36.000
 122378546.32447  95359888.79547  23287877.9604   23287881.0974   23287878.2054
        47.000          41.000
 125070133.11347  97457229.03747  23800068.8504   23800074.3514   23800069.4244
        45.000          38.000
 124792043.97547  97240515.97147  23747165.0864   23747170.5594   23747165.2014
        43.000          38.000
 117820415.57947  91808112.16247  22420482.4194   22420484.5254   22420482.4904
        50.000          44.000
 131688859.42747 102614685.30647  25059563.3764   25059566.8604   25059562.7374
        39.000          36.000
 129709997.13247 101072714.11947  24682998.0564   24683003.5354   24682997.9984
        41.000          36.000
 116447844.45047  90738560.07847  22159305.2444   22159308.6964   22159305.7344
        50.000          44.000
 107730033.33047  83945471.24347  20500350.0784   20500352.3114   20500349.6624
        55.000          50.000
 141404514.08247  92393088.01547  25005481.7164   25005485.2024   25005480.6844
        39.000          35.000
 117996204.41147  91945072.44947  22453948.6544   22453953.0994   22453948.3384
        50.000          43.000
 110172306.49547  85848528.59847  20965108.6744   20965111.2844   20965109.0504
        53.000          47.000
 09  1 21  1 32  0.0000000  0 12G16G14G 5G 6G22G29G24G18G31G12G30G21
 139290024.10247  90745467.75047  24603076.2694   24603080.5114   24603077.3284
        42.000          36.000
 122416642.01447  95389573.77547  23295127.1264   23295130.1234   23295127.1024
        46.000          40.000
 125102797.25147  97482681.63847  23806285.0294   23806290.4594   23806285.5184
        45.000          38.000
 124788931.62347  97238090.84847  23746573.0204   23746578.3414   23746573.4874
        43.000          38.000
 117764261.85247  91764355.99047  22409796.7974   22409798.8174   22409797.0624
        50.000          44.000
 131732938.07747 102649032.61547  25067951.4954   25067954.8034   25067950.9184
        41.000          36.000
 129810699.22747 101151183.15647  24702161.3364   24702166.3264   24702160.8324
        42.000          35.000
 116419485.93447  90716462.51847  22153908.8874   22153912.2524   22153909.3234
        51.000          43.000
 107706738.82647  83927319.71547  20495917.3004   20495919.5064   20495917.0254
        55.000          50.000
 141446044.73747  92425449.63947  25013383.8044   25013388.1904   25013383.7634
        39.000          35.000
 117992898.19947  91942496.19747  22453319.4564   22453323.8384   22453319.0804
        49.000          43.000
 110247635.29647  85907226.38847  20979443.0324   20979445.8174   20979443.3304
        54.000          47.000
 09  1 21  1 32 30.0000000  0 12G16G14G 5G 6G22G29G24G18G31G12G30G21
 139216616.68947  90688267.29347  24589107.2114   24589109.8424   24589107.6584
        42.000          36.000
 122454616.88747  95419164.60447  23302353.2114   23302356.4944   23302353.4204
        45.000          40.000
 125135832.92147  97508423.76247  23812571.0144   23812576.7084   23812571.4804
        44.000          38.000
 124785882.07447  97235714.65547  23745992.3294   23745998.1144   23745991.8994
        44.000          38.000
 117708105.52247  91720597.80047  22399110.9184   22399112.7464   22399111.0854
        50.000          44.000
 131776780.11847 102683195.45547  25076294.0544   25076297.1594   25076293.9804
        40.000          36.000
 129911462.39447 101229699.82047  24721335.3334   24721341.1834   24721335.6534
        41.000          35.000
 116391342.67547  90694532.69347  22148553.3524   22148556.8654   22148553.6984
        51.000          44.000
 107684015.93947  83909613.60447  20491593.1454   20491595.4384   20491592.7344
        55.000          50.000
 141487887.71547  92458054.65547  25021346.8434   25021350.3774   25021346.4954
        41.000          35.000
 117989915.71747  91940172.20447  22452751.4464   22452756.5684   22452750.9884
        49.000          44.000
 110323383.33147  85966250.85347  20993857.5664   20993860.2494   20993858.0104
        54.000          47.000
 09  1 21  1 33  0.0000000  0 12G16G14G 5G 6G22G29G24G18G31G12G30G21
 139142999.93847  90630903.73347  24575098.1334   24575101.8614   24575099.3264
        43.000          36.000
 122492474.86247  95448664.36747  23309557.3094   23309560.4154   23309557.1794
        45.000          40.000
 125169246.27647  97534460.19747  23818929.1734   23818934.2554   23818929.7344
        45.000          38.000
 124782899.38447  97233390.55947  23745425.2044   23745430.5204   23745425.6894
        44.000          38.000
 117651953.91247  91676843.28347  22388425.7064   22388427.7474   22388425.7744
        50.000          44.000
 131820390.52847 102717177.79347  25084592.8804   25084595.0754   25084592.0004
        41.000          36.000
 130012290.03847 101308266.73947  24740522.3934   24740527.6734   24740522.9504
        42.000          35.000
 116363423.10447  90672777.17647  22143240.4804   22143244.1714   22143240.9164
        50.000          44.000
 107661871.09647  83892357.91647  20487379.0694   20487381.2924   20487378.6194
        55.000          50.000
 141530048.91247  92490907.62047  25029369.1964   25029373.8854   25029369.0284
        40.000          35.000
 117987264.44947  91938106.30547  22452247.0964   22452251.7864   22452246.7994
        50.000          43.000
 110399553.56547  86025604.31247  21008352.2324   21008354.7254   21008352.5714
        53.000          47.000
 09  1 21  1 33 30.0000000  0 12G16G14G 5G 6G22G29G24G18G31G12G30G21
 139069170.89547  90573374.71247  24561049.4604   24561052.4224   24561049.5704
        43.000          36.000
 122530210.00947  95478068.40947  23316738.2004   23316741.4834   23316738.3044
        46.000          40.000
 125203033.81947  97560788.19047  23825359.2564   23825364.1904   23825359.5404
        44.000          38.000
 124779977.26147  97231113.64847  23744869.2224   23744874.1944   23744868.9904
        44.000          38.000
 117595805.25547  91633091.06647  22377740.5734   22377742.7654   22377740.7734
        50.000          44.000
 131863765.42247 102750976.53847  25092845.9384   25092849.7484   25092846.5934
        41.000          36.000
 130113175.76647 101386878.92147  24759721.2124   24759726.1494   24759721.2504
        41.000          35.000
 116335725.45947  90651194.58547  22137969.6774   22137973.3624   22137970.0094
        51.000          44.000
 107640300.05647  83875549.34947  20483274.3064   20483276.3234   20483274.0064
        55.000          50.000
 141572524.46047  92524005.57247  25037451.7074   25037456.4574   25037451.5664
        40.000          35.000
 117984941.93547  91936296.56947  22451805.5394   22451809.6934   22451805.0084
        50.000          44.000
 110476139.03647  86085281.32847  21022925.9084   21022928.4854   21022926.2324
        53.000          46.000
 09  1 21  1 34  0.0000000  0 12G16G14G 5G 6G22G29G24G18G31G12G30G21
 138995132.82147  90515682.80647  24546959.8474   24546963.4864   24546959.7204
        43.000          36.000
 122567822.64447  95507376.97247  23323895.4734   23323898.9764   23323895.6154
        45.000          40.000
 125237197.73447  97587409.44847  23831860.0634   23831866.1264   23831860.5664
        44.000          38.000
 124777116.41247  97228884.50547  23744324.5044   23744329.6954   23744324.6444
        44.000          39.000
 117539664.68547  91589345.14947  22367057.5674   22367059.5444   22367057.7604
        50.000          44.000
 131906907.43947 102784593.92447  25101056.3984   25101058.9524   25101055.7434
        40.000          36.000
 130214118.94147 101465535.87247  24778930.2764   24778933.7864   24778930.2964
        41.000          35.000
 116308254.17447  90629788.37947  22132742.1674   22132745.9054   22132742.6554
        50.000          44.000
 107619305.27947  83859189.81347  20479278.9514   20479281.3184   20479278.5144
        55.000          50.000
 141615316.58947  92557350.19547  25045594.9024   25045598.4694   25045594.6784
        39.000          35.000
 117982951.68247  91934745.73547  22451426.3704   22451431.1294   22451425.9594
        49.000          43.000
 110553138.85647  86145281.21947  21037578.6644   21037581.1424   21037579.0794
        54.000          46.000
 09  1 21  1 34 30.0000000  0 12G16G14G 5G 6G22G29G24G18G31G12G30G21
 138920888.25647  90457830.01947  24532830.9424   24532835.3784   24532831.0434
        42.000          36.000
 122605312.57647  95536589.92947  23331029.6224   23331033.1194   23331029.6714
        45.000          40.000
 125271740.36147  97614325.84047  23838433.2244   23838438.9654   23838433.5244
        44.000          38.000
 124774316.25947  97226702.62747  23743791.7894   23743797.2154   23743792.1074
        43.000          38.000
 117483535.62347  91545608.20647  22356376.7394   22356378.4074   22356376.8014
        51.000          44.000
 131949817.89847 102818030.89647  25109221.1244   25109224.7454   25109220.6934
        39.000          36.000
 130315118.81847 101544236.99747  24798149.7184   24798154.1654   24798149.8474
        42.000          35.000
 116281013.65447  90608562.00447  22127558.0254   22127562.3714   22127558.4764
        51.000          44.000
 107598889.13147  83843281.15747  20475393.8374   20475396.2014   20475393.5214
        55.000          50.000
 141658427.26547  92590943.01147  25053797.7124   25053801.6274   25053797.6994
        39.000          34.000
 117981297.72447  91933456.95847  22451111.8294   22451116.2894   22451111.3054
        49.000          43.000
 110630551.45947  86205602.75747  21052309.7274   21052312.1524   21052310.1264
        54.000          46.000
 09  1 21  1 35  0.0000000  0 12G16G14G 5G 6G22G29G24G18G31G12G30G21
 138846435.82947  90399815.24147  24518663.6844   24518667.7344   24518663.1954
        43.000          36.000
 122642675.52247  95565703.93647  23338139.1744   23338142.9124   23338139.4824
        45.000          40.000
 125306659.47647  97641535.59747  23845078.0384   23845083.6114   23845078.2964
        43.000          38.000
 124771572.65247  97224564.86547  23743268.8244   23743275.1424   23743268.4214
        43.000          38.000
 117427417.43447  91501879.73347  22345697.9784   22345699.6464   22345698.0104
        51.000          44.000
 131992493.90447 102851284.93947  25117342.2784   25117345.7974   25117341.6274
        40.000          36.000
 130416170.38847 101622978.40847  24817379.3574   24817383.8484   24817378.7844
        42.000          35.000
 116254003.67247  90587515.25947  22122418.8034   22122422.5114   22122419.1964
        51.000          44.000
 107579049.06847  83827821.39647  20471618.3794   20471620.7744   20471618.0454
        55.000          50.000
 141701853.84947  92624781.97947  25062061.5644   25062065.0654   25062061.0754
        39.000          34.000
 117979979.19247  91932429.54447  22450860.4014   22450865.3484   22450859.9854
        49.000          43.000
 110708371.82647  86266242.02747  21067118.2674   21067120.7454   21067118.6974
        53.000          46.000
 09  1 21  1 35 30.0000000  0 12G16G14G 5G 6G22G29G24G18G31G12G30G21
 138771777.18047  90341639.78147  24504455.9134   24504459.5444   24504456.4234
        42.000          36.000
 122679910.06447  95594717.87747  23345225.0344   23345228.2364   23345225.3624
        45.000          40.000
 125341955.66247  97669039.15447  23851794.5454   23851800.4044   23851795.1774
        44.000          38.000
 124768884.00047  97222469.88447  23742757.6954   23742763.1394   23742758.0024
        44.000          38.000
 117371313.20447  91458162.13547  22335021.5864   22335023.2714   22335021.8054
        51.000          44.000
 132034936.76747 102884357.46947  25125418.2904   25125421.5144   25125418.7994
        41.000          36.000
 130517271.34947 101701758.28547  24836618.5314   24836621.7514   24836617.9714
        41.000          35.000
 116227226.81947  90566650.18447  22117322.9214   22117326.9754   22117323.6364
        50.000          44.000
 107559785.49647  83812810.84447  20467952.6374   20467955.0514   20467952.2394
        55.000          50.000
 141745596.82147  92658867.52547  25070386.0104   25070389.5834   25070385.4374
        40.000          35.000
 117978997.89647  91931664.90847  22450673.9104   22450678.7564   22450673.7204
        49.000          43.000
 110786597.10547  86327196.81847  21082003.8174   21082006.4354   21082004.2584
        53.000          46.000
 09  1 21  1 36  0.0000000  0 12G16G14G 5G 6G22G29G24G18G31G12G30G21
 138696913.31747  90283304.39147  24490210.2444   24490213.8114   24490210.1524
        42.000          36.000
 122717014.23347  95623630.23347  23352285.3434   23352289.0994   23352285.7014
        45.000          40.000
 125377629.25847  97696836.81547  23858583.1054   23858589.1864   23858583.9704
        44.000          38.000
 124766248.48447  97220416.31947  23742256.2634   23742261.0524   23742256.0064
        44.000          38.000
 117315225.10847  91414457.10947  22324348.4034   22324349.8394   22324348.5324
        51.000          44.000
 132077145.72147 102917247.55547  25133451.2324   25133454.3534   25133451.1464
        42.000          36.000
 130618419.67747 101780575.14247  24855864.9924   24855870.6994   24855865.7454
        41.000          34.000
 116200685.42547  90545968.58547  22112272.4364   22112276.3234   22112272.8604
        51.000          44.000
 107541098.82447  83798249.82647  20464396.8474   20464398.9604   20464396.4674
        55.000          50.000
 141789656.21447  92693199.61147  25078770.0024   25078774.2654   25078770.1394
        40.000          35.000
 117978355.71747  91931164.50347  22450552.1424   22450556.5724   22450551.6694
        49.000          43.000
 110865224.41647  86388464.88747  21096965.9264   21096968.8054   21096966.1564
        53.000          46.000
 09  1 21  1 36 30.0000000  0 12G16G14G 5G 6G22G29G24G18G31G12G30G21
 138621845.70347  90224810.26847  24475924.9524   24475928.3164   24475925.2314
        43.000          36.000
 122753986.36747  95652439.71347  23359321.5164   23359324.6804   23359321.4264
        45.000          40.000
 125413680.71947  97724928.91047  23865443.0904   23865449.0294   23865443.4334
        43.000          38.000
 124763664.34247  97218402.78247  23741764.5734   23741769.6344   23741764.6114
        44.000          38.000
 117259155.47647  91370766.46847  22313678.8474   22313680.3514   22313678.8934
        51.000          44.000
 132119121.52747 102949956.01947  25141439.0934   25141442.3964   25141438.4484
        40.000          36.000
 130719612.92347 101859427.00747  24875121.7584   24875127.5534   24875121.8264
        40.000          34.000
 116174382.37847  90525472.70247  22107267.3114   22107270.6274   22107267.8274
        51.000          44.000
 107522989.20347  83784138.45347  20460950.5874   20460952.7244   20460950.1874
        55.000          50.000
 141834032.29647  92727778.47447  25087215.2544   25087219.2054   25087214.4034
        39.000          35.000
 117978054.57847  91930929.85847  22450494.7504   22450498.8974   22450494.4744
        50.000          43.000
 110944250.94947  86450044.03147  21112004.3364   21112007.0874   21112004.8444
        53.000          46.000
 09  1 21  1 37  0.0000000  0 12G16G14G 5G 6G22G29G24G18G31G12G30G21
 138546576.51947  90166159.05147  24461602.5164   24461605.3844   24461602.2444
        43.000          36.000
 122790826.07447  95681146.00847  23366331.7984   23366334.8454   23366332.2554
        46.000          40.000
 125450111.53847  97753316.62147  23872375.5144   23872381.4024   23872376.3934
        43.000          38.000
 124761130.94247  97216428.77547  23741282.1564   23741287.1564   23741281.8764
        44.000          38.000
 117203107.86647  91327092.99047  22303013.5164   22303015.1214   22303013.5374
        51.000          44.000
 132160865.51647 102982483.83347  25149382.4354   25149385.8734   25149381.7804
        41.000          37.000
 130820849.52547 101938312.61847  24894387.2154   24894391.9684   24894386.4314
        40.000          34.000
 116148320.84247  90505165.01547  22102308.1374   22102311.3924   22102308.5654
        51.000          44.000
 107505458.00747  83770477.80047  20457614.6564   20457616.8514   20457614.2584
        55.000          50.000
 141878726.40047  92762605.12147  25095719.4494   25095724.2114   25095719.5074
        38.000          35.000
 117978097.27347  91930963.11547  22450503.0954   22450507.1514   22450502.8124
        50.000          43.000
 111023674.70247  86511932.70547  21127118.1804   21127120.9824   21127118.5304
        53.000          46.000
 09  1 21  1 37 30.0000000  0 12G16G14G 5G 6G22G29G24G18G31G12G30G21
 138471106.84547  90107351.61047  24447241.1854   24447243.6824   24447240.6304
        41.000          36.000
 122827531.44647  95709747.63647  23373316.0344   23373319.5234   23373316.6504
        45.000          40.000
 125486921.78047  97781999.96947  23879380.6994   23879386.5064   23879381.0184
        43.000          37.000
 124758646.19047  97214492.69047  23740808.9724   23740814.5914   23740809.4564
        44.000          39.000
 117147084.18747  91283438.15647  22292352.3304   22292354.1554   22292352.5164
        51.000          44.000
 132202377.66247 103014831.01347  25157281.9674   25157285.0944   25157282.0534
        42.000          36.000
 130922126.68547 102017229.75347  24913659.4884   24913664.4414   24913659.5234
        41.000          34.000
 116122503.22047  90485047.41047  22097395.2124   22097398.6004   22097395.6614
        51.000          44.000
 107488505.02847  83757267.69847  20454388.4904   20454390.8444   20454388.0944
        55.000          50.000
 141923738.54047  92797679.57847  25104284.9274   25104289.3904   25104283.9234
        38.000          34.000
 117978485.25147  91931265.42847  22450576.6984   22450580.9154   22450576.1934
        49.000          43.000
 111103492.59247  86574128.48647  21142307.3634   21142309.7394   21142307.8734
        53.000          46.000
 09  1 21  1 38  0.0000000  0 12G16G14G 5G 6G22G29G24G18G31G12G30G21
 138395438.12647  90048389.06947  24432841.5414   24432844.3964   24432841.0634
        41.000          36.000
 122864100.86147  95738243.30647  23380275.0514   23380278.5484   23380275.3454
        45.000          40.000
 125524111.90247  97810979.32147  23886457.1914   23886462.8034   23886457.9214
        43.000          37.000
 124756208.39847  97212593.18447  23740345.1944   23740350.8374   23740345.4454
        44.000          39.000
 117091086.91247  91239803.88447  22281696.2904   22281698.2344   22281696.3354
        51.000          44.000
 132243658.13247 103046997.81247  25165136.5884   25165139.9304   25165136.6684
        38.000          35.000
 131023442.67547 102096177.19447  24932938.0634   24932944.6014   24932939.1254
        40.000          34.000
 116096932.33447  90465122.04747  22092528.8244   22092532.5394   22092529.2534
        50.000          44.000
 107472130.96447  83744508.70347  20451272.6064   20451274.8604   20451272.3434
        55.000          50.000
 141969068.84247  92833002.00147  25112910.8604   25112914.5054   25112910.8234
        41.000          35.000
 117979220.10847  91931838.04347  22450716.3124   22450720.7804   22450716.0834
        50.000          43.000
 111183701.84647  86636629.23147  21157570.5554   21157572.9544   21157570.8924
        53.000          46.000
 09  1 21  1 38 30.0000000  0 12G16G14G 5G 6G22G29G24G18G31G12G30G21
 138319569.46747  89989270.73947  24418403.2284   24418406.3554   24418403.8164
        42.000          36.000
 122900530.73147  95766630.23647  23387207.7974   23387211.1384   23387207.7784
        45.000          40.000
 125561680.19447  97840253.38747  23893606.7704   23893611.8014   23893607.2274
        43.000          37.000
 124753813.94547  97210727.45047  23739889.4154   23739894.8074   23739889.6964
        44.000          39.000
 117035116.40947  91196190.47947  22271045.3974   22271047.1684   22271045.2804
        51.000          44.000
 132284705.32147 103078982.71247  25172947.6524   25172950.7324   25172946.5124
        38.000          36.000
 131124793.21147 102175151.64347  24952225.4014   24952230.6504   24952225.9734
        40.000          35.000
 116071608.60247  90445389.27147  22087709.6574   22087713.7584   22087710.1054
        51.000          44.000
 107456333.41747  83732198.93247  20448266.4364   20448268.6794   20448266.0034
        55.000          50.000
 142014715.06447  92868570.56947  25121597.3774   25121600.6864   25121597.2744
        39.000          35.000
 117980301.93247  91932681.01647  22450921.8294   22450927.0314   22450921.4014
        49.000          43.000
 111264297.53747  86699431.09347  21172907.3734   21172909.8204   21172907.7594
        53.000          46.000
 09  1 21  1 39  0.0000000  0 12G16G14G 5G 6G22G29G24G18G31G12G30G21
 138243504.12947  89929999.14047  24403928.5014   24403932.2634   24403928.5754
        42.000          36.000
 122936821.08547  95794908.47047  23394113.7334   23394116.7674   23394113.8754
        46.000          40.000
 125599628.88047  97869823.85147  23900827.9094   23900833.5734   23900828.3384
        43.000          37.000
 124751462.79747  97208895.46347  23739442.1724   23739447.1674   23739442.5204
        43.000          38.000
 116979176.96647  91152601.27947  22260400.5244   22260402.3464   22260400.5584
        51.000          44.000
 132325520.79247 103110787.07247  25180714.4114   25180718.0844   25180713.8874
        39.000          36.000
 131226177.58247 102254152.51947  24971518.9194   24971523.3534   24971518.5684
        39.000          34.000
 116046536.19647  90425852.33747  22082938.7824   22082942.7874   22082939.2724
        51.000          44.000
 107441114.44247  83720340.00147  20445370.1024   20445372.5934   20445369.6834
        55.000          50.000
 142060679.55647  92904387.12447  25130343.2414   25130348.7554   25130343.8994
        39.000          35.000
 117981734.09247  91933796.98747  22451194.4514   22451199.2544   22451193.9654
        49.000          43.000
 111345278.59347  86762533.24347  21188317.3844   21188319.8894   21188317.8754
        53.000          46.000
 09  1 21  1 39 30.0000000  0 12G16G14G 5G 6G22G29G24G18G31G12G30G21
 138167243.84347  89870575.62047  24389416.6434   24389420.9954   24389417.1744
        43.000          37.000
 122972970.72747  95823077.05547  23400992.9834   23400995.9394   23400993.0454
        46.000          40.000
 125637958.46947  97899691.09147  23908121.6754   23908128.3134   23908122.2634
        43.000          37.000
 124749153.52447  97207096.12447  23739002.3644   23739007.8194   23739001.7184
        44.000          38.000
 116923270.80347  91109038.01547  22249762.1864   22249763.7694   22249762.1494
        51.000          44.000
 132366105.62347 103142411.62247  25188437.7294   25188440.1794   25188437.7634
        39.000          36.000
 131327593.61547 102333178.05547  24990818.1474   24990822.5354   24990816.8534
        39.000          34.000
 116021717.89647  90406513.41647  22078216.0734   22078220.1484   22078216.3544
        50.000          44.000
 107426474.51047  83708932.26847  20442584.1924   20442586.5824   20442583.8364
        55.000          50.000
 142106962.31447  92940451.72347  25139150.4244   25139155.5124   25139150.9604
        39.000          35.000
 117983518.81747  91935187.67847  22451533.9054   22451538.8024   22451533.5804
        49.000          43.000
 111426642.26647  86825933.53847  21203800.4164   21203802.8614   21203800.9194
        53.000          46.000
 09  1 21  1 40  0.0000000  0 12G16G14G 5G 6G22G29G24G18G31G12G30G21
 138090787.93047  89810999.66847  24374867.3294   24374871.2334   24374867.7264
        42.000          36.000
 123008976.20447  95851133.29147  23407844.2674   23407847.0864   23407844.6454
        45.000          40.000
 125676667.68147  97929854.16747  23915488.1404   23915493.6094   23915488.4144
        44.000          38.000
 124746882.83047  97205326.83147  23738569.9374   23738575.7004   23738570.0054
        43.000          38.000
 116867398.91147  91065501.47247  22239129.8124   22239131.7344   22239130.0004
        50.000          44.000
 132406458.11147 103173855.21847  25196116.2504   25196119.7054   25196116.5614
        39.000          35.000
 131429037.43447 102412225.11547  25010120.1754   25010126.4134   25010120.8474
        40.000          34.000
 115997154.46147  90387373.08047  22073541.6584   22073545.7424   22073541.9314
        51.000          44.000
 107412411.94347  83697974.43147  20439908.1984   20439910.6154   20439907.8374
        54.000          50.000
 142153562.07247  92976763.28247  25148018.3804   25148022.9474   25148018.3464
        40.000          35.000
 117985656.10647  91936853.09047  22451941.0854   22451945.6194   22451940.6404
        49.000          43.000
 111508383.72447  86889628.20747  21219355.3664   21219357.7854   21219355.7914
        53.000          46.000
 09  1 21  1 40 30.0000000  0 12G16G14G 5G 6G22G29G24G18G31G12G30G21
 138014139.24847  89751273.50147  24360281.2984   24360284.5594   24360281.8784
        42.000          36.000
 123044837.37447  95879077.09147  23414668.3554   23414671.7364   23414668.4824
        45.000          40.000
 125715757.88147  97960314.12347  23922926.3214   23922931.3784   23922926.6514
        44.000          37.000
 124744650.12747  97203587.14947  23738145.6964   23738150.0384   23738145.6474
        45.000          39.000
 116811565.55147  91021994.95047  22228504.9574   22228507.1194   22228505.0744
        51.000          44.000
 132446579.71847 103205118.88947  25203750.4784   25203754.1604   25203750.2704
        39.000          36.000
 131530507.86347 102491292.97147  25029430.5064   25029436.5104   25029430.2134
        39.000          34.000
 115972849.74747  90368434.34547  22068916.8794   22068920.2604   22068917.3324
        51.000          44.000
 107398928.08647  83687467.53547  20437342.3364   20437344.7874   20437341.7714
        55.000          50.000
 142200479.88447  93013322.71847  25156946.9394   25156950.3844   25156947.3914
        41.000          35.000
 117988148.86547  91938795.49447  22452415.3434   22452419.8194   22452415.1244
        49.000          43.000
 111590501.45947  86953616.08447  21234981.5744   21234984.1404   21234982.0764
        53.000          46.000
 09  1 21  1 41  0.0000000  0 12G16G14G 5G 6G22G29G24G18G31G12G30G21
 137937298.11147  89691397.36847  24345659.2874   24345662.4494   24345658.9734
        42.000          36.000
 123080551.54147  95906906.34447  23421464.2344   23421467.7924   23421464.5184
        44.000          39.000
 125755228.01347  97991070.11947  23930437.1244   23930443.1214   23930437.5624
        44.000          38.000
 124742452.35647  97201874.66447  23737727.7564   23737731.7914   23737727.9964
        43.000          38.000
 116755771.30047  90978518.89847  22217887.9944   22217889.7124   22217888.0484
        51.000          44.000
 132486470.18147 103236202.52847  25211341.5054   25211344.5574   25211340.7174
        39.000          35.000
 131632001.55247 102570379.06747  25048743.9544   25048748.0854   25048743.5974
        38.000          34.000
 115948804.82347  90349698.05447  22064341.0594   22064344.9374   22064341.5064
        51.000          44.000
 107386021.67147  83677410.59447  20434886.2914   20434888.8074   20434885.8724
        55.000          50.000
 142247714.45247  93050128.96347  25165936.6154   25165939.1154   25165935.8854
        40.000          35.000
 117990997.41547  91941015.14747  22452957.4934   22452962.0124   22452957.0704
        49.000          43.000
 111672991.21147  87017893.83947  21250679.1124   21250681.4804   21250679.5764
        53.000          46.000
 09  1 21  1 41 30.0000000  0 12G16G14G 5G 6G22G29G24G18G31G12G30G21
 137860268.58947  89631374.43547  24331000.6754   24331003.5244   24331000.8764
        42.000          36.000
 123116119.72947  95934621.83947  23428232.5734   23428236.0174   23428232.7734
        45.000          39.000
 125795081.18747  98022124.56847  23938020.9494   23938027.0894   23938021.6464
        44.000          37.000
 124740290.60747  97200190.27947  23737315.8544   23737320.8714   23737315.5224
        44.000          38.000
 116700021.84947  90935077.76047  22207279.1094   22207280.9934   22207278.9184
        50.000          44.000
 132526131.70347 103267107.62847  25218888.4584   25218892.0434   25218888.6474
        40.000          36.000
 131733518.87247 102649483.49247  25068061.4164   25068067.4684   25068062.1574
        39.000          34.000
 115925025.06247  90331168.36647  22059815.9844   22059819.5094   22059816.4174
        51.000          44.000
 107373695.76147  83667805.99847  20432541.0174   20432543.1584   20432540.6414
        55.000          50.000
 142295268.84847  93087184.43247  25174985.0784   25174987.8314   25174985.5384
        41.000          34.000
 117994206.34847  91943515.62347  22453567.9454   22453572.4954   22453567.6984
        49.000          43.000
 111755853.00047  87082461.49747  21266447.0814   21266449.5284   21266447.4704
        53.000          46.000
 09  1 21  1 42  0.0000000  0 12G16G14G 5G 6G22G29G24G18G31G12G30G21
 137783049.02147  89571203.43547  24316306.7284   24316310.0484   24316306.6064
        41.000          36.000
 123151537.66947  95962220.26247  23434972.4704   23434975.5774   23434972.5554
        45.000          40.000
 125835314.89647  98053475.56047  23945677.0214   23945682.8024   23945677.7304
        44.000          37.000
 124738160.38647  97198530.44147  23736910.4254   23736914.8004   23736910.7094
        43.000          38.000
 116644316.74747  90891671.18047  22196678.6344   22196680.7994   22196678.5824
        51.000          44.000
 132565562.17047 103297832.84847  25226392.9864   25226395.0624   25226391.8064
        39.000          35.000
 131835055.30647 102728603.07447  25087384.2564   25087389.7034   25087383.9944
        39.000          34.000
 115901510.18447  90312845.09847  22055341.2814   22055345.1384   22055341.5654
        51.000          44.000
 107361947.14947  83658651.24247  20430305.2084   20430307.4864   20430304.7674
        55.000          50.000
 142343140.30647  93124486.98747  25184094.5034   25184098.0264   25184094.0414
        41.000          34.000
 117997774.53047  91946296.00947  22454247.2674   22454251.8324   22454247.0124
        50.000          43.000
 111839081.06747  87147314.56147  21282284.8414   21282287.3284   21282285.3494
        53.000          46.000
 09  1 21  1 42 30.0000000  0 12G16G14G 5G 6G22G29G24G18G31G12G30G21
 137705641.31547  89510885.82947  24301576.4574   24301579.0174   24301576.6004
        42.000          36.000
 123186804.29947  95989700.78847  23441683.3464   23441686.3884   23441683.9804
        46.000          40.000
 125875929.67947  98085123.51847  23953406.4934   23953411.2264   23953407.1194
        43.000          38.000
 124736060.25247  97196894.04747  23736510.5234   23736515.1974   23736510.8124
        44.000          38.000
 116588658.62047  90848301.21547  22186087.6594   22186089.4494   22186087.6754
        51.000          44.000
 132604762.43847 103328378.61847  25233851.6414   25233853.8864   25233851.2704
        40.000          35.000
 131936608.25947 102807735.40147  25106708.6174   25106713.1014   25106708.7444
        40.000          34.000
 115878262.99447  90294730.39847  22050917.4754   22050921.0594   22050917.9124
        51.000          44.000
 107350775.82447  83649946.32447  20428179.4574   20428181.6844   20428179.1274
        55.000          50.000
 142391329.01447  93162036.73647  25193263.8724   25193267.1814   25193263.9524
        40.000          34.000
 118001703.78247  91949357.75347  22454994.9784   22454999.6284   22454994.5354
        49.000          43.000
 111922672.97747  87212451.13247  21298191.7274   21298194.1944   21298192.1094
        53.000          46.000
 09  1 21  1 43  0.0000000  0 12G16G14G 5G 6G22G29G24G18G31G12G30G21
 137628048.81147  89450424.24547  24286810.8294   24286813.4374   24286810.8484
        41.000          36.000
 123221919.64147  96017063.41747  23448365.8724   23448369.1424   23448366.2714
        45.000          40.000
 125916927.19047  98117069.65647  23961207.4414   23961213.0094   23961207.8244
        44.000          38.000
 124733990.16547  97195281.07547  23736116.8574   23736121.9394   23736116.3874
        44.000          39.000
 116533051.68947  90804971.14147  22175505.8794   22175507.5684   22175505.8534
        51.000          45.000
 132643734.28947 103358746.35447  25241267.5314   25241271.2764   25241267.0384
        39.000          35.000
 132038177.37547 102886880.41647  25126036.0994   25126041.4004   25126036.2874
        41.000          34.000
 115855287.49047  90276827.40947  22046545.0274   22046549.0824   22046545.5934
        51.000          44.000
 107340183.56247  83641692.62447  20426163.6844   20426165.9984   20426163.2134
        55.000          50.000
 122439928.10457 113199927.59857  25202493.3085   25202497.9925   25202493.7265
        40.000          34.000
 118005997.49247  91952703.50747  22455811.7714   22455816.3154   22455811.5954
        49.000          43.000
 112006626.85947  87277869.76447  21314167.6444   21314170.0044   21314167.9264
        53.000          46.000
 09  1 21  1 43 30.0000000  0 12G16G14G 5G 6G22G29G24G18G31G12G30G21
 137550271.33947  89389818.50447  24272010.2164   24272013.4064   24272009.3914
        42.000          36.000
 123256880.85247  96044305.95947  23455018.5224   23455021.8144   23455018.5994
        45.000          40.000
 125958306.50347  98149313.32547  23969081.2484   23969087.3344   23969081.0694
        43.000          38.000
 124731947.27547  97193689.28847  23735728.3314   23735732.7714   23735728.2554
        44.000          39.000
 116477497.23447  90761681.94747  22164934.2514   22164935.6694   22164934.2784
        51.000          44.000
 132682476.64747 103388935.12747  25248640.1514   25248643.4744   25248639.7784
        39.000          35.000
 132139758.88847 102966035.19547  25145366.5084   25145371.6934   25145366.4264
        39.000          34.000
 115832584.93847  90259137.10647  22042225.0924   22042229.1034   22042225.4904
        51.000          44.000
 107330169.59147  83633889.54247  20424258.1454   20424260.4844   20424257.8084
        55.000          50.000
 122488753.25647 113237973.27347  25211786.9464   25211788.2644   25211785.4404
        40.000          34.000
 118010656.40047  91956333.83147  22456698.4504   22456703.0704   22456698.1134
        50.000          43.000
 112090938.75947  87343567.37447  21330211.7904   21330213.8724   21330212.2874
        53.000          46.000
 09  1 21  1 44  0.0000000  0 12G16G14G 5G 6G22G29G24G18G31G12G30G21
 137472308.99647  89329068.69247  24257174.4244   24257177.4274   24257174.2944
        42.000          36.000
 123291685.21247  96071426.27547  23461641.1704   23461644.6604   23461641.7554
        46.000          40.000
 126000066.21547  98181853.44147  23977027.8074   23977033.9424   23977028.6924
        43.000          38.000
 124729928.32147  97192116.16647  23735343.5204   23735348.4684   23735343.8524
        45.000          39.000
 116421996.20647  90718434.39847  22154372.6054   22154374.0514   22154372.5974
        51.000          45.000
 132720989.18747 103418944.98147  25255968.3864   25255973.1484   25255968.2484
        40.000          35.000
 142241330.52657  93045178.77357  25164698.3925   25164704.0925   25164698.7035
        41.000          34.000
 115810156.06047  90241660.06247  22037956.9784   22037960.8564   22037957.1574
        50.000          44.000
 107320731.68247  83626535.33647  20422462.0834   20422464.2824   20422461.6604
        55.000          50.000
 122537894.77147 113276265.48647  25221137.6364   25221140.7384   25221137.0884
        40.000          35.000
 118015680.01547  91960248.34947  22457654.2814   22457658.8034   22457653.9974
        50.000          43.000
 112175604.14647  87409540.42647  21346323.0724   21346324.9984   21346323.3284
        53.000          45.000
 09  1 21  1 44 30.0000000  0 12G16G14G 5G 6G22G29G24G18G31G12G30G21
 137394165.33247  89268177.61747  24242304.3904   24242307.0094   24242303.7374
        42.000          36.000
 123326332.91947  96098424.52347  23468234.7924   23468237.9124   23468235.2394
        46.000          40.000
 126042208.34947  98214691.52447  23985048.2404   23985053.3594   23985048.7234
        44.000          38.000
 124727933.40447  97190561.75247  23734963.8884   23734968.6484   23734964.0184
        45.000          38.000
 116366552.65347  90675231.64447  22143822.0454   22143823.6194   22143822.0634
        51.000          45.000
 132759273.50247 103448776.95547  25263254.5314   25263257.4094   25263254.2064
        41.000          36.000
 142342928.44447  93124346.03747  25184031.7104   25184036.1304   25184031.2594
        40.000          34.000
 115788005.33547  90224399.76547  22033741.9284   22033745.6254   22033742.3234
        51.000          44.000
 107311871.60247  83619631.38847  20420776.1304   20420778.3574   20420775.7694
        55.000          50.000
 122587354.00847 113314805.25847  25230548.7014   25230551.5674   25230549.4914
        40.000          34.000
 118021072.07347  91964449.96347  22458680.8814   22458684.9854   22458680.5044
        50.000          44.000
 112260621.91747  87475788.06447  21362501.2414   21362503.3054   21362501.6934
        53.000          45.000
 09  1 21  1 45  0.0000000  0 11G16G14G 5G 6G22G24G18G31G12G30G21
 137315841.80947  89207146.37347  24227399.0474   24227402.9824   24227399.8204
        43.000          37.000
 123360822.71847  96125299.73847  23474798.2984   23474801.0824   23474798.6374
        46.000          40.000
 126084733.20447  98247827.79947  23993140.3014   23993145.9424   23993140.8084
        44.000          38.000
 124725961.18247  97189025.05447  23734588.5694   23734593.3714   23734588.2894
        44.000          38.000
 116311169.82547  90632076.20347  22133283.2354   22133284.7664   22133283.2634
        52.000          45.000
 142444532.35147  93203517.79047  25203366.9304   25203371.6064   25203365.9274
        40.000          34.000
 115766135.44947  90207358.29947  22029580.0874   22029583.6434   22029580.7564
        51.000          44.000
 107303589.31847  83613177.68147  20419199.9244   20419202.1474   20419199.5204
        55.000          50.000
 122637131.16847 113353592.76247  25240021.0854   25240023.9714   25240020.8174
        40.000          34.000
 118026834.32147  91968940.04047  22459777.1334   22459781.7904   22459776.7124
        50.000          44.000
 112345989.44547  87542308.23147  21378746.0784   21378748.2434   21378746.5564
        52.000          45.000
 09  1 21  1 45 30.0000000  0 10G16G14G 5G 6G22G18G31G12G30G21
 137237338.68647  89145975.17347  24212460.9994   24212463.7944   24212460.9274
        42.000          37.000
 123395151.63047  96152049.56747  23481330.2434   23481333.7924   23481330.5214
        46.000          40.000
 126127639.33047  98281261.18147  24001305.1684   24001310.2424   24001305.1974
        43.000          38.000
 124724008.30047  97187503.37747  23734216.9644   23734221.3264   23734217.3834
        44.000          38.000
 116255848.37147  90588968.58347  22122755.8424   22122757.3334   22122755.9724
        52.000          45.000
 115744547.44947  90190536.48547  22025472.1264   22025475.8424   22025472.5614
        51.000          44.000
 107295883.25847  83607172.97247  20417733.5284   20417735.7454   20417733.0874
        55.000          50.000
 122687224.79847 113392626.90747  25249553.3474   25249556.9544   25249553.2214
        39.000          34.000
 118032966.87447  91973718.66747  22460943.9084   22460948.6954   22460943.4044
        50.000          43.000
 112431702.18947  87609097.40947  21395056.3484   21395058.8514   21395056.5144
        52.000          45.000
 09  1 21  1 46  0.0000000  0 10G16G14G 5G 6G22G18G31G12G30G21
 137158658.12747  89084665.71847  24197488.4214   24197491.2274   24197488.5214
        42.000          37.000
 123429319.16647  96178673.63747  23487832.3594   23487835.2064   23487832.4554
        46.000          40.000
 126170927.52847  98314992.31547  24009542.0524   24009547.2464   24009542.8304
        43.000          38.000
 124722073.65747  97185995.96147  23733848.6654   23733853.5004   23733848.5084
        43.000          38.000
 116200591.70547  90545911.45347  22112240.7544   22112242.4364   22112240.7584
        51.000          45.000
 115723244.43047  90173936.72847  22021418.4234   22021422.1274   22021418.8534
        51.000          44.000
 107288753.50347  83601617.33447  20416376.8114   20416378.9464   20416376.4374
        55.000          50.000
 122737635.49647 113431908.08847  25259146.9184   25259149.6094   25259146.3884
        39.000          35.000
 118039472.02947  91978787.63147  22462181.7744   22462186.5684   22462181.3464
        50.000          43.000
 112517757.33547  87676153.39247  21411432.3364   21411434.5904   21411432.7744
        52.000          45.000
 09  1 21  1 46 30.0000000  0 10G16G14G 5G 6G22G18G31G12G30G21
 137079801.62047  89023219.17547  24182482.8484   24182485.2474   24182482.7484
        42.000          37.000
 123463323.93147  96205170.89847  23494303.4834   23494305.9084   23494303.5644
        45.000          39.000
 126214598.07847  98349021.35947  24017852.0714   24017857.3454   24017852.3494
        43.000          38.000
 124720156.10047  97184501.82547  23733483.9204   23733488.2304   23733484.5794
        44.000          38.000
 116145402.57347  90502906.95347  22101738.5174   22101740.4204   22101738.5184
        51.000          45.000
 115702228.73447  90157560.86247  22017419.2774   22017423.0534   22017419.7104
        52.000          44.000
 107282200.12847  83596510.82347  20415129.6984   20415131.9654   20415129.2734
        55.000          50.000
 122788363.42247 113471436.42047  25268798.3854   25268802.3594   25268798.2904
        40.000          34.000
 118046351.60747  91984148.36447  22463491.0484   22463495.3164   22463490.7694
        50.000          43.000
 112604152.65347  87743474.44247  21427872.8174   21427875.2384   21427873.5604
        53.000          45.000
 09  1 21  1 47  0.0000000  0 10G16G14G 5G 6G22G18G31G12G30G21
 137000770.49247  88961636.55447  24167443.1924   24167446.5234   24167443.9214
        44.000          37.000
 123497164.42347  96231540.13047  23500742.7274   23500745.4884   23500743.0024
        44.000          39.000
 126258650.80047  98383348.17347  24026235.2294   24026240.7134   24026235.8514
        42.000          38.000
 124718253.46947  97183019.34747  23733121.4174   23733126.1164   23733120.9104
        43.000          38.000
 116090282.78347  90459956.49447  22091249.4464   22091251.4914   22091249.5514
        51.000          45.000
 115681502.87947  90141410.84847  22013475.2664   22013478.9894   22013475.7214
        51.000          44.000
 107276222.68547  83591853.09047  20413992.4954   20413994.4634   20413992.1904
        55.000          50.000
 122839407.87547 113511211.42847  25278513.2354   25278515.1104   25278513.1014
        40.000          35.000
 118053606.40747  91989801.47547  22464871.6164   22464876.0094   22464871.4014
        50.000          43.000
 112690884.58347  87811057.79447  21444377.4314   21444379.9164   21444377.8274
        52.000          45.000
 09  1 21  1 47 30.0000000  0 10G16G14G 5G 6G22G18G31G12G30G21
 136921566.95447  88899919.58647  24152370.9354   24152374.1334   24152371.7764
        43.000          37.000
 123530839.37547  96257780.36147  23507150.5554   23507153.7704   23507150.9204
        44.000          39.000
 126303086.02047  98417973.04547  24034691.4764   24034695.8044   24034691.6474
        44.000          38.000
 124716364.36747  97181547.40847  23732761.6514   23732766.7264   23732761.2724
        44.000          38.000
 116035235.42647  90417062.46847  22080774.0974   22080776.3214   22080774.0754
        51.000          44.000
 115661069.19447  90125488.50347  22009586.9224   22009590.5834   22009587.4364
        51.000          44.000
 107270821.28947  83587644.22347  20412964.6014   20412966.6244   20412964.2384
        55.000          50.000
 122890769.26647 113551233.41747  25288286.1784   25288289.5544   25288286.4124
        40.000          35.000
 118061238.61147  91995748.67347  22466324.0274   22466328.5044   22466323.5554
        50.000          43.000
 112777950.61947  87878901.48547  21460945.4844   21460947.9114   21460946.0284
        52.000          45.000
 09  1 21  1 48  0.0000000  0 10G16G14G 5G 6G22G18G31G12G30G21
 136842190.91147  88838068.18447  24137266.3314   24137269.2434   24137266.9344
        43.000          37.000
 123564346.03347  96283889.43247  23513527.1434   23513530.3894   23513527.4514
        45.000          39.000
 126347902.36647  98452894.92847  24043219.8874   24043224.2614   24043220.1474
        44.000          38.000
 124714485.97947  97180083.78747  23732404.8784   23732409.2274   23732405.3194
        44.000          38.000
 115980262.00947  90374226.05747  22070313.0344   22070315.2074   22070313.0494
        51.000          45.000
 115640928.78447  90109794.68147  22005754.2974   22005758.0134   22005754.8544
        52.000          44.000
 107265993.85647  83583882.60347  20412045.7344   20412047.9444   20412045.3204
        55.000          50.000
 122942445.65647 113591500.85847  25298119.3694   25298122.2734   25298119.1554
        41.000          36.000
 118069248.38547  92001990.08947  22467848.1254   22467852.6254   22467847.8104
        50.000          44.000
 112865346.15047  87947001.93447  21477576.1504   21477578.9524   21477576.4744
        52.000          45.000
 09  1 21  1 48 30.0000000  0 10G16G14G 5G 6G22G18G31G12G30G21
 136762644.52347  88776084.04747  24122129.6364   24122132.3674   24122130.0014
        43.000          37.000
 123597683.35647  96309866.56647  23519871.4164   23519874.4354   23519871.4854
        45.000          39.000
 126393100.13847  98488114.00547  24051819.5354   24051825.2074   24051820.1964
        44.000          38.000
 124712616.62847  97178627.23847  23732048.9964   23732053.0004   23732048.5544
        45.000          38.000
 115925365.28047  90331449.39747  22059866.7184   22059868.5554   22059866.7574
        52.000          45.000
 115621084.59347  90094331.67947  22001978.2784   22001981.5254   22001978.6704
        51.000          44.000
 107261740.45347  83580568.27847  20411236.3914   20411238.4754   20411235.9374
        55.000          50.000
 122994437.68847 113632014.25847  25308014.1054   25308015.7314   25308013.6434
        41.000          36.000
 118077637.45547  92008527.03847  22469444.2824   22469449.0454   22469443.9834
        50.000          43.000
 112953068.75447  88015357.23447  21494269.1414   21494272.1604   21494269.5824
        52.000          45.000
