     2.11           OBSERVATION DATA    G (GPS)             RINEX VERSION / TYPE
teqc  2008Oct2      gpsops              20090113 00:09:52UTCPGM / RUN BY / DATE
    30.0000                                                 INTERVAL
     1     1                                                WAVELENGTH FACT L1/2
     7    L1    L2    P1    P2    C1    S1    S2            # / TYPES OF OBSERV
Linux 2.4.20-8|Pentium IV|gcc -static|Linux|486/DX+         COMMENT
     2.10           OBSERVATION DATA    GPS                 COMMENT
soc2rnx ver 1.20    gpsops              13-Jan-2009 00:09:46COMMENT
S1, if present, is the SNR for the C/A data stream on L1.   COMMENT
 SNR is mapped to RINEX snr flag value [1,4-9]              COMMENT
    SNR:   >316  >100  >31.6  >10  >3.2    >0 bad=0         COMMENT
L1 & L2:      9     8     7     6     5     4     1         COMMENT
                                                            COMMENT
This data is provided as a public service by NASA/JPL.      COMMENT
No warranty is expressed or implied regarding suitability   COMMENT
for use.  For further information, contact:                 COMMENT
Dave Stowers, NASA/JPL m/s 238-600                          COMMENT
4800 Oak Grove Drive, Pasadena CA 91109 USA                 COMMENT
                                                            COMMENT
Forced Modulo Decimation to 30 seconds                      COMMENT
  2009     1    12     0     0    0.0000000     GPS         TIME OF FIRST OBS
GGN                 JPL                                     OBSERVER / AGENCY
CR519992104         ASH701945B_M    SCIT                    ANT # / TYPE
   -33801.4662 -6377516.5323   -82154.3508                  APPROX POSITION XYZ
        0.0083        0.0000        0.0000                  ANTENNA: DELTA H/E/N
ZR220013847         ASHTECH UZ-12       CQ00                REC # / TYPE / VERS
GLPS                                                        MARKER NAME
42005M002                                                   MARKER NUMBER
                                                            END OF HEADER
 09  1 12  0  0  0.0000000  0 11G24G14G 9G 5G30G18G31G21G22G12G29
 112445046.12247  87619495.97347  21397597.5954   21397602.5284   21397597.7544
        53.000          47.000
 115247242.20247  89803034.77147  21930828.5724   21930832.1834   21930829.5694
        50.000          44.000
 114687249.24847  89366673.88947  21824268.1944   21824272.2244   21824268.4144
        51.000          45.000
 125066802.87647  97454626.83847  23799440.8184   23799444.6134   23799440.8184
        46.000          39.000
 123444396.39047  96190421.02747  23490700.6204   23490703.9624   23490700.4074
        46.000          40.000
 124438450.60547  96965031.48147  23679846.1564   23679846.5134   23679845.8674
        47.000          40.000
 127741402.54647  99538721.19547  24308410.3644   24308412.6754   24308408.5714
        43.000          37.000
 109023796.79847  84953605.91547  20746539.7274   20746542.3264   20746540.1994
        54.000          48.000
 127786448.24347  99573852.46847  24316953.2554   24316956.2444   24316954.3994
        45.000          38.000
 128161270.56947  99865903.63647  24388296.2304   24388300.1184   24388296.2274
        43.000          38.000
 114823628.34547  89472942.12047  21850221.9304   21850226.0664   21850221.7954
        51.000          46.000
 09  1 12  0  0 30.0000000  0 11G24G14G 9G 5G30G18G31G21G22G12G29
 112460438.11247  87631489.73847  21400526.4184   21400531.1624   21400526.5364
        53.000          47.000
 115239180.24347  89796752.75347  21929295.0234   21929297.9964   21929295.4064
        50.000          44.000
 114734012.53747  89403112.82647  21833167.1514   21833170.8504   21833167.2954
        51.000          45.000
 125054159.39947  97444774.80547  23797033.8804   23797039.0574   23797034.8844
        46.000          39.000
 123428147.92147  96177759.91047  23487608.4244   23487612.8884   23487608.2764
        47.000          40.000
 124423828.59947  96953637.73347  23677062.9594   23677065.2304   23677063.0854
        46.000          39.000
 127637779.63147  99457976.17547  24288690.3354   24288695.1314   24288690.2334
        43.000          37.000
 108960298.70947  84904126.88647  20734456.7994   20734458.8284   20734457.0574
        54.000          48.000
 127773567.26747  99563815.41047  24314503.0504   24314505.0504   24314503.4414
        45.000          38.000
 128163440.23847  99867594.31047  24388708.6284   24388713.8304   24388708.3264
        42.000          38.000
 114895267.97347  89528765.19747  21863854.8404   21863858.1904   21863854.7894
        51.000          46.000
 09  1 12  0  1  0.0000000  0 11G24G14G 9G 5G30G18G31G21G22G12G29
 112476295.22547  87643845.93847  21403543.9744   21403548.6704   21403544.1294
        53.000          47.000
 115231566.61147  89790820.07347  21927846.2884   21927849.3994   21927846.4884
        51.000          44.000
 114781293.07247  89439954.81847  21842164.3864   21842168.0304   21842164.5804
        51.000          45.000
 125041441.51547  97434864.78247  23794613.6534   23794618.7844   23794614.1724
        46.000          39.000
 123411717.39747  96164956.92347  23484482.2064   23484486.2994   23484481.7344
        47.000          40.000
 124408985.65847  96942071.83747  23674238.2934   23674240.2954   23674238.4734
        47.000          39.000
 127534125.24647  99377206.64047  24268965.1624   24268969.8064   24268965.2654
        43.000          38.000
 108897174.32447  84854939.05247  20722444.5834   20722446.6204   20722445.0424
        54.000          48.000
 127760483.25047  99553620.12447  24312013.4744   24312014.5934   24312013.7224
        45.000          38.000
 128165541.06947  99869231.35547  24389108.4744   24389113.2644   24389108.0484
        43.000          38.000
 114967050.91647  89584699.95847  21877514.5334   21877517.9794   21877514.2104
        51.000          46.000
 09  1 12  0  1 30.0000000  0 11G24G14G 9G 5G30G18G31G21G22G12G29
 112492620.75447  87656567.14047  21406650.5374   21406655.2014   21406650.5364
        53.000          46.000
 115224402.87047  89785237.96247  21926483.0534   21926486.0304   21926483.2714
        50.000          44.000
 114829092.91447  89477201.46047  21851259.9514   21851264.2694   21851260.0374
        51.000          45.000
 125028653.52347  97424900.13347  23792180.6374   23792185.6354   23792180.8814
        46.000          39.000
 123395108.52847  96152014.96247  23481321.4054   23481325.8494   23481320.8004
        46.000          40.000
 124393924.87347  96930336.17747  23671372.1024   23671374.5504   23671372.7984
        46.000          39.000
 127430444.21847  99296416.34447  24249235.3224   24249240.0424   24249234.6574
        42.000          38.000
 108834429.55547  84806047.03247  20710504.4774   20710506.8344   20710504.8484
        54.000          48.000
 127747197.77647  99543267.89447  24309485.5284   24309486.2494   24309485.8024
        45.000          38.000
 128167577.07947  99870817.88247  24389495.9954   24389501.1394   24389495.9354
        43.000          38.000
 115038977.16847  89640746.38547  21891201.4894   21891205.1174   21891200.8174
        51.000          46.000
 09  1 12  0  2  0.0000000  0 11G24G14G 9G 5G30G18G31G21G22G12G29
 112509412.93047  87669651.96047  21409845.9204   21409850.7554   21409846.1414
        53.000          46.000
 115217685.42347  89780003.61647  21925204.5754   21925207.9694   21925204.9604
        51.000          44.000
 114877408.71547  89514850.15247  21860454.4834   21860458.1694   21860454.7474
        51.000          45.000
 125015794.86447  97414880.42947  23789733.1224   23789738.8814   23789733.9894
        44.000          39.000
 123378320.16247  96138933.15047  23478126.2244   23478130.9604   23478125.8394
        46.000          40.000
 124378644.47347  96918429.38047  23668464.4464   23668467.0154   23668464.7394
        46.000          39.000
 127326736.54047  99215605.27747  24229499.9034   24229504.7094   24229498.8304
        42.000          38.000
 108772064.99347  84757451.27847  20698636.9784   20698639.2634   20698637.2924
        54.000          48.000
 127733707.79147  99532756.29847  24306917.7334   24306919.7354   24306918.3884
        45.000          39.000
 128169547.55647  99872353.30347  24389870.8104   24389875.7234   24389870.1634
        42.000          38.000
 115111041.77547  89696900.61647  21904914.9524   21904918.5664   21904914.9614
        51.000          46.000
 09  1 12  0  2 30.0000000  0 11G24G14G 9G 5G30G18G31G21G22G12G29
 112526673.78447  87683101.98047  21413130.6314   21413135.4124   21413130.7774
        53.000          46.000
 115211414.45247  89775117.17747  21924011.3504   21924014.4064   21924011.5834
        50.000          44.000
 114926240.67747  89552901.05347  21869747.0054   21869750.7374   21869746.9884
        51.000          45.000
 125002868.84047  97404808.20847  23787273.2954   23787278.7314   23787273.9414
        45.000          39.000
 123361354.80047  96125713.40447  23474897.7654   23474902.5564   23474897.5604
        47.000          41.000
 124363145.73347  96906352.46347  23665515.0274   23665516.7604   23665515.3044
        47.000          39.000
 127223006.32347  99134776.65347  24209761.1384   24209765.6364   24209759.8494
        43.000          38.000
 108710085.31447  84709155.42847  20686842.7284   20686844.8444   20686843.1634
        54.000          48.000
 127720014.42547  99522086.21847  24304311.9944   24304313.5864   24304312.2904
        45.000          38.000
 128171456.45547  99873840.75647  24390234.1754   24390239.1804   24390233.7024
        43.000          38.000
 115183243.71747  89753161.85847  21918654.7064   21918658.1984   21918654.7224
        51.000          46.000
 09  1 12  0  3  0.0000000  0 11G24G14G 9G 5G30G18G31G21G22G12G29
 112544402.46047  87696916.53747  21416504.1874   21416508.8224   21416504.3854
        53.000          46.000
 115205587.53247  89770576.74447  21922902.5634   21922905.6924   21922902.6264
        50.000          45.000
 114975586.76447  89591352.56447  21879137.2784   21879141.1184   21879137.3634
        51.000          45.000
 124989875.87947  97394683.84247  23784800.6954   23784806.5964   23784800.9644
        45.000          39.000
 123344212.22447  96112355.57047  23471636.0634   23471640.7394   23471635.9074
        47.000          41.000
 124347427.85047  96894104.79547  23662524.2604   23662526.2724   23662524.2594
        46.000          39.000
 127119254.83747  99053931.45747  24190017.8054   24190022.5054   24190017.3924
        44.000          39.000
 108648491.87647  84661160.55247  20675121.8334   20675123.9564   20675122.1954
        54.000          48.000
 127706115.34247  99511255.83447  24301667.5274   24301668.6814   24301667.9454
        44.000          39.000
 128173303.12147  99875279.71047  24390585.5494   24390590.6444   24390585.4994
        43.000          38.000
 115255578.51847  89809526.64047  21932419.5774   21932423.0134   21932419.0154
        51.000          46.000
 09  1 12  0  3 30.0000000  0 11G24G14G 9G 5G30G18G31G21G22G12G29
 112562601.91647  87711097.93047  21419967.2274   21419972.2444   21419967.2634
        53.000          46.000
 115200206.44147  89766383.70847  21921878.5194   21921881.8934   21921878.7374
        50.000          45.000
 115025449.02147  89630206.29347  21888625.6974   21888629.2544   21888625.9214
        51.000          45.000
 124976820.52747  97384510.86147  23782316.3464   23782321.5584   23782316.6224
        45.000          39.000
 123326895.94247  96098862.37947  23468340.6434   23468345.6984   23468340.6934
        47.000          41.000
 124331494.07447  96881688.88747  23659491.7274   23659493.8424   23659491.9334
        46.000          39.000
 127015487.29847  98973073.75247  24170271.3354   24170275.5584   24170271.9274
        44.000          39.000
 108587290.48547  84613471.16147  20663475.6674   20663477.6454   20663476.0244
        54.000          48.000
 127692013.24347  99500267.24247  24298983.5184   24298984.6564   24298983.3844
        45.000          38.000
 128175092.67147  99876674.17147  24390926.1474   24390930.7174   24390925.5584
        43.000          38.000
 115328046.46047  89865995.15047  21946209.9474   21946213.1674   21946209.8654
        51.000          46.000
 09  1 12  0  4  0.0000000  0 11G24G14G 9G 5G30G18G31G21G22G12G29
 112581268.17947  87725643.06547  21423519.5714   21423524.2944   21423519.6424
        53.000          47.000
 115195264.82747  89762533.12047  21920938.1874   21920941.4674   21920938.3544
        50.000          45.000
 115075821.76247  89669457.79547  21898211.3434   21898214.8424   21898211.4254
        51.000          45.000
 124963699.94947  97374287.06347  23779819.2834   23779824.7414   23779819.9144
        44.000          39.000
 123309402.67447  96085231.28847  23465011.8704   23465016.4374   23465011.8124
        47.000          41.000
 124315339.97947  96869101.29547  23656417.6144   23656420.3084   23656417.8904
        45.000          39.000
 126911701.48047  98892201.78647  24150521.6484   24150526.0304   24150522.0574
        44.000          39.000
 108526479.59647  84566086.06247  20651903.4544   20651905.6334   20651903.8904
        55.000          48.000
 127677701.81347  99489115.55947  24296260.5964   24296261.7864   24296260.2134
        45.000          39.000
 128176821.81647  99878021.62447  24391255.3034   24391259.9514   24391255.0004
        43.000          38.000
 115400639.91347  89922561.46947  21960024.1844   21960027.6164   21960024.0454
        51.000          46.000
 09  1 12  0  4 30.0000000  0 11G24G14G 9G 5G30G18G31G21G22G12G29
 112600406.53847  87740556.07447  21427161.5204   21427166.3444   21427161.5794
        53.000          47.000
 115190766.57947  89759028.03447  21920082.1024   21920085.5034   21920082.2974
        50.000          45.000
 115126708.84747  89709110.09747  21907894.7934   21907898.2704   21907894.8274
        51.000          44.000
 124950520.77747  97364017.61347  23777311.1154   23777317.2034   23777311.6514
        44.000          38.000
 123291738.16347  96071466.75847  23461650.5984   23461655.1434   23461650.0594
        47.000          41.000
 124298970.76347  96856346.08347  23653302.6064   23653304.9614   23653303.2024
        46.000          39.000
 126807904.64247  98811321.24247  24130769.7474   24130773.6824   24130769.0964
        43.000          39.000
 108466066.99747  84519011.31247  20640407.6594   20640409.6034   20640408.0634
        55.000          48.000
 127663185.55147  99477804.26947  24293497.6104   24293499.1974   24293498.0024
        44.000          39.000
 128178497.38947  99879327.29747  24391574.1544   24391579.2464   24391573.6454
        42.000          38.000
 115473361.25647  89979227.44547  21973862.2994   21973866.0744   21973861.8794
        51.000          46.000
 09  1 12  0  5  0.0000000  0 11G24G14G 9G 5G30G18G31G21G22G12G29
 112620013.43147  87755834.17347  21430892.5374   21430897.2794   21430892.7274
        53.000          47.000
 115186706.45247  89755864.32147  21919309.3724   21919312.5534   21919309.6544
        51.000          45.000
 115178105.72147  89749159.62847  21917675.3334   21917678.6834   21917675.3734
        51.000          44.000
 124937281.20447  97353701.09847  23774791.7674   23774797.3824   23774792.0464
        44.000          39.000
 123273900.03947  96057566.94247  23458256.2774   23458260.7214   23458255.9244
        47.000          41.000
 124282383.17947  96843420.70347  23650146.1024   23650148.6304   23650146.7174
        46.000          39.000
 126704096.04647  98730431.52447  24111015.7244   24111019.5964   24111014.5454
        44.000          39.000
 108406051.80547  84472246.23647  20628987.1754   20628989.2054   20628987.5484
        55.000          49.000
 127648459.90847  99466329.79747  24290694.9424   24290697.4184   24290695.2204
        44.000          39.000
 128180117.53347  99880589.76347  24391882.1824   24391886.7494   24391882.0994
        43.000          38.000
 115546204.11047  90035988.10247  21987723.9124   21987727.6224   21987723.6454
        51.000          46.000
 09  1 12  0  5 30.0000000  0 11G24G14G 9G 5G30G18G31G21G22G12G29
 112640091.51847  87771479.43647  21434713.1244   21434718.0774   21434713.2984
        53.000          47.000
 115183085.52747  89753042.84347  21918620.3814   21918623.7494   21918620.6634
        50.000          45.000
 115230013.44047  89789607.22147  21927552.8374   21927556.2604   21927553.0384
        50.000          44.000
 124923985.06547  97343340.51047  23772262.0074   23772267.6244   23772262.3864
        45.000          39.000
 123255891.63847  96043534.44347  23454828.8554   23454834.0894   23454829.3304
        47.000          41.000
 124265579.82047  96830327.20347  23646948.7544   23646950.7964   23646949.0754
        46.000          39.000
 126600280.23247  98649536.17047  24091260.3974   24091264.2114   24091259.0454
        44.000          39.000
 108346439.42947  84425795.04347  20617643.3544   20617645.3084   20617643.7174
        55.000          49.000
 127633526.58047  99454693.50647  24287853.7954   24287855.0094   24287853.9664
        44.000          38.000
 128181685.57647  99881811.65147  24392180.5054   24392185.1964   24392180.3874
        43.000          38.000
 115619167.88347  90092842.98647  22001608.4514   22001612.1534   22001608.2114
        50.000          46.000
 09  1 12  0  6  0.0000000  0 11G24G14G 9G 5G30G18G31G21G22G12G29
 112660639.32247  87787490.71147  21438623.5534   21438628.3554   21438623.7494
        53.000          47.000
 115179900.49847  89750561.03147  21918014.3224   21918017.4164   21918014.5494
        51.000          44.000
 115282429.34947  89830450.81147  21937527.2174   21937530.8014   21937527.4784
        51.000          44.000
 124910632.37247  97332935.85247  23769721.4004   23769726.4374   23769721.6084
        45.000          39.000
 123237712.36147  96029368.79147  23451369.2294   23451374.3034   23451368.9254
        47.000          41.000
 124248559.17447  96817064.37947  23643709.9744   23643711.9854   23643710.4014
        46.000          40.000
 126496457.90547  98568635.74347  24071503.6414   24071507.3554   24071503.5104
        44.000          39.000
 108287230.51547  84379658.23647  20606376.2074   20606378.2204   20606376.6114
        55.000          49.000
 127618383.04347  99442893.42147  24284972.1844   24284972.8654   24284971.8994
        45.000          38.000
 128183201.67147  99882993.04247  24392468.4684   24392473.9664   24392468.7084
        42.000          38.000
 115692248.07547  90149788.59147  22015515.0594   22015519.0494   22015514.9304
        50.000          46.000
 09  1 12  0  6 30.0000000  0 11G24G14G 9G 5G30G18G31G21G22G12G29
 112681659.05947  87803869.73347  21442623.5064   21442628.1324   21442623.7284
        53.000          46.000
 115177152.43847  89748419.71247  21917491.2204   21917494.5994   21917491.7364
        51.000          45.000
 115335354.24347  89871691.01447  21947598.4194   21947602.2874   21947598.5604
        50.000          44.000
 124897227.11047  97322490.22047  23767169.9704   23767176.0494   23767170.5944
        45.000          39.000
 123219365.24747  96015072.35647  23447877.7354   23447882.6824   23447877.2714
        46.000          41.000
 124231323.86347  96803634.28947  23640429.8744   23640432.2294   23640430.4764
        46.000          39.000
 126392633.53347  98487733.72547  24051746.6534   24051750.2024   24051746.9654
        45.000          38.000
 108228430.09547  84333839.74647  20595186.5974   20595189.0534   20595186.9634
        55.000          49.000
 127603030.62047  99430930.57947  24282050.7204   24282051.7894   24282050.9614
        45.000          38.000
 128184670.11547  99884137.28247  24392748.6464   24392753.5384   24392748.0974
        43.000          38.000
 115765444.05547  90206824.41747  22029443.5434   22029447.6654   22029443.4904
        50.000          46.000
 09  1 12  0  7  0.0000000  0 12G24G14G 9G 5G30G18G31G 6G21G22G12G29
 112703150.18047  87820616.06447  21446712.9704   21446717.7634   21446713.1634
        53.000          46.000
 115174838.50047  89746616.66847  21917051.0034   21917053.9134   21917051.1204
        51.000          44.000
 115388786.13847  89913326.27547  21957765.9044   21957769.8154   21957765.9584
        50.000          44.000
 124883770.03347  97312004.22747  23764609.4694   23764614.8724   23764609.9464
        44.000          39.000
 123200850.42747  96000645.23747  23444354.7694   23444359.2074   23444354.2784
        47.000          40.000
 124213872.99447  96790036.23247  23637109.3924   23637111.3614   23637109.6554
        47.000          39.000
 126288808.66047  98406831.31147  24031989.0324   24031992.7984   24031990.2654
        44.000          39.000
 131112974.34347 102165941.86547  24949977.5504   24949980.2184   24949975.7344
        39.000          36.000
 108170040.31347  84288341.22147  20584075.6974   20584077.9854   20584076.1774
        55.000          49.000
 127587467.64847  99418803.64547  24279089.0654   24279090.5644   24279089.2704
        45.000          38.000
 128186091.21547  99885244.65847  24393018.7794   24393023.8314   24393019.2444
        42.000          38.000
 115838752.01547  90263947.50247  22043393.5814   22043397.6754   22043393.2104
        50.000          45.000
 09  1 12  0  7 30.0000000  0 12G24G14G 9G 5G30G18G31G 6G21G22G12G29
 112725112.19847  87837729.33147  21450892.0514   21450896.7684   21450892.1304
        52.000          46.000
 115172956.73647  89745150.38247  21916693.0244   21916695.6004   21916693.2234
        51.000          44.000
 115442723.42247  89955355.35347  21968029.9984   21968033.7214   21968030.1644
        50.000          44.000
 124870262.28647  97301478.74547  23762038.8244   23762044.0934   23762039.5504
        45.000          39.000
 123182168.43447  95986087.86747  23440799.7844   23440804.5284   23440800.0834
        47.000          41.000
 124196206.85147  96776270.41347  23633747.4464   23633749.8214   23633748.3724
        47.000          39.000
 126184985.28047  98325930.06447  24012232.2354   24012235.6564   24012232.5834
        45.000          39.000
 141053771.34657  92119813.94257  24938707.9895   24938712.7385   24938707.2405
        39.000          35.000
 108112063.08747  84243164.16947  20573042.8974   20573045.0964   20573043.2924
        54.000          49.000
 127571692.73947  99406511.56447  24276087.2984   24276088.1654   24276087.3784
        45.000          38.000
 128187465.64547  99886315.61247  24393280.1894   24393285.3054   24393279.9064
        43.000          38.000
 115912168.78247  90321155.37947  22057364.2174   22057368.4574   22057363.8474
        50.000          45.000
 09  1 12  0  8  0.0000000  0 12G24G14G 9G 5G30G18G31G 6G21G22G12G29
 112747547.02447  87855211.01247  21455161.2844   21455166.2654   21455161.5794
        52.000          46.000
 115171507.57247  89744021.18547  21916417.0764   21916420.4514   21916417.3004
        51.000          45.000
 115497165.93047  89997778.10947  21978390.1204   21978394.3334   21978390.0664
        50.000          44.000
 124856707.29747  97290916.43447  23759459.8954   23759465.0804   23759460.1974
        45.000          39.000
 123163322.05447  95971402.41147  23437213.2354   23437218.3734   23437213.0144
        47.000          41.000
 124178327.37647  96762338.36747  23630344.9014   23630347.2764   23630345.6474
        46.000          39.000
 126081167.76347  98245033.36147  23992476.4354   23992479.5614   23992475.6204
        44.000          39.000
 140994849.48647  92073900.82947  24927495.2144   24927500.1284   24927494.6184
        37.000          35.000
 108054503.17947  84198312.30447  20562089.4594   20562091.8274   20562089.7134
        55.000          49.000
 127555706.66447  99394054.97147  24273045.4884   24273046.6524   24273045.5754
        44.000          39.000
 128188797.25947  99887353.20147  24393534.0494   24393538.5064   24393533.5574
        43.000          38.000
 115985693.08447  90378447.03547  22071355.5824   22071359.5574   22071355.3854
        50.000          45.000
 09  1 12  0  8 30.0000000  0 12G24G14G 9G 5G30G18G31G 6G21G22G12G29
 112770452.73647  87873059.62547  21459520.0264   21459524.8564   21459520.0354
        53.000          46.000
 115170487.61547  89743226.44247  21916223.3104   21916226.0874   21916223.7044
        51.000          45.000
 115552110.95447  90040592.43147  21988845.6674   21988849.6874   21988845.7754
        50.000          44.000
 124843105.06847  97280317.34147  23756871.2454   23756876.3594   23756871.8694
        45.000          39.000
 123144310.64447  95956588.34747  23433595.9394   23433600.4914   23433595.2674
        47.000          41.000
 124160232.65547  96748238.61247  23626901.6744   23626904.1194   23626901.6954
        46.000          39.000
 125977356.62447  98164141.63047  23972721.7404   23972725.0954   23972721.4584
        45.000          39.000
 140936222.32347  92028217.36247  24916339.1044   24916343.3944   24916338.9094
        38.000          35.000
 107997361.35447  84153786.21847  20551215.8534   20551218.0084   20551216.2274
        55.000          49.000
 127539507.34147  99381432.17747  24269962.0424   24269963.8254   24269962.4524
        44.000          38.000
 128190085.75347  99888357.20147  24393779.3284   24393784.0544   24393779.2774
        44.000          38.000
 116059320.35047  90435818.92247  22085366.5254   22085370.3044   22085366.3834
        50.000          45.000
 09  1 12  0  9  0.0000000  0 12G24G14G 9G 5G30G18G31G 6G21G22G12G29
 112793832.00047  87891277.23547  21463969.3154   21463973.9164   21463969.5564
        53.000          46.000
 115169897.79647  89742766.86447  21916110.8544   21916113.9444   21916111.1084
        51.000          45.000
 115607559.54247  90083799.15047  21999397.5204   21999400.6064   21999397.6764
        50.000          44.000
 124829459.77647  97269684.67347  23754274.0794   23754279.7864   23754274.5684
        45.000          39.000
 123125137.73147  95941648.42347  23429947.3504   23429952.1704   23429946.8244
        47.000          41.000
 124141925.80247  96733973.54647  23623417.6374   23623420.0844   23623418.2794
        46.000          39.000
 125873556.99747  98083258.88347  23952968.9064   23952972.8244   23952969.1224
        45.000          39.000
 140877892.97447  91982765.96047  24905238.5314   24905244.8494   24905239.1534
        39.000          35.000
 107940642.85747  84109589.99947  20540422.4294   20540424.7654   20540422.7774
        55.000          49.000
 127523096.27547  99368644.38047  24266839.4344   24266840.8254   24266839.4944
        44.000          38.000
 128191335.47447  99889331.01047  24394016.7864   24394021.4424   24394016.4194
        42.000          38.000
 116133050.35147  90493270.86347  22099396.9894   22099400.5674   22099396.7624
        50.000          45.000
 09  1 12  0  9 30.0000000  0 12G24G14G 9G 5G30G18G31G 6G21G22G12G29
 112817682.42647  87909861.98347  21468507.6664   21468512.6194   21468507.9624
        53.000          46.000
 115169733.84047  89742639.13547  21916079.7774   21916082.7714   21916080.0324
        51.000          45.000
 115663508.04347  90127395.41147  22010044.0644   22010047.4974   22010044.0334
        51.000          44.000
 124815770.77947  97259017.97447  23751669.7124   23751674.8224   23751670.0184
        45.000          39.000
 123105802.03647  95926581.67447  23426268.1384   23426272.5134   23426268.1274
        46.000          41.000
 124123404.81647  96719541.65147  23619893.5534   23619895.8194   23619893.5294
        46.000          39.000
 125769768.78147  98002385.01447  23933218.4934   23933222.2784   23933217.9674
        45.000          39.000
 140819859.37247  91937545.00247  24894194.9604   24894201.5694   24894195.4864
        41.000          35.000
 107884348.03547  84065723.90647  20529710.1284   20529712.2344   20529710.4544
        55.000          49.000
 127506470.52847  99355689.33147  24263675.2804   24263677.1294   24263675.4664
        43.000          38.000
 128192545.41747  99890273.81347  24394247.2344   24394251.3344   24394246.9394
        44.000          38.000
 116206878.18247  90550799.03347  22113445.9764   22113449.5274   22113445.4954
        50.000          45.000
 09  1 12  0 10  0.0000000  0 12G24G14G 9G 5G30G18G31G 6G21G22G12G29
 112842007.17847  87928816.33647  21473136.6504   21473141.3154   21473136.7374
        53.000          46.000
 115169996.98047  89742844.21247  21916129.6864   21916132.5574   21916129.9624
        51.000          45.000
 115719957.84747  90171382.29647  22020786.0974   22020789.7444   22020786.2524
        51.000          44.000
 124802042.47947  97248320.64047  23749056.7174   23749062.2384   23749057.3454
        45.000          39.000
 123086307.22947  95911390.93947  23422557.7284   23422562.8374   23422557.6524
        47.000          41.000
 124104672.85247  96704945.32547  23616329.0464   23616331.2204   23616329.3824
        46.000          39.000
 125665997.09547  97921524.02947  23913471.1914   23913474.8924   23913470.2244
        44.000          39.000
 140762124.49547  91892556.76147  24883208.4424   24883213.7954   24883209.1754
        40.000          35.000
 107828482.64147  84022192.43847  20519079.1264   20519081.2904   20519079.5144
        54.000          49.000
 127489632.25047  99342568.66147  24260470.6494   24260473.0934   24260470.4554
        42.000          37.000
 128193719.94547  99891189.01347  24394470.8484   24394475.7154   24394470.5534
        44.000          39.000
 116280803.40547  90608403.09147  22127513.3834   22127517.1194   22127513.3414
        50.000          45.000
 09  1 12  0 10 30.0000000  0 12G24G14G 9G 5G30G18G31G 6G21G22G12G29
 112866804.27447  87948138.75947  21477855.4004   21477860.2214   21477855.6114
        53.000          46.000
 115170684.13347  89743379.68847  21916260.3944   21916263.5404   21916260.5214
        51.000          45.000
 115776905.81347  90215757.36847  22031622.9414   22031626.4594   22031623.3424
        51.000          44.000
 124788274.98147  97237592.71147  23746437.2574   23746442.0694   23746437.8354
        45.000          39.000
 123066652.99347  95896075.98447  23418817.9234   23418822.3974   23418817.3844
        47.000          41.000
 124085728.52647  96690183.55047  23612723.7944   23612726.0974   23612724.4054
        46.000          39.000
 125562242.73147  97840676.54247  23893727.6104   23893731.2134   23893726.6674
        45.000          39.000
 140704687.08747  91847800.34447  24872278.6384   24872283.9764   24872278.9344
        41.000          35.000
 107773047.15347  83978995.96047  20508530.1714   20508532.2504   20508530.5594
        55.000          49.000
 127472578.57947  99329280.16347  24257225.5464   24257226.9684   24257225.8604
        43.000          37.000
 128194859.23147  99892076.74947  24394687.4964   24394692.2574   24394687.6084
        45.000          39.000
 116354821.49947  90666079.51647  22141598.7504   22141602.1354   22141598.6134
        50.000          45.000
 09  1 12  0 11  0.0000000  0 12G24G14G 9G 5G30G18G31G 6G21G22G12G29
 112892073.32147  87967828.92747  21482663.8114   21482668.6184   21482663.9584
        53.000          46.000
 115171793.11447  89744243.85547  21916471.3634   21916474.7514   21916471.6014
        51.000          45.000
 115834350.32247  90260519.34547  22042554.1954   22042558.0364   22042554.4184
        50.000          44.000
 124774469.77247  97226835.46147  23743809.9134   23743815.2994   23743810.0884
        45.000          39.000
 123046840.05747  95880637.35947  23415047.9094   23415051.8594   23415047.3134
        47.000          41.000
 124066571.92047  96675256.34747  23609078.3214   23609080.9764   23609078.6974
        47.000          40.000
 125458507.81147  97759844.21047  23873987.6564   23873990.8604   23873987.5194
        45.000          39.000
 140647547.26447  91803275.78047  24861405.8904   24861409.8414   24861405.5534
        41.000          35.000
 107718044.17747  83936136.50647  20498063.6004   20498065.6134   20498064.0454
        54.000          49.000
 127455308.81147  99315823.26747  24253938.9874   24253940.8934   24253938.7574
        43.000          37.000
 128195964.33947  99892937.87147  24394897.8844   24394902.3024   24394897.9104
        44.000          38.000
 116428929.47747  90723826.00247  22155700.6654   22155704.4464   22155700.1214
        50.000          45.000
 09  1 12  0 11 30.0000000  0 12G24G14G 9G 5G30G18G31G 6G21G22G12G29
 112917815.55647  87987887.81247  21487562.4054   21487567.3544   21487562.6234
        53.000          46.000
 115173323.55247  89745436.43647  21916762.5184   21916765.7014   21916762.7464
        51.000          45.000
 115892291.16447  90305668.06947  22053579.8764   22053583.5274   22053580.1474
        50.000          44.000
 124760630.13647  97216051.38247  23741176.5244   23741181.2134   23741177.2344
        45.000          39.000
 123026871.09647  95865077.14347  23411247.8254   23411251.5444   23411247.9204
        47.000          41.000
 124047204.91047  96660165.17147  23605393.1594   23605395.5644   23605393.2424
        46.000          40.000
 125354796.88447  97679030.57947  23854252.0164   23854255.3984   23854251.7954
        46.000          39.000
 140590706.77947  91758984.49247  24850589.4704   24850593.4624   24850589.0434
        42.000          35.000
 107663477.73447  83893617.21147  20487679.8694   20487682.0134   20487680.1884
        55.000          49.000
 127437823.69547  99302198.54347  24250611.8704   24250613.7164   24250611.6874
        43.000          37.000
 128197038.72447  99893775.05147  24395102.7494   24395106.5114   24395102.3824
        44.000          38.000
 116503126.23847  90781641.66047  22169820.0694   22169823.7644   22169819.6074
        50.000          45.000
 09  1 12  0 12  0.0000000  0 12G24G14G 9G 5G30G18G31G 6G21G22G12G29
 112944031.04447  88008315.46747  21492551.0514   21492555.7484   21492551.1374
        53.000          46.000
 115175274.15247  89746956.41547  21917133.8584   21917136.9214   21917134.1804
        51.000          45.000
 115950726.78247  90351202.34747  22064699.7514   22064703.2774   22064699.9784
        50.000          44.000
 124746757.57447  97205241.63347  23738536.7714   23738541.7044   23738537.4924
        45.000          39.000
 123006746.99747  95849396.05647  23407418.3744   23407422.2694   23407418.0894
        47.000          41.000
 124027627.81947  96644910.32147  23601667.8544   23601670.0534   23601668.2884
        46.000          39.000
 125251111.94047  97598237.19847  23834521.1744   23834524.7264   23834520.6854
        45.000          40.000
 140534165.85147  91714926.65447  24839829.7844   24839834.7754   24839830.1084
        41.000          35.000
 107609350.35447  83851440.03747  20477379.8944   20477381.9264   20477380.4004
        55.000          49.000
 127420122.56247  99288405.51747  24247243.2724   24247244.2704   24247243.3774
        42.000          37.000
 128198083.49247  99894589.15147  24395301.1884   24395305.6714   24395300.8344
        44.000          38.000
 116577408.80247  90839524.16847  22183955.6724   22183959.1274   22183955.3134
        50.000          45.000
 09  1 12  0 12 30.0000000  0 12G24G14G 9G 5G30G18G31G 6G21G22G12G29
 112970719.41047  88029111.59547  21497629.5954   21497634.2694   21497629.7034
        53.000          46.000
 115177642.36947  89748801.80947  21917584.5394   21917587.4644   21917584.8714
        51.000          45.000
 116009655.68647  90397121.00047  22075913.5614   22075916.7014   22075913.5854
        50.000          44.000
 124732853.56547  97194407.36147  23735891.1254   23735896.1034   23735891.2914
        45.000          39.000
 122986468.55547  95833594.71347  23403559.3924   23403563.2924   23403558.9444
        47.000          41.000
 124007840.96247  96629492.00847  23597902.5064   23597904.3614   23597903.0614
        46.000          39.000
 125147455.26547  97517465.85247  23814795.6114   23814799.8424   23814795.4874
        45.000          40.000
 140477924.47447  91671102.21447  24829127.4084   24829132.6114   24829127.7654
        41.000          35.000
 107555664.35447  83809606.79947  20467163.5064   20467165.6514   20467163.9184
        55.000          49.000
 127402204.19947  99274443.21947  24243833.6084   24243835.1024   24243833.2704
        43.000          37.000
 128199100.31547  99895381.45747  24395494.7854   24395499.4594   24395494.5094
        45.000          38.000
 116651773.83547  90897470.95447  22198107.0514   22198110.3934   22198106.6084
        50.000          45.000
 09  1 12  0 13  0.0000000  0 12G24G14G 9G 5G30G18G31G 6G21G22G12G29
 112997881.16747  88050276.59447  21502798.3504   21502803.1994   21502798.5614
        53.000          46.000
 115180427.44247  89750972.02147  21918114.1944   21918117.3874   21918114.4274
        51.000          45.000
 116069076.91547  90443423.28347  22087221.0174   22087224.3414   22087221.0784
        50.000          44.000
 124718920.60847  97183550.53347  23733239.3074   23733244.6864   23733240.4224
        45.000          39.000
 122966037.66047  95817674.58647  23399671.3644   23399675.8044   23399671.1554
        47.000          41.000
 123987845.41847  96613911.07747  23594097.4124   23594099.4254   23594097.9644
        47.000          40.000
 125043829.88947  97436718.89647  23795076.0824   23795080.4214   23795076.1534
        45.000          40.000
 140421983.55447  91627511.89747  24818481.3544   24818488.0654   24818481.8274
        41.000          35.000
 107502422.91447  83768119.97147  20457031.9184   20457034.2264   20457032.3614
        54.000          49.000
 127384068.76347  99260311.78947  24240382.6644   24240384.1874   24240383.0404
        44.000          38.000
 128200091.62047  99896153.88447  24395683.1384   24395687.6884   24395682.8954
        44.000          38.000
 116726219.37547  90955480.45847  22212273.4154   22212276.8714   22212272.8524
        50.000          45.000
 09  1 12  0 13 30.0000000  0 12G24G14G 9G 5G30G18G31G 6G21G22G12G29
 113025515.35647  88071809.73247  21508057.0594   21508061.5774   21508057.1884
        53.000          46.000
 115183626.43347  89753464.77547  21918723.1894   21918726.0554   21918723.2984
        51.000          45.000
 116128987.89647  90490107.19047  22098621.5074   22098625.2254   22098621.6394
        50.000          44.000
 124704959.30647  97172671.61247  23730582.9254   23730588.1334   23730583.4344
        44.000          39.000
 122945454.44847  95801635.75347  23395754.8694   23395758.6434   23395754.3454
        47.000          41.000
 123967640.15747  96598166.74847  23590252.4204   23590254.5774   23590252.7404
        46.000          39.000
 124940237.51047  97355997.65447  23775363.2804   23775367.6914   23775362.7754
        45.000          40.000
 140366342.18947  91584154.98347  24807894.6354   24807898.8234   24807894.5474
        42.000          35.000
 107449627.92047  83726981.02147  20446985.3664   20446987.6054   20446985.7424
        54.000          49.000
 127365714.50947  99246009.82647  24236889.9344   24236891.2244   24236890.3434
        44.000          38.000
 128201057.83347  99896906.80747  24395866.6444   24395872.0124   24395866.5064
        44.000          38.000
 116800741.59847  91013549.72247  22226454.6274   22226457.8944   22226454.3744
        50.000          45.000
 09  1 12  0 14  0.0000000  0 12G24G14G 9G 5G30G18G31G 6G21G22G12G29
 113053623.14647  88093711.90447  21513405.7114   21513410.3354   21513405.7134
        53.000          46.000
 115187239.01847  89756279.81047  21919410.4784   21919413.4264   21919410.6624
        51.000          45.000
 116189388.51047  90537172.61847  22110115.4494   22110119.3624   22110115.4824
        50.000          43.000
 124690973.13247  97161773.31747  23727920.9694   23727925.9634   23727921.1664
        44.000          39.000
 122924721.61247  95785480.33447  23391808.9624   23391813.2754   23391808.8004
        47.000          41.000
 123947227.49747  96582260.79547  23586368.0624   23586370.0414   23586368.5124
        47.000          39.000
 124836681.99147  97275305.13947  23755657.2774   23755661.2894   23755656.2414
        44.000          40.000
 140311002.28047  91541033.01647  24797363.4624   24797369.9724   24797363.2304
        41.000          36.000
 107397283.31847  83686193.03347  20437024.4414   20437026.7594   20437024.8074
        54.000          49.000
 127347142.45047  99231538.13047  24233355.6424   24233356.7214   24233355.9024
        43.000          38.000
 128202001.93547  99897642.49247  24396046.6274   24396051.4244   24396046.0514
        44.000          38.000
 116875339.46147  91071677.92247  22240649.9754   22240653.2694   22240649.8414
        50.000          45.000
 09  1 12  0 14 30.0000000  0 12G24G14G 9G 5G30G18G31G 6G21G22G12G29
 113082205.23447  88115983.66247  21518844.5774   21518849.3434   21518844.6654
        53.000          46.000
 115191264.28547  89759416.40747  21920176.4964   21920179.5804   21920176.7024
        51.000          45.000
 116250277.96347  90584618.97047  22121702.5244   22121705.9214   22121702.6364
        50.000          44.000
 124676964.51547  97150857.56547  23725255.4134   23725260.7244   23725255.7614
        45.000          39.000
 122903841.16847  95769209.89647  23387835.3414   23387839.8854   23387834.8194
        47.000          41.000
 123926608.50447  96566194.06047  23582444.4834   23582446.5634   23582444.7824
        47.000          40.000
 124733166.69147  97194643.96547  23735958.8494   23735962.8994   23735958.2534
        45.000          40.000
 140255964.80447  91498146.71147  24786889.5704   24786894.3814   24786889.9014
        41.000          35.000
 107345392.20947  83645758.41047  20427150.0604   20427152.3264   20427150.4104
        55.000          49.000
 127328352.70947  99216896.84647  24229780.0274   24229781.4744   24229779.7564
        44.000          38.000
 128202926.48047  99898362.95047  24396222.9164   24396227.5904   24396222.8554
        44.000          38.000
 116950010.99147  91129863.52447  22254859.6204   22254862.8144   22254859.4434
        50.000          45.000
 09  1 12  0 15  0.0000000  0 12G24G14G 9G 5G30G18G31G 6G21G22G12G29
 113111258.50547  88138622.58047  21524373.4664   21524378.0054   21524373.6544
        53.000          46.000
 115195697.98547  89762871.26847  21921020.2804   21921023.2014   21921020.5484
        51.000          45.000
 116311651.84347  90632442.80347  22133381.3664   22133384.8944   22133381.3224
        49.000          44.000
 124662932.79147  97139923.75947  23722585.1474   23722590.7524   23722585.4924
        45.000          39.000
 122882811.91747  95752823.50447  23383833.9434   23383838.0504   23383833.5334
        48.000          41.000
 123905781.39247  96549965.15547  23578480.9534   23578483.0854   23578481.5564
        46.000          40.000
 124629691.69247  97114014.20447  23716268.1764   23716272.2324   23716268.1344
        45.000          40.000
 140201227.46847  91455494.24747  24776473.8304   24776479.1464   24776473.5164
        41.000          36.000
 107293954.98647  83605677.46647  20417361.9634   20417364.0104   20417362.4104
        54.000          49.000
 127309342.07847  99202083.43047  24226162.2144   24226164.0344   24226161.7574
        43.000          38.000
 128203830.93747  99899067.75647  24396395.2874   24396399.1084   24396395.0404
        45.000          38.000
 117024750.67747  91188102.23247  22269082.1924   22269085.5694   22269081.9604
        50.000          45.000
 09  1 12  0 15 30.0000000  0 12G24G14G 9G 5G30G18G31G 6G21G22G12G29
 113140785.85647  88161630.90647  21529992.2644   21529996.8454   21529992.4314
        53.000          46.000
 115200541.05047  89766645.11247  21921941.7284   21921944.7434   21921941.9134
        51.000          45.000
 116373511.78647  90680645.37147  22145152.5974   22145156.1964   22145152.8944
        50.000          43.000
 124648882.63547  97128975.59947  23719911.0794   23719916.7114   23719911.8854
        45.000          39.000
 122861638.00847  95736324.36747  23379804.6394   23379808.8724   23379804.7904
        47.000          41.000
 123884749.60047  96533576.74847  23574478.8074   23574481.1814   23574479.1734
        46.000          40.000
 124526262.74147  97033420.33147  23696586.1904   23696590.1434   23696585.9024
        45.000          40.000
 140146793.35847  91413078.07247  24766114.9294   24766119.6674   24766115.3494
        41.000          36.000
 107242976.92747  83565954.30847  20407661.0584   20407663.2474   20407661.3774
        54.000          49.000
 127290113.01647  99187099.79647  24222503.1224   24222504.9844   24222503.2184
        44.000          38.000
 128204719.54047  99899760.22247  24396563.8064   24396568.5064   24396563.8784
        44.000          39.000
 117099558.96947  91246394.40047  22283317.7794   22283321.1504   22283317.2194
        50.000          45.000
 09  1 12  0 16  0.0000000  0 12G24G14G 9G 5G30G18G31G 6G21G22G12G29
 113170779.23347  88185002.37347  21535699.9284   21535704.4684   21535700.1604
        53.000          46.000
 115205783.80347  89770730.40647  21922939.2424   21922942.4194   21922939.4604
        50.000          45.000
 116435848.40647  90729219.38947  22157015.2314   22157018.7684   22157015.3854
        50.000          43.000
 124634808.07047  97118008.42747  23717232.8564   23717238.7784   23717233.3204
        45.000          39.000
 122840312.69047  95719707.25447  23375746.3644   23375750.6494   23375745.6374
        47.000          41.000
 123863505.61947  96517023.02347  23570436.0754   23570437.9904   23570436.5264
        47.000          39.000
 124422874.26747  96952857.97647  23676912.2834   23676915.6654   23676911.6124
        45.000          40.000
 140092654.94147  91370892.34747  24755813.0454   24755818.2194   24755813.1704
        41.000          36.000
 107192452.68147  83526584.77247  20398046.6054   20398048.6984   20398046.9214
        54.000          49.000
 127270656.81547  99171939.17147  24218800.8934   24218802.4554   24218801.0644
        43.000          38.000
 128205586.32347  99900435.66947  24396729.2754   24396733.5954   24396728.7114
        44.000          39.000
 117174425.01647  91304731.57847  22297564.2734   22297567.7574   22297564.1284
        50.000          45.000
 09  1 12  0 16 30.0000000  0 12G24G14G 9G 5G30G18G31G 6G21G22G12G29
 113201251.29547  88208746.84047  21541498.3784   21541503.3734   21541498.6914
        52.000          46.000
 115211437.54447  89775135.95047  21924015.1774   21924018.2464   21924015.4254
        51.000          45.000
 116498672.92147  90778173.56847  22168970.1294   22168973.9554   22168970.4244
        49.000          43.000
 124620723.83447  97107033.74147  23714552.9474   23714558.3254   23714553.8904
        45.000          39.000
 122818850.33347  95702983.35647  23371662.2234   23371666.4774   23371661.7714
        48.000          41.000
 123842062.90347  96500314.42947  23566355.9844   23566357.5694   23566356.7254
        47.000          40.000
 124319541.84547  96872339.30247  23657248.7714   23657252.0984   23657248.1254
        46.000          40.000
 140038825.29747  91328947.19247  24745569.7564   24745574.2874   24745569.8594
        42.000          36.000
 107142397.85947  83487581.02547  20388521.3504   20388523.4864   20388521.6784
        54.000          49.000
 127250986.15247  99156611.43147  24215057.5954   24215059.3874   24215057.6324
        43.000          38.000
 128206446.08147  99901105.63247  24396892.4414   24396897.1264   24396892.2204
        44.000          39.000
 117249359.22647  91363121.85947  22311823.9314   22311827.4004   22311823.9154
        50.000          45.000
 09  1 12  0 17  0.0000000  0 12G24G14G 9G 5G30G18G31G 6G21G22G12G29
 113232195.93247  88232859.54247  21547386.9864   21547391.7674   21547387.0964
        53.000          46.000
 115217494.56047  89779855.73547  21925167.6104   21925170.8094   21925167.8814
        50.000          45.000
 116561977.60147  90827501.90747  22181016.6924   22181020.1944   22181017.0654
        50.000          43.000
 124606626.09147  97096048.50847  23711870.3004   23711875.3694   23711870.6894
        46.000          39.000
 122797246.28547  95686149.04647  23367551.2944   23367555.2334   23367551.0734
        47.000          41.000
 123820416.50147  96483447.13047  23562237.1054   23562238.6684   23562237.3844
        48.000          40.000
 124216262.12747  96791861.70747  23637595.0474   23637598.1814   23637594.7444
        46.000          40.000
 139985298.84147  91287238.27747  24735383.9434   24735388.2524   24735384.6874
        41.000          36.000
 107092809.01047  83448940.37347  20379085.0314   20379087.0484   20379085.4914
        54.000          49.000
 127231094.40647  99141111.43347  24211272.4354   24211273.2764   24211272.4324
        43.000          37.000
 128207294.48547  99901766.75847  24397054.2774   24397058.6574   24397053.8234
        43.000          39.000
 117324353.13247  91421558.65347  22326094.7334   22326098.2514   22326094.4094
        50.000          45.000
 09  1 12  0 17 30.0000000  0 12G24G14G 9G 5G30G18G31G 6G21G22G12G29
 113263613.19547  88257340.52747  21553365.5864   21553370.1434   21553365.6804
        52.000          46.000
 115223953.26547  89784888.52547  21926396.7644   21926399.9144   21926396.9424
        51.000          44.000
 116625761.47847  90877203.66547  22193154.3604   22193157.3824   22193154.4264
        50.000          43.000
 124592516.74047  97085054.24347  23709185.7824   23709190.7154   23709186.4114
        46.000          40.000
 122775501.96847  95669205.45347  23363413.7284   23363417.3574   23363413.2174
        47.000          41.000
 123798567.02447  96466421.57447  23558079.0794   23558081.2094   23558079.2954
        47.000          40.000
 124113037.70347  96711427.18847  23617952.0164   23617955.0584   23617951.7484
        46.000          40.000
 139932075.79847  91245765.81547  24725255.4954   24725261.0764   24725255.6234
        41.000          36.000
 107043688.90047  83410664.97147  20369737.5994   20369739.8684   20369737.8864
        55.000          49.000
 127210981.45547  99125439.09647  24207444.2904   24207445.5584   24207444.7464
        43.000          37.000
 128208133.48247  99902420.55347  24397213.9724   24397217.9554   24397213.7364
        43.000          38.000
 117399404.33947  91480040.11647  22340376.4804   22340379.9134   22340376.0764
        50.000          45.000
 09  1 12  0 18  0.0000000  0 12G24G14G 9G 5G30G18G31G 6G21G22G12G29
 113295503.38547  88282190.02647  21559434.0054   21559439.0124   21559434.2074
        52.000          46.000
 115230811.65247  89790232.75347  21927701.9054   21927704.7554   21927702.1084
        51.000          45.000
 116690022.97347  90927277.57347  22205382.9594   22205386.4764   22205383.0014
        50.000          43.000
 124578398.11347  97074052.72247  23706499.2244   23706503.9744   23706499.7154
        46.000          40.000
 122753619.21547  95652153.98447  23359249.2664   23359253.3964   23359249.1954
        48.000          41.000
 123776515.61147  96449238.67247  23553882.6674   23553884.9504   23553883.1294
        47.000          40.000
 124009872.32647  96631038.68647  23598319.8924   23598323.0534   23598319.6104
        46.000          40.000
 139879156.91747  91204530.35647  24715185.7664   24715191.1494   24715185.7694
        42.000          36.000
 106995040.31747  83372756.99047  20360480.1884   20360482.3484   20360480.4604
        54.000          49.000
 127190647.24347  99109594.30347  24203574.8634   24203576.1994   24203575.1994
        43.000          37.000
 128208965.25147  99903068.72647  24397372.3014   24397376.6494   24397371.8424
        44.000          39.000
 117474510.72747  91538564.56447  22354668.7634   22354672.3444   22354668.4384
        50.000          45.000
 09  1 12  0 18 30.0000000  0 12G24G14G 9G 5G30G18G31G 6G21G22G12G29
 113327864.32847  88307406.34747  21565592.3844   21565596.8484   21565592.4404
        53.000          46.000
 115238067.17947  89795886.43747  21929082.5434   21929085.3024   21929082.8674
        50.000          44.000
 116754758.78347  90977721.08347  22217701.9454   22217704.9694   22217702.1354
        49.000          43.000
 124564270.55247  97063044.23747  23703810.3994   23703815.9594   23703810.6894
        45.000          40.000
 122731597.41747  95634994.16147  23355059.1194   23355062.6544   23355058.7414
        48.000          41.000
 123754261.20447  96431897.59147  23549647.8984   23549649.4594   23549648.2344
        47.000          40.000
 123906766.86147  96550696.86447  23578699.3494   23578702.6294   23578698.2234
        45.000          40.000
 139826540.70447  91163530.71147  24705173.5574   24705178.4794   24705172.9294
        41.000          36.000
 106946864.35147  83335217.28047  20351312.7914   20351314.7714   20351313.2224
        54.000          49.000
 127170090.21747  99093575.88347  24199663.6764   24199664.4864   24199663.5954
        43.000          37.000
 128209790.14647  99903711.54147  24397529.2594   24397534.0044   24397529.0244
        44.000          39.000
 117549667.87447  91597128.56247  22368970.7884   22368974.2474   22368970.6814
        50.000          45.000
 09  1 12  0 19  0.0000000  0 12G24G14G 9G 5G30G18G31G 6G21G22G12G29
 113360696.34847  88332989.74447  21571839.8434   21571844.4924   21571840.0754
        52.000          46.000
 115245718.07847  89801848.20447  21930538.2144   21930541.3374   21930538.3534
        50.000          44.000
 116819967.79247  91028533.31847  22230110.6924   22230113.8444   22230110.5634
        49.000          43.000
 124550136.64147  97052030.83647  23701120.5184   23701125.9454   23701121.2634
        45.000          39.000
 122709438.86247  95617727.77047  23350842.6264   23350846.3124   23350841.9394
        48.000          41.000
 123731805.17447  96414399.38447  23545374.2454   23545376.6064   23545374.5864
        48.000          40.000
 123803724.30947  96470404.06147  23559090.8874   23559093.9654   23559089.5204
        45.000          40.000
 139774227.95247  91122767.56647  24695218.4054   24695223.6474   24695218.1394
        40.000          36.000
 106899164.14447  83298048.29947  20342235.6334   20342237.6994   20342236.0254
        55.000          49.000
 127149309.44547  99077383.12547  24195708.3524   24195709.9584   24195708.6734
        44.000          37.000
 128210610.40147  99904350.75547  24397685.4604   24397689.1644   24397685.4344
        44.000          39.000
 117624873.79247  91655730.57547  22383282.1954   22383284.9884   22383281.9924
        50.000          44.000
 09  1 12  0 19 30.0000000  0 12G24G14G 9G 5G30G18G31G 6G21G22G12G29
 113394001.47347  88358941.79047  21578177.7304   21578182.3684   21578178.0134
        52.000          46.000
 115253764.63147  89808118.27847  21932069.4724   21932072.5114   21932069.4924
        50.000          45.000
 116885650.86047  91079714.94947  22242609.7884   22242613.0144   22242609.8404
        50.000          43.000
 124536000.55847  97041015.73347  23698430.3734   23698435.7664   23698430.7464
        45.000          39.000
 122687147.24847  95600357.70947  23346600.2634   23346604.3874   23346599.9084
        47.000          41.000
 123709150.54447  96396746.44347  23541063.2554   23541066.0674   23541063.9914
        47.000          40.000
 123700750.01547  96390164.45147  23539495.5044   23539498.8744   23539494.7024
        45.000          40.000
 139722221.19047  91082242.85847  24685321.3214   24685327.1454   24685321.5254
        42.000          37.000
 106851944.55747  83261253.81947  20333250.1674   20333252.1334   20333250.5704
        55.000          49.000
 127128307.38347  99061017.92847  24191711.8854   24191713.0574   24191711.5594
        43.000          37.000
 128211430.18247  99904989.58747  24397840.8934   24397845.5764   24397840.7894
        43.000          38.000
 117700128.18647  91714370.35147  22397602.0464   22397605.4594   22397601.8964
        50.000          44.000
 09  1 12  0 20  0.0000000  0 12G24G14G 9G 5G30G18G31G 6G21G22G12G29
 113427777.05947  88385260.43547  21584604.9064   21584609.4894   21584605.0884
        52.000          46.000
 115262202.84847  89814693.53047  21933674.9974   21933678.4714   21933675.1714
        51.000          45.000
 116951803.85447  91131262.76947  22255198.3824   22255201.6014   22255198.6974
        50.000          43.000
 124521862.12747  97029998.79247  23695740.0304   23695745.6104   23695740.7834
        45.000          39.000
 122664722.05847  95582883.56547  23342332.7194   23342337.2014   23342332.2014
        48.000          41.000
 123686295.74647  96378937.50947  23536714.3994   23536716.4354   23536714.7874
        47.000          40.000
 123597844.10647  96309978.11747  23519913.1564   23519916.6854   23519912.6014
        45.000          40.000
 139670518.51247  91041955.08347  24675482.8764   24675487.9134   24675482.9544
        41.000          37.000
 106805205.84347  83224834.04847  20324355.9384   20324358.0204   20324356.3214
        55.000          49.000
 127107081.55947  99044478.36547  24187673.4924   24187674.1014   24187673.0954
        44.000          37.000
 128212249.40847  99905627.99347  24397996.6044   24398001.5274   24397996.7234
        44.000          38.000
 117775426.33847  91773044.21947  22411931.3304   22411934.4524   22411930.8694
        49.000          44.000
 09  1 12  0 20 30.0000000  0 12G24G14G 9G 5G30G18G31G 6G21G22G12G29
 113462022.23847  88411944.98747  21591121.4184   21591126.1704   21591121.5094
        52.000          46.000
 115271030.61947  89821572.34247  21935355.1144   21935358.2494   21935355.4194
        51.000          45.000
 117018424.58047  91183175.04947  22267875.5214   22267879.0674   22267875.4024
        49.000          43.000
 124507722.63447  97018981.05247  23693049.3144   23693054.2864   23693049.6934
        45.000          39.000
 122642163.83047  95565305.74747  23338040.0104   23338044.2414   23338039.9814
        47.000          41.000
 123663240.80747  96360972.62547  23532326.9314   23532329.2154   23532327.1914
        48.000          39.000
 123495009.02047  96229846.97947  23500343.8364   23500347.6744   23500343.6684
        45.000          40.000
 139619119.37347  91001903.83447  24665701.5054   24665706.4924   24665701.8034
        43.000          37.000
 106758949.78647  83188790.37447  20315553.6654   20315555.7614   20315554.0514
        54.000          49.000
 127085630.79847  99027763.53847  24183590.9634   24183592.4614   24183590.8924
        43.000          38.000
 128213068.91347  99906266.59547  24398152.7444   24398156.9054   24398152.8884
        43.000          38.000
 117850764.81347  91831749.52347  22426267.2954   22426270.8294   22426266.9344
        49.000          44.000
 09  1 12  0 21  0.0000000  0 12G24G14G 9G 5G30G18G31G 6G21G22G12G29
 113496739.70347  88438997.55647  21597728.0214   21597732.9004   21597728.0694
        52.000          46.000
 115280248.70047  89828755.29447  21937109.4514   21937112.2704   21937109.7304
        51.000          45.000
 117085514.03747  91235452.56947  22280642.5194   22280646.0604   22280642.5474
        50.000          43.000
 124493587.07547  97007966.34247  23690359.4504   23690365.0054   23690360.0324
        45.000          39.000
 122619477.23247  95547627.90247  23333722.9894   23333727.0784   23333722.7504
        48.000          41.000
 123639989.73047  96342854.91447  23527902.6244   23527904.4584   23527903.1774
        47.000          39.000
 123392250.68447  96149775.63647  23480790.1234   23480792.9434   23480789.2834
        46.000          40.000
 139568026.92347  90962091.55047  24655979.5294   24655984.7684   24655979.6734
        42.000          37.000
 106713181.95947  83153127.14147  20306844.2424   20306846.5234   20306844.6194
        54.000          49.000
 127063957.86247  99010875.61447  24179466.4614   24179467.8254   24179467.4834
        44.000          38.000
 128213893.42747  99906909.11047  24398309.2724   24398313.7124   24398308.8114
        43.000          38.000
 117926144.47347  91890486.90747  22440611.3404   22440614.9084   22440611.1504
        49.000          44.000
 09  1 12  0 21 30.0000000  0 12G24G14G 9G 5G30G18G31G 6G21G22G12G29
 113531926.84647  88466416.11547  21604424.0024   21604428.5324   21604424.1174
        53.000          46.000
 115289853.25247  89836239.38047  21938937.1994   21938940.1074   21938937.4954
        51.000          45.000
 117153068.61347  91288092.52447  22293497.4974   22293501.3744   22293497.8294
        49.000          43.000
 124479455.29247  96996954.62147  23687669.7144   23687675.6504   23687670.6694
        45.000          39.000
 122596661.44947  95529849.40647  23329381.2304   23329385.2764   23329380.6864
        47.000          41.000
 123616541.14747  96324583.30247  23523440.7174   23523442.8004   23523441.0204
        47.000          39.000
 123289569.48047  96069764.39147  23461250.3444   23461253.5764   23461250.2164
        46.000          41.000
 139517239.10347  90922516.65147  24646314.6044   24646319.4314   24646314.9574
        42.000          37.000
 106667902.80847  83117844.68947  20298228.0544   20298230.1384   20298228.3954
        55.000          49.000
 127042060.18447  98993812.54247  24175299.7374   24175300.4754   24175300.3524
        44.000          38.000
 128214722.91447  99907555.49047  24398466.9884   24398471.9414   24398466.3874
        43.000          38.000
 118001560.69947  91949252.77847  22454962.8784   22454966.0974   22454962.9354
        49.000          44.000
 09  1 12  0 22  0.0000000  0 12G24G14G 9G 5G30G18G31G 6G21G22G12G29
 113567583.72247  88494200.70647  21611209.2394   21611213.7124   21611209.3024
        52.000          46.000
 115299842.50847  89844023.24247  21940838.2784   21940840.8514   21940838.4654
        51.000          45.000
 117221086.81847  91341093.73147  22306440.8304   22306444.8504   22306441.0094
        49.000          43.000
 124465329.54947  96985947.57247  23684981.9094   23684987.0614   23684982.4284
        44.000          39.000
 122573718.18047  95511971.56947  23325015.0074   23325019.4544   23325014.2534
        47.000          41.000
 123592896.13347  96306158.62247  23518940.9754   23518943.2884   23518941.4624
        47.000          39.000
 123186968.29147  95989815.48647  23441726.1114   23441729.2044   23441726.0484
        46.000          41.000
 139466756.47647  90883179.58147  24636708.1964   24636713.7794   24636708.3734
        41.000          37.000
 106623114.96847  83082945.07947  20289705.3354   20289707.3614   20289705.7584
        54.000          49.000
 127019937.93047  98976574.46347  24171089.8954   24171091.4754   24171089.7904
        44.000          38.000
 128215559.27947  99908207.23847  24398626.1014   24398630.9344   24398625.7834
        43.000          38.000
 118077011.23147  92008045.39147  22469320.8344   22469323.8484   22469320.7124
        49.000          44.000
 09  1 12  0 22 30.0000000  0 12G24G14G 9G 5G30G18G31G 6G21G22G12G29
 113603709.69947  88522350.82347  21618083.8394   21618088.7184   21618083.8964
        52.000          46.000
 115310214.31747  89852105.19347  21942811.5264   21942814.4314   21942811.6974
        51.000          45.000
 117289566.75247  91394454.73647  22319472.6494   22319476.1644   22319472.9094
        50.000          43.000
 124451211.67647  96974946.68347  23682295.5104   23682300.7244   23682296.1614
        46.000          39.000
 122550648.78147  95493995.45947  23320625.0894   23320629.3424   23320625.2104
        48.000          41.000
 123569055.11447  96287581.20747  23514404.3104   23514406.3474   23514404.5994
        47.000          39.000
 123084449.91747  95909931.11347  23422217.4344   23422220.4334   23422217.6054
        47.000          41.000
 139416578.89647  90844080.20147  24627160.1974   24627165.1914   24627159.4534
        42.000          36.000
 106578820.87047  83048430.20347  20281276.3854   20281278.4394   20281276.7474
        55.000          49.000
 126997590.30147  98959160.79347  24166837.4504   24166838.5694   24166837.4584
        44.000          38.000
 128216404.43547  99908865.85947  24398787.0654   24398791.3914   24398786.6984
        43.000          38.000
 118152493.39847  92066862.66147  22483684.5604   22483687.7904   22483684.1444
        49.000          44.000
 09  1 12  0 23  0.0000000  0 12G24G14G 9G 5G30G18G31G 6G21G22G12G29
 113640305.16047  88550866.77347  21625047.5404   21625052.4894   21625047.6594
        52.000          46.000
 115320967.56847  89860484.37947  21944857.9084   21944860.8524   21944858.2604
        51.000          45.000
 117358507.06047  91448174.49247  22332591.4294   22332594.6714   22332591.6054
        49.000          43.000
 124437104.46047  96963954.07747  23679611.6504   23679616.0984   23679612.0084
        45.000          39.000
 122527455.51747  95475922.82447  23316211.7494   23316215.8364   23316211.6964
        47.000          41.000
 123545019.79447  96268852.39947  23509830.3564   23509832.7464   23509830.7794
        47.000          40.000
 122982017.92947  95830114.04847  23402725.2504   23402728.3094   23402725.3704
        46.000          41.000
 139366707.27447  90805219.21247  24617669.4884   24617674.8644   24617669.4564
        43.000          36.000
 106535023.16247  83014302.12347  20272941.9134   20272944.0204   20272942.2854
        54.000          49.000
 126975018.06647  98941572.12347  24162542.1474   24162542.6164   24162542.0164
        43.000          37.000
 128217261.11647  99909533.45047  24398949.8784   24398954.2784   24398949.7264
        43.000          38.000
 118228005.08047  92125702.91947  22498053.6814   22498057.5214   22498052.8424
        49.000          44.000
 09  1 12  0 23 30.0000000  0 12G24G14G 9G 5G30G18G31G 6G21G22G12G29
 113677369.19747  88579747.84847  21632100.5754   21632105.5104   21632100.7294
        52.000          46.000
 115332099.89547  89869158.94047  21946976.3354   21946979.0704   21946976.3324
        51.000          45.000
 117427905.66947  91502251.35047  22345797.3544   22345800.6794   22345797.3854
        49.000          43.000
 124423009.46447  96952971.00247  23676928.9994   23676934.2614   23676929.5564
        45.000          39.000
 122504139.48847  95457754.52347  23311775.0524   23311778.6614   23311774.4194
        48.000          41.000
 123520790.71247  96249972.58947  23505219.9174   23505221.8334   23505220.2144
        47.000          40.000
 122879674.59847  95750366.06447  23383249.9914   23383253.1014   23383249.5154
        46.000          41.000
 139317141.24947  90766596.36547  24608237.8744   24608242.7934   24608237.9134
        42.000          36.000
 106491724.28747  82980562.75147  20264702.2654   20264704.5804   20264702.5964
        55.000          49.000
 126952220.33647  98923807.70547  24158203.4904   24158203.9534   24158203.5374
        44.000          37.000
 128218130.52147  99910210.94247  24399115.5284   24399119.8474   24399115.2934
        43.000          38.000
 118303543.79647  92184564.25147  22512428.4864   22512431.9344   22512428.1164
        49.000          44.000
 09  1 12  0 24  0.0000000  0 12G24G14G 9G 5G30G18G31G 6G21G22G12G29
 113714900.31947  88608992.88047  21639242.5144   21639247.4994   21639242.5544
        52.000          46.000
 115343608.44847  89878126.67147  21949165.8714   21949169.2084   21949166.2154
        50.000          45.000
 117497759.87647  91556683.21347  22359090.4014   22359093.5844   22359090.4614
        49.000          43.000
 124408927.82547  96941998.33347  23674249.8434   23674254.6394   23674249.9134
        46.000          39.000
 122480701.22447  95439490.97947  23307314.5814   23307318.3784   23307314.3334
        47.000          41.000
 123496367.48247  96230941.51147  23500571.8894   23500574.2164   23500572.2644
        47.000          40.000
 122777421.88347  95670688.70247  23363791.8864   23363795.3354   23363791.2524
        46.000          41.000
 139267879.93247  90728210.95447  24598862.2824   24598868.6464   24598862.9294
        42.000          36.000
 106448925.96847  82947213.41447  20256558.1734   20256560.2224   20256558.4804
        54.000          49.000
 126929195.96447  98905866.66447  24153822.2074   24153823.0314   24153822.4414
        45.000          38.000
 128219013.64647  99910899.14047  24399283.6714   24399288.1874   24399283.6884
        43.000          38.000
 118379106.14747  92243443.98447  22526807.6044   22526810.9084   22526807.4704
        50.000          44.000
 09  1 12  0 24 30.0000000  0 12G24G14G 9G 5G30G18G31G 6G21G22G12G29
 113752900.61447  88638603.50847  21646473.7644   21646478.5084   21646473.8344
        52.000          46.000
 115355493.60147  89887387.86647  21951427.6274   21951430.6154   21951427.7954
        51.000          44.000
 117568070.21447  91611470.50747  22372469.6604   22372473.1384   22372469.5334
        49.000          43.000
 124394863.96847  96931039.52147  23671572.6904   23671578.2714   23671573.5064
        45.000          39.000
 122457144.61647  95421135.21947  23302832.2004   23302835.8104   23302831.9814
        48.000          41.000
 123471753.71447  96211761.95847  23495888.4784   23495890.2144   23495888.6754
        47.000          40.000
 122675265.06647  95591086.04847  23344352.2414   23344355.3994   23344351.4614
        46.000          41.000
 139218925.91947  90690065.01047  24589548.1774   24589552.0084   24589547.5834
        42.000          37.000
 106406631.97847  82914257.06747  20248509.7064   20248511.8864   20248510.0384
        55.000          49.000
 126905947.09747  98887750.70247  24149398.3534   24149398.8264   24149398.2594
        44.000          38.000
 128219914.86647  99911601.43847  24399454.9854   24399459.9454   24399454.3104
        44.000          38.000
 118454691.88847  92302341.94447  22541191.3594   22541194.2424   22541190.9514
        49.000          44.000
 09  1 12  0 25  0.0000000  0 12G24G14G 9G 5G30G18G31G 6G21G22G12G29
 113791367.74347  88668577.89547  21653793.7194   21653798.5904   21653793.8514
        52.000          46.000
 115367751.74947  89896939.69247  21953760.3124   21953763.2204   21953760.5514
        51.000          45.000
 117638832.98147  91666610.34547  22385935.1414   22385938.7544   22385935.0944
        49.000          43.000
 124380818.42347  96920094.97047  23668900.2264   23668905.1424   23668900.4764
        45.000          39.000
 122433470.04447  95402687.55047  23298326.5794   23298330.6794   23298325.9724
        47.000          41.000
 123446948.74647  96192433.42847  23491168.2024   23491169.8644   23491168.4714
        47.000          40.000
 122573205.16447  95511558.92447  23324930.4154   23324934.0154   23324930.1284
        46.000          41.000
 139170277.72147  90652157.33647  24580290.1244   24580295.2654   24580290.5384
        41.000          37.000
 106364844.03247  82881695.03347  20240557.9214   20240560.1054   20240558.2414
        54.000          49.000
 126882472.20647  98869458.64247  24144931.1244   24144932.2834   24144930.8244
        45.000          38.000
 128220834.18847  99912317.85347  24399629.4314   24399634.3024   24399629.2304
        42.000          38.000
 118530296.96147  92361254.97647  22555578.3604   22555581.7834   22555578.0374
        49.000          44.000
 09  1 12  0 25 30.0000000  0 12G24G14G 9G 5G30G18G31G 6G21G22G12G29
 113830301.35347  88698915.78047  21661202.6114   21661207.4504   21661202.7814
        52.000          46.000
 115380381.01547  89906780.70647  21956163.8544   21956166.6734   21956164.1614
        50.000          45.000
 117710046.61847  91722101.51947  22399487.1004   22399490.1714   22399487.1414
        50.000          43.000
 124366793.20747  96909166.25447  23666230.9334   23666236.2394   23666231.4574
        45.000          39.000
 122409679.14047  95384149.24347  23293799.1314   23293803.6394   23293798.2804
        47.000          41.000
 123421953.24547  96172956.41847  23486411.8854   23486413.5794   23486412.2134
        47.000          40.000
 122471245.08047  95432109.58447  23305527.9964   23305531.6944   23305527.6844
        46.000          41.000
 139121935.33647  90614487.98847  24571090.3714   24571096.5794   24571090.7104
        42.000          37.000
 106323564.19947  82849528.94447  20232702.3514   20232704.7344   20232702.7054
        54.000          49.000
 126858770.75047  98850990.04847  24140421.0264   24140421.9264   24140421.3384
        45.000          38.000
 128221773.88447  99913050.13447  24399808.2594   24399813.3294   24399808.2674
        43.000          38.000
 118605919.07947  92420181.29447  22569968.8814   22569972.3884   22569968.6854
        49.000          44.000
 09  1 12  0 26  0.0000000  0 12G24G14G 9G 5G30G18G31G 6G21G22G12G29
 113869700.02547  88729616.05247  21668699.9864   21668704.5314   21668700.0004
        52.000          46.000
 115393378.39647  89916908.56647  21958636.6874   21958639.4664   21958636.7974
        50.000          44.000
 117781708.46247  91777941.94347  22413123.5384   22413126.8014   22413123.7634
        50.000          43.000
 124352789.53547  96898254.33447  23663566.8284   23663571.5254   23663566.8554
        46.000          39.000
 122385772.26647  95365520.56747  23289249.5834   23289254.1364   23289249.4804
        47.000          41.000
 123396767.08647  96153330.85347  23481618.5044   23481620.9404   23481618.9764
        47.000          39.000
 122369386.96547  95352739.68847  23286145.1964   23286148.5604   23286144.7224
        46.000          41.000
 139073897.96547  90577056.26747  24561949.7174   24561954.5784   24561950.1154
        42.000          37.000
 106282794.00047  82817759.96447  20224944.2004   20224946.2514   20224944.5824
        54.000          49.000
 126834841.66047  98832344.05547  24135867.1064   24135868.6284   24135866.9704
        43.000          38.000
 128222734.97347  99913799.06247  24399991.5664   24399996.2854   24399991.1974
        44.000          38.000
 118681555.06747  92479118.41147  22584362.0044   22584365.4624   22584361.9204
        49.000          44.000
 09  1 12  0 26 30.0000000  0 12G24G14G 9G 5G30G18G31G 6G21G22G12G29
 113909565.67247  88760680.19647  21676286.2504   21676290.8214   21676286.1984
        52.000          46.000
 115406744.47447  89927323.72347  21961180.5694   21961183.0944   21961180.7634
        50.000          44.000
 117853818.78547  91834131.82847  22426845.8614   22426849.0944   22426845.8744
        49.000          43.000
 124338811.79447  96887362.62347  23660906.5254   23660911.6424   23660906.8434
        46.000          39.000
 122361753.48347  95346804.65547  23284679.1484   23284683.6174   23284678.5264
        48.000          41.000
 123371393.98547  96133559.61747  23476790.2654   23476792.1554   23476790.8234
        47.000          39.000
 122267635.95147  95273453.25147  23266782.8774   23266785.8024   23266782.4644
        48.000          42.000
 139026168.02947  90539864.15447  24552866.8624   24552872.3424   24552867.3714
        42.000          37.000
 106242538.27947  82786391.87847  20217283.8054   20217285.7924   20217284.2264
        54.000          49.000
 126810687.82747  98813522.92547  24131270.7784   24131271.6804   24131269.9664
        43.000          38.000
 128223721.51147  99914567.83447  24400179.1794   24400183.7874   24400179.1964
        44.000          38.000
 118757205.03647  92538066.42347  22598757.6314   22598761.0694   22598757.5044
        49.000          43.000
 09  1 12  0 27  0.0000000  0 12G24G14G 9G 5G30G18G31G 6G21G22G12G29
 113949896.05547  88792106.46947  21683960.7824   21683965.4254   21683960.7924
        52.000          45.000
 115420475.47647  89938023.23247  21963793.3324   21963796.1704   21963793.6884
        51.000          45.000
 117926373.81647  91890668.23247  22440652.2604   22440655.7644   22440652.2644
        48.000          42.000
 124324860.42947  96876491.49147  23658251.7684   23658256.3914   23658252.5854
        46.000          40.000
 122337622.55147  95328001.36647  23280087.5674   23280091.7144   23280087.4114
        48.000          41.000
 123345833.19947  96113642.12347  23471926.1884   23471927.6574   23471926.8704
        47.000          40.000
 122165993.25147  95194251.22047  23247440.7634   23247443.8574   23247440.8844
        47.000          42.000
 138978743.81547  90502910.23847  24543842.2054   24543847.3734   24543842.7544
        42.000          37.000
 106202797.20847  82755424.81947  20209721.2994   20209723.2664   20209721.6434
        54.000          49.000
 126786306.47747  98794524.52447  24126631.6524   24126632.1294   24126631.0364
        46.000          39.000
 128224733.81447  99915356.66747  24400371.7974   24400376.0914   24400371.2234
        42.000          38.000
 118832864.40547  92597021.76647  22613155.0194   22613158.3644   22613154.8204
        49.000          43.000
 09  1 12  0 27 30.0000000  0 12G24G14G 9G 5G30G18G31G 6G21G22G12G29
 113990691.71547  88823895.29547  21691723.9134   21691728.4674   21691724.0224
        52.000          45.000
 115434570.51147  89949006.40747  21966475.3614   21966478.2584   21966475.5744
        50.000          45.000
 117999372.98547  91947550.71547  22454543.4254   22454546.8824   22454543.4344
        48.000          42.000
 124310938.89547  96865643.58747  23655602.3364   23655607.2904   23655603.0284
        46.000          40.000
 122313382.75147  95309113.25147  23275474.4214   23275478.5704   23275474.3584
        48.000          41.000
 123320087.26647  96093580.36347  23467027.2744   23467028.7854   23467027.3484
        47.000          40.000
 122064463.06147  95115136.86147  23228120.1124   23228123.2334   23228119.8624
        47.000          42.000
 138931626.72647  90466195.65747  24534876.5634   24534880.9394   24534876.4404
        43.000          37.000
 106163574.83347  82724861.93547  20202257.6064   20202259.7664   20202258.0194
        54.000          49.000
 126761699.05447  98775349.96647  24121948.6154   24121949.4114   24121949.0894
        45.000          39.000
 128225775.49247  99916168.39247  24400570.4104   24400574.5034   24400570.2354
        43.000          38.000
 118908532.46147  92655983.88147  22627554.1554   22627557.4994   22627553.7414
        48.000          44.000
 09  1 12  0 28  0.0000000  0 12G24G14G 9G 5G30G18G31G 6G21G22G12G29
 114031948.96347  88856043.81147  21699575.0074   21699579.4004   21699575.1944
        52.000          45.000
 115449024.35147  89960269.16647  21969225.9534   21969228.9974   21969226.1344
        51.000          45.000
 118072810.88347  92004775.07247  22468518.5824   22468521.9214   22468518.4024
        48.000          42.000
 124297045.88247  96854817.91247  23652958.3484   23652963.3304   23652958.8824
        45.000          39.000
 122289032.63747  95290139.17147  23270840.7664   23270845.0324   23270840.1774
        47.000          41.000
 123294153.14547  96073371.97147  23462091.9554   23462093.6304   23462092.5084
        48.000          40.000
 121963044.94747  95036109.82647  23208820.9204   23208823.9564   23208820.1804
        47.000          42.000
 138884813.47747  90429717.83247  24525967.8444   24525973.0254   24525968.2724
        42.000          37.000
 106124869.58647  82694702.01347  20194892.2264   20194894.3124   20194892.6034
        55.000          49.000
 126736862.02947  98755996.48047  24117222.0464   24117223.2534   24117222.3914
        45.000          38.000
 128226844.69047  99917001.58147  24400774.2544   24400778.2564   24400773.5814
        43.000          38.000
 118984203.60347  92714948.38547  22641953.5444   22641957.5084   22641953.2584
        49.000          43.000
 09  1 12  0 28 30.0000000  0 12G24G14G 9G 5G30G18G31G 6G21G22G12G29
 114073671.56847  88888554.93647  21707514.3074   21707518.7224   21707514.4024
        52.000          45.000
 115463839.69447  89971813.62147  21972045.3944   21972048.1334   21972045.5204
        51.000          45.000
 118146690.55847  92062343.67847  22482577.3724   22482580.6734   22482577.4024
        49.000          42.000
 124283188.11447  96844019.69247  23650321.2404   23650326.1844   23650321.6744
        45.000          39.000
 122264578.00947  95271083.65747  23266187.3564   23266191.6474   23266186.9294
        48.000          41.000
 123268036.81447  96053021.59847  23457122.0304   23457123.5694   23457122.5834
        47.000          40.000
 121861746.33247  94957175.93047  23189544.3354   23189547.3094   23189544.1874
        47.000          42.000
 138838308.70147  90393480.35447  24517118.8204   24517123.2384   24517118.7734
        42.000          37.000
 106086688.73747  82664950.70647  20187626.8394   20187628.6334   20187627.2534
        54.000          49.000
 126711800.14047  98736467.79747  24112452.8134   24112453.9904   24112452.9994
        44.000          38.000
 128227948.40047  99917861.67647  24400984.0554   24400987.4744   24400984.2154
        43.000          38.000
 119059880.03447  92773917.02847  22656354.5534   22656358.0894   22656354.3614
        49.000          43.000
 09  1 12  0 29  0.0000000  0 12G24G14G 9G 5G30G18G31G 6G21G22G12G29
 114115854.67647  88921424.89747  21715541.7964   21715546.2654   21715541.9644
        52.000          45.000
 115479009.83447  89983634.53647  21974931.8764   21974934.9364   21974932.0194
        51.000          45.000
 118221005.62347  92120251.54347  22496718.7424   22496722.4224   22496718.8674
        48.000          42.000
 124269363.31647  96833247.17747  23647690.1124   23647695.9274   23647690.7074
        45.000          39.000
 122240016.28247  95251944.71347  23261513.1464   23261517.3054   23261512.9264
        48.000          41.000
 123241735.24647  96032526.89147  23452117.0134   23452118.7254   23452117.4124
        47.000          40.000
 121760565.74147  94878334.00547  23170289.6454   23170293.1634   23170289.9404
        46.000          42.000
 138792107.78547  90357479.69147  24508325.8624   24508331.2854   24508325.9554
        42.000          37.000
 106049030.17047  82635606.38447  20180460.3764   20180462.5614   20180460.7714
        55.000          49.000
 126686509.02347  98716760.47247  24107639.8654   24107640.9904   24107639.4684
        45.000          38.000
 128229083.76547  99918746.42947  24401200.2684   24401203.9224   24401199.6224
        43.000          38.000
 119135555.05247  92832884.56647  22670754.7794   22670758.6824   22670754.9144
        48.000          43.000
 09  1 12  0 29 30.0000000  0 12G24G14G 9G 5G30G18G31G 6G21G22G12G29
 114158501.19547  88954655.95947  21723656.8834   21723661.4914   21723656.9874
        52.000          45.000
 115494536.51647  89995733.27647  21977886.5704   21977889.6424   21977886.7504
        51.000          45.000
 118295757.52447  92178499.79747  22510943.5044   22510947.1244   22510943.7734
        48.000          42.000
 124255577.24347  96822504.81547  23645066.9584   23645071.8614   23645067.7714
        46.000          39.000
 122215352.67147  95232726.34747  23256819.7044   23256823.8314   23256819.4394
        48.000          41.000
 123215252.60247  96011891.06847  23447077.6474   23447079.3504   23447077.9894
        47.000          40.000
 121659509.64847  94799589.07447  23151059.3664   23151062.6334   23151058.6864
        46.000          41.000
 138746214.35247  90321718.59347  24499593.9574   24499598.4144   24499593.3064
        42.000          37.000
 106011899.62547  82606673.49547  20173394.9294   20173396.7224   20173395.4044
        55.000          49.000
 126660991.92347  98696877.05247  24102784.2834   24102785.3184   24102784.3964
        45.000          39.000
 128230256.08047  99919659.95647  24401423.2414   24401427.4884   24401422.9774
        43.000          39.000
 119211229.83747  92891851.90547  22685155.0604   22685159.2404   22685154.6974
        48.000          44.000
 09  1 12  0 30  0.0000000  0 12G24G14G 9G 5G30G18G31G 6G21G22G12G29
 114201607.56947  88988245.34647  21731859.6534   21731864.4034   21731859.8354
        52.000          45.000
 115510414.78047  90008105.97747  21980908.0264   21980910.9804   21980908.3914
        51.000          45.000
 118370941.54347  92237084.76747  22525250.8844   22525254.3004   22525251.0384
        48.000          42.000
 124241829.25547  96811792.13947  23642450.8144   23642455.8164   23642451.3004
        45.000          39.000
 122190586.38147  95213427.97547  23252107.0084   23252110.8624   23252106.4634
        47.000          41.000
 123188587.60147  95991113.15647  23442003.2324   23442005.5004   23442003.7074
        47.000          40.000
 121558578.40447  94720941.43247  23131852.6524   23131855.8544   23131851.9784
        47.000          42.000
 138700625.81747  90286195.09847  24490917.6184   24490923.2734   24490917.6014
        42.000          37.000
 105975296.30047  82578151.43247  20166429.2974   20166431.2714   20166429.6824
        54.000          49.000
 126635245.89047  98676815.24747  24097885.0174   24097885.7914   24097885.1594
        45.000          39.000
 128231465.08247  99920602.07147  24401653.2284   24401656.6454   24401653.2464
        44.000          39.000
 119286899.21647  92950815.04547  22699554.8344   22699558.5044   22699554.4184
        48.000          43.000
 09  1 12  0 30 30.0000000  0 12G24G14G 9G 5G30G18G31G 6G21G22G12G29
 114245175.01847  89022194.01147  21740150.2654   21740155.0744   21740150.3364
        52.000          45.000
 115526644.24047  90020752.33147  21983996.2644   21983999.1214   21983996.3944
        50.000          44.000
 118446557.40647  92296006.23547  22539639.7514   22539643.4944   22539640.0304
        48.000          42.000
 124228123.15047  96801112.09747  23639842.7884   23639848.0874   23639843.0814
        46.000          39.000
 122165720.76347  95194052.20747  23247374.9924   23247379.5134   23247374.8034
        47.000          41.000
 123161742.73947  95970195.10747  23436894.6694   23436897.0844   23436895.3604
        47.000          40.000
 121457776.06647  94642394.24047  23112670.7754   23112673.6744   23112670.4254
        48.000          42.000
 138655343.76647  90250910.40647  24482302.1754   24482306.3854   24482302.0434
        42.000          37.000
 105939224.34547  82550043.42247  20159565.1504   20159566.9724   20159565.5794
        54.000          49.000
 126609273.04347  98656576.72547  24092942.7564   24092943.5544   24092942.6014
        44.000          39.000
 128232714.31847  99921575.55047  24401890.9604   24401894.8144   24401891.1114
        44.000          39.000
 119362562.64247  93009773.54747  22713953.2024   22713956.8164   22713952.8654
        48.000          43.000
 09  1 12  0 31  0.0000000  0 12G24G14G 9G 5G30G18G31G 6G21G22G12G29
 114289201.75647  89056500.56847  21748528.5234   21748533.0604   21748528.7674
        52.000          45.000
 115543221.75547  90033669.90547  21987150.7174   21987153.6244   21987151.1614
        50.000          44.000
 118522602.11647  92355261.87047  22554110.6254   22554114.1684   22554110.6514
        48.000          42.000
 124214460.09747  96790465.59947  23637242.7014   23637247.7634   23637243.1244
        45.000          39.000
 122140756.44947  95174599.54647  23242624.5034   23242628.7584   23242624.2464
        47.000          41.000
 123134718.09747  95949136.94247  23431752.1164   23431754.3954   23431752.7184
        47.000          39.000
 121357105.11047  94563949.41147  23093513.7454   23093516.2434   23093513.5644
        47.000          42.000
 138610366.82847  90215863.48047  24473742.2914   24473748.1944   24473742.0864
        42.000          37.000
 105903684.74347  82522350.23647  20152802.1074   20152804.0504   20152802.5164
        54.000          49.000
 126583071.92247  98636160.29647  24087956.1654   24087957.5054   24087956.4574
        45.000          39.000
 128234004.50647  99922580.93047  24402136.4984   24402140.1954   24402136.2724
        44.000          38.000
 119438216.85747  93068724.86947  22728349.4974   22728353.7384   22728349.4364
        48.000          43.000
 09  1 12  0 31 30.0000000  0 12G24G14G 9G 5G30G18G31G 6G21G22G12G29
 114333687.33547  89091164.66447  21756993.6754   21756998.1414   21756993.9064
        52.000          45.000
 115560145.65247  90046857.38647  21990371.1584   21990374.3324   21990371.1904
        50.000          44.000
 118599073.80847  92414850.23047  22568662.6214   22568666.0704   22568662.5824
        48.000          42.000
 124200842.47747  96779854.48647  23634651.5134   23634656.5124   23634652.2374
        45.000          39.000
 122115695.28447  95155071.41347  23237855.4024   23237859.7644   23237855.1614
        47.000          41.000
 123107515.08047  95927939.80447  23426575.7294   23426578.0044   23426575.7654
        47.000          39.000
 121256568.81247  94485609.51447  23074382.4434   23074384.8504   23074381.6824
        48.000          42.000
 138565695.52547  90181054.69747  24465242.2054   24465246.0124   24465241.7944
        42.000          37.000
 105868680.07247  82495073.87747  20146140.8674   20146142.9284   20146141.2254
        54.000          49.000
 126556642.89847  98615566.31047  24082927.5044   24082928.4004   24082927.1464
        45.000          39.000
 128235338.25247  99923620.28347  24402389.3274   24402393.2534   24402389.3394
        43.000          38.000
 119513860.08147  93127667.61947  22742743.8784   22742748.1054   22742743.8524
        49.000          43.000
 09  1 12  0 32  0.0000000  0 12G24G14G 9G 5G30G18G31G 6G21G22G12G29
 114378631.18047  89126185.84347  21765546.2514   21765550.5994   21765546.5184
        52.000          45.000
 115577413.82747  90060313.13647  21993657.2364   21993660.1394   21993657.4254
        50.000          44.000
 118675970.78447  92474769.96447  22583295.4434   22583299.0434   22583295.4284
        48.000          42.000
 124187272.52647  96769280.50647  23632069.1424   23632074.1224   23632069.5484
        45.000          39.000
 122090539.55247  95135469.56847  23233068.1454   23233072.5454   23233067.9504
        47.000          41.000
 123080134.76547  95906604.50647  23421365.7084   23421367.7954   23421365.9494
        47.000          39.000
 121156170.04447  94407376.77947  23055277.1934   23055279.4064   23055276.7354
        48.000          42.000
 138521329.86547  90146484.10847  24456799.5264   24456803.9664   24456799.3274
        41.000          37.000
 105834212.82447  82468216.28947  20139581.8024   20139584.2124   20139582.1174
        54.000          49.000
 126529986.18847  98594794.87347  24077854.8364   24077855.6944   24077854.6834
        45.000          39.000
 128236717.46247  99924695.03747  24402651.6504   24402656.5454   24402651.6114
        44.000          38.000
 119589490.04947  93186600.06247  22757136.0304   22757139.8964   22757135.7814
        48.000          43.000
 09  1 12  0 32 30.0000000  0 12G24G14G 9G 5G30G18G31G 6G21G22G12G29
 114424032.09247  89161563.18847  21774185.8554   21774190.1454   21774186.0304
        52.000          45.000
 115595023.88147  90074035.27847  21997008.5284   21997011.4414   21997008.8414
        50.000          44.000
 118753290.40947  92535019.02247  22598008.7614   22598012.7064   22598008.8444
        47.000          42.000
 124173752.12547  96758745.13447  23629496.3864   23629501.2224   23629496.7034
        46.000          39.000
 122065290.55347  95115795.04847  23228263.6374   23228267.5044   23228263.4224
        48.000          41.000
 123052578.38647  95885132.00347  23416121.3174   23416123.6384   23416121.6734
        48.000          40.000
 121055911.33747  94329253.18647  23036198.2494   23036200.6954   23036198.4414
        48.000          42.000
 138477269.32447  90112151.27547  24448415.1644   24448419.4844   24448415.3574
        42.000          37.000
 105800284.10847  82441778.34047  20133125.4114   20133127.8444   20133125.7774
        54.000          49.000
 126503101.45447  98573845.77047  24072738.6484   24072739.3324   24072738.7024
        45.000          39.000
 128238143.79547  99925806.52447  24402923.1194   24402927.1614   24402923.1064
        43.000          38.000
 119665104.25947  93245520.21547  22771524.9374   22771528.6014   22771524.3294
        48.000          43.000
 09  1 12  0 33  0.0000000  0 12G24G14G 9G 5G30G18G31G 6G21G22G12G29
 114469889.19747  89197295.99747  21782912.1204   21782916.6864   21782912.5084
        52.000          45.000
 115612973.27147  90088021.84847  22000424.2064   22000426.9054   22000424.2274
        50.000          45.000
 118831030.38947  92595595.63647  22612802.5964   22612806.1714   22612802.7644
        48.000          42.000
 124160283.23347  96748249.93847  23626932.6714   23626938.2374   23626933.0364
        45.000          39.000
 122039949.78347  95096049.02547  23223441.3434   23223445.6284   23223441.3614
        47.000          41.000
 123024846.61447  95863522.84947  23410844.7064   23410846.3514   23410845.1794
        49.000          40.000
 120955795.45447  94251240.87547  23017146.8454   23017149.4714   23017146.1414
        47.000          42.000
 138433513.55347  90078055.90047  24440088.2364   24440092.7134   24440088.4544
        41.000          37.000
 105766896.08447  82415761.70247  20126772.0914   20126774.1424   20126772.4854
        54.000          49.000
 126475988.26647  98552718.64447  24067579.4044   24067580.2424   24067579.6594
        45.000          39.000
 128239619.08147  99926956.15047  24403203.9024   24403207.9534   24403203.7424
        43.000          38.000
 119740700.22647  93304426.15247  22785910.3324   22785913.9634   22785910.1944
        48.000          43.000
 09  1 12  0 33 30.0000000  0 12G24G14G 9G 5G30G18G31G 6G21G22G12G29
 114516202.73247  89233384.47847  21791725.2164   21791729.9334   21791725.3724
        52.000          45.000
 115631261.16547  90102272.18847  22003904.2604   22003907.1304   22003904.5454
        50.000          45.000
 118909189.67447  92656498.99247  22627675.9854   22627679.4474   22627675.9704
        48.000          42.000
 124146869.17747  96737797.48147  23624380.6764   23624385.6034   23624381.1114
        46.000          39.000
 122014520.23147  95076233.83847  23218602.4744   23218606.3064   23218602.1414
        47.000          41.000
 122996942.00247  95841778.99447  23405534.5584   23405536.6314   23405534.9174
        48.000          40.000
 120855826.59347  94173343.13747  22998123.4134   22998125.7884   22998122.4664
        48.000          42.000
 138390063.66247  90044198.88547  24431819.7234   24431825.5544   24431819.9184
        42.000          37.000
 105734052.20047  82390169.08047  20120521.9064   20120524.3024   20120522.2224
        54.000          50.000
 126448647.71647  98531414.33547  24062376.1434   24062377.6024   24062376.1744
        44.000          39.000
 128241146.23547  99928146.18147  24403494.6264   24403498.9704   24403494.2014
        43.000          38.000
 119816276.52847  93363316.77047  22800292.2884   22800295.7254   22800291.9834
        48.000          43.000
 09  1 12  0 34  0.0000000  0 12G24G14G 9G 5G30G18G31G 6G21G22G12G29
 114562971.57647  89269827.73447  21800625.0304   21800629.8754   21800625.3434
        51.000          45.000
 115649885.20047  90116784.44647  22007448.2024   22007451.2344   22007448.4804
        50.000          44.000
 118987765.78847  92717727.16647  22642628.5824   22642631.9844   22642628.7014
        48.000          42.000
 124133511.86947  96727389.23447  23621838.6154   23621843.8814   23621839.0844
        45.000          39.000
 121989003.46347  95056350.68647  23213746.5134   23213750.7954   23213745.9644
        47.000          41.000
 122968864.76547  95819900.62547  23400191.1864   23400193.5264   23400191.8474
        48.000          40.000
 120756007.49547  94095562.10447  22979128.5754   22979130.9574   22979128.1904
        48.000          42.000
 138346919.19747  90010579.84447  24423609.7284   24423614.2804   24423610.1784
        42.000          37.000
 105701754.51147  82365002.05647  20114376.1574   20114378.0864   20114376.6214
        54.000          49.000
 126421080.04847  98509933.07147  24057130.4114   24057131.2804   24057130.6224
        46.000          39.000
 128242726.92947  99929377.95047  24403795.4124   24403799.5044   24403795.2934
        43.000          38.000
 119891830.95447  93422190.34647  22814669.7524   22814673.1674   22814669.4494
        48.000          43.000
 09  1 12  0 34 30.0000000  0 12G24G14G 9G 5G30G18G31G 6G21G22G12G29
 114610192.37947  89306623.17047  21809610.7064   21809615.7344   21809610.7194
        51.000          45.000
 115668840.62547  90131554.92947  22011055.4074   22011058.0784   22011055.5634
        50.000          44.000
 119066754.14247  92779276.55247  22657659.3674   22657662.6254   22657659.3954
        48.000          41.000
 124120210.95147  96717024.94247  23619307.4324   23619312.5734   23619307.7964
        45.000          39.000
 121963398.61047  95036398.90047  23208873.9584   23208878.2964   23208874.1924
        47.000          41.000
 122940614.24247  95797887.23847  23394815.3794   23394817.6374   23394816.1054
        47.000          40.000
 120656338.64647  94017898.13647  22960162.1434   22960164.6114   22960161.5244
        48.000          42.000
 138304077.43447  89977196.69247  24415456.9304   24415462.2044   24415456.7844
        42.000          37.000
 105670001.61747  82340259.55247  20108333.5704   20108335.5894   20108333.9854
        54.000          49.000
 126393282.61347  98488272.77947  24051841.3344   24051841.2954   24051841.3914
        46.000          39.000
 128244360.94047  99930651.25747  24404106.2384   24404110.1804   24404106.0674
        42.000          38.000
 119967358.96547  93481043.34747  22829042.3044   22829045.6714   22829041.8944
        48.000          43.000
 09  1 12  0 35  0.0000000  0 12G24G14G 9G 5G30G18G31G 6G21G22G12G29
 114657866.35247  89343771.72247  21818682.8154   21818687.6084   21818683.0644
        51.000          45.000
 115688127.15247  90146583.41447  22014725.3164   22014728.2634   22014725.4884
        51.000          45.000
 119146154.91847  92841147.31047  22672768.7134   22672772.0644   22672768.9904
        47.000          41.000
 124106970.62347  96706707.83247  23616788.1434   23616792.9644   23616788.7384
        46.000          39.000
 121937709.52947  95016381.45947  23203985.8864   23203989.4844   23203985.3994
        48.000          41.000
 122912193.47947  95775741.19147  23389406.9944   23389409.2264   23389407.6854
        47.000          40.000
 120556824.75747  93940354.91447  22941225.2004   22941227.7644   22941224.9894
        48.000          43.000
 138261540.34747  89944050.93947  24407362.6664   24407367.2344   24407362.7604
        42.000          37.000
 105638797.86547  82315944.94447  20102395.8554   20102397.6204   20102396.2384
        54.000          49.000
 126365257.64747  98466435.17247  24046508.1524   24046508.7954   24046508.0704
        45.000          39.000
 128246052.10447  99931969.09447  24404428.0554   24404431.8644   24404427.2584
        42.000          37.000
 120042860.13747  93539875.43347  22843409.6714   22843413.3124   22843408.9904
        48.000          43.000
 09  1 12  0 35 30.0000000  0 12G24G14G 9G 5G30G18G31G 6G21G22G12G29
 114705993.35547  89381273.29947  21827841.0934   21827845.9634   21827841.1294
        51.000          45.000
 115707743.26447  90161868.72047  22018458.1914   22018461.1784   22018458.3254
        51.000          45.000
 119225966.49847  92903338.15747  22687955.9784   22687959.9144   22687956.3954
        47.000          41.000
 124093793.60347  96696440.07247  23614280.5634   23614285.6034   23614280.9264
        45.000          39.000
 121911938.83947  94996300.44747  23199081.9134   23199085.4344   23199081.3924
        47.000          41.000
 122883604.30947  95753463.92447  23383967.0584   23383968.8574   23383967.6394
        47.000          40.000
 120457469.44047  93862935.25147  22922318.5914   22922320.9734   22922317.8534
        48.000          43.000
 138219308.21647  89911142.83647  24399326.5474   24399330.7284   24399326.6874
        43.000          37.000
 105608146.18047  82292060.52747  20096562.8664   20096564.7574   20096563.2214
        54.000          49.000
 126337005.68647  98444420.67047  24041131.6014   24041132.3274   24041131.2904
        46.000          40.000
 128247803.03147  99933333.48847  24404760.4774   24404765.2384   24404760.6324
        42.000          37.000
 120118333.07547  93598685.51747  22857771.8744   22857775.3164   22857771.5004
        48.000          43.000
 09  1 12  0 36  0.0000000  0 12G24G14G 9G 5G30G18G31G 6G21G22G12G29
 114754570.84747  89419125.88847  21837084.8094   21837089.9424   21837084.9964
        51.000          45.000
 115727685.42347  90177408.08147  22022253.1624   22022256.1524   22022253.1754
        50.000          45.000
 119306184.77447  92965845.91147  22703221.3544   22703224.9144   22703221.3234
        47.000          41.000
 124080680.51447  96686222.13847  23611785.2154   23611790.1354   23611785.8834
        46.000          39.000
 121886086.87247  94976156.10747  23194162.3514   23194165.8394   23194162.0164
        48.000          41.000
 122854846.21147  95731055.02447  23378494.5874   23378496.0674   23378494.9534
        47.000          40.000
 120358274.19847  93785640.32947  22903442.2434   22903444.4624   22903442.0494
        49.000          43.000
 138177379.40447  89878471.06147  24391347.5234   24391352.2454   24391346.7764
        41.000          37.000
 105578046.66747  82268606.36947  20090835.1194   20090837.2634   20090835.4864
        54.000          50.000
 126308525.26447  98422228.15947  24035712.2264   24035712.7744   24035712.3394
        45.000          39.000
 128249614.01347  99934744.70147  24405106.2404   24405109.7604   24405105.5924
        43.000          38.000
 120193774.01647  93657470.67047  22872127.8034   22872131.3124   22872127.5424
        49.000          43.000
 09  1 12  0 36 30.0000000  0 12G24G14G 9G 5G30G18G31G 6G21G22G12G29
 114803598.91847  89457329.58947  21846414.6454   21846419.5704   21846414.7534
        51.000          45.000
 115747952.09147  90193200.31947  22026109.6424   22026112.5944   22026109.9354
        50.000          45.000
 119386808.69847  93028669.76847  22718563.7234   22718567.1164   22718563.7984
        47.000          41.000
 124067634.37747  96676056.36147  23609302.6984   23609307.4104   23609303.1254
        45.000          39.000
 121860156.21247  94955950.44047  23189228.0554   23189231.8004   23189227.9574
        48.000          41.000
 122825921.46947  95708516.26547  23372990.0094   23372991.8864   23372990.3924
        48.000          40.000
 120259242.94047  93708473.18247  22884596.8764   22884599.3334   22884596.5024
        48.000          43.000
 138135754.50647  89846036.10347  24383426.8814   24383430.8594   24383426.7554
        43.000          37.000
 105548502.20847  82245584.72447  20085212.8254   20085215.2304   20085213.1914
        54.000          49.000
 126279817.51547  98399858.52247  24030249.0164   24030249.9824   24030249.4294
        46.000          39.000
 128251487.98647  99936205.00647  24405462.5204   24405466.2404   24405462.6194
        43.000          38.000
 120269181.51047  93716229.75347  22886477.1724   22886480.6614   22886477.1634
        48.000          43.000
 09  1 12  0 37  0.0000000  0 12G24G14G 9G 5G30G18G31G 6G21G22G12G29
 114853075.53347  89495882.79047  21855830.0274   21855834.5604   21855830.2194
        51.000          45.000
 115768540.16247  90209242.99247  22030027.1874   22030030.2074   22030027.3544
        51.000          45.000
 119467835.23047  93091807.35447  22733982.5104   22733985.8204   22733982.6424
        47.000          41.000
 124054656.61147  96665943.88947  23606832.6184   23606837.7464   23606833.0794
        46.000          39.000
 121834147.83847  94935684.21247  23184278.5864   23184282.2884   23184278.5894
        48.000          41.000
 122796830.46347  95685847.94647  23367454.7354   23367456.4334   23367454.8844
        48.000          40.000
 120160377.70147  93631435.39847  22865783.6994   22865785.8594   22865782.6244
        49.000          43.000
 138094432.35047  89813837.01847  24375563.0704   24375567.6174   24375563.3364
        42.000          37.000
 105519513.88047  82222996.42447  20079696.7004   20079698.9064   20079697.0134
        54.000          50.000
 126250881.33747  98377310.86047  24024742.9234   24024743.5484   24024743.1784
        46.000          40.000
 128253426.13547  99937715.29647  24405831.1734   24405835.2484   24405831.1164
        43.000          38.000
 120344552.62047  93774960.48847  22900819.6854   22900823.3864   22900819.3024
        48.000          43.000
 09  1 12  0 37 30.0000000  0 12G24G14G 9G 5G30G18G31G 6G21G22G12G29
 114903000.44447  89534785.32047  21865330.2904   21865335.0624   21865330.2284
        52.000          45.000
 115789447.94747  90225534.79747  22034006.0514   22034008.8554   22034006.2924
        50.000          45.000
 119549262.55247  93155257.22047  22749477.5654   22749480.7364   22749477.2074
        46.000          41.000
 124041749.92847  96655886.76147  23604376.6754   23604381.5414   23604377.4504
        45.000          39.000
 121808064.60447  94915359.63247  23179315.1244   23179318.8464   23179314.6594
        48.000          41.000
 122767574.97947  95663051.47347  23361887.5414   23361889.5884   23361888.1134
        49.000          40.000
 120061682.32747  93554529.98347  22847002.3734   22847004.6274   22847002.7374
        49.000          43.000
 138053413.30947  89781874.18047  24367757.2664   24367762.2524   24367757.2884
        42.000          37.000
 105491084.07547  82200843.33947  20074286.5634   20074288.6564   20074287.0174
        54.000          49.000
 126221717.88847  98354586.13447  24019193.2664   24019193.9544   24019193.3314
        46.000          40.000
 128255431.23647  99939277.75347  24406212.9054   24406215.8804   24406212.4994
        43.000          38.000
 120419885.65847  93833661.56347  22915154.8934   22915158.5404   22915154.4924
        47.000          43.000
 09  1 12  0 38  0.0000000  0 12G24G14G 9G 5G30G18G31G 6G21G22G12G29
 114953373.21447  89574036.82747  21874916.1194   21874920.4324   21874916.4334
        51.000          45.000
 115810673.84547  90242074.48147  22038045.2234   22038047.9234   22038045.3544
        51.000          45.000
 119631089.10647  93219018.17647  22765048.5694   22765052.1624   22765048.4074
        47.000          41.000
 124028917.21547  96645887.30847  23601934.3294   23601939.4934   23601935.0174
        46.000          39.000
 121781908.62847  94894978.39847  23174337.9444   23174341.6244   23174337.8314
        47.000          41.000
 122738156.94847  95640128.33047  23356289.5894   23356291.5324   23356290.1544
        48.000          40.000
 119963160.09547  93477759.47347  22828254.5694   22828256.4794   22828254.3444
        49.000          43.000
 138012697.86547  89750147.88047  24360010.2024   24360014.5754   24360010.0864
        41.000          37.000
 105463215.51647  82179127.58647  20068983.3514   20068985.5974   20068983.7164
        54.000          49.000
 126192327.79047  98331684.78647  24013600.2594   24013600.9074   24013600.0104
        45.000          39.000
 128257505.50847  99940894.12747  24406607.5444   24406611.7344   24406607.2974
        44.000          38.000
 120495179.74947  93892332.27247  22929482.8894   22929486.6914   22929482.3494
        47.000          43.000
 09  1 12  0 38 30.0000000  0 12G24G14G 9G 5G30G18G31G 6G21G22G12G29
 115004191.46647  89613635.46447  21884586.1634   21884591.0644   21884586.2974
        51.000          45.000
 115832214.07047  90258859.09547  22042144.2214   22042146.9274   22042144.3544
        50.000          45.000
 119713311.37647  93283087.50547  22780694.8714   22780698.3814   22780695.2594
        47.000          41.000
 124016159.13747  96635946.01647  23599506.7374   23599511.3084   23599507.2074
        45.000          39.000
 121755680.10347  94874540.62347  23169346.9994   23169350.3284   23169346.4104
        48.000          41.000
 122708576.30347  95617078.47747  23350660.4214   23350662.0394   23350661.0834
        48.000          40.000
 119864812.67947  93401125.19247  22809539.8144   22809541.4304   22809539.5114
        49.000          43.000
 137972284.22747  89718656.78747  24352318.8104   24352323.3474   24352318.5514
        43.000          37.000
 105435908.22747  82157849.19047  20063787.0034   20063789.0544   20063787.3824
        54.000          49.000
 126162709.75347  98308605.80047  24007963.5344   24007965.1144   24007963.9494
        45.000          39.000
 128259649.72847  99942565.01147  24407015.2394   24407018.7344   24407015.2594
        43.000          38.000
 120570430.41847  93950969.16447  22943802.8834   22943806.1474   22943802.3604
        48.000          43.000
 09  1 12  0 39  0.0000000  0 12G24G14G 9G 5G30G18G31G 6G21G22G12G29
 115055454.45647  89653580.64947  21894341.5654   21894345.9804   21894341.7944
        51.000          45.000
 115854066.74147  90275887.17047  22046302.6024   22046305.2944   22046302.9754
        50.000          44.000
 119795927.23047  93347463.50847  22796415.9774   22796419.7294   22796416.2054
        47.000          41.000
 124003478.05047  96626064.68347  23597093.7994   23597098.3384   23597094.0284
        45.000          39.000
 121729381.44647  94854048.17547  23164341.9394   23164345.9894   23164341.4664
        47.000          41.000
 122678834.44847  95593903.00947  23345001.0794   23345002.6894   23345001.6224
        48.000          40.000
 119766643.05647  93324629.44447  22790858.6394   22790860.4294   22790857.9184
        49.000          43.000
 137932172.39247  89687400.84147  24344686.7794   24344691.5164   24344686.2464
        41.000          37.000
 105409164.07147  82137009.59747  20058697.7304   20058699.7754   20058698.1354
        54.000          49.000
 126132864.00347  98285349.39747  24002284.7454   24002285.4644   24002284.9904
        45.000          40.000
 128261865.82847  99944291.90947  24407437.2384   24407440.6614   24407436.9994
        44.000          38.000
 120645636.19147  94009571.06647  22958113.9854   22958117.7774   22958113.4834
        47.000          42.000
 09  1 12  0 39 30.0000000  0 12G24G14G 9G 5G30G18G31G 6G21G22G12G29
 115107161.77947  89693872.07147  21904181.1934   21904185.5244   21904181.4674
        51.000          45.000
 115876230.36947  90293157.54447  22050520.2174   22050522.8044   22050520.3604
        50.000          44.000
 119878934.88747  93412144.82047  22812211.9614   22812215.4644   22812211.8464
        47.000          41.000
 123990876.90547  96616245.67747  23594695.7054   23594700.1564   23594696.0764
        46.000          39.000
 121703015.33147  94833503.18947  23159324.6384   23159328.8434   23159324.2594
        48.000          41.000
 122648933.43547  95570603.53947  23339310.7624   23339312.8534   23339311.2124
        48.000          40.000
 119668655.24547  93248275.37247  22772211.9654   22772213.8734   22772211.4274
        49.000          43.000
 137892362.69547  89656380.33647  24337109.4814   24337114.7254   24337109.7864
        42.000          37.000
 105382985.84447  82116610.99147  20053716.1304   20053718.3284   20053716.5064
        54.000          49.000
 126102791.46347  98261916.26947  23996562.1644   23996562.9334   23996562.2534
        45.000          39.000
 128264156.71147  99946077.06747  24407872.9054   24407876.5934   24407872.7124
        44.000          38.000
 120720796.00147  94068137.16047  22972416.3784   22972419.9164   22972416.2044
        48.000          42.000
 09  1 12  0 40  0.0000000  0 12G24G14G 9G 5G30G18G31G 6G21G22G12G29
 115159311.25647  89734508.02247  21914104.8814   21914109.1204   21914104.9404
        51.000          45.000
 115898701.40747  90310667.47047  22054795.9984   22054798.8294   22054796.2424
        50.000          44.000
 119962330.75047  93477128.62147  22828081.6994   22828085.3564   22828081.7824
        47.000          41.000
 123978356.68547  96606489.70247  23592313.1064   23592317.7794   23592313.5844
        46.000          39.000
 121676582.38647  94812906.09547  23154294.5194   23154299.0714   23154294.1654
        47.000          42.000
 122618873.21347  95547179.98447  23333590.4514   23333592.2664   23333591.1724
        47.000          40.000
 119570850.92347  93172064.27647  22753600.2564   22753602.0144   22753599.7004
        49.000          43.000
 137852853.50047  89625593.97247  24329592.9864   24329596.9534   24329592.8274
        42.000          37.000
 105357373.93047  82096653.65747  20048842.3414   20048844.4044   20048842.7004
        54.000          49.000
 126072491.23847  98238305.71447  23990795.5184   23990796.6384   23990795.6224
        45.000          39.000
 128266523.06347  99947921.04847  24408323.1654   24408326.6544   24408322.9434
        44.000          38.000
 120795906.11347  94126664.51647  22986709.1834   22986712.8654   22986709.2304
        47.000          42.000
 09  1 12  0 40 30.0000000  0 12G24G14G 9G 5G30G18G31G 6G21G22G12G29
 115211903.37347  89775488.88747  21924112.6474   21924117.2004   21924112.6124
        51.000          45.000
 115921479.22147  90328416.44047  22059130.4034   22059133.3274   22059130.6954
        50.000          44.000
 120046114.58047  93542414.74047  22844025.4434   22844028.8294   22844025.5564
        48.000          41.000
 123965921.30047  96596799.83247  23589947.0014   23589951.1374   23589947.5404
        46.000          39.000
 121650086.36447  94792259.87847  23149252.6924   23149256.6444   23149252.3404
        48.000          42.000
 122588657.21147  95523635.06347  23327840.7844   23327842.3064   23327841.2534
        47.000          40.000
 119473234.92247  93095999.93047  22735024.3554   22735026.4254   22735023.6734
        48.000          43.000
 137813646.40947  89595043.04547  24322131.0504   24322135.7314   24322130.9554
        42.000          37.000
 105332331.91247  82077140.40647  20044076.9904   20044079.2374   20044077.3434
        54.000          49.000
 126041965.39647  98214519.37447  23984987.3934   23984987.3804   23984987.3164
        44.000          39.000
 128268968.58047  99949826.70647  24408788.5424   24408792.5464   24408788.3604
        44.000          38.000
 120870966.29247  94185152.96047  23000992.7464   23000996.4024   23000992.6584
        47.000          42.000
 09  1 12  0 41  0.0000000  0 12G24G14G 9G 5G30G18G31G 6G21G22G12G29
 115264935.34847  89816812.50547  21934204.5244   21934208.8674   21934204.5324
        51.000          45.000
 115944559.78247  90346401.31847  22063522.6674   22063525.1864   22063523.0744
        50.000          44.000
 120130282.52947  93608000.17747  22860042.2724   22860045.4714   22860042.3604
        47.000          41.000
 123953571.39047  96587176.57647  23587596.8554   23587601.0944   23587597.5704
        45.000          39.000
 121623527.33347  94771564.56347  23144198.6844   23144202.4344   23144198.7164
        48.000          41.000
 122558285.18347  95499968.56447  23322060.5454   23322062.7714   23322061.0664
        47.000          40.000
 119375808.45247  93020083.27147  22716484.3184   22716486.8544   22716483.9254
        49.000          43.000
 137774739.38347  89564725.90447  24314727.6334   24314731.7644   24314727.0874
        42.000          36.000
 105307859.82147  82058071.25347  20039420.1804   20039422.3464   20039420.5014
        54.000          49.000
 126011212.26647  98190555.92247  23979134.7764   23979135.4764   23979134.9064
        45.000          39.000
 128271493.64747  99951794.33747  24409269.3654   24409273.1064   24409269.2934
        43.000          38.000
 120945972.78247  94243599.57947  23015266.2754   23015270.0504   23015265.9724
        47.000          42.000
 09  1 12  0 41 30.0000000  0 12G24G14G 9G 5G30G18G31G 6G21G22G12G29
 115318406.83347  89858478.59947  21944379.6344   21944384.4874   21944379.6224
        51.000          45.000
 115967941.56547  90364620.91347  22067972.1394   22067974.8654   22067972.3144
        51.000          44.000
 120214832.65547  93673883.39347  22876131.3954   22876135.0254   22876131.6794
        46.000          41.000
 123941309.68147  96577622.03847  23585263.0464   23585267.9694   23585263.5534
        45.000          39.000
 121596907.89847  94750822.17347  23139133.1764   23139136.6124   23139132.7424
        48.000          42.000
 122527758.61647  95476181.62347  23316252.0524   23316253.5284   23316252.4364
        47.000          40.000
 119278575.07847  92944317.07747  22697981.5564   22697983.9514   22697981.3404
        49.000          43.000
 137736132.50847  89534642.66247  24307379.6354   24307385.5284   24307379.9174
        41.000          37.000
 105283960.01247  82039448.03347  20034872.1804   20034874.1554   20034872.5654
        54.000          49.000
 125980232.75347  98166416.06847  23973239.5674   23973240.6854   23973239.4764
        44.000          39.000
 128274100.84547  99953825.97447  24409765.0674   24409769.4614   24409764.9134
        43.000          38.000
 121020924.33147  94302003.38247  23029529.0454   23029532.6934   23029528.6644
        47.000          42.000
 09  1 12  0 42  0.0000000  0 12G24G14G 9G 5G30G18G31G 6G21G22G12G29
 115372316.47147  89900486.10947  21954638.3934   21954643.0674   21954638.4924
        51.000          45.000
 115991621.92147  90383073.16147  22072478.2704   22072480.9794   22072478.3834
        50.000          44.000
 120299762.29547  93740062.34847  22892292.8944   22892296.2954   22892292.9694
        47.000          41.000
 123929138.27347  96568137.89547  23582947.0214   23582951.7754   23582947.6064
        45.000          39.000
 121570229.85747  94730034.11547  23134056.9254   23134060.4064   23134056.5464
        48.000          42.000
 122497079.11347  95452275.50747  23310413.7164   23310416.0884   23310414.0714
        47.000          40.000
 119181537.65947  92868703.57347  22679515.8774   22679518.3004   22679515.6184
        49.000          43.000
 137697825.42147  89504793.02647  24300090.6564   24300095.4814   24300090.9914
        42.000          37.000
 105260634.04247  82021271.95947  20030433.3274   20030435.4454   20030433.6584
        54.000          50.000
 125949027.22147  98142100.07947  23967301.2064   23967302.2214   23967300.7414
        45.000          39.000
 128276792.10247  99955923.12647  24410277.0224   24410280.4984   24410276.8344
        43.000          38.000
 121095818.32247  94360362.33447  23043780.8964   23043784.5524   23043780.4224
        47.000          42.000
 09  1 12  0 42 30.0000000  0 12G24G14G 9G 5G30G18G31G 6G21G22G12G29
 115426662.67647  89942833.80647  21964980.0034   21964984.9074   21964980.1864
        51.000          45.000
 116015598.22947  90401756.02347  22077041.0434   22077043.5474   22077041.1464
        51.000          45.000
 120385068.92947  93806535.06647  22908525.9814   22908529.2834   22908526.0354
        46.000          40.000
 123917058.70347  96558725.24947  23580648.1584   23580653.3654   23580648.5784
        46.000          39.000
 121543494.72347  94709201.56447  23128969.0024   23128972.5674   23128968.7924
        48.000          41.000
 122466247.23447  95428250.67647  23304546.6404   23304548.3184   23304547.0064
        47.000          40.000
 119084698.59747  92793244.62947  22661088.0084   22661090.4204   22661087.2454
        49.000          43.000
 137659817.19747  89475176.27247  24292858.2304   24292863.7484   24292858.3604
        42.000          37.000
 105237882.87547  82003543.78847  20026103.9334   20026106.0264   20026104.3124
        54.000          50.000
 125917594.94947  98117607.43047  23961320.3884   23961320.4934   23961320.0994
        45.000          39.000
 128279568.69447  99958086.76647  24410805.3804   24410809.3524   24410805.4434
        43.000          38.000
 121170652.73347  94418674.86247  23058021.4214   23058025.0074   23058021.3024
        48.000          42.000
 09  1 12  0 43  0.0000000  0 12G24G14G 9G 5G30G18G31G 6G21G22G12G29
 115481444.95447  89985521.28947  21975404.6194   21975409.2314   21975404.8954
        51.000          44.000
 116039868.54147  90420667.97047  22081659.5954   22081662.0694   22081660.0144
        51.000          44.000
 120470750.47047  93873299.92047  22924830.3664   22924834.0254   22924830.8344
        46.000          40.000
 123905074.01547  96549386.57047  23578367.8694   23578372.1974   23578368.3874
        46.000          39.000
 121516705.31547  94688326.73447  23123871.4684   23123874.6054   23123871.1234
        48.000          41.000
 122435265.28647  95404108.88847  23298651.0294   23298652.7804   23298651.6824
        47.000          40.000
 118988061.76147  92717943.27647  22642698.4144   22642700.9424   22642698.1714
        49.000          43.000
 137622107.99047  89445792.49747  24285682.4914   24285687.4274   24285682.5634
        43.000          37.000
 105215708.79647  81986265.28847  20021884.5854   20021886.4304   20021885.0294
        54.000          50.000
 125885937.09747  98092938.98347  23955295.9744   23955296.0814   23955295.7914
        45.000          38.000
 128282433.30947  99960318.98347  24411350.8624   24411354.7874   24411350.5244
        43.000          38.000
 121245425.80947  94476939.59147  23072250.4514   23072253.8864   23072250.3064
        47.000          42.000
 09  1 12  0 43 30.0000000  0 12G24G14G 9G 5G30G18G31G 6G21G22G12G29
 115536662.58947  90028548.01647  21985912.1314   21985916.8614   21985912.1804
        51.000          44.000
 116064431.35647  90439807.85547  22086333.4774   22086336.0934   22086333.7704
        50.000          44.000
 120556805.36447  93940355.70047  22941206.2324   22941209.7904   22941206.8244
        46.000          40.000
 123893186.94147  96540123.94947  23576105.9524   23576110.5204   23576106.1044
        46.000          39.000
 121489864.16947  94667411.58247  23118763.3794   23118766.5804   23118762.9994
        48.000          41.000
 122404135.26147  95379851.72847  23292726.8604   23292728.9324   23292727.3504
        47.000          40.000
 118891630.85547  92642802.38447  22624348.0614   22624350.5514   22624347.6734
        49.000          43.000
 137584698.21447  89416642.06647  24278563.2254   24278567.7004   24278563.6214
        42.000          37.000
 105194114.00447  81969438.18847  20017775.0554   20017777.2094   20017775.4444
        54.000          50.000
 125854054.74747  98068095.60547  23949228.7294   23949229.3404   23949228.9214
        46.000          39.000
 128285388.89447  99962622.12347  24411912.8844   24411917.2234   24411912.5214
        44.000          38.000
 121320136.38647  94535155.61947  23086467.2664   23086470.9094   23086467.1264
        47.000          42.000
 09  1 12  0 44  0.0000000  0 12G24G14G 9G 5G30G18G31G 6G21G22G12G29
 115592312.68347  90071911.72047  21996502.2344   21996506.8844   21996502.3784
        51.000          44.000
 116089282.12247  90459172.11747  22091062.3094   22091065.2444   22091062.5814
        51.000          44.000
 120643229.25347  94007699.00347  22957652.2974   22957655.9594   22957652.3454
        46.000          40.000
 123881397.74747  96530937.59847  23573862.0334   23573867.0984   23573862.8634
        46.000          39.000
 121462971.25247  94646456.08547  23113645.8874   23113649.6404   23113645.8074
        48.000          41.000
 122372856.46347  95355478.64747  23286775.1294   23286776.7154   23286775.5394
        46.000          40.000
 118795406.84147  92567822.70147  22606037.2074   22606039.9334   22606036.7444
        49.000          44.000
 137547585.37847  89387723.00347  24271500.6724   24271506.1804   24271500.8144
        41.000          37.000
 105173098.01647  81953062.09647  20013775.8134   20013777.8554   20013776.1534
        54.000          50.000
 125821946.06347  98043075.87747  23943118.5674   23943119.8694   23943119.0934
        45.000          39.000
 128288434.92347  99964995.73647  24412492.2264   24412496.3014   24412492.2114
        44.000          38.000
 121394780.57047  94593319.91147  23100671.5104   23100675.1384   23100671.0814
        47.000          42.000
 09  1 12  0 44 30.0000000  0 12G24G14G 9G 5G30G18G31G 6G21G22G12G29
 115648394.94747  90115612.19447  22007174.3174   22007178.8284   22007174.2874
        51.000          44.000
 116114420.05447  90478760.14247  22095845.9794   22095848.7624   22095846.1394
        50.000          44.000
 120730020.86947  94075328.84047  22974168.4134   22974171.7074   22974168.7044
        47.000          40.000
 123869709.86247  96521830.20647  23571638.4874   23571642.6994   23571638.8474
        46.000          39.000
 121436029.59347  94625462.61247  23108518.8234   23108522.7004   23108518.6934
        48.000          41.000
 122341431.76747  95330991.88547  23280794.6544   23280797.0344   23280795.1494
        46.000          40.000
 118699393.68647  92493007.32347  22587766.3364   22587768.8464   22587765.7724
        49.000          44.000
 137510770.07347  89359035.79347  24264494.7764   24264499.6264   24264494.9124
        42.000          37.000
 105152663.57747  81937139.17147  20009887.1224   20009889.3594   20009887.4784
        54.000          50.000
 125789612.70447  98017881.06747  23936965.6844   23936966.7394   23936965.6954
        45.000          39.000
 128291574.96447  99967442.54747  24413090.0544   24413093.9074   24413090.0984
        44.000          38.000
 121469357.30147  94651431.64947  23114863.1394   23114866.6214   23114862.7684
        47.000          42.000
 09  1 12  0 45  0.0000000  0 12G24G14G 9G 5G30G18G31G 6G21G22G12G29
 115704908.51147  90159648.73947  22017928.7764   22017933.0384   22017928.6834
        51.000          44.000
 116139842.60347  90498569.94547  22100683.8604   22100686.2104   22100684.2624
        51.000          45.000
 120817177.95947  94143243.46247  22990753.8044   22990757.1314   22990753.8194
        46.000          40.000
 123858125.56447  96512803.52247  23569433.7414   23569438.5484   23569434.1244
        46.000          39.000
 121409041.38047  94604432.87347  23103383.4034   23103386.9944   23103383.1904
        47.000          42.000
 122309862.48147  95306392.45047  23274787.1304   23274789.6434   23274787.5904
        47.000          41.000
 118603594.75447  92418358.87147  22569536.4524   22569538.9684   22569536.4314
        49.000          44.000
 137474252.12147  89330580.28147  24257546.1544   24257551.1794   24257545.8044
        42.000          37.000
 105132812.33847  81921670.67647  20006109.6034   20006111.7314   20006109.9704
        54.000          50.000
 125757054.66647  97992511.18847  23930770.1504   23930770.6324   23930770.0474
        45.000          39.000
 128294810.82547  99969964.06447  24413705.4314   24413709.0014   24413705.4514
        44.000          38.000
 121543864.83347  94709489.46047  23129041.4134   23129044.8054   23129041.1684
        47.000          42.000
 09  1 12  0 45 30.0000000  0 12G24G14G 9G 5G30G18G31G 6G21G22G12G29
 115761851.26747  90204019.72447  22028764.3964   22028768.9964   22028764.6654
        51.000          44.000
 116165546.92147  90518599.31047  22105575.1344   22105577.6484   22105575.2674
        51.000          44.000
 120904697.41547  94211440.45047  23007408.0894   23007411.2614   23007408.3714
        46.000          40.000
 123846646.42547  96503858.77447  23567249.1804   23567254.1934   23567249.6694
        45.000          39.000
 121382007.95047  94583367.89247  23098238.6574   23098242.5134   23098237.9954
        48.000          41.000
 122278149.64047  95281681.15447  23268752.5264   23268754.9284   23268753.0594
        47.000          41.000
 118508012.23747  92343879.04847  22551347.4974   22551350.2794   22551347.1954
        49.000          44.000
 137438030.25947  89302355.47847  24250653.1794   24250657.6214   24250653.3494
        42.000          37.000
 105113545.18147  81906657.31447  20002443.3374   20002445.2614   20002443.7274
        54.000          50.000
 125724272.11047  97966966.35247  23924532.5134   23924532.5584   23924532.4164
        46.000          40.000
 128298143.96447  99972561.38547  24414339.6514   24414343.7874   24414339.3004
        43.000          38.000
 121618300.55747  94767491.32547  23143206.1614   23143209.5294   23143205.9624
        47.000          42.000
 09  1 12  0 46  0.0000000  0 12G24G14G 9G 5G30G18G31G 6G21G22G12G29
 115819221.95847  90248724.16547  22039681.6324   22039686.3304   22039681.8404
        51.000          44.000
 116191530.26647  90538846.10447  22110519.7274   22110522.1194   22110519.8934
        51.000          45.000
 120992576.77547  94279917.90747  23024130.9864   23024134.3724   23024131.2124
        47.000          40.000
 123835274.51247  96494997.57447  23565084.9924   23565090.0574   23565085.3754
        45.000          39.000
 121354931.44047  94562269.33047  23093086.3464   23093089.8334   23093086.0134
        48.000          41.000
 122246294.60547  95256859.07047  23262691.2414   23262693.0834   23262691.3854
        47.000          41.000
 118412649.22747  92269570.28847  22533200.2184   22533203.2544   22533200.0384
        49.000          44.000
 137402103.99547  89274361.01847  24243816.0794   24243820.7684   24243816.2284
        41.000          36.000
 105094863.26547  81892099.98447  19998888.3764   19998890.1754   19998888.7224
        54.000          50.000
 125691265.00347  97941246.56047  23918251.1374   23918251.8944   23918251.4414
        46.000          39.000
 128301576.20747  99975235.94447  24414992.6974   24414997.0264   24414992.6724
        43.000          38.000
 121692662.30847  94825435.55447  23157356.9114   23157359.6064   23157356.9654
        47.000          42.000
 09  1 12  0 46 30.0000000  0 12G24G14G 9G 5G30G18G31G 6G21G22G12G29
 115877019.26047  90293761.01747  22050679.8634   22050684.8754   22050680.1144
        51.000          44.000
 116217790.54647  90559308.68547  22115516.6184   22115519.1994   22115516.8604
        50.000          44.000
 121080813.63547  94348673.91447  23040922.1614   23040925.1644   23040921.9454
        47.000          40.000
 123824012.15847  96486221.78947  23562941.6484   23562946.3724   23562942.3264
        45.000          39.000
 121327813.94847  94541138.84947  23087926.1204   23087929.3724   23087925.8484
        48.000          41.000
 122214298.56147  95231927.09747  23256602.2304   23256604.6404   23256602.6334
        48.000          41.000
 118317508.75047  92195434.91247  22515095.7944   22515098.7274   22515095.1704
        49.000          44.000
 137366472.95747  89246596.60247  24237036.3884   24237041.4474   24237036.7084
        42.000          37.000
 105076768.10547  81877999.86347  19995445.0394   19995446.8014   19995445.4564
        54.000          50.000
 125658034.04747  97915352.33347  23911927.3964   23911927.8394   23911927.7004
        46.000          39.000
 128305109.67447  99977989.35447  24415665.1524   24415669.4274   24415664.9764
        44.000          39.000
 121766948.42847  94883320.84547  23171493.0464   23171495.5734   23171493.1434
        47.000          41.000
 09  1 12  0 47  0.0000000  0 12G24G14G 9G 5G30G18G31G 6G21G22G12G29
 115935242.04147  90339129.41347  22061759.6454   22061764.0734   22061759.6924
        51.000          44.000
 116244325.51247  90579985.31647  22120566.1074   22120568.6964   22120566.2374
        50.000          44.000
 121169405.53147  94417706.58447  23057780.2524   23057783.8884   23057780.6584
        46.000          40.000
 123812861.71847  96477533.20247  23560820.1334   23560824.3814   23560820.3474
        45.000          39.000
 121300657.49447  94519978.01747  23082757.7134   23082761.8074   23082757.4184
        48.000          41.000
 122182163.61047  95206886.87547  23250487.3954   23250489.2764   23250487.8294
        47.000          41.000
 118222594.00147  92121475.44247  22497034.3644   22497037.0024   22497033.9284
        49.000          44.000
 137331136.63147  89219061.85347  24230311.8264   24230315.8644   24230312.4554
        42.000          37.000
 105059261.40647  81864358.28647  19992113.5434   19992115.4874   19992113.9744
        54.000          50.000
 125624579.66547  97889284.00147  23905561.4024   23905561.9214   23905561.4654
        46.000          39.000
 128308746.46147  99980823.27947  24416356.8564   24416361.3174   24416357.1904
        44.000          38.000
 121841156.96847  94941145.66847  23185614.1584   23185617.3454   23185613.8364
        47.000          42.000
 09  1 12  0 47 30.0000000  0 12G24G14G 9G 5G30G18G31G 6G21G22G12G29
 115993889.49947  90384828.73147  22072919.9874   22072924.2254   22072920.0614
        51.000          44.000
 116271133.20747  90600874.45347  22125667.4424   22125670.0514   22125667.5474
        50.000          44.000
 121258350.56047  94487014.43947  23074705.8234   23074708.7934   23074706.0154
        45.000          39.000
 123801825.83747  96468933.86147  23558719.9874   23558725.1204   23558720.7064
        45.000          39.000
 121273464.53547  94498788.73147  23077583.4644   23077587.6404   23077583.1464
        48.000          42.000
 122149891.81347  95181740.02947  23244346.1714   23244348.2064   23244346.6014
        47.000          41.000
 118127908.28247  92047694.41547  22479016.0834   22479018.9744   22479015.4254
        50.000          44.000
 137296095.07547  89191756.77947  24223643.3934   24223649.1524   24223643.6954
        42.000          37.000
 105042344.63847  81851176.39347  19988894.2464   19988896.3484   19988894.6114
        54.000          49.000
 125590902.54847  97863042.12647  23899152.8824   23899153.3654   23899153.3494
        46.000          40.000
 128312488.99947  99983739.61647  24417069.5724   24417073.3334   24417069.2984
        44.000          39.000
 121915286.57647  94998908.99547  23199720.4774   23199724.2034   23199719.9274
        47.000          42.000
 09  1 12  0 48  0.0000000  0 12G24G14G 9G 5G30G18G31G 6G21G22G12G29
 116052958.81247  90430856.76047  22084160.3754   22084164.6344   22084160.4694
        51.000          44.000
 116298209.44447  90621972.85347  22130819.8684   22130822.5244   22130820.1394
        50.000          44.000
 121347644.36447  94556594.04147  23091698.2164   23091701.1834   23091698.2974
        45.000          39.000
 123790905.11047  96460424.26347  23556641.7904   23556646.3844   23556642.0314
        45.000          39.000
 121246235.76647  94477571.54147  23072402.1124   23072405.8764   23072401.9764
        48.000          41.000
 122117482.54547  95156486.06947  23238178.4754   23238180.7974   23238178.9524
        47.000          40.000
 118033453.07147  91974093.01247  22461041.9364   22461044.4724   22461041.7014
        50.000          44.000
 137261346.21247  89164679.76847  24217031.8654   24217036.1704   24217031.9504
        43.000          37.000
 105026017.88347  81838454.25547  19985787.3664   19985789.3164   19985787.7294
        54.000          49.000
 125557001.96447  97836626.10747  23892701.5404   23892702.0784   23892701.1194
        46.000          39.000
 128316337.57547  99986738.54947  24417802.2724   24417805.6804   24417801.4804
        44.000          39.000
 121989333.78947  95056608.11247  23213810.9984   23213814.7054   23213810.7564
        47.000          42.000
 09  1 12  0 48 30.0000000  0 12G24G14G 9G 5G30G18G31G 6G21G22G12G29
 116112450.18447  90477213.67947  22095480.9734   22095485.4774   22095481.1894
        51.000          44.000
 116325553.78147  90643280.16147  22136023.1734   22136026.1994   22136023.3524
        50.000          45.000
 121437286.16247  94626444.80947  23108756.3894   23108759.8644   23108756.4924
        45.000          40.000
 123780103.53847  96452007.50347  23554585.8784   23554591.1344   23554586.6414
        45.000          39.000
 121218974.74547  94456329.22347  23067214.3694   23067218.2894   23067214.0274
        48.000          42.000
 122084939.30647  95131127.70247  23231985.9394   23231988.0244   23231986.3384
        47.000          41.000
 117939233.38047  91900675.11947  22443112.2764   22443114.8954   22443112.1554
        50.000          44.000
 137226891.18647  89137831.73647  24210474.7244   24210478.6554   24210475.0634
        43.000          37.000
 105010284.27847  81826194.31047  19982793.4574   19982795.3714   19982793.8704
        54.000          50.000
 125522879.69547  97810037.34647  23886208.1964   23886208.8374   23886208.0614
        45.000          39.000
 128320295.82347  99989822.96147  24418555.2964   24418558.9454   24418555.4414
        43.000          38.000
 122063298.33747  95114242.82347  23227886.3764   23227889.6794   23227885.9724
        47.000          42.000
 09  1 12  0 49  0.0000000  0 12G24G14G 9G 5G30G18G31G 6G21G22G12G29
 116172361.67647  90523897.95347  22106881.7234   22106886.5424   22106882.0104
        51.000          44.000
 116353162.98547  90664793.85247  22141277.2074   22141279.7674   22141277.4324
        50.000          44.000
 121527273.08547  94696564.50047  23125880.0134   23125883.8184   23125880.0974
        46.000          40.000
 123769422.61047  96443684.75247  23552553.8594   23552558.2034   23552554.2484
        45.000          39.000
 121191683.00747  94435062.97347  23062021.1674   23062024.7594   23062021.1334
        48.000          42.000
 122052263.17247  95105665.77147  23225767.9784   23225769.7364   23225768.4224
        48.000          41.000
 117845251.11347  91827442.23447  22425228.0164   22425230.5704   22425227.6064
        50.000          44.000
 137192728.52847  89111211.52347  24203974.2164   24203978.7004   24203973.9384
        42.000          37.000
 104995143.98847  81814396.68647  19979912.4284   19979914.2794   19979912.8384
        54.000          50.000
 125488535.15647  97783275.39747  23879673.0634   23879673.2904   23879672.7114
        46.000          39.000
 128324365.24947  99992993.98447  24419329.4644   24419333.1794   24419328.8794
        44.000          38.000
 122137177.61047  95171811.08347  23241944.9444   23241948.3854   23241944.8374
        46.000          42.000
 09  1 12  0 49 30.0000000  0 12G24G14G 9G 5G30G18G31G 6G21G22G12G29
 116232690.56847  90570907.48547  22118362.0734   22118366.6324   22118361.9564
        51.000          44.000
 116381033.50747  90686511.17347  22146580.2544   22146583.3704   22146580.5744
        50.000          44.000
 121617601.43247  94766950.24347  23143069.2314   23143072.8584   23143069.4144
        46.000          40.000
 123758863.38947  96435456.82747  23550544.5314   23550549.0224   23550545.0464
        45.000          39.000
 121164361.38147  94413773.41347  23056822.0744   23056825.9424   23056821.7174
        48.000          42.000
 122019454.27347  95080100.40447  23219524.3694   23219526.5714   23219524.5824
        48.000          41.000
 117751508.50547  91754396.09247  22407389.7624   22407391.9964   22407389.1564
        50.000          44.000
 137158856.69547  89084817.92847  24197528.1584   24197532.7464   24197528.0654
        42.000          37.000
 104980597.59847  81803061.84447  19977144.4134   19977146.2344   19977144.8494
        54.000          50.000
 125453968.51547  97756340.38747  23873094.8944   23873095.1664   23873095.0574
        46.000          39.000
 128328546.71147  99996252.31747  24420125.5894   24420128.1974   24420125.5054
        43.000          39.000
 122210968.70447  95229310.62147  23255987.0114   23255990.6464   23255986.6974
        47.000          42.000
 09  1 12  0 50  0.0000000  0 12G24G14G 9G 5G30G18G31G 6G21G22G12G29
 116293437.30347  90618242.60747  22129921.7394   22129926.5184   22129921.8234
        51.000          44.000
 116409164.56847  90708431.50947  22151933.5844   22151936.5204   22151933.7074
        50.000          44.000
 121708270.69447  94837601.62747  23160323.2564   23160326.6144   23160323.1974
        45.000          40.000
 123748429.69447  96427326.71347  23548559.1134   23548563.4694   23548559.5744
        45.000          39.000
 121137013.81747  94392463.65547  23051617.6964   23051621.5554   23051617.4354
        48.000          42.000
 121986516.10447  95054434.30547  23213256.7504   23213258.8494   23213257.1974
        47.000          41.000
 117658009.90647  91681540.09547  22389597.6254   22389599.7554   22389597.4084
        50.000          44.000
 137125276.87547  89058651.85947  24191137.8394   24191142.6344   24191137.3674
        42.000          36.000
 104966647.62447  81792191.73947  19974489.6324   19974491.5564   19974490.0464
        54.000          50.000
 125419181.18947  97729233.39447  23866475.0554   23866475.1944   23866474.8554
        46.000          39.000
 128332843.86647  99999600.80047  24420942.6774   24420946.8144   24420942.4604
        43.000          39.000
 122284671.36847  95286741.25947  23270012.1604   23270015.9604   23270012.0204
        46.000          42.000
 09  1 12  0 50 30.0000000  0 12G24G14G 9G 5G30G18G31G 6G21G22G12G29
 116354599.60447  90665901.54047  22141560.8994   22141565.4624   22141560.9364
        51.000          44.000
 116437553.14047  90730552.49947  22157335.6444   22157338.5924   22157335.7924
        50.000          44.000
 121799277.35247  94908515.91347  23177641.0924   23177644.4564   23177640.9544
        46.000          40.000
 123738123.05347  96419295.59947  23546597.2734   23546602.1304   23546597.7804
        45.000          39.000
 121109641.45247  94371134.58047  23046409.1374   23046412.5064   23046408.8624
        49.000          42.000
 121953449.34647  95028668.00847  23206964.1264   23206966.4264   23206964.5594
        48.000          41.000
 117564757.54547  91608875.97747  22371851.8974   22371854.3624   22371851.2014
        50.000          44.000
 137091987.56247  89032712.13847  24184803.3804   24184807.4954   24184803.5424
        42.000          37.000
 104953294.50947  81781786.71647  19971948.5444   19971950.6194   19971948.9674
        54.000          50.000
 125384173.22347  97701954.47647  23859813.1304   23859813.8634   23859812.8674
        45.000          39.000
 128337257.58947 100003040.10147  24421782.5014   24421786.3454   24421782.1924
        44.000          39.000
 122358282.91947  95344100.89347  23284019.6674   23284023.7034   23284019.4234
        46.000          41.000
 09  1 12  0 51  0.0000000  0 12G24G14G 9G 5G30G18G31G 6G21G22G12G29
 116416175.12547  90713882.46847  22153278.2484   22153282.7824   22153278.3764
        51.000          44.000
 116466195.43247  90752871.19847  22162786.2194   22162789.0754   22162786.4694
        50.000          44.000
 121890617.58647  94979690.14247  23195022.5544   23195025.5804   23195022.8194
        46.000          40.000
 123727944.53747  96411364.32147  23544660.8274   23544665.3984   23544661.5634
        46.000          39.000
 121082245.53147  94349787.13647  23041195.6664   23041199.4854   23041195.4524
        48.000          42.000
 121920254.69047  95002802.04847  23200647.5844   23200649.7894   23200647.9664
        48.000          41.000
 117471753.45047  91536405.30547  22354153.4434   22354155.9254   22354152.9684
        49.000          44.000
 137058986.99047  89006997.45647  24178523.2644   24178528.3034   24178522.9924
        42.000          37.000
 104940538.45947  81771846.94147  19969521.0724   19969523.0374   19969521.3784
        54.000          50.000
 125348943.84147  97674503.03347  23853109.3194   23853109.7604   23853109.1324
        46.000          39.000
 128341788.72047 100006570.89747  24422644.8764   24422648.4614   24422644.4184
        43.000          39.000
 122431800.61347  95401387.40047  23298009.8024   23298013.7424   23298009.7534
        46.000          41.000
 09  1 12  0 51 30.0000000  0 12G24G14G 9G 5G30G18G31G 6G21G22G12G29
 116478163.71947  90762185.27447  22165074.1664   22165078.7274   22165074.4544
        51.000          44.000
 116495090.52747  90775386.88947  22168284.7264   22168287.4874   22168284.8834
        50.000          44.000
 121982290.14347  95051123.33247  23212467.1944   23212469.8964   23212467.1994
        45.000          40.000
 123717897.86547  96403535.78947  23542748.6924   23542753.4324   23542749.2714
        45.000          39.000
 121054829.62847  94328424.14247  23035978.8494   23035982.5074   23035978.2804
        48.000          42.000
 121886934.91847  94976838.59147  23194307.2344   23194308.8384   23194307.6774
        48.000          41.000
 117379002.32447  91464131.75747  22336503.7074   22336506.0244   22336503.4004
        50.000          44.000
 137026275.91447  88981508.32547  24172299.0694   24172303.1974   24172299.0104
        43.000          37.000
 104928381.94047  81762374.33347  19967207.9064   19967209.8714   19967208.2774
        54.000          49.000
 125313494.86947  97646880.48947  23846363.3424   23846364.0894   23846363.4974
        46.000          39.000
 128346440.89647 100010196.02147  24423529.7734   24423533.7834   24423529.8874
        43.000          38.000
 122505223.81647  95458600.27647  23311981.9484   23311985.7164   23311981.7884
        46.000          41.000
 09  1 12  0 52  0.0000000  0 12G24G14G 9G 5G30G18G31G 6G21G22G12G29
 116540563.10847  90810808.17847  22176948.4634   22176952.9554   22176948.6794
        51.000          44.000
 116524235.21847  90798097.06847  22173830.7204   22173833.3624   22173830.8724
        50.000          44.000
 122074292.01647  95122813.11947  23229974.4664   23229977.4824   23229974.5754
        45.000          39.000
 123707984.32647  96395811.01647  23540862.1044   23540866.6604   23540862.5484
        45.000          39.000
 121027394.72347  94307046.34247  23030758.0434   23030761.5364   23030757.6984
        48.000          42.000
 121853490.93947  94950778.35947  23187942.9454   23187944.6494   23187943.4864
        47.000          40.000
 117286506.31147  91392056.99147  22318902.5914   22318904.3904   22318901.9834
        50.000          45.000
 136993853.11047  88956243.85047  24166128.4774   24166133.2234   24166129.2784
        43.000          37.000
 104916825.48247  81753369.30347  19965008.8984   19965010.8194   19965009.2444
        54.000          50.000
 125277826.31447  97619086.82047  23839575.9634   23839576.8764   23839575.5384
        46.000          39.000
 128351215.05247 100013916.18747  24424438.4164   24424441.9914   24424438.2504
        43.000          39.000
 122578550.13147  95515737.64647  23325935.4304   23325939.1284   23325935.4994
        46.000          41.000
 09  1 12  0 52 30.0000000  0 12G24G14G 9G 5G30G18G31G 6G21G22G12G29
 116603372.04347  90859750.20547  22188900.6024   22188905.0774   22188900.8354
        51.000          44.000
 116553627.05947  90820999.82347  22179423.7754   22179426.4514   22179424.0994
        49.000          44.000
 122166620.79547  95194757.64647  23247544.1654   23247546.9874   23247544.2154
        45.000          39.000
 123698206.38747  96388191.88847  23539001.4104   23539005.5664   23539001.5004
        45.000          39.000
 120999943.27747  94285655.64347  23025533.9334   23025537.4554   23025533.7074
        48.000          41.000
 121819924.64647  94924622.81447  23181555.5184   23181556.9554   23181555.6844
        47.000          40.000
 117194268.19347  91320183.17947  22301350.0594   22301352.2574   22301349.8024
        50.000          45.000
 136961718.00447  88931203.53247  24160013.9664   24160017.8744   24160014.7064
        43.000          37.000
 104905870.18947  81744832.71347  19962924.0584   19962926.0224   19962924.3864
        54.000          49.000
 125241938.84047  97591122.57847  23832747.1314   23832747.3814   23832747.1764
        47.000          39.000
 128356113.37847 100017733.11047  24425370.9214   24425374.1834   24425370.6014
        44.000          39.000
 122651778.00147  95572798.31147  23339870.3374   23339873.8244   23339870.5914
        46.000          41.000
 09  1 12  0 53  0.0000000  0 12G24G14G 9G 5G30G18G31G 6G21G22G12G29
 116666588.66947  90909009.90947  22200930.3664   22200934.9364   22200930.5454
        50.000          44.000
 116583263.37447  90844093.07547  22185063.1224   22185065.9204   22185063.3344
        50.000          44.000
 122259273.52047  95266954.59747  23265175.5784   23265178.3364   23265175.6824
        45.000          39.000
 123688565.83347  96380679.82547  23537167.3944   23537171.3164   23537168.0754
        46.000          39.000
 120972477.38847  94264253.68347  23020307.3284   23020310.5074   23020306.7624
        48.000          42.000
 121786237.10247  94898372.78947  23175144.5574   23175146.4724   23175144.9954
        47.000          40.000
 117102291.06747  91248512.74447  22283847.3544   22283849.4864   22283847.0674
        50.000          45.000
 136929869.49347  88906386.54647  24153952.9014   24153957.7994   24153952.9894
        43.000          38.000
 104895516.73547  81736765.08747  19960953.8624   19960955.7454   19960954.2544
        54.000          50.000
 125205832.66647  97562987.91647  23825876.1504   23825876.2944   23825876.6474
        46.000          39.000
 128361137.77547 100021648.28547  24426326.5614   24426330.3814   24426326.1554
        44.000          39.000
 122724905.22447  95629780.54247  23353786.1424   23353789.8174   23353786.0084
        46.000          41.000
 09  1 12  0 53 30.0000000  0 12G24G14G 9G 5G30G18G31G 6G21G22G12G29
 116730212.78447  90958587.14547  22213037.8054   22213042.1894   22213037.8034
        51.000          44.000
 116613143.30747  90867376.17447  22190749.3254   22190751.7194   22190749.5034
        50.000          44.000
 122352248.96747  95339403.01547  23282867.8094   23282870.5964   23282868.1214
        44.000          39.000
 123679066.40947  96373277.70647  23535359.5114   23535363.2584   23535359.6254
        46.000          39.000
 120945000.22447  94242842.91947  23015078.7644   23015081.9794   23015078.2744
        48.000          42.000
 121752431.54147  94872030.78747  23168712.0904   23168713.5304   23168712.6984
        48.000          41.000
 117010579.24047  91177049.03147  22266395.0934   22266397.4424   22266394.4224
        50.000          45.000
 136898308.37647  88881793.49747  24147947.7974   24147952.2504   24147947.4474
        43.000          37.000
 104885767.57147  81729168.33847  19959098.6024   19959100.5334   19959098.9764
        54.000          50.000
 125169509.58647  97534684.22047  23818963.8674   23818964.0304   23818964.2254
        46.000          39.000
 128366291.37047 100025664.14847  24427306.5884   24427310.9844   24427306.2584
        43.000          39.000
 122797931.33147  95686683.98647  23367682.4634   23367686.1904   23367682.5284
        46.000          41.000
 09  1 12  0 54  0.0000000  0 12G24G14G 9G 5G30G18G31G 6G21G22G12G29
 116794239.97647  91008478.46347  22225221.4574   22225226.2034   22225221.6394
        50.000          44.000
 116643261.44147  90890844.86647  22196480.8474   22196483.0924   22196480.9724
        50.000          44.000
 122445541.47347  95412098.49247  23300620.9554   23300623.3864   23300620.9634
        45.000          39.000
 123669707.46047  96365985.05947  23533578.0104   23533582.5664   23533578.6654
        45.000          39.000
 120917511.24247  94221422.95947  23009847.6434   23009851.1834   23009847.2674
        48.000          42.000
 121718506.85647  94845595.97747  23162256.2334   23162258.0244   23162257.2244
        48.000          41.000
 116919132.90347  91105792.19147  22248993.6414   22248995.7604   22248993.2504
        51.000          45.000
 136867031.18447  88857421.69847  24141994.9524   24141999.8594   24141994.8824
        43.000          37.000
 104876621.05547  81722041.18447  19957358.2124   19957359.9534   19957358.6574
        54.000          50.000
 125132967.42047  97506209.82147  23812010.5404   23812010.5244   23812010.7014
        47.000          39.000
 128371573.26447 100029779.94447  24428311.6304   24428315.6134   24428311.3024
        45.000          39.000
 122870851.91747  95743505.21247  23381558.6934   23381562.1464   23381558.7114
        46.000          41.000
 09  1 12  0 54 30.0000000  0 12G24G14G 9G 5G30G18G31G 6G21G22G12G29
 116858670.10347  91058683.75447  22237482.1864   22237486.7734   22237482.2834
        50.000          43.000
 116673616.52747  90914498.20447  22202257.1364   22202259.5724   22202257.4204
        50.000          44.000
 122539150.26547  95485040.44247  23318433.9014   23318436.8354   23318434.2934
        46.000          40.000
 123660492.53547  96358804.64247  23531824.3874   23531829.3894   23531824.5284
        45.000          39.000
 120890013.90747  94199996.50547  23004615.0624   23004618.9134   23004614.8524
        48.000          42.000
 121684466.19247  94819070.77547  23155778.6604   23155780.3084   23155779.2154
        48.000          41.000
 116827956.06147  91034745.35347  22231643.1134   22231645.4664   22231643.2604
        51.000          45.000
 136836038.53347  88833271.58047  24136097.5624   24136102.0214   24136097.9674
        43.000          38.000
 104868079.21247  81715385.20647  19955732.7144   19955734.6194   19955733.0454
        54.000          50.000
 125096208.26747  97477566.33447  23805015.2044   23805015.3924   23805015.0754
        45.000          39.000
 128376986.72147 100033998.27447  24429342.3724   24429345.8574   24429342.2064
        44.000          39.000
 122943666.41947  95800243.78347  23395414.8654   23395418.2394   23395414.8134
        47.000          41.000
 09  1 12  0 55  0.0000000  0 12G24G14G 9G 5G30G18G31G 6G21G22G12G29
 116923502.96947  91109202.87547  22249819.1934   22249823.8734   22249819.5994
        50.000          43.000
 116704207.51947  90938335.35747  22208078.1964   22208080.5074   22208078.4004
        50.000          44.000
 122633073.62147  95558227.49247  23336307.0834   23336310.4234   23336307.4694
        45.000          40.000
 123651425.21247  96351739.23547  23530098.9174   23530103.4594   23530099.4394
        45.000          39.000
 120862511.90247  94178566.39447  22999381.6054   22999385.4344   22999381.4134
        48.000          42.000
 121650312.58747  94792457.59147  23149279.2284   23149281.0774   23149279.4874
        47.000          41.000
 116737053.65347  90963912.35347  22214345.0514   22214347.2194   22214344.5834
        51.000          45.000
 136805331.08947  88809343.76047  24130253.9984   24130259.0264   24130253.4474
        42.000          37.000
 104860144.50847  81709202.32347  19954222.7834   19954224.7684   19954223.1454
        54.000          50.000
 125059233.93447  97448755.18547  23797978.2704   23797979.4744   23797978.5904
        45.000          39.000
 128382535.18447 100038321.80047  24430398.1444   24430401.8794   24430397.7324
        44.000          38.000
 123016374.49147  95856899.41047  23409251.2794   23409254.1094   23409251.0444
        47.000          41.000
 09  1 12  0 55 30.0000000  0 12G24G14G 9G 5G30G18G31G 6G21G22G12G29
 116988734.50447  91160032.64247  22262232.4524   22262236.8814   22262232.8034
        50.000          43.000
 116735029.43947  90962352.45147  22213943.4054   22213946.2404   22213943.6884
        50.000          44.000
 122727306.53747  95631655.77147  23354239.5404   23354242.2464   23354239.6494
        46.000          40.000
 123642504.93647  96344788.39747  23528401.3684   23528406.1814   23528401.7414
        45.000          40.000
 120835005.08347  94157132.54247  22994147.4234   22994150.8694   22994147.1964
        48.000          42.000
 121616045.02747  94765755.59247  23142758.2904   23142760.2204   23142758.6634
        48.000          41.000
 116646425.49147  90893293.04947  22197098.8784   22197101.3424   22197098.5784
        51.000          45.000
 136774905.39847  88785635.46847  24124464.3014   24124468.6844   24124464.9024
        42.000          37.000
 104852815.15447  81703491.14347  19952828.0184   19952829.9284   19952828.3604
        54.000          50.000
 125022042.24147  97419774.65647  23790901.6224   23790902.2724   23790901.4834
        45.000          39.000
 128388217.72447 100042749.82047  24431479.3404   24431483.1404   24431478.7034
        43.000          39.000
 123088971.64047  95913468.61447  23423066.2454   23423068.8574   23423066.1774
        47.000          41.000
 09  1 12  0 56  0.0000000  0 12G24G14G 9G 5G30G18G31G 6G21G22G12G29
 117054365.81947  91211173.93247  22274721.6844   22274726.3474   22274722.1334
        50.000          43.000
 116766082.59947  90986549.74347  22219852.5994   22219855.2734   22219852.9794
        50.000          44.000
 122821849.16447  95705325.36547  23372230.2634   23372233.2214   23372230.5414
        45.000          40.000
 123633736.94647  96337956.23147  23526733.1284   23526737.6504   23526733.7654
        46.000          40.000
 120807498.16847  94135698.61147  22988912.8534   22988916.6494   22988912.4784
        48.000          42.000
 121581668.01547  94738968.31147  23136216.7304   23136218.6384   23136217.0494
        48.000          41.000
 116556077.95147  90822892.41647  22179906.1754   22179908.5614   22179905.9374
        51.000          45.000
 136744763.77447  88762148.53147  24118728.1814   24118733.1544   24118728.3174
        42.000          37.000
 104846095.02647  81698254.68047  19951549.3484   19951551.1654   19951549.7364
        54.000          50.000
 124984636.75147  97390627.56447  23783783.7784   23783784.1084   23783783.8434
        46.000          39.000
 128394039.36647 100047286.23247  24432587.2384   24432590.6384   24432586.8074
        44.000          39.000
 123161459.36147  95969952.54247  23436859.8884   23436862.6744   23436859.8704
        46.000          41.000
 09  1 12  0 56 30.0000000  0 12G24G14G 9G 5G30G18G31G 6G21G22G12G29
 117120391.86247  91262622.80447  22287285.8734   22287290.5354   22287285.9564
        50.000          43.000
 116797360.90447  91010922.46647  22225804.6334   22225807.3154   22225804.9114
        50.000          44.000
 122916695.72447  95779231.78547  23390278.6684   23390282.3064   23390278.6564
        44.000          39.000
 123625119.79847  96331241.60447  23525093.3724   23525098.0364   23525094.1774
        46.000          40.000
 120779989.33147  94114263.19847  22983677.9514   22983681.6484   22983677.5414
        48.000          42.000
 121547179.61147  94712094.23447  23129653.4814   23129655.5384   23129654.1254
        48.000          41.000
 116466010.16447  90752709.76347  22162766.7954   22162769.0134   22162766.3424
        51.000          45.000
 136714901.60547  88738879.35347  24113045.6234   24113049.8104   24113045.9484
        43.000          37.000
 104839981.36347  81693490.79247  19950385.8754   19950387.7234   19950386.1904
        54.000          50.000
 124947014.65147  97361311.65147  23776624.1824   23776624.9364   23776624.3374
        46.000          39.000
 128399998.67647 100051929.88047  24433721.1744   24433724.8434   24433721.4164
        43.000          39.000
 123233832.11947  96026346.87847  23450631.7384   23450634.8644   23450631.4874
        46.000          41.000
 09  1 12  0 57  0.0000000  0 12G24G14G 9G 5G30G18G31G 6G21G22G12G29
 117186814.75747  91314380.89847  22299925.8564   22299930.5324   22299926.2574
        50.000          43.000
 116828865.55947  91035471.56847  22231799.8064   22231802.4074   22231799.9994
        50.000          44.000
 123011847.11547  95853375.74047  23408385.1664   23408388.4774   23408385.2704
        44.000          39.000
 123616659.51047  96324649.21847  23523483.4964   23523487.7114   23523483.8014
        46.000          40.000
 120752484.90247  94092831.21247  22978443.6264   22978447.9894   22978443.2864
        48.000          42.000
 121512585.63347  94685137.88247  23123070.6644   23123072.9144   23123071.1604
        48.000          41.000
 116376228.83747  90682750.32947  22145682.0484   22145683.9064   22145681.5014
        51.000          45.000
 136685322.10747  88715830.42947  24107417.4834   24107421.4944   24107417.1204
        42.000          37.000
 104834478.66647  81689202.98347  19949338.7844   19949340.5714   19949339.1934
        54.000          50.000
 124909179.97347  97331830.09247  23769424.4324   23769425.1074   23769424.4394
        46.000          39.000
 128406100.90247 100056684.89947  24434881.9924   24434885.9704   24434881.8824
        43.000          38.000
 123306092.24147  96082653.45647  23464382.4534   23464385.3564   23464382.0014
        46.000          41.000
 09  1 12  0 57 30.0000000  0 12G24G14G 9G 5G30G18G31G 6G21G22G12G29
 117253628.23447  91366443.35447  22312639.5704   22312644.5094   22312639.6054
        49.000          43.000
 116860589.59547  91060191.61247  22237836.6704   22237839.0044   22237836.8034
        50.000          44.000
 123107296.05647  95927751.55747  23426547.9504   23426551.5474   23426548.3034
        44.000          39.000
 123608353.70347  96318177.22547  23521903.2064   23521906.9864   23521903.9524
        46.000          40.000
 120724982.68747  94071400.94147  22973210.3064   22973214.2644   22973210.2284
        48.000          42.000
 121477883.17347  94658097.00747  23116466.6724   23116468.9184   23116467.0774
        48.000          41.000
 116286732.20447  90613012.74347  22128651.0454   22128653.3404   22128650.6254
        51.000          45.000
 136656019.87647  88692997.57247  24101841.3324   24101845.0764   24101841.0264
        44.000          37.000
 104829583.36447  81685388.46747  19948407.2114   19948409.1594   19948407.6224
        54.000          50.000
 124871129.35747  97302180.28347  23762183.6544   23762184.1834   23762183.8774
        46.000          39.000
 128412343.51747 100061549.33047  24436070.1424   24436074.4944   24436069.9274
        44.000          38.000
 123378233.23847  96138867.19647  23478110.2154   23478113.7294   23478109.4144
        46.000          41.000
 09  1 12  0 58  0.0000000  0 12G24G14G 9G 5G30G18G31G 6G21G22G12G29
 117320833.32847  91418810.95547  22325428.2874   22325433.2314   22325428.4704
        49.000          43.000
 116892533.05047  91085082.64047  22243915.6924   22243918.1274   22243915.9064
        50.000          44.000
 123203042.32747  96002359.04547  23444768.0344   23444771.7214   23444768.1334
        44.000          38.000
 123600207.16247  96311829.33047  23520352.3244   23520356.5224   23520352.8014
        45.000          40.000
 120697487.31547  94049976.01347  22967978.2884   22967981.9644   22967978.0364
        49.000          42.000
 121443076.47547  94630974.90247  23109843.4864   23109845.3394   23109843.5594
        48.000          41.000
 116197526.51347  90543501.85847  22111675.8404   22111677.7314   22111675.3674
        51.000          45.000
 136626996.79747  88670382.20947  24096318.2304   24096322.2854   24096318.5344
        42.000          37.000
 104825298.62647  81682049.71547  19947591.8394   19947593.7124   19947592.2784
        54.000          50.000
 124832866.06047  97272364.74247  23754902.8374   23754903.0424   23754903.0954
        46.000          39.000
 128418730.97147 100066526.60147  24437285.5034   24437289.2344   24437285.2294
        43.000          38.000
 123450256.38247  96194989.10447  23491815.6144   23491819.4484   23491815.0464
        45.000          41.000
 09  1 12  0 58 30.0000000  0 12G24G14G 9G 5G30G18G31G 6G21G22G12G29
 117388430.40447  91471484.00647  22338291.6934   22338296.4964   22338291.9274
        49.000          43.000
 116924695.74747  91110144.49347  22250035.8504   22250038.4894   22250035.9534
        50.000          44.000
 123299085.64647  96077198.01947  23463045.0884   23463048.0864   23463044.9864
        45.000          39.000
 123592224.13647  96305608.84047  23518833.3694   23518837.8284   23518834.0044
        45.000          40.000
 120670003.21947  94028559.86147  22962748.4014   22962752.0664   22962747.9874
        48.000          42.000
 121408169.37147  94603774.54847  23103200.9294   23103202.5744   23103201.6024
        48.000          41.000
 116108616.51247  90474221.38447  22094756.7824   22094758.6944   22094756.3714
        51.000          45.000
 136598254.00947  88647985.28647  24090847.7424   24090853.0174   24090847.4574
        42.000          37.000
 104821627.36147  81679188.99547  19946893.1814   19946895.0744   19946893.4844
        54.000          50.000
 124794392.08347  97242385.04347  23747580.7644   23747581.5564   23747581.0664
        45.000          39.000
 128425267.41647 100071619.95547  24438529.0764   24438532.9274   24438529.1294
        43.000          38.000
 123522161.77847  96251019.28347  23505498.9034   23505502.5494   23505498.5554
        45.000          41.000
 09  1 12  0 59  0.0000000  0 12G24G14G 9G 5G30G18G31G 6G21G22G12G29
 117456413.59847  91524457.92447  22351228.6344   22351233.3524   22351228.9134
        50.000          43.000
 116957070.60847  91135371.68547  22256196.6134   22256198.9934   22256196.7124
        50.000          44.000
 123395419.06247  96152263.05147  23481376.3124   23481379.4204   23481376.4564
        45.000          39.000
 123584402.57347  96299514.13547  23517344.8584   23517349.7454   23517345.1864
        46.000          40.000
 120642528.44647  94007150.99247  22957519.6354   22957523.4724   22957519.2094
        48.000          42.000
 121373159.70647  94576494.28647  23096538.6394   23096540.8384   23096539.2224
        48.000          41.000
 116020000.61247  90405170.07847  22077893.8074   22077895.7784   22077893.5484
        51.000          45.000
 136569786.47847  88625802.81347  24085431.3474   24085435.6394   24085432.0174
        43.000          37.000
 104818565.99347  81676803.51947  19946310.5384   19946312.6084   19946310.8404
        54.000          50.000
 124755704.71847  97212239.05247  23740218.5164   23740219.9854   23740218.8384
        45.000          39.000
 128431950.49347 100076827.57747  24439801.6554   24439804.2964   24439800.8464
        44.000          38.000
 123593943.81647  96306953.30947  23519158.4164   23519162.5314   23519158.3314
        45.000          40.000
 09  1 12  0 59 30.0000000  0 12G24G14G 9G 5G30G18G31G 6G21G22G12G29
 117524783.91047  91577733.49547  22364239.2744   22364243.7854   22364239.5594
        49.000          43.000
 116989657.92047  91160764.41647  22262397.4374   22262400.1174   22262397.5744
        50.000          44.000
 123492042.37847  96227553.95447  23499763.3794   23499766.4874   23499763.3544
        45.000          39.000
 123576747.18747  96293548.95347  23515888.3274   23515892.6064   23515888.6694
        46.000          40.000
 120615067.57547  93985752.95247  22952294.2244   22952298.0534   22952294.1444
        49.000          42.000
 121338052.23247  94549137.81647  23089857.8184   23089859.9244   23089858.1974
        47.000          41.000
 115931684.70747  90336352.53347  22061087.9184   22061089.8894   22061087.4074
        51.000          46.000
 136541595.92647  88603836.21247  24080066.7254   24080070.9754   24080066.4174
        42.000          37.000
 104816117.73247  81674895.79147  19945844.7304   19945846.6624   19945845.1334
        54.000          50.000
 124716807.22847  97181929.33747  23732817.1334   23732817.9374   23732817.1634
        46.000          40.000
 128438784.68347 100082152.96347  24441102.1824   24441104.6434   24441102.1834
        43.000          39.000
 123665603.23647  96362791.79547  23532794.2444   23532799.1064   23532794.3214
        44.000          40.000
 09  1 12  1  0  0.0000000  0 12G24G14G 9G 5G30G18G31G 6G21G22G12G29
 117593539.64247  91631309.38747  22377323.1944   22377327.6294   22377323.1614
        50.000          43.000
 117022455.24147  91186320.78547  22268638.8984   22268641.2784   22268639.1994
        50.000          44.000
 123588952.76547  96303068.57247  23518204.6744   23518207.7794   23518204.8934
        45.000          39.000
 123569260.25547  96287715.02247  23514463.4534   23514467.8354   23514464.0304
        46.000          40.000
 120587622.95847  93964367.56147  22947072.1134   22947075.1504   22947071.5224
        49.000          42.000
 121302847.90147  94521705.88347  23083158.5104   23083161.0464   23083158.9534
        48.000          41.000
 115843671.67747  90267770.98847  22044339.5984   22044341.5564   22044339.1894
        51.000          46.000
 136513681.56947  88582084.80347  24074754.9074   24074759.3414   24074755.0824
        43.000          38.000
 104814283.34747  81673466.40747  19945495.6424   19945497.6304   19945496.0424
        54.000          50.000
 124677700.01347  97151456.20247  23725375.5294   23725375.9774   23725376.0264
        46.000          40.000
 128445772.07247 100087597.73247  24442431.7014   24442434.6234   24442431.4824
        43.000          38.000
 123737138.53547  96418533.57747  23546407.0084   23546411.7614   23546406.5504
        44.000          40.000
 09  1 12  1  0 30.0000000  0 12G24G14G 9G 5G30G18G31G 6G21G22G12G29
 117662676.54447  91685182.29947  22390479.7094   22390483.8874   22390479.9604
        50.000          43.000
 117055457.56547  91212036.90447  22274919.0904   22274921.2984   22274919.3034
        50.000          44.000
 123686144.99947  96378802.79947  23536699.4694   23536702.5044   23536699.5234
        44.000          39.000
 123561941.63747  96282012.24247  23513070.5954   23513075.1104   23513071.2174
        45.000          40.000
 120560194.58747  93942994.83047  22941852.6794   22941856.0104   22941852.2554
        49.000          42.000
 121267546.34647  94494198.17647  23076441.0614   23076443.2434   23076441.3984
        48.000          41.000
 115755962.26447  90199426.02747  22027649.0154   22027650.9974   22027648.6844
        52.000          46.000
 136486040.24847  88560546.15447  24069495.2094   24069499.3364   24069494.6864
        42.000          38.000
 104813060.96047  81672513.90747  19945263.0074   19945264.8794   19945263.3634
        54.000          49.000
 124638381.51547  97120818.42847  23717893.2294   23717893.9924   23717893.2634
        46.000          40.000
 128452912.01047 100093161.36347  24443790.0584   24443792.8764   24443789.9794
        43.000          38.000
 123808545.71647  96474175.51647  23559995.4894   23560000.0264   23559994.9934
        45.000          40.000
 09  1 12  1  1  0.0000000  0 12G24G14G 9G 5G30G18G31G 6G21G22G12G29
 117732195.63247  91739353.01447  22403708.3504   22403713.1014   22403708.4694
        50.000          43.000
 117088665.52147  91237913.26247  22281237.8874   22281240.3084   22281237.9954
        49.000          44.000
 123783619.86947  96454757.26547  23555248.1844   23555251.5074   23555248.1914
        44.000          38.000
 123554796.22147  96276444.45447  23511711.0424   23511715.2274   23511711.2884
        46.000          40.000
 120532787.37247  93921638.59447  22936636.7954   22936640.1824   22936636.5474
        49.000          42.000
 121232152.35147  94466618.43747  23069705.6544   23069707.9184   23069706.0044
        48.000          41.000
 115668562.12647  90131322.05747  22011017.2034   22011019.4754   22011016.9894
        51.000          46.000
 136458673.80747  88539221.70247  24064287.4964   24064291.4204   24064287.4494
        42.000          38.000
 104812454.01447  81672040.96847  19945147.4754   19945149.3534   19945147.8894
        54.000          50.000
 124598855.40147  97090018.86347  23710372.1244   23710372.3654   23710372.1554
        46.000          40.000
 128460209.07447 100098847.43847  24445178.7604   24445182.2614   24445178.4564
        43.000          38.000
 123879826.05547  96529718.62247  23573559.8094   23573564.3264   23573559.6114
        45.000          41.000
 09  1 12  1  1 30.0000000  0 12G24G14G 9G 5G30G18G31G 6G21G22G12G29
 117802092.24447  91793817.90747  22417009.4194   22417013.9874   22417009.6564
        50.000          43.000
 117122073.08647  91263945.14847  22287595.2494   22287597.8164   22287595.6314
        50.000          44.000
 123881371.56547  96530927.42347  23573849.6194   23573853.1604   23573849.7234
        44.000          38.000
 123547823.19447  96271010.97847  23510384.0094   23510388.2894   23510384.4824
        45.000          40.000
 120505400.71247  93900298.36647  22931425.2254   22931428.7704   22931424.5274
        49.000          42.000
 121196664.74647  94438965.76447  23062952.7514   23062954.8464   23062953.3094
        48.000          41.000
 115581470.77647  90063458.70047  21994444.3764   21994446.5864   21994443.6364
        52.000          46.000
 136431578.37747  88518108.42047  24059131.0574   24059135.4894   24059131.2464
        44.000          38.000
 104812460.10247  81672045.71547  19945148.6744   19945150.4954   19945149.1014
        54.000          50.000
 124559119.35647  97059055.72947  23702810.4484   23702811.1984   23702810.4894
        47.000          41.000
 128467662.26247 100104655.15547  24446596.8084   24446600.4534   24446596.3474
        43.000          38.000
 123950974.89447  96585159.26347  23587099.1484   23587103.3874   23587098.6554
        45.000          40.000
 09  1 12  1  2  0.0000000  0 12G24G14G 9G 5G30G18G31G 6G21G22G12G29
 117872368.24047  91848578.42247  22430382.5554   22430387.2884   22430382.7784
        50.000          43.000
 117155681.29147  91290133.36447  22293990.8824   22293993.0924   22293991.1694
        50.000          44.000
 123979400.86547  96607313.91047  23592503.4154   23592507.1844   23592503.9164
        43.000          38.000
 123541028.14347  96265716.19447  23509090.7834   23509094.9894   23509091.6154
        45.000          40.000
 120478040.28347  93878978.58547  22926219.0134   22926222.3004   22926218.7304
        49.000          42.000
 121161089.05947  94411244.46147  23056182.6034   23056184.7314   23056183.1504
        47.000          41.000
 115494695.16247  89995841.37747  21977931.4474   21977933.6934   21977931.0234
        52.000          46.000
 136404756.50147  88497208.29647  24054027.0674   24054031.4464   24054026.9214
        44.000          38.000
 104813083.16447  81672531.22247  19945267.0934   19945269.1954   19945267.4234
        54.000          50.000
 124519177.55047  97027932.26747  23695209.2274   23695210.1054   23695209.2494
        47.000          40.000
 128475276.88747 100110588.69047  24448045.5014   24448049.0874   24448045.0364
        42.000          38.000
 124021994.29447  96640499.03847  23600613.7044   23600617.9094   23600613.4614
        45.000          40.000
 09  1 12  1  2 30.0000000  0 12G24G14G 9G 5G30G18G31G 6G21G22G12G29
 117943018.17247  91903630.32247  22443826.5914   22443831.4914   22443826.7154
        50.000          43.000
 117189484.38247  91316473.45647  22300423.5344   22300425.7484   22300423.6084
        50.000          44.000
 124077701.21147  96683911.58547  23611209.8084   23611213.5164   23611209.7324
        42.000          38.000
 123534409.76747  96260559.05247  23507831.0334   23507836.1144   23507831.6444
        45.000          40.000
 120450704.96647  93857678.37847  22921016.9274   22921020.5864   22921016.9324
        49.000          42.000
 121125423.20547  94383452.87247  23049395.9634   23049397.7244   23049396.3064
        48.000          40.000
 115408234.85047  89928469.74247  21961478.7424   21961480.6184   21961478.2084
        52.000          46.000
 136378203.69647  88476517.84147  24048974.1924   24048978.4264   24048974.3504
        43.000          38.000
 104814320.17347  81673495.12547  19945502.5504   19945504.5814   19945502.8224
        54.000          50.000
 124479027.45347  96996646.48947  23687568.9994   23687569.7514   23687569.1174
        47.000          40.000
 128483051.54247 100116646.90347  24449525.0734   24449528.2894   24449524.5294
        43.000          38.000
 124092879.06847  96695733.91047  23614102.6364   23614106.5634   23614102.5984
        45.000          40.000
 09  1 12  1  3  0.0000000  0 12G24G14G 9G 5G30G18G31G 6G21G22G12G29
 118014041.78847  91958973.39847  22457341.9874   22457346.5554   22457342.1674
        49.000          43.000
 117223481.27947  91342964.56747  22306892.5714   22306895.2094   22306892.7694
        50.000          44.000
 124176271.71747  96760719.76747  23629967.2894   23629970.8064   23629967.4344
        43.000          39.000
 123527971.79347  96255542.47547  23506606.4184   23506610.6984   23506606.4634
        45.000          40.000
 120423398.34347  93836400.52147  22915820.5334   22915824.4114   22915820.3264
        49.000          42.000
 121089670.68847  94355593.78347  23042592.6734   23042594.1664   23042592.9964
        47.000          41.000
 115322093.97347  89861347.02247  21945086.6274   21945088.4004   21945086.4424
        52.000          46.000
 136351920.68847  88456037.60247  24043972.7344   24043976.2304   24043973.1704
        43.000          38.000
 104816173.24947  81674939.08047  19945855.3264   19945857.1424   19945855.6694
        54.000          50.000
 124438671.16147  96965200.03847  23679889.8714   23679889.9754   23679890.2584
        47.000          40.000
 128490989.21847 100122832.15047  24451035.8444   24451039.2244   24451035.5344
        43.000          38.000
 124163629.13647  96750863.82747  23627566.3744   23627569.6674   23627566.1894
        45.000          40.000
 09  1 12  1  3 30.0000000  0 12G24G14G 9G 5G30G18G31G 6G21G22G12G29
 118085437.41647  92014606.35447  22470927.9014   22470932.7624   22470928.0444
        49.000          43.000
 117257669.46747  91369604.73547  22313398.5234   22313400.6674   22313398.8234
        50.000          44.000
 124275109.89347  96837736.53947  23648775.9614   23648779.1364   23648775.8634
        44.000          39.000
 123521716.52247  96250668.27047  23505415.8134   23505419.8794   23505416.2224
        45.000          39.000
 120396123.08847  93815147.11447  22910630.2914   22910633.7754   22910629.9954
        48.000          42.000
 121053833.95147  94327669.03947  23035773.1874   23035775.0684   23035773.5844
        47.000          41.000
 115236275.71747  89794475.68747  21928755.8964   21928757.7734   21928755.6004
        51.000          46.000
 136325906.73247  88435767.04347  24039022.4084   24039026.3864   24039022.7504
        44.000          38.000
 104818642.85047  81676863.44847  19946325.1244   19946327.0264   19946325.5214
        54.000          49.000
 124398109.81547  96933593.81547  23672171.3384   23672171.5494   23672171.3134
        47.000          40.000
 128499092.09947 100129146.12447  24452578.0354   24452580.6864   24452577.7404
        43.000          38.000
 124234243.32047  96805887.86247  23641003.7904   23641007.4804   23641003.7844
        45.000          40.000
 09  1 12  1  4  0.0000000  0 12G24G14G 9G 5G30G18G31G 6G21G22G12G29
 118157202.11047  92070526.89647  22484584.3674   22484589.1664   22484584.5874
        49.000          43.000
 117292045.21047  91396391.04747  22319940.0624   22319942.2914   22319940.2034
        50.000          44.000
 124374211.59947  96914958.64847  23667633.9674   23667637.4654   23667634.2254
        43.000          39.000
 123515644.76347  96245937.03847  23504260.2464   23504264.3314   23504260.4544
        45.000          39.000
 120368880.26747  93793918.96847  22905446.4254   22905449.5204   22905446.0374
        49.000          42.000
 121017913.28647  94299678.91447  23028937.4464   23028939.5994   23028937.9774
        48.000          40.000
 115150781.71547  89727857.01747  21912486.8694   21912488.9274   21912486.0524
        52.000          46.000
 136300159.62447  88415704.39647  24034123.0454   24034126.9394   24034122.8944
        44.000          38.000
 104821728.11847  81679267.55447  19946912.1154   19946914.1794   19946912.4264
        54.000          50.000
 124357343.02247  96901827.51247  23664413.4814   23664414.1524   23664413.4524
        47.000          40.000
 128507360.84047 100135589.31947  24454151.0884   24454154.6744   24454150.7604
        43.000          39.000
 124304718.74747  96860803.75447  23654414.4564   23654418.5554   23654414.3264
        45.000          40.000
 09  1 12  1  4 30.0000000  0 12G24G14G 9G 5G30G18G31G 6G21G22G12G29
 118229335.30847  92126734.58447  22498310.7924   22498315.8364   22498310.8544
        49.000          43.000
 117326607.44647  91423322.67647  22326516.8354   22326519.3344   22326516.9764
        50.000          44.000
 124473575.43647  96992385.02447  23686542.6244   23686545.4894   23686542.4154
        44.000          38.000
 123509760.07847  96241351.61647  23503140.4534   23503144.3594   23503140.7984
        46.000          40.000
 120341673.02447  93772718.53847  22900269.0534   22900272.4184   22900268.8744
        49.000          42.000
 120981912.22747  94271626.14647  23022087.0494   23022088.4824   23022087.6724
        47.000          41.000
 115065616.05347  89661494.20347  21896280.1864   21896282.3704   21896279.9744
        52.000          46.000
 136274679.53347  88395849.81647  24029274.0494   24029278.5904   24029273.7744
        43.000          37.000
 104825430.71647  81682152.69247  19947616.7844   19947618.8224   19947617.1514
        54.000          49.000
 124316372.61247  96869902.52647  23656617.3694   23656617.7354   23656617.2014
        46.000          40.000
 128515798.49847 100142164.15847  24455756.5144   24455760.3324   24455757.1684
        43.000          39.000
 124375055.15947  96915611.31647  23667798.9544   23667802.9594   23667798.5544
        44.000          40.000
 09  1 12  1  5  0.0000000  0 12G24G14G 9G 5G30G18G31G 6G21G22G12G29
 118301834.76247  92183227.66347  22512106.7444   22512111.9544   22512106.6874
        49.000          43.000
 117361353.05647  91450397.20147  22333128.7874   22333131.0144   22333128.9344
        49.000          44.000
 124573197.93147  97070012.93947  23705500.1294   23705503.6654   23705499.9474
        44.000          38.000
 123504064.06647  96236913.18447  23502056.9444   23502060.9594   23502057.2874
        46.000          40.000
 120314503.55647  93751547.54347  22895098.5744   22895102.0884   22895098.2614
        49.000          42.000
 120945832.35247  94243511.97247  23015221.0024   23015223.0324   23015221.3844
        47.000          41.000
 114980781.31447  89595389.24547  21880136.7094   21880138.7344   21880136.2654
        52.000          46.000
 136249465.06847  88376202.21747  24024475.5164   24024480.1364   24024475.5974
        43.000          38.000
 104829750.50247  81685518.76047  19948438.9394   19948440.6884   19948439.2114
        54.000          50.000
 124275199.18047  96837819.34347  23648781.7634   23648782.4124   23648781.6374
        46.000          39.000
 128524406.64447 100148871.86247  24457395.0284   24457398.3864   24457394.7754
        43.000          39.000
 124445250.64347  96970309.07947  23681156.6674   23681160.7384   23681156.0524
        44.000          40.000
 09  1 12  1  5 30.0000000  0 12G24G14G 9G 5G30G18G31G 6G21G22G12G29
 118374698.41847  92240004.54547  22525972.2384   22525977.5164   22525972.6244
        48.000          42.000
 117396279.42147  91477612.56547  22339774.7894   22339777.3404   22339775.0404
        49.000          44.000
 124673076.46747  97147840.38447  23724505.9034   23724509.6794   23724506.2974
        43.000          38.000
 123498558.88847  96232623.45847  23501009.8444   23501013.0624   23501009.8744
        47.000          40.000
 120287374.17047  93730407.79847  22889935.8674   22889939.4894   22889935.6714
        49.000          42.000
 120909675.07247  94215337.47847  23008340.1414   23008342.5994   23008340.6804
        48.000          41.000
 114896280.32047  89529544.34947  21864056.6814   21864058.7944   21864055.9624
        52.000          46.000
 136224515.41347  88356760.94947  24019728.2934   24019732.3014   24019728.0624
        43.000          38.000
 104834687.84647  81689366.04147  19949378.4454   19949380.2724   19949378.8024
        54.000          50.000
 124233823.74647  96805578.77347  23640908.2354   23640908.5804   23640908.5004
        47.000          40.000
 128533186.97347 100155713.72347  24459065.4234   24459069.2274   24459065.0874
        43.000          39.000
 124515303.75047  97024895.90247  23694487.5204   23694491.7424   23694486.7734
        44.000          40.000
 09  1 12  1  6  0.0000000  0 12G24G14G 9G 5G30G18G31G 6G21G22G12G29
 118447923.84447  92297063.31047  22539906.3874   22539911.6274   22539906.4414
        48.000          42.000
 117431383.23147  91504966.20147  22346454.8884   22346457.4034   22346454.9874
        49.000          44.000
 124773207.83947  97225864.83247  23743559.9834   23743563.8874   23743560.4404
        44.000          38.000
 123493245.96447  96228483.53147  23499998.4374   23500002.2644   23499998.8754
        46.000          40.000
 120260286.28747  93709300.38247  22884781.7254   22884784.5484   22884781.4134
        50.000          42.000
 120873441.66047  94187103.65647  23001445.3064   23001447.5194   23001445.6524
        48.000          41.000
 114812115.30447  89463961.25947  21848040.4674   21848042.7624   21848040.2184
        52.000          46.000
 136199828.70547  88337524.60847  24015030.3374   24015034.9824   24015030.5274
        43.000          38.000
 104840242.37047  81693694.24247  19950435.3184   19950437.5144   19950435.6874
        54.000          49.000
 124192246.74347  96773181.13947  23632996.7384   23632996.7784   23632996.7644
        47.000          40.000
 128542140.58447 100162690.59647  24460769.2934   24460772.3424   24460768.9334
        43.000          38.000
 124585212.23347  97079370.03047  23707790.6904   23707794.6174   23707790.1964
        45.000          40.000
 09  1 12  1  6 30.0000000  0 12G24G14G 9G 5G30G18G31G 6G21G22G12G29
 118521510.02347  92354403.18547  22553909.9334   22553914.4744   22553910.3494
        49.000          42.000
 117466663.41847  91532457.28047  22353168.6424   22353171.0064   22353168.7574
        49.000          44.000
 124873590.13247  97304084.81047  23762662.5324   23762666.2914   23762662.7794
        44.000          38.000
 123488128.44547  96224495.89047  23499024.2754   23499028.3324   23499024.8924
        47.000          40.000
 120233243.31847  93688227.96947  22879635.3554   22879638.6784   22879635.0864
        48.000          42.000
 120837135.15647  94158812.87947  22994536.4664   22994538.4694   22994537.0514
        48.000          41.000
 114728290.33047  89398643.13347  21832089.1234   21832091.5594   21832088.5824
        52.000          46.000
 136175404.97047  88318493.16847  24010382.6394   24010387.3694   24010383.1514
        44.000          38.000
 104846415.28347  81698504.30247  19951609.9274   19951612.1094   19951610.2764
        54.000          50.000
 124150469.57947  96740627.51547  23625046.6624   23625047.0864   23625046.6224
        47.000          40.000
 128551270.33247 100169804.73547  24462506.7014   24462509.5714   24462506.0424
        43.000          38.000
 124654975.77347  97133731.21447  23721066.3854   23721070.2414   23721066.2704
        45.000          40.000
 09  1 12  1  7  0.0000000  0 12G24G14G 9G 5G30G18G31G 6G21G22G12G29
 118595454.12247  92412021.96747  22567981.2514   22567985.6864   22567981.2954
        49.000          42.000
 117502116.07247  91560082.74247  22359915.0044   22359917.6754   22359915.1024
        49.000          44.000
 124974219.63847  97382497.42547  23781811.6394   23781815.6634   23781812.0524
        44.000          38.000
 123483207.41147  96220661.34247  23498087.9564   23498091.7294   23498088.4884
        46.000          40.000
 120206246.34747  93667191.41047  22874497.3954   22874501.3804   22874497.2734
        49.000          42.000
 120800756.45847  94130465.84747  22987613.7684   22987615.7574   22987614.1484
        49.000          41.000
 114644807.07047  89333591.27647  21816202.8604   21816205.1024   21816202.3874
        52.000          47.000
 136151242.18347  88299665.05847  24005784.6254   24005789.0744   24005784.6014
        44.000          39.000
 104853205.49347  81703795.37447  19952902.2734   19952904.2264   19952902.6984
        54.000          49.000
 124108491.96847  96707917.70347  23617058.6874   23617059.2164   23617058.1824
        47.000          40.000
 128560576.88547 100177056.64447  24464277.8444   24464280.7934   24464277.4964
        43.000          38.000
 124724591.91547  97187977.53947  23734314.2654   23734317.7984   23734314.0234
        45.000          40.000
 09  1 12  1  7 30.0000000  0 12G24G14G 9G 5G30G18G31G 6G21G22G12G29
 118669754.01347  92469917.98247  22582119.5864   22582124.3524   22582119.9284
        49.000          42.000
 117537738.28247  91587840.33247  22366693.7914   22366695.8714   22366693.9454
        50.000          44.000
 125075093.39047  97461100.36647  23801007.6034   23801010.6794   23801007.6934
        44.000          38.000
 123478484.60147  96216981.24147  23497189.1184   23497193.0144   23497189.5174
        46.000          40.000
 120179297.61147  93646192.43847  22869369.5064   22869373.0634   22869369.4164
        48.000          42.000
 120764307.27147  94102063.88247  22980677.9744   22980679.8094   22980678.5444
        48.000          41.000
 114561668.21147  89268807.77647  21800382.3834   21800384.1284   21800381.9014
        52.000          47.000
 136127339.11047  88281039.30747  24001236.0014   24001240.3664   24001236.1254
        44.000          39.000
 104860613.08547  81709567.51447  19954311.8454   19954313.6864   19954312.2194
        54.000          49.000
 124066314.69347  96675052.30547  23609032.5964   23609033.0394   23609032.7044
        47.000          40.000
 128570062.08447 100184447.74447  24466082.3904   24466085.9194   24466082.3024
        43.000          38.000
 124794058.87647  97242107.61347  23747533.5374   23747536.8204   23747532.8654
        45.000          40.000
 09  1 12  1  8  0.0000000  0 12G24G14G 9G 5G30G18G31G 6G21G22G12G29
 118744409.03647  92528090.72047  22596326.1784   22596330.6144   22596326.4744
        49.000          42.000
 117573528.91847  91615729.16247  22373504.4104   22373506.7934   22373504.5004
        50.000          44.000
 125176209.77247  97539892.37347  23820249.4544   23820253.0464   23820249.5594
        44.000          38.000
 123473963.44447  96213458.27947  23496328.6194   23496332.7714   23496329.2674
        46.000          40.000
 120152400.73647  93625233.86347  22864251.4144   22864254.3624   22864250.9574
        49.000          42.000
 120727790.90847  94073609.57047  22973729.2774   22973730.8664   22973729.4044
        49.000          42.000
 114478877.73847  89204295.75547  21784627.7394   21784629.5134   21784627.5774
        52.000          46.000
 136103695.73747  88262615.94647  23996736.9624   23996740.8414   23996737.0364
        44.000          38.000
 104868639.26647  81715821.68147  19955839.1984   19955841.0444   19955839.5774
        54.000          49.000
 124023939.98047  96642033.06947  23600968.8444   23600969.7574   23600968.9314
        47.000          40.000
 128579728.86247 100191980.34247  24467922.0544   24467925.7674   24467921.7864
        43.000          38.000
 124863376.65247  97296121.45647  23760724.0424   23760727.5624   23760723.6514
        45.000          40.000
 09  1 12  1  8 30.0000000  0 12G24G14G 9G 5G30G18G31G 6G21G22G12G29
 118819416.84647  92586538.36247  22610599.6294   22610604.0664   22610599.7854
        48.000          42.000
 117609484.84547  91643746.78747  22380346.5084   22380349.1444   22380346.9344
        49.000          44.000
 125277565.71747  97618871.07147  23839536.5524   23839540.1564   23839536.7964
        44.000          37.000
 123469645.93247  96210093.98547  23495506.9634   23495511.6034   23495507.5804
        46.000          40.000
 120125557.78647  93604317.31447  22859143.7104   22859146.6104   22859143.3394
        49.000          42.000
 120691209.18947  94045104.35147  22966767.5184   22966769.9094   22966768.2154
        49.000          42.000
 114396438.35647  89140057.32347  21768939.8204   21768941.8174   21768939.5794
        52.000          46.000
 136080310.91647  88244394.04647  23992286.9264   23992291.1464   23992286.4054
        44.000          38.000
 104877284.47447  81722558.20147  19957484.4374   19957486.2034   19957484.9084
        54.000          49.000
 123981368.67647  96608860.64447  23592867.6464   23592867.9554   23592867.7854
        47.000          40.000
 128589578.66147 100199655.54847  24469796.0704   24469799.8124   24469795.5004
        43.000          38.000
 124932543.07147  97350017.35847  23773886.0664   23773889.3704   23773885.6494
        45.000          40.000
 09  1 12  1  9  0.0000000  0 12G24G14G 9G 5G30G18G31G 6G21G22G12G29
 118894774.20747  92645258.38947  22624939.5304   22624944.2864   22624939.5964
        49.000          42.000
 117645602.71947  91671890.60247  22387219.4804   22387221.9064   22387219.8554
        50.000          44.000
 125379157.14847  97698033.25147  23858869.1554   23858872.3484   23858869.2204
        44.000          37.000
 123465532.57547  96206888.79947  23494724.3544   23494728.7264   23494724.9064
        46.000          40.000
 120098769.69847  93583443.51647  22854045.8084   22854048.8774   22854045.1234
        49.000          42.000
 120654562.63547  94016548.60547  22959794.5114   22959796.0884   22959794.8084
        48.000          42.000
 114314351.29347  89076093.40947  21753319.0914   21753321.1434   21753318.5604
        52.000          46.000
 136057182.13047  88226371.64047  23987885.6904   23987889.3984   23987885.7764
        44.000          38.000
 104886547.13747  81729775.86047  19959246.8964   19959248.9574   19959247.3604
        54.000          49.000
 123938600.07147  96575534.47447  23584728.7984   23584729.5044   23584728.7674
        46.000          40.000
 128599611.89147 100207473.69247  24471706.0004   24471708.9794   24471705.6494
        44.000          38.000
 125001555.78747  97403793.48547  23787018.5994   23787021.9344   23787018.6084
        44.000          40.000
 09  1 12  1  9 30.0000000  0 12G24G14G 9G 5G30G18G31G 6G21G22G12G29
 118970480.74647  92704250.48747  22639346.1114   22639350.7074   22639346.4384
        48.000          42.000
 117681881.34247  91700159.68347  22394123.0854   22394125.8424   22394123.3394
        49.000          43.000
 125480982.98147  97777378.08347  23878245.6864   23878248.9604   23878245.9424
        44.000          37.000
 123461627.16847  96203845.61447  23493981.0794   23493985.5764   23493981.4094
        46.000          40.000
 120072040.63347  93562615.71947  22848959.3854   22848962.6714   22848959.1054
        49.000          42.000
 120617854.83347  93987945.12447  22952808.6934   22952810.8614   22952809.2854
        49.000          42.000
 114232621.27647  89012407.71347  21737766.4614   21737768.3024   21737765.8924
        52.000          46.000
 136034310.07647  88208549.29647  23983533.4274   23983537.2524   23983533.4534
        44.000          38.000
 104896428.78447  81737475.84347  19961127.2564   19961129.2544   19961127.6354
        54.000          49.000
 123895637.04247  96542056.79647  23576553.5024   23576554.0264   23576553.4414
        47.000          41.000
 128609832.01547 100215437.45647  24473650.7554   24473653.4584   24473650.6564
        44.000          38.000
 125070415.17847  97457450.14347  23800121.8104   23800125.2614   23800122.0314
        44.000          39.000
 09  1 12  1 10  0.0000000  0 12G24G14G 9G 5G30G18G31G 6G21G22G12G29
 119046533.08247  92763512.04547  22653818.4014   22653822.8374   22653818.5694
        48.000          42.000
 117718317.04347  91728551.16947  22401056.3834   22401059.0764   22401056.5674
        49.000          44.000
 125583039.11147  97856902.36447  23897666.7144   23897669.5974   23897666.4724
        43.000          37.000
 123457930.50047  96200965.10447  23493277.4824   23493282.2094   23493278.1384
        46.000          40.000
 120045371.48147  93541834.59347  22843884.4984   22843887.6104   22843884.0994
        49.000          42.000
 120581086.40847  93959294.41147  22945811.9994   22945814.2074   22945812.6814
        49.000          42.000
 114151249.91947  88949001.49847  21722281.7244   21722283.7934   21722281.4634
        52.000          46.000
 136011692.23747  88190925.04347  23979228.6514   23979233.5264   23979228.8044
        44.000          38.000
 104906927.89847  81745656.96647  19963125.0784   19963127.2664   19963125.4254
        54.000          49.000
 123852479.23447  96508427.35047  23568340.7444   23568341.5304   23568340.8574
        47.000          40.000
 128620239.35547 100223547.12447  24475631.3434   24475633.9224   24475630.8164
        44.000          38.000
 125139118.11247  97510984.86447  23813195.6844   23813199.3544   23813195.4264
        44.000          40.000
 09  1 12  1 10 30.0000000  0 12G24G14G 9G 5G30G18G31G 6G21G22G12G29
 119122928.68847  92823041.08747  22668355.9964   22668360.5244   22668356.0444
        48.000          42.000
 117754906.54047  91757062.48947  22408019.1644   22408021.7634   22408019.2594
        49.000          44.000
 125685322.47947  97936603.70547  23917130.4524   23917133.0994   23917130.5894
        43.000          37.000
 123454444.13647  96198248.44847  23492614.3054   23492618.8654   23492614.5994
        46.000          40.000
 120018764.01947  93521101.53347  22838821.1154   22838824.4574   22838820.8964
        49.000          42.000
 120544259.25447  93930597.91647  22938804.3154   22938805.9734   22938804.5924
        48.000          42.000
 114070239.17347  88885876.27347  21706865.8244   21706867.8774   21706865.4054
        52.000          46.000
 135989326.88647  88173497.52947  23974973.1804   23974976.9284   23974973.2584
        43.000          38.000
 104918044.37247  81754319.15447  19965240.7414   19965242.6704   19965241.1464
        54.000          49.000
 123809126.80847  96474646.24447  23560091.0124   23560091.7804   23560091.2904
        47.000          40.000
 128630835.30947 100231803.74747  24477646.8504   24477650.5684   24477647.1564
        42.000          38.000
 125207662.93047  97564396.39847  23826239.0264   23826243.2184   23826238.9444
        45.000          40.000
 09  1 12  1 11  0.0000000  0 12G24G14G 9G 5G30G18G31G 6G21G22G12G29
 119199666.77547  92882836.99447  22682958.8564   22682963.4644   22682959.0944
        48.000          42.000
 117791648.38047  91785692.51847  22415011.2114   22415013.6274   22415011.2524
        50.000          44.000
 125787830.83947  98016480.35847  23936636.7284   23936640.2334   23936637.3194
        42.000          37.000
 123451171.08547  96195698.01447  23491991.5184   23491996.0634   23491991.8714
        46.000          40.000
 119992221.23947  93500418.87447  22833770.1054   22833773.3584   22833769.9354
        49.000          42.000
 120507376.00647  93901857.71147  22931785.3714   22931787.3554   22931785.5414
        48.000          42.000
 113989592.99847  88823035.12947  21691519.5474   21691521.4794   21691519.2034
        52.000          46.000
 135967213.96147  88156266.72147  23970764.8914   23970769.1104   23970764.9984
        43.000          38.000
 104929779.17747  81763463.15747  19967473.7134   19967475.4414   19967474.1094
        54.000          49.000
 123765581.79047  96440715.08947  23551804.5614   23551805.2914   23551804.3234
        46.000          40.000
 128641622.37447 100240209.29647  24479699.5944   24479702.9164   24479699.1524
        44.000          38.000
 125276049.36647  97617684.52647  23839253.0734   23839256.4084   23839252.9724
        45.000          39.000
 09  1 12  1 11 30.0000000  0 12G24G14G 9G 5G30G18G31G 6G21G22G12G29
 119276745.77047  92942898.55247  22697626.4274   22697631.4364   22697626.4364
        48.000          42.000
 117828540.51047  91814439.66147  22422031.3474   22422033.7104   22422031.6604
        50.000          44.000
 125890561.88647  98096530.52147  23956185.8484   23956188.6064   23956185.9814
        42.000          37.000
 123448113.85147  96193315.76747  23491409.7154   23491414.0844   23491410.1584
        46.000          40.000
 119965746.10547  93479788.94047  22828732.1914   22828735.2134   22828731.6444
        49.000          42.000
 120470439.01647  93873075.64747  22924756.4714   22924758.9054   22924757.0624
        49.000          42.000
 113909314.65247  88760480.60147  21676243.0764   21676244.9574   21676242.4174
        52.000          46.000
 135945352.64947  88139231.96547  23966604.5244   23966608.9444   23966604.7474
        43.000          38.000
 104942132.42547  81773089.06347  19969824.4714   19969826.3704   19969824.8454
        54.000          49.000
 123721845.75547  96406635.05747  23543482.1174   23543482.6524   23543482.3864
        47.000          40.000
 128652603.02247 100248765.70547  24481789.0934   24481792.1174   24481788.8194
        44.000          38.000
 125344276.67247  97670848.63547  23852235.9044   23852239.6284   23852235.7634
        44.000          39.000
 09  1 12  1 12  0.0000000  0 12G24G14G 9G 5G30G18G31G 6G21G22G12G29
 119354162.46147  93003223.23947  22712358.5204   22712363.0364   22712359.0244
        48.000          42.000
 117865579.17947  91843300.98747  22429079.5714   22429081.7444   22429079.6754
        50.000          44.000
 125993511.60447  98176751.07847  23975776.2494   23975779.3324   23975776.1334
        42.000          37.000
 123445273.30347  96191102.36947  23490868.9164   23490873.6474   23490869.2494
        45.000          40.000
 119939340.07647  93459212.83647  22823707.1254   22823710.4254   22823706.8514
        49.000          43.000
 120433449.42947  93844252.58547  22917717.6784   22917720.0624   22917718.4064
        49.000          42.000
 113829405.76647  88698213.97147  21661036.9074   21661038.7234   21661036.6464
        52.000          47.000
 135923740.85247  88122391.65347  23962492.2084   23962496.3814   23962492.5994
        44.000          38.000
 104955102.86847  81783195.90147  19972292.6564   19972294.5364   19972292.9794
        54.000          49.000
 123677918.49247  96372406.04547  23535122.9564   23535123.5184   23535123.0994
        47.000          40.000
 128663777.73547 100257473.32647  24483915.8204   24483918.7334   24483915.5474
        44.000          39.000
 125412341.72947  97723886.32547  23865188.2754   23865191.8034   23865187.8334
        44.000          39.000
 09  1 12  1 12 30.0000000  0 12G24G14G 9G 5G30G18G31G 6G21G22G12G29
 119431916.01947  93063810.42947  22727154.2854   22727158.9344   22727154.3974
        48.000          42.000
 117902762.59647  91872275.10447  22436155.3084   22436157.5534   22436155.7074
        49.000          43.000
 126096678.31447  98257140.72347  23995408.4014   23995411.6144   23995408.3934
        42.000          37.000
 123442652.53147  96189060.23347  23490370.3614   23490374.6494   23490370.8314
        46.000          40.000
 119913006.26647  93438692.98547  22818696.2284   22818699.1234   22818695.6644
        49.000          43.000
 120396410.42847  93815391.02247  22910669.7824   22910672.0004   22910669.8214
        49.000          42.000
 113749870.15147  88636238.19747  21645901.5874   21645903.6294   21645901.3114
        52.000          47.000
 135902378.45447  88105745.65247  23958427.1344   23958431.4754   23958427.2094
        44.000          38.000
 104968691.44747  81793784.40847  19974878.5294   19974880.3174   19974878.8954
        54.000          49.000
 123633802.61247  96338030.03347  23526728.4324   23526728.7674   23526728.4764
        47.000          41.000
 128675149.27847 100266334.34747  24486080.1504   24486082.5614   24486079.6474
        44.000          38.000
 125480244.63447  97776797.66747  23878109.5414   23878113.4604   23878109.6134
        44.000          39.000
 09  1 12  1 13  0.0000000  0 12G24G14G 9G 5G30G18G31G 6G21G22G12G29
 119510003.56947  93124657.86047  22742013.8924   22742018.6484   22742013.9394
        48.000          42.000
 117940087.90547  91901359.78247  22443257.9604   22443260.2404   22443258.3064
        49.000          43.000
 126200058.91047  98337697.03247  24015081.3024   24015084.2684   24015080.9454
        42.000          37.000
 123440253.09247  96187190.55647  23489913.7964   23489917.9994   23489914.3554
        45.000          40.000
 119886746.50747  93418230.86647  22813698.9244   22813701.9054   22813698.6194
        49.000          43.000
 120359323.41247  93786492.04147  22903612.1784   22903614.1064   22903612.5694
        48.000          41.000
 113670709.99747  88574554.99147  21630837.9334   21630839.7874   21630837.5554
        52.000          47.000
 135881263.65947  88089292.59047  23954408.8784   23954413.3964   23954409.2124
        44.000          38.000
 104982897.66647  81804854.18947  19977581.7314   19977583.7804   19977582.1474
        54.000          49.000
 123589497.95447  96303506.92547  23518297.4964   23518298.0294   23518297.3364
        47.000          41.000
 128686719.21147 100275349.92047  24488281.5224   24488284.3104   24488280.9144
        43.000          38.000
 125547983.39447  97829581.10147  23891000.0304   23891003.7214   23890999.6814
        43.000          39.000
 09  1 12  1 13 30.0000000  0 12G24G14G 9G 5G30G18G31G 6G21G22G12G29
 119588422.92947  93185763.85747  22756936.6614   22756941.0804   22756937.1454
        49.000          42.000
 117977552.29947  91930552.83847  22450387.2394   22450389.2004   22450387.4974
        49.000          43.000
 126303650.29447  98418417.59347  24034794.0474   24034797.2304   24034794.1464
        42.000          38.000
 123438076.89847  96185494.84147  23489499.7364   23489503.9634   23489500.2494
        45.000          39.000
 119860562.97847  93397828.14747  22808716.3144   22808719.4314   22808716.1524
        49.000          43.000
 120322190.17547  93757557.05347  22896545.6894   22896547.9904   22896545.9644
        48.000          41.000
 113591928.03347  88513166.48847  21615846.1194   21615847.9794   21615845.9894
        52.000          47.000
 135860395.19447  88073031.46547  23950437.7854   23950442.2564   23950438.0144
        43.000          38.000
 104997720.67047  81816404.58447  19980402.5064   19980404.4564   19980402.8604
        54.000          49.000
 123545005.22547  96268837.27047  23509830.7794   23509831.1264   23509830.9624
        47.000          40.000
 128698488.36547 100284520.77747  24490520.7184   24490523.4814   24490520.7534
        43.000          38.000
 125615556.79447  97882235.64247  23903858.7054   23903862.7074   23903858.0494
        43.000          39.000
 09  1 12  1 14  0.0000000  0 12G24G14G 9G 5G30G18G31G 6G21G22G12G29
 119667171.59847  93247126.45447  22771922.6514   22771926.6654   22771922.6344
        48.000          42.000
 118015152.87447  91959852.01747  22457542.4154   22457544.3844   22457542.8654
        49.000          43.000
 126407449.12947  98499299.80047  24054546.3014   24054549.8554   24054546.4704
        43.000          38.000
 123436125.40847  96183974.23447  23489128.3394   23489132.0044   23489128.8044
        45.000          39.000
 119834457.72447  93377486.40047  22803748.0774   22803751.6284   22803747.6684
        49.000          43.000
 120285012.57547  93728587.48947  22889471.0454   22889473.2464   22889471.5704
        48.000          41.000
 113513526.54747  88452074.45147  21600926.8864   21600928.5264   21600926.3014
        52.000          47.000
 135839771.33547  88056960.95047  23946513.3604   23946517.6624   23946513.3344
        43.000          38.000
 105013160.17447  81828435.36947  19983340.5494   19983342.4204   19983340.9814
        54.000          49.000
 123500325.73647  96234022.10247  23501328.3514   23501328.5774   23501328.4984
        47.000          40.000
 128710458.35147 100293848.08547  24492797.8544   24492802.2484   24492797.1704
        42.000          38.000
 125682963.13847  97934760.02947  23916685.4254   23916689.6554   23916685.1954
        43.000          39.000
 09  1 12  1 14 30.0000000  0 12G24G14G 9G 5G30G18G31G 6G21G22G12G29
 119746247.75747  93308744.23447  22786970.2044   22786974.4644   22786970.3054
        49.000          42.000
 118052887.30547  91989255.48747  22464722.8514   22464725.2664   22464723.1904
        49.000          43.000
 126511452.85447  98580341.68247  24074337.6564   24074340.6324   24074337.9464
        43.000          38.000
 123434400.83547  96182630.43047  23488800.1844   23488804.2544   23488800.4214
        45.000          40.000
 119808433.27347  93357207.63647  22798796.2004   22798799.5574   22798796.1314
        49.000          43.000
 120247792.59147  93699584.90647  22882388.2784   22882390.5014   22882388.5754
        48.000          41.000
 113435508.04347  88391280.84947  21586080.5164   21586082.0574   21586080.3234
        53.000          47.000
 135819390.91147  88041080.11647  23942634.1844   23942639.2784   23942634.5114
        42.000          38.000
 105029215.93047  81840946.35047  19986395.9904   19986397.6254   19986396.4004
        54.000          49.000
 123455460.07047  96199061.84347  23492790.6344   23492791.0714   23492790.4034
        47.000          41.000
 128722631.29847 100303333.58447  24495114.5674   24495118.5444   24495114.3374
        41.000          38.000
 125750201.29247  97987153.36647  23929480.5344   23929484.4314   23929480.6634
        44.000          39.000
 09  1 12  1 15  0.0000000  0 12G24G14G 9G 5G30G18G31G 6G21G22G12G29
 119825650.09947  93370616.17847  22802080.3854   22802084.2214   22802080.6564
        48.000          42.000
 118090753.74747  92018761.83047  22471928.7574   22471931.0934   22471929.0874
        49.000          43.000
 126615659.51547  98661541.68247  24094167.5224   24094170.8434   24094167.7354
        43.000          38.000
 123432905.90647  96181465.58847  23488515.6044   23488520.0224   23488515.7814
        45.000          39.000
 119782492.60647  93336994.14047  22793859.7594   22793863.0794   22793859.2314
        49.000          43.000
 120210533.16847  93670551.58847  22875298.0534   22875300.2924   22875298.4224
        48.000          41.000
 113357876.34547  88330788.64847  21571307.6674   21571309.3214   21571307.2994
        52.000          47.000
 135799253.62447  88025388.75347  23938803.1454   23938807.2094   23938803.4164
        43.000          37.000
 105045888.44747  81853937.92147  19989568.7384   19989570.3864   19989569.1984
        54.000          49.000
 123410410.39447  96163958.21847  23484218.3564   23484218.6024   23484218.2584
        47.000          41.000
 128735009.08647 100312978.66947  24497469.9944   24497473.8174   24497469.1444
        43.000          38.000
 125817270.76247  98039415.27547  23942244.0654   23942247.4624   23942243.6854
        44.000          39.000
 09  1 12  1 15 30.0000000  0 12G24G14G 9G 5G30G18G31G 6G21G22G12G29
 119905375.36447  93432739.76147  22817251.5204   22817255.7944   22817251.4504
        48.000          42.000
 118128748.72347  92048368.33347  22479158.8424   22479161.2944   22479159.2004
        49.000          43.000
 126720065.10147  98742896.68547  24114035.5074   24114038.4194   24114035.1734
        43.000          38.000
 123431641.81947  96180480.61447  23488274.6254   23488279.2214   23488274.7834
        45.000          39.000
 119756637.14047  93316847.04947  22788939.9214   22788942.6174   22788939.7774
        49.000          43.000
 120173235.71347  93641488.63147  22868200.9274   22868202.9514   22868201.3184
        48.000          41.000
 113280632.81447  88270598.91747  21556608.7164   21556610.3894   21556608.1904
        53.000          47.000
 135779357.36047  88009885.20347  23935016.8724   23935021.1044   23935017.1944
        41.000          37.000
 105063176.51647  81867409.14547  19992858.4824   19992860.2154   19992858.8614
        54.000          49.000
 123365176.71447  96128711.20047  23475610.3824   23475610.7654   23475610.7554
        47.000          41.000
 128747592.66347 100322784.12147  24499864.9264   24499868.2814   24499864.8524
        44.000          38.000
 125884168.93347  98091543.69747  23954974.1594   23954978.3684   23954974.0224
        45.000          39.000
 09  1 12  1 16  0.0000000  0 12G24G14G 9G 5G30G18G31G 6G21G22G12G29
 119985421.48847  93495113.34747  22832483.3794   22832488.0874   22832483.8374
        48.000          42.000
 118166869.53647  92078072.87647  22486413.0714   22486415.3834   22486413.3184
        49.000          43.000
 126824666.95347  98824404.63847  24133940.5484   24133943.2234   24133940.4064
        44.000          38.000
 123430610.34547  96179676.89647  23488078.6984   23488082.5714   23488079.0324
        45.000          39.000
 119730869.32947  93296768.27047  22784036.5454   22784039.4644   22784036.0814
        49.000          42.000
 120135902.07147  93612397.47647  22861096.3824   22861098.1764   22861096.8204
        48.000          41.000
 113203780.75547  88210714.23447  21541984.0254   21541986.0414   21541983.3694
        52.000          47.000
 135759700.67047  87994568.35247  23931276.2804   23931280.5704   23931276.3744
        43.000          37.000
 105081079.44047  81881359.48047  19996265.1544   19996267.0314   19996265.5274
        54.000          49.000
 123319760.18147  96093321.69447  23466968.0824   23466968.2104   23466968.0054
        47.000          41.000
 128760383.81547 100332751.32147  24502299.0114   24502302.0444   24502298.9934
        42.000          38.000
 125950894.92047  98143537.97047  23967671.8254   23967675.3774   23967671.7404
        44.000          39.000
 09  1 12  1 16 30.0000000  0 12G24G14G 9G 5G30G18G31G 6G21G22G12G29
 120065787.09647  93557735.89947  22847776.4924   22847780.8014   22847776.5024
        48.000          42.000
 118205114.48247  92107874.15647  22493690.8514   22493693.1404   22493691.3324
        49.000          43.000
 126929462.58547  98906063.59247  24153882.1464   24153885.0614   24153882.4264
        44.000          38.000
 123429814.32447  96179056.66047  23487926.9324   23487930.9514   23487927.7714
        46.000          40.000
 119705192.14547  93276760.09047  22779149.9104   22779153.7884   22779149.4754
        49.000          42.000
 120098535.12247  93583280.36247  22853985.6164   22853987.8434   22853986.1964
        48.000          41.000
 113127323.40147  88151137.11247  21527434.6424   21527436.6744   21527434.2494
        53.000          47.000
 135740283.21847  87979437.88447  23927581.1334   23927585.3264   23927581.2764
        42.000          38.000
 105099597.81747  81895789.38447  19999789.1954   19999791.0514   19999789.6134
        54.000          49.000
 123274162.59347  96057791.11947  23458290.7134   23458291.3934   23458290.4714
        47.000          41.000
 128773384.84247 100342882.07347  24504772.8064   24504775.6204   24504772.4824
        44.000          38.000
 126017448.16347  98195397.63147  23980337.1834   23980340.5864   23980336.4054
        43.000          39.000
 09  1 12  1 17  0.0000000  0 12G24G14G 9G 5G30G18G31G 6G21G22G12G29
 120146473.20347  93620608.16947  22863130.5664   22863134.9654   22863130.7224
        47.000          41.000
 118243484.14247  92137772.61047  22500992.2304   22500994.6534   22500992.5094
        49.000          43.000
 127034453.09847  98987874.40647  24173861.1924   24173864.0984   24173861.3374
        43.000          37.000
 123429258.72147  96178623.75147  23487820.9804   23487825.3974   23487821.7674
        46.000          39.000
 119679611.20347  93256826.92547  22774282.1004   22774285.1084   22774281.6524
        49.000          42.000
 120061140.11447  93554141.39747  22846869.5314   22846871.6084   22846870.0134
        49.000          42.000
 113051266.33347  88091871.90247  21512961.3774   21512963.4594   21512961.3064
        52.000          47.000
 135721106.68247  87964495.16247  23923931.5154   23923936.2204   23923931.4944
        43.000          38.000
 105118734.12347  81910700.79847  20003430.6784   20003432.4854   20003431.1004
        54.000          49.000
 123228388.55447  96022123.04347  23449580.3824   23449580.8954   23449580.4534
        48.000          41.000
 128786600.38947 100353179.95947  24507287.7894   24507291.0364   24507287.9054
        43.000          38.000
 126083830.49747  98247124.08647  23992968.3944   23992972.6064   23992967.7504
        44.000          39.000
 09  1 12  1 17 30.0000000  0 12G24G14G 9G 5G30G18G31G 6G21G22G12G29
 120227470.31947  93683722.79647  22878543.5904   22878548.2774   22878543.6274
        48.000          41.000
 118281968.84047  92167760.70347  22508315.4494   22508318.1174   22508315.6584
        48.000          43.000
 127139628.07647  99069828.97347  24193875.4964   24193878.6954   24193875.2494
        43.000          37.000
 123428938.41147  96178374.19647  23487759.8974   23487764.5364   23487760.6554
        45.000          39.000
 119654121.75747  93236965.03947  22769431.8364   22769434.6324   22769431.4254
        49.000          42.000
 120023711.89547  93524976.55247  22839747.1264   22839749.3674   22839747.5664
        49.000          42.000
 112975605.15447  88032915.16747  21498563.6264   21498565.5724   21498563.1794
        53.000          47.000
 135702162.75747  87949733.68747  23920327.0854   23920331.2634   23920327.4354
        43.000          38.000
 105138480.89647  81926087.89747  20007188.3324   20007190.1314   20007188.8404
        54.000          49.000
 123182431.77547  95986312.56347  23440834.7744   23440835.3874   23440834.9874
        47.000          41.000
 128800024.96947 100363640.71947  24509842.4804   24509845.3124   24509841.8324
        43.000          38.000
 126150033.77247  98298711.05147  24005566.8664   24005571.2344   24005566.3714
        44.000          39.000
 09  1 12  1 18  0.0000000  0 12G24G14G 9G 5G30G18G31G 6G21G22G12G29
 120308779.67047  93747080.71947  22894016.3704   22894020.9104   22894016.4674
        47.000          41.000
 118320568.88247  92197838.69047  22515660.8484   22515663.1684   22515661.1464
        49.000          43.000
 127244987.76547  99151927.42547  24213924.3494   24213927.2754   24213924.6994
        42.000          37.000
 123428858.45247  96178311.93047  23487744.8084   23487749.5844   23487745.0864
        45.000          39.000
 119628729.02247  93217178.52147  22764599.6614   22764602.4994   22764599.4914
        49.000          42.000
 119986255.94847  93495790.10147  22832620.0324   22832621.7964   22832620.4914
        49.000          42.000
 112900345.57947  87974271.37847  21484242.1414   21484243.8824   21484242.0984
        53.000          47.000
 135683453.22847  87935154.87847  23916766.7454   23916770.3244   23916766.1804
        43.000          37.000
 105158840.73647  81941952.71147  20011062.5684   20011064.5984   20011062.9224
        54.000          49.000
 123136296.63547  95950363.10547  23432055.5904   23432056.4624   23432055.4054
        47.000          41.000
 128813663.37447 100374268.11047  24512437.3634   24512441.1094   24512437.2004
        44.000          38.000
 126216059.75647  98350159.83747  24018131.0654   24018135.4074   24018130.6704
        43.000          39.000
 09  1 12  1 18 30.0000000  0 12G24G14G 9G 5G30G18G31G 6G21G22G12G29
 120390400.75547  93810681.54847  22909548.0874   22909552.6044   22909548.1734
        48.000          41.000
 118359283.84947  92228006.22147  22523028.1954   22523030.3654   22523028.4914
        49.000          43.000
 127350531.25847  99234169.14047  24234008.5954   24234011.9684   24234008.8814
        40.000          36.000
 123429022.73347  96178439.97047  23487776.0164   23487780.6344   23487776.5584
        47.000          39.000
 119603437.53947  93197470.90447  22759786.5534   22759789.5694   22759786.6364
        49.000          42.000
 119948776.16247  93466585.06047  22825487.8434   22825489.4634   22825488.2384
        49.000          42.000
 112825492.17247  87915944.07547  21469998.0024   21469999.8424   21469997.3444
        53.000          47.000
 135664978.71647  87920759.18247  23913250.6594   23913255.6534   23913251.1054
        42.000          37.000
 105179815.16647  81958296.42847  20015054.0294   20015055.8914   20015054.4284
        54.000          49.000
 123089986.04247  95914276.94047  23423242.8824   23423243.7204   23423242.8994
        48.000          41.000
 128827519.01747 100385064.77847  24515073.7684   24515077.3124   24515073.8884
        43.000          38.000
 126281909.13847  98401471.02847  24030661.9874   24030665.7734   24030661.7124
        44.000          39.000
 09  1 12  1 19  0.0000000  0 12G24G14G 9G 5G30G18G31G 6G21G22G12G29
 120472328.04347  93874520.98047  22925138.1714   22925142.9124   22925138.2024
        47.000          41.000
 118398108.09547  92258258.88947  22530415.8414   22530418.6444   22530416.3154
        48.000          43.000
 127456252.14347  99316549.08447  24254127.2194   24254129.8394   24254126.9634
        40.000          36.000
 123429429.83947  96178757.24047  23487853.2354   23487857.8574   23487853.7014
        44.000          39.000
 119578246.10847  93177841.25147  22754993.0874   22754995.8584   22754992.7944
        49.000          43.000
 119911271.24047  93437360.42547  22818350.9544   22818352.0934   22818351.3034
        49.000          42.000
 112751044.23447  87857932.72747  21455831.0224   21455832.7214   21455830.4824
        53.000          47.000
 135646734.58747  87906543.03147  23909778.4864   23909783.0914   23909778.7544
        42.000          37.000
 105201400.32147  81975116.03547  20019161.6024   20019163.4934   20019162.0424
        54.000          49.000
 123043498.10247  95878052.57347  23414397.1284   23414397.2654   23414397.5694
        48.000          41.000
 128841590.41047 100396029.56647  24517751.7074   24517754.5504   24517751.6684
        43.000          38.000
 126347577.70347  98452641.31947  24043158.0774   24043162.0764   24043157.8974
        43.000          39.000
 09  1 12  1 19 30.0000000  0 12G24G14G 9G 5G30G18G31G 6G21G22G12G29
 120554561.95547  93938599.33547  22940786.7314   22940791.4004   22940786.5954
        47.000          41.000
 118437041.31147  92288596.48247  22537824.9124   22537827.1424   22537825.0374
        48.000          43.000
 127562150.22847  99399067.08547  24274278.3784   24274281.1254   24274278.9984
        41.000          35.000
 123430083.88147  96179266.91147  23487978.1234   23487982.6064   23487978.2294
        45.000          40.000
 119553159.53947  93158293.30147  22750219.0904   22750221.9664   22750219.0524
        49.000          42.000
 119873745.85947  93408119.85247  22811209.9124   22811211.5144   22811210.2444
        49.000          42.000
 112677006.72247  87800241.18347  21441742.0904   21441743.8124   21441741.6734
        53.000          47.000
 135628721.76247  87892507.09547  23906350.9434   23906355.3204   23906351.5414
        43.000          37.000
 105223597.50647  81992412.55247  20023385.2164   20023387.4884   20023385.5524
        54.000          49.000
 122996835.90447  95841692.43447  23405517.4454   23405517.7504   23405517.4234
        47.000          41.000
 128855881.43247 100407165.48947  24520470.1744   24520474.2544   24520470.1084
        42.000          38.000
 126413066.25147  98503671.33747  24055620.2094   24055623.5614   24055619.8964
        44.000          39.000
 09  1 12  1 20  0.0000000  0 12G24G14G 9G 5G30G18G31G 6G21G22G12G29
 120637100.60647  94002915.14347  22956493.2354   22956497.7954   22956493.6264
        47.000          41.000
 118476081.04747  92319017.07647  22545253.9914   22545255.9904   22545253.9274
        49.000          43.000
 127668223.14947  99481721.29547  24294463.5304   24294466.4834   24294463.0884
        38.000          35.000
 123430987.30947  96179970.92347  23488150.2784   23488153.9984   23488150.8794
        45.000          39.000
 119528180.57847  93138829.22247  22745465.4344   22745469.0664   22745465.1604
        48.000          42.000
 119836202.87547  93378865.56847  22804065.8444   22804067.4714   22804065.9864
        49.000          42.000
 112603382.59847  87742871.76847  21427731.8194   21427733.7804   21427731.5364
        53.000          47.000
 135610939.38747  87878650.72347  23902968.1594   23902971.5614   23902967.9404
        43.000          37.000
 105246406.67747  82010185.94247  20027725.6884   20027728.0174   20027725.9524
        54.000          49.000
 122950001.30547  95805197.97047  23396604.9234   23396605.3964   23396604.8744
        47.000          41.000
 128870393.88647 100418473.94947  24523232.4524   24523235.5914   24523232.5604
        43.000          38.000
 126478373.98647  98554560.48147  24068047.9254   24068051.7954   24068047.8324
        43.000          39.000
 09  1 12  1 20 30.0000000  0 12G24G14G 9G 5G30G18G31G 6G21G22G12G29
 120719939.28247  94067464.76047  22972256.8534   22972261.6794   22972256.9714
        48.000          41.000
 118515222.30047  92349516.77447  22552702.1134   22552704.5664   22552702.1324
        49.000          43.000
 127774465.36847  99564507.45747  24314680.4324   24314683.0224   24314679.9974
        38.000          35.000
 123432139.36847  96180868.64847  23488369.2374   23488373.5864   23488369.5284
        45.000          39.000
 119503309.21447  93119448.97147  22740732.5204   22740736.1004   22740731.8264
        49.000          42.000
 119798641.55347  93349597.00847  22796917.8714   22796919.8324   22796918.2734
        49.000          42.000
 112530171.61447  87685824.27047  21413800.2874   21413802.3374   21413799.7224
        53.000          47.000
 135593383.53347  87864970.87347  23899626.7034   23899630.4244   23899626.7704
        43.000          37.000
 105269824.74047  82028433.78947  20032181.9784   20032184.1324   20032182.3844
        54.000          49.000
 122902992.78747  95768567.95747  23387659.4934   23387659.6564   23387659.6884
        47.000          41.000
 128885126.68847 100429954.14047  24526035.8224   24526039.5824   24526035.8014
        42.000          38.000
 126543497.45547  98605306.04247  24080440.7244   24080444.3584   24080440.7024
        45.000          39.000
 09  1 12  1 21  0.0000000  0 12G24G14G 9G 5G30G18G31G 6G21G22G12G29
 120803077.22247  94132247.55547  22988077.8404   22988082.0204   22988078.1354
        47.000          41.000
 118554464.13647  92380094.85047  22560169.5524   22560171.9974   22560169.8544
        48.000          43.000
 127880875.58047  99647424.52147  24334929.0954   24334932.2574   24334929.9404
        39.000          34.000
 123433543.56247  96181962.84247  23488636.8134   23488640.4654   23488637.3444
        45.000          39.000
 119478549.16747  93100155.43947  22736020.4414   22736024.3994   22736020.1294
        49.000          43.000
 119761065.66147  93320317.08747  22789767.3364   22789769.5584   22789767.5524
        49.000          42.000
 112457378.29547  87629102.22647  21399948.2114   21399949.8884   21399947.7884
        53.000          47.000
 135576054.41947  87851467.68647  23896329.6754   23896332.6044   23896329.7674
        44.000          38.000
 105293852.53547  82047156.75547  20036754.3924   20036756.4244   20036754.7294
        54.000          49.000
 122855813.33347  95731804.75947  23378681.5624   23378682.0034   23378681.7954
        48.000          42.000
 128900082.88047 100441608.36947  24528882.8314   24528885.1344   24528882.1164
        43.000          37.000
 126608436.83447  98655908.15447  24092798.1744   24092801.8814   24092798.0354
        45.000          39.000
 09  1 12  1 21 30.0000000  0 12G24G14G 9G 5G30G18G31G 6G21G22G12G29
 120886513.39547  94197262.74847  23003955.1754   23003959.6294   23003955.1724
        47.000          41.000
 118593805.10947  92410750.16947  22567655.8784   22567658.1994   22567656.1644
        48.000          43.000
 127987452.21347  99730471.27047  24355209.9814   24355213.3744   24355211.2694
        39.000          35.000
 123435203.09747  96183255.99647  23488952.1944   23488956.0224   23488952.6644
        45.000          39.000
 119453903.97547  93080951.40747  22731330.9814   22731334.6954   22731330.4804
        49.000          43.000
 119723478.51047  93291028.38347  22782614.8684   22782617.2644   22782615.2504
        49.000          42.000
 112385006.37047  87572708.53847  21386176.3024   21386177.9474   21386175.8294
        53.000          47.000
 135558951.82247  87838141.02947  23893075.0264   23893078.6334   23893075.1804
        44.000          38.000
 105318490.61547  82066355.26247  20041442.9504   20041444.8404   20041443.3424
        54.000          49.000
 122808465.01547  95694909.99147  23369671.5464   23369671.9144   23369671.6254
        48.000          42.000
 128915265.56447 100453439.07747  24531771.7504   24531774.1044   24531771.9194
        43.000          37.000
 126673192.55747  98706367.17547  24105120.8544   24105124.3484   24105121.2804
        44.000          39.000
 09  1 12  1 22  0.0000000  0 12G24G14G 9G 5G30G18G31G 6G21G22G12G29
 120970243.92547  94262507.31147  23019888.5884   23019892.8414   23019888.6984
        47.000          41.000
 118633241.44547  92441479.79847  22575160.4114   22575162.6474   22575160.6494
        48.000          43.000
 128094190.98447  99813644.35347  24375522.1174   24375526.1254   24375522.3554
        40.000          35.000
 123437118.30347  96184748.41347  23489317.2114   23489320.5934   23489317.7694
        46.000          39.000
 119429374.96247  93061837.90947  22726663.4184   22726666.9624   22726663.1434
        49.000          43.000
 119685881.06747  93261731.67347  22775460.2294   22775462.0344   22775460.5884
        48.000          42.000
 112313056.93147  87516644.06347  21372484.6954   21372486.4814   21372484.3294
        53.000          47.000
 135542073.07747  87824988.79147  23889863.0174   23889866.7454   23889863.2404
        43.000          38.000
 105343736.86647  82086027.67447  20046247.2054   20046248.9814   20046247.6394
        54.000          49.000
 122760947.89247  95657883.67547  23360629.5224   23360629.5884   23360629.8184
        48.000          42.000
 128930674.89247 100465446.41447  24534704.0014   24534706.0784   24534703.7094
        43.000          37.000
 126737762.10447  98756681.08747  24117408.2644   24117411.7664   24117407.8064
        43.000          39.000
 09  1 12  1 22 30.0000000  0 12G24G14G 9G 5G30G18G31G 6G21G22G12G29
 121054266.07647  94327979.10747  23035877.2614   23035881.9394   23035877.5024
        47.000          41.000
 118672769.94547  92472281.25547  22582682.1854   22582684.6014   22582682.5324
        48.000          43.000
 128201088.34347  99896940.99847  24395864.3904   24395867.5874   24395863.7484
        40.000          34.000
 123439290.26347  96186440.89047  23489730.2594   23489733.7024   23489730.8644
        45.000          39.000
 119404963.44747  93042815.96947  22722018.0764   22722021.5104   22722017.8204
        50.000          43.000
 119648274.82347  93232428.10347  22768304.0204   22768306.1074   22768304.5664
        49.000          42.000
 112241531.55647  87460910.03347  21358873.9384   21358875.5444   21358873.7664
        53.000          47.000
 135525415.95347  87812009.24447  23886692.7524   23886696.7904   23886692.9014
        43.000          38.000
 105369589.59247  82106172.66147  20051166.8074   20051168.5344   20051167.1884
        54.000          49.000
 122713262.49047  95620726.22847  23351555.4194   23351555.4654   23351555.5814
        48.000          42.000
 128946311.52747 100477630.85447  24537679.1674   24537682.2184   24537679.5564
        44.000          38.000
 126802143.26347  98806848.22147  24129659.2874   24129662.9264   24129658.9904
        44.000          39.000
 09  1 12  1 23  0.0000000  0 12G24G14G 9G 5G30G18G31G 6G21G22G12G29
 121138579.14047  94393677.59047  23051922.1214   23051926.2824   23051922.2034
        47.000          41.000
 118712389.56347  92503153.69347  22590221.5014   22590223.8914   22590221.8084
        48.000          43.000
 128308143.03047  99980360.26247  24416235.8254   24416239.3124   24416235.7844
        41.000          35.000
 123441722.43247  96188336.11347  23490192.6094   23490196.9784   23490192.9704
        45.000          39.000
 119380673.41847  93023888.69347  22717396.2604   22717399.0884   22717395.7654
        50.000          43.000
 119610663.31347  93203120.43047  22761147.0914   22761149.0394   22761147.4934
        49.000          42.000
 112170434.43547  87405509.69847  21345344.5844   21345346.0414   21345344.2664
        53.000          47.000
 135508980.65747  87799202.55347  23883565.4474   23883569.3594   23883565.6794
        43.000          38.000
 105396049.61047  82126790.86447  20056201.9284   20056203.8084   20056202.2914
        54.000          49.000
 122665411.70947  95583439.92247  23342449.6914   23342449.8474   23342449.7484
        48.000          42.000
 128962178.47947 100489994.76947  24540698.5224   24540700.8954   24540698.1764
        43.000          37.000
 126866336.83747  98856869.19647  24141875.1094   24141877.9664   24141874.9724
        44.000          39.000
 09  1 12  1 23 30.0000000  0 12G24G14G 9G 5G30G18G31G 6G21G22G12G29
 121223179.34347  94459599.81947  23068020.8064   23068025.3534   23068021.2524
        47.000          41.000
 118752096.02747  92534093.81347  22597777.6254   22597780.1614   22597777.9244
        49.000          43.000
 128415350.48047 100063898.58247  24436636.5704   24436640.2904   24436637.0684
        41.000          35.000
 123444415.14147  96190434.36147  23490704.7034   23490709.1154   23490705.1584
        45.000          39.000
 119356505.46747  93005056.54647  22712797.1904   22712800.1764   22712796.9374
        50.000          43.000
 119573047.66747  93173809.54147  22753988.5854   22753990.8924   22753989.0494
        49.000          42.000
 112099766.37147  87350443.70047  21331897.0394   21331898.5624   21331896.5754
        53.000          47.000
 135492764.31947  87786566.48147  23880479.5144   23880483.2374   23880479.2174
        43.000          38.000
 105423114.43747  82147880.35147  20061352.1834   20061353.9884   20061352.5944
        54.000          49.000
 122617395.11747  95546024.40147  23333312.2434   23333312.6014   23333312.2654
        48.000          42.000
 128978275.81147 100502538.20147  24543761.7954   24543764.2234   24543761.6254
        43.000          37.000
 126930340.36447  98906742.07447  24154054.7644   24154057.7674   24154054.6884
        44.000          39.000
 09  1 12  1 24  0.0000000  0 12G24G14G 9G 5G30G18G31G 6G21G22G12G29
 121308065.85847  94525745.15047  23084174.2684   23084178.6734   23084174.8544
        47.000          41.000
 118791888.66547  92565101.07147  22605350.0634   22605352.0364   22605350.2454
        48.000          43.000
 128522709.45347 100147554.95547  24457066.7104   24457070.3764   24457067.2084
        40.000          34.000
 123447371.73747  96192738.23747  23491267.4254   23491271.8174   23491268.2294
        45.000          39.000
 119332463.82147  92986322.82547  22708222.3354   22708224.7594   22708222.0394
        50.000          43.000
 119535431.18747  93144498.00447  22746830.5134   22746832.9244   22746830.9694
        49.000          42.000
 112029531.30147  87295715.10647  21318531.4274   21318533.2364   21318531.2864
        53.000          48.000
 135476766.85747  87774100.95447  23877435.6904   23877439.0004   23877435.4754
        43.000          38.000
 105450784.74147  82169441.63747  20066617.5564   20066619.6074   20066618.0544
        54.000          49.000
 122569215.47847  95508481.83947  23324143.8144   23324144.2174   23324143.9454
        48.000          41.000
 128994606.32047 100515263.34147  24546869.7154   24546872.3904   24546869.3524
        44.000          38.000
 126994153.76147  98956466.78547  24166198.0284   24166201.2874   24166197.7474
        44.000          39.000
 09  1 12  1 24 30.0000000  0 12G24G14G 9G 5G30G18G31G 6G21G22G12G29
 121393235.94347  94592111.44147  23100381.5114   23100386.2934   23100381.3664
        47.000          41.000
 118831764.30547  92596173.01547  22612937.9294   22612940.2434   22612938.0854
        48.000          43.000
 128630216.79547 100231326.94747  24477523.0154   24477527.2424   24477524.6124
        40.000          34.000
 123450593.55147  96195248.75647  23491880.5244   23491884.8294   23491881.5384
        46.000          40.000
 119308550.19247  92967688.85447  22703671.5124   22703674.0954   22703671.2964
        50.000          43.000
 119497815.81747  93115187.33247  22739672.8044   22739675.1384   22739673.1264
        48.000          42.000
 111959731.63547  87241325.77147  21305249.0314   21305250.8464   21305248.2634
        53.000          48.000
 135460986.41547  87761804.55247  23874432.1854   23874436.4864   23874431.9464
        43.000          38.000
 105479059.00347  82191473.53947  20071997.9304   20072000.0964   20071998.3774
        54.000          49.000
 122520873.70647  95470812.93047  23314944.7244   23314944.9314   23314944.7804
        47.000          41.000
 129011171.27947 100528171.17647  24550021.7484   24550024.0234   24550021.5434
        43.000          37.000
 127057775.81547  99006042.42947  24178304.2984   24178308.2224   24178304.2654
        43.000          38.000
 09  1 12  1 25  0.0000000  0 12G24G14G 9G 5G30G18G31G 6G21G22G12G29
 121478687.00147  94658696.67147  23116642.1154   23116646.8254   23116642.2394
        47.000          41.000
 118871719.99547  92627307.33547  22620541.1444   22620543.6714   22620541.5244
        49.000          43.000
 128737869.44247 100315212.16847  24498010.3524   24498013.0874   24498009.6624
        39.000          34.000
 123454082.19447  96197967.21647  23492544.6724   23492548.8094   23492545.0474
        45.000          40.000
 119284766.60847  92949156.21247  22699145.6454   22699148.6194   22699145.5234
        50.000          43.000
 119460203.38047  93085878.93047  22732514.7724   22732517.7384   22732515.3674
        49.000          42.000
 111890369.28947  87187277.21847  21292049.8914   21292051.7334   21292049.8584
        53.000          48.000
 135445421.47547  87749676.06247  23871470.5964   23871474.3184   23871470.7464
        43.000          38.000
 105507936.65347  82213975.60747  20077493.2954   20077495.2814   20077493.6544
        54.000          49.000
 122472370.93647  95433018.57047  23305714.6254   23305715.3934   23305714.4464
        47.000          41.000
 129027971.59247 100541262.40447  24553218.4134   24553220.7114   24553218.0334
        43.000          37.000
 127121205.37347  99055468.04147  24190374.3524   24190378.0774   24190374.4304
        44.000          38.000
 09  1 12  1 25 30.0000000  0 12G24G14G 9G 5G30G18G31G 6G21G22G12G29
 121564416.23347  94725498.65647  23132955.8554   23132960.6454   23132955.9514
        47.000          41.000
 118911752.95547  92658501.86947  22628159.4934   22628161.7984   22628159.7674
        49.000          43.000
 138845643.76357  90399183.73557  24518526.0155   24518530.9135   24518522.0375
        39.000          33.000
 123457838.75447  96200894.44247  23493259.6964   23493263.6134   23493260.1944
        46.000          40.000
 119261115.12047  92930726.51347  22694644.9444   22694647.8954   22694644.7254
        50.000          43.000
 119422595.94447  93056574.41647  22725358.5544   22725361.0424   22725358.9294
        49.000          42.000
 111821446.04047  87133570.82147  21278934.0584   21278936.0914   21278933.5304
        53.000          48.000
 135430069.83347  87737713.78747  23868548.8134   23868553.2074   23868548.8394
        43.000          38.000
 105537415.74047  82236946.33047  20083103.1324   20083104.8994   20083103.5554
        54.000          49.000
 122423707.92947  95395099.34347  23296454.2834   23296455.0194   23296454.3784
        48.000          41.000
 129045008.41547 100554537.92547  24556459.9504   24556463.2814   24556460.0134
        43.000          37.000
 127184440.59747  99104742.24347  24202407.8204   24202411.1374   24202407.6774
        43.000          38.000
 09  1 12  1 26  0.0000000  0 11G24G14G 5G30G18G31G 6G21G22G12G29
 121650422.89147  94792516.82247  23149322.1124   23149327.1894   23149322.5904
        47.000          41.000
 118951862.08247  92689755.74447  22635791.9974   22635794.3654   22635792.1724
        49.000          43.000
 123461866.71047  96204033.14747  23494026.1784   23494030.0474   23494026.8164
        45.000          40.000
 119237599.58347  92912402.75847  22690169.8274   22690172.8274   22690169.7824
        49.000          43.000
 119384996.94647  93027276.48847  22718204.0424   22718206.1594   22718204.3964
        49.000          42.000
 111752966.07247  87080209.83147  21265902.7884   21265904.5864   21265902.5804
        53.000          48.000
 135414931.70647  87725917.89447  23865668.6254   23865672.2024   23865668.7454
        44.000          38.000
 105567496.87647  82260386.17947  20088827.5454   20088829.0364   20088828.0034
        54.000          49.000
 122374887.41947  95357057.40047  23287163.9874   23287164.9724   23287164.4184
        48.000          41.000
 129062284.82347 100568000.09547  24559747.9644   24559750.5324   24559747.7934
        43.000          37.000
 127247481.99347  99153865.37747  24214404.4594   24214407.4614   24214404.0204
        43.000          38.000
 09  1 12  1 26 30.0000000  0 11G24G14G 5G30G18G31G 6G21G22G12G29
 121736702.74547  94859747.87447  23165741.0014   23165745.7324   23165740.9844
        46.000          40.000
 118992043.19547  92721065.71347  22643438.0404   22643440.1164   22643438.2154
        48.000          42.000
 123466165.69947  96207383.03947  23494844.0224   23494848.1034   23494844.3384
        45.000          40.000
 119214220.68847  92894185.46747  22685721.0584   22685723.9444   22685720.5014
        49.000          43.000
 119347406.65747  92997985.34847  22711050.6894   22711052.7394   22711051.2874
        49.000          42.000
 111684929.54247  87027194.37947  21252955.7094   21252957.5454   21252955.3874
        53.000          48.000
 135400003.61747  87714285.64747  23862827.5984   23862830.8894   23862827.8744
        44.000          38.000
 105598177.08647  82284292.84347  20094665.6004   20094667.2484   20094665.9894
        54.000          49.000
 122325908.72547  95318892.18247  23277844.0144   23277844.6824   23277843.8874
        48.000          41.000
 129079799.92647 100581648.31047  24563080.5564   24563083.9104   24563080.5914
        42.000          37.000
 127310326.80447  99202835.36747  24226363.1234   24226366.6654   24226362.7884
        43.000          38.000
 09  1 12  1 27  0.0000000  0 11G24G14G 5G30G18G31G 6G21G22G12G29
 121823254.57447  94927190.84147  23182211.1644   23182215.9584   23182211.2294
        46.000          40.000
 119032294.21947  92752430.17647  22651097.6054   22651099.4884   22651097.7524
        48.000          42.000
 123470738.77347  96210946.52647  23495714.0204   23495718.2944   23495714.7584
        45.000          40.000
 119190981.54347  92876077.07147  22681298.6004   22681301.7964   22681298.2664
        49.000          43.000
 119309828.72347  92968703.83047  22703899.8864   22703901.7484   22703900.1924
        48.000          42.000
 111617340.12247  86974527.32047  21240093.8534   21240095.7344   21240093.3014
        53.000          48.000
 135385285.28147  87702816.84947  23860026.8204   23860030.4694   23860026.6594
        43.000          38.000
 105629456.26347  82308666.22947  20100617.8394   20100619.3874   20100618.2564
        54.000          49.000
 122276774.66347  95280605.89947  23268494.3124   23268494.6434   23268494.3904
        48.000          41.000
 129097556.49047 100595484.66147  24566459.1404   24566461.7924   24566459.4834
        42.000          37.000
 127372975.26047  99251652.36847  24238285.0374   24238288.5214   24238284.7564
        43.000          38.000
 09  1 12  1 27 30.0000000  0 11G24G14G 5G30G18G31G 6G21G22G12G29
 121910078.00747  94994845.45047  23198733.2884   23198738.2544   23198733.2234
        46.000          40.000
 119072614.80447  92783848.82547  22658770.0714   22658772.5124   22658770.4464
        48.000          43.000
 123475589.42247  96214726.28547  23496637.3664   23496641.6534   23496637.4354
        46.000          40.000
 119167886.23847  92858080.78447  22676903.9604   22676906.7714   22676903.7414
        50.000          43.000
 119272267.05347  92939434.98847  22696752.1574   22696753.5564   22696752.6024
        49.000          42.000
 111550202.00347  86922211.93247  21227317.8804   21227319.7074   21227317.7984
        53.000          48.000
 135370776.83747  87691511.60547  23857266.1834   23857269.5884   23857266.1914
        43.000          38.000
 105661335.19947  82333506.96647  20106683.8824   20106685.9344   20106684.2474
        54.000          49.000
 122227488.14147  95242200.81947  23259115.1864   23259115.5824   23259115.2654
        47.000          41.000
 129115557.96047 100609511.83447  24569884.9004   24569888.2424   24569884.0974
        42.000          37.000
 127435427.94647  99300316.80147  24250169.3074   24250172.9654   24250168.8864
        43.000          38.000
 09  1 12  1 28  0.0000000  0 11G24G14G 5G30G18G31G 6G21G22G12G29
 121997165.18347  95062705.57447  23215305.3744   23215310.3554   23215305.7014
        46.000          40.000
 119112997.26747  92815315.69447  22666455.0164   22666457.1424   22666455.2034
        49.000          43.000
 123480714.03247  96218719.53947  23497612.5204   23497616.6484   23497613.1524
        46.000          40.000
 119144931.89647  92840194.32247  22672535.4824   22672538.7834   22672535.2784
        49.000          43.000
 119234718.54847  92910176.42147  22689606.9934   22689608.4694   22689607.6634
        49.000          42.000
 111483512.30647  86870245.95347  21214627.1804   21214628.9974   21214626.6164
        53.000          48.000
 135356471.56847  87680364.66247  23854543.8804   23854547.3174   23854543.6014
        42.000          38.000
 105693807.44847  82358810.02347  20112863.1394   20112865.1364   20112863.5954
        54.000          49.000
 122178045.10547  95203673.78347  23249706.4874   23249707.0364   23249706.3084
        48.000          41.000
 129133800.07747 100623726.53447  24573355.9274   24573359.1554   24573356.0084
        42.000          37.000
 127497678.54147  99348823.76747  24262015.7624   24262018.7764   24262015.7174
        44.000          38.000
 09  1 12  1 28 30.0000000  0 11G24G14G 5G30G18G31G 6G21G22G12G29
 122084519.55847  95130773.91447  23231928.7094   23231933.1574   23231928.7934
        46.000          40.000
 119153445.05947  92846833.46947  22674151.7994   22674154.0404   22674151.8684
        48.000          43.000
 123486120.36647  96222932.31247  23498640.8704   23498645.2934   23498641.4044
        46.000          40.000
 119122126.59947  92822423.98847  22668196.0514   22668198.8964   22668195.9204
        49.000          43.000
 119197191.49347  92880934.57047  22682465.9224   22682467.8554   22682466.3774
        49.000          42.000
 111417279.03547  86818635.62947  21202023.5574   21202025.3274   21202023.2894
        53.000          48.000
 135342373.93447  87669379.52747  23851861.0624   23851864.8754   23851860.8744
        43.000          38.000
 105726878.01147  82384579.29647  20119156.2384   20119158.3194   20119156.5354
        54.000          49.000
 122128453.12047  95165030.67247  23240269.4504   23240269.6304   23240269.5324
        48.000          41.000
 129152290.31247 100638134.54047  24576875.1014   24576878.0094   24576874.8564
        43.000          37.000
 127559732.31547  99397177.38747  24273823.6614   24273827.3544   24273823.4034
        44.000          38.000
 09  1 12  1 29  0.0000000  0 11G24G14G 5G30G18G31G 6G21G22G12G29
 122172135.55247  95199046.10747  23248601.2104   23248606.2474   23248601.1804
        46.000          40.000
 119193952.32947  92878397.59047  22681859.8484   22681862.5364   22681860.1394
        48.000          43.000
 123491806.74247  96227363.30047  23499723.3054   23499727.3964   23499723.7524
        46.000          40.000
 119099469.61347  92804769.22047  22663884.5854   22663887.9544   22663884.1084
        49.000          43.000
 119159685.07847  92851708.79847  22675328.4764   22675331.0454   22675328.9624
        49.000          42.000
 111351501.31347  86767380.28347  21189506.8634   21189508.3104   21189506.5064
        54.000          48.000
 135328478.96247  87658552.31047  23849217.0424   23849221.0384   23849217.0564
        43.000          38.000
 105760542.30747  82410811.22147  20125562.4954   20125564.5004   20125562.9154
        54.000          49.000
 122078710.04947  95126269.84347  23230803.9004   23230803.7764   23230803.8554
        48.000          41.000
 129171026.66347 100652734.34247  24580441.0314   24580443.7624   24580440.4974
        42.000          37.000
 127621584.79147  99445374.11447  24285593.6424   24285597.3444   24285593.2784
        43.000          38.000
 09  1 12  1 29 30.0000000  0 11G24G14G 5G30G18G31G 6G21G22G12G29
 122260010.79047  95267520.31747  23265323.0154   23265328.3384   23265322.8194
        46.000          40.000
 119234516.67647  92910006.18547  22689579.2584   22689581.4094   22689579.4944
        49.000          43.000
 123497775.07847  96232013.99247  23500859.1464   23500863.3564   23500859.5824
        46.000          40.000
 119076963.46647  92787231.98047  22659601.2794   22659604.7774   22659601.0034
        49.000          43.000
 119122201.37147  92822500.70547  22668195.7254   22668197.7434   22668196.0494
        49.000          43.000
 111286181.48847  86716481.73747  21177076.6914   21177078.4074   21177076.3714
        53.000          48.000
 135314785.46747  87647882.09447  23846611.1474   23846614.9564   23846610.9694
        43.000          38.000
 105794798.72947  82437504.54147  20132081.3734   20132083.1034   20132081.8024
        54.000          49.000
 122028817.12547  95087392.23347  23221309.8024   23221309.5494   23221309.6704
        48.000          41.000
 129190010.63447 100667527.10547  24584052.8344   24584055.9804   24584052.3114
        43.000          37.000
 127683235.29747  99493413.46647  24297325.4744   24297329.0614   24297324.7334
        43.000          38.000
 09  1 12  1 30  0.0000000  0 11G24G14G 5G30G18G31G 6G21G22G12G29
 122348143.81747  95336195.38447  23282094.2024   23282099.3024   23282094.3154
        46.000          40.000
 119275136.14347  92941657.72847  22697308.8854   22697311.0654   22697309.3094
        48.000          43.000
 123504027.58347  96236886.12747  23502048.6524   23502052.3894   23502049.6714
        45.000          40.000
 119054611.40747  92769814.82447  22655348.0814   22655351.1234   22655347.6744
        49.000          43.000
 119084743.57347  92793312.81347  22661068.1474   22661069.9374   22661068.6884
        50.000          43.000
 111221322.69647  86665942.43747  21164734.6374   21164736.1064   21164734.2654
        54.000          48.000
 135301292.39747  87637368.04247  23844043.5634   23844047.0614   23844043.8474
        43.000          38.000
 105829647.39947  82464659.35447  20138712.6944   20138714.7374   20138713.0544
        54.000          49.000
 121978777.27747  95048400.15347  23211787.2674   23211787.5244   23211787.3954
        47.000          41.000
 129209243.92147 100682514.12547  24587712.0704   24587715.7274   24587712.3464
        42.000          37.000
 127744683.44047  99541295.13047  24309018.7054   24309022.0294   24309018.5504
        44.000          38.000
 09  1 12  1 30 30.0000000  0 11G24G14G 5G30G18G31G 6G21G22G12G29
 122436534.31447  95405071.09347  23298914.5064   23298919.1934   23298914.3494
        46.000          40.000
 119315810.65847  92973352.18047  22705048.9234   22705051.3224   22705049.1014
        48.000          43.000
 123510568.24947  96241982.78147  23503293.2424   23503297.3894   23503294.1044
        46.000          40.000
 119032417.55247  92752520.93247  22651124.8254   22651127.2114   22651124.3784
        49.000          43.000
 119047316.11547  92764148.55447  22653945.8424   22653947.6344   22653946.1324
        50.000          42.000
 111156929.10547  86615765.63547  21152480.8534   21152482.4134   21152480.3914
        54.000          48.000
 135288000.55947  87627010.79747  23841513.9774   23841518.2754   23841513.7054
        43.000          37.000
 105865089.29247  82492276.41647  20145457.1614   20145458.9454   20145457.6314
        54.000          49.000
 121928593.40247  95009295.83547  23202237.3554   23202237.8084   23202237.5574
        47.000          41.000
 129228730.43047 100697698.46847  24591421.1274   24591423.8334   24591421.2334
        42.000          37.000
 127805930.43947  99589020.06147  24320673.6214   24320677.0034   24320673.6444
        43.000          38.000
 09  1 12  1 31  0.0000000  0 11G24G14G 5G30G18G31G 6G21G22G12G29
 122525175.36647  95474142.03147  23315782.3744   23315787.1434   23315782.1604
        46.000          40.000
 119356532.97947  93005083.87247  22712797.8514   22712800.7824   22712798.1734
        48.000          43.000
 123517394.02347  96247301.61447  23504592.2324   23504596.3374   23504592.6914
        46.000          39.000
 119010380.10447  92735348.92147  22646931.1474   22646933.7414   22646930.8154
        50.000          43.000
 119009916.40247  92735005.93247  22646828.8644   22646830.6004   22646829.4134
        49.000          42.000
 111092998.55447  86565949.64247  21140315.2554   21140316.7964   21140314.7654
        54.000          48.000
 135274903.84247  87616805.57847  23839021.6134   23839025.5024   23839021.6514
        43.000          37.000
 105901118.17947  82520350.88047  20152313.1394   20152315.1394   20152313.5174
        54.000          49.000
 121878262.55547  94970076.99647  23192659.4104   23192659.7384   23192659.1754
        47.000          41.000
 129248466.76147 100713077.45147  24595176.7774   24595179.0724   24595176.5714
        43.000          37.000
 127866970.91947  99636584.06047  24332289.4264   24332293.3124   24332289.1554
        45.000          38.000
 09  1 12  1 31 30.0000000  0 11G24G14G 5G30G18G31G 6G21G22G12G29
 122614067.40247  95543408.54247  23332697.8424   23332702.8344   23332698.0514
        46.000          40.000
 119397303.40147  93036853.04947  22720556.2914   22720558.7234   22720556.3254
        47.000          42.000
 123524509.44347  96252846.12747  23505946.0064   23505950.0344   23505946.3534
        45.000          39.000
 118988503.99047  92718302.61847  22642768.5214   22642771.0174   22642768.1874
        50.000          43.000
 118972549.92947  92705889.20747  22639717.9934   22639720.2614   22639718.4554
        49.000          43.000
 111029536.07247  86516498.37847  21128238.7174   21128240.3264   21128238.4454
        54.000          48.000
 135262003.42847  87606753.33347  23836566.6724   23836570.4954   23836566.9054
        43.000          38.000
 105937735.85247  82548884.13647  20159281.3514   20159283.2524   20159281.7904
        54.000          49.000
 121827789.10847  94930747.01747  23183055.3954   23183055.0164   23183055.2814
        47.000          41.000
 129268457.04747 100728654.35047  24598981.1064   24598982.8014   24598981.2084
        43.000          37.000
 127927806.89547  99683988.71547  24343865.9884   24343869.8524   24343866.2704
        43.000          38.000
 09  1 12  1 32  0.0000000  0 11G24G14G 5G30G18G31G 6G21G22G12G29
 122703209.04847  95612869.54147  23349660.9834   23349665.7014   23349661.2784
        46.000          40.000
 119438120.49447  93068658.59647  22728323.3994   22728325.8424   22728323.4264
        48.000          42.000
 123531917.17547  96258618.43347  23507355.5804   23507359.7834   23507356.3224
        45.000          39.000
 118966792.60247  92701384.68347  22638637.0394   22638639.4694   22638636.6214
        50.000          43.000
 118935219.98947  92676800.94647  22632614.3594   22632616.3704   22632614.8144
        49.000          42.000
 110966544.89947  86467414.36647  21116251.9844   21116253.3084   21116251.4774
        54.000          48.000
 135249298.79047  87596853.62847  23834149.2564   23834153.2134   23834149.5154
        43.000          38.000
 105974941.65847  82577875.68047  20166361.2824   20166363.2294   20166361.6414
        54.000          49.000
 121777175.33447  94891307.72447  23173423.5264   23173423.8004   23173423.8124
        47.000          40.000
 129288703.83547 100744431.10447  24602833.3164   24602836.1054   24602833.3474
        42.000          37.000
 127988438.63747  99731234.24047  24355403.6034   24355407.5354   24355403.7744
        43.000          38.000
 09  1 12  1 32 30.0000000  0 11G24G14G 5G30G18G31G 6G21G22G12G29
 122792595.61347  95682521.40047  23366670.6904   23366675.4134   23366671.0774
        46.000          40.000
 119478979.65847  93100496.92047  22736098.5024   22736101.0994   22736098.8104
        48.000          42.000
 123539616.55347  96264617.99047  23508820.4394   23508824.8994   23508821.1034
        46.000          39.000
 118945245.79747  92684595.00547  22634536.5414   22634539.2234   22634536.3644
        50.000          43.000
 118897926.41947  92647741.00847  22625517.2844   22625519.4144   22625517.8114
        49.000          42.000
 110904024.79247  86418697.42247  21104354.6154   21104355.9924   21104354.3144
        54.000          48.000
 135236786.00747  87587103.43147  23831768.2774   23831771.7814   23831768.1064
        43.000          38.000
 106012732.05747  82607322.74847  20173552.8374   20173554.4244   20173553.3224
        54.000          49.000
 121726420.45547  94851758.49147  23163764.9754   23163765.4934   23163765.0154
        47.000          41.000
 129309205.94147 100760406.81747  24606734.8624   24606737.7334   24606734.4984
        42.000          37.000
 128048862.64147  99778317.86747  24366901.8254   24366905.6094   24366901.6994
        43.000          37.000
 09  1 12  1 33  0.0000000  0 11G24G14G 5G30G18G31G 6G21G22G12G29
 122882225.40647  95752362.79647  23383726.9134   23383731.1214   23383726.9904
        46.000          40.000
 119519879.39947  93132366.85747  22743881.5224   22743884.1384   22743881.9864
        48.000          42.000
 123547610.22847  96270846.86747  23510342.4784   23510345.6684   23510342.5434
        46.000          39.000
 118923867.03647  92667936.26347  22630468.1474   22630470.8784   22630467.8814
        49.000          43.000
 118860673.02547  92618712.39147  22618428.3794   22618430.6774   22618428.8704
        49.000          42.000
 110841978.68347  86370349.82247  21092547.5734   21092549.1104   21092547.0134
        54.000          48.000
 135224464.42247  87577502.21247  23829423.2104   23829427.0794   23829423.4014
        44.000          38.000
 106051106.49747  82637224.91647  20180855.0204   20180856.9044   20180855.2984
        54.000          49.000
 121675527.24747  94812101.42947  23154080.4074   23154080.7264   23154080.4494
        47.000          40.000
 129329965.59647 100776583.21947  24610686.3134   24610687.8224   24610685.4584
        41.000          37.000
 128109078.86947  99825239.60347  24378360.2224   24378364.3764   24378360.3674
        41.000          37.000
 09  1 12  1 33 30.0000000  0 11G24G14G 5G30G18G31G 6G21G22G12G29
 122972096.12547  95822391.90647  23400828.7534   23400833.5684   23400829.3654
        46.000          40.000
 119560817.06547  93164266.35247  22751672.0554   22751674.1304   22751672.2884
        48.000          42.000
 123555899.55847  96277306.13247  23511919.4684   23511923.1374   23511920.0774
        47.000          39.000
 118902658.53647  92651410.19847  22626432.2914   22626435.1654   22626431.9734
        50.000          43.000
 118823461.53547  92589716.41147  22611347.3274   22611349.5304   22611347.9054
        49.000          42.000
 110780408.90147  86322373.39447  21080831.2034   21080832.9074   21080830.9244
        54.000          48.000
 135212332.37247  87568048.69247  23827114.3944   23827118.2634   23827114.5324
        43.000          38.000
 106090063.54647  82667581.05747  20188268.4414   20188270.2584   20188268.9684
        54.000          49.000
 121624496.71047  94772337.37947  23144369.8234   23144369.9434   23144369.9054
        47.000          41.000
 129350983.86647 100792961.12147  24614685.4984   24614687.6534   24614685.2644
        41.000          37.000
 128169086.89847  99871999.10947  24389779.9154   24389783.8654   24389779.8464
        42.000          37.000
 09  1 12  1 34  0.0000000  0 11G24G14G 5G30G18G31G 6G21G22G12G29
 123062206.22747  95892607.56347  23417975.9684   23417981.0934   23417976.3184
        45.000          40.000
 119601791.03747  93196194.13247  22759469.0864   22759471.2714   22759469.2074
        48.000          42.000
 123564487.05747  96283997.74147  23513553.5624   23513557.4954   23513554.0414
        46.000          39.000
 118881623.44547  92635019.23347  22622429.0024   22622432.2314   22622429.0344
        49.000          43.000
 118786295.27947  92560755.67047  22604275.1884   22604277.0844   22604275.6424
        49.000          42.000
 110719318.45547  86274770.47547  21069206.0494   21069207.6124   21069205.6014
        54.000          48.000
 135200389.02047  87558742.21647  23824841.9614   23824845.4654   23824841.7094
        43.000          38.000
 106129602.67347  82698390.77747  20195792.2624   20195794.2604   20195792.5274
        55.000          49.000
 121573331.23847  94732468.19647  23134632.6314   23134633.5644   23134632.9194
        47.000          41.000
 129372263.00447 100809542.35147  24618734.3014   24618736.4034   24618734.6484
        41.000          37.000
 128228886.42347  99918596.13447  24401159.8324   24401163.6214   24401159.0044
        42.000          37.000
 09  1 12  1 34 30.0000000  0 11G24G14G 5G30G18G31G 6G21G22G12G29
 123152552.14447  95963006.96447  23435168.1714   23435173.1414   23435167.8454
        45.000          39.000
 119642797.61647  93228147.32947  22767272.0564   22767274.2994   22767272.0414
        48.000          42.000
 123573373.16247  96290922.01847  23515244.4414   23515248.8214   23515245.0394
        46.000          39.000
 118860762.82447  92618764.20047  22618459.6364   22618462.8594   22618459.2924
        49.000          43.000
 118749175.61247  92531831.26447  22597211.2564   22597213.4034   22597211.7104
        49.000          42.000
 110658708.20847  86227541.73547  21057672.3974   21057673.8104   21057672.0494
        54.000          48.000
 135188631.64347  87549580.64547  23822604.6824   23822608.5864   23822604.3934
        43.000          38.000
 106169721.18247  82729651.95447  20203426.7854   20203428.4564   20203427.1644
        54.000          49.000
 121522031.50947  94692494.38247  23124871.2594   23124871.6884   23124871.2754
        48.000          41.000
 129393802.81847 100826326.65047  24622833.3224   24622836.0154   24622832.6484
        41.000          37.000
 128288475.57247  99965029.23547  24412499.4344   24412502.2554   24412498.9594
        42.000          38.000
 09  1 12  1 35  0.0000000  0 11G24G14G 5G30G18G31G 6G21G22G12G29
 123243131.99347  96033588.64947  23452404.5944   23452410.3394   23452404.7844
        46.000          39.000
 119683835.12747  93260124.61047  22775081.2194   22775083.3684   22775081.2014
        47.000          42.000
 123582560.08247  96298080.71547  23516992.4944   23516996.6974   23516992.8154
        46.000          39.000
 118840079.86747  92602647.62147  22614523.9484   22614526.9264   22614523.7584
        50.000          43.000
 118712105.36847  92502945.37947  22590157.2364   22590159.2354   22590157.4974
        50.000          42.000
 110598580.90747  86180689.32247  21046230.4334   21046231.8624   21046230.0594
        54.000          48.000
 135177059.37647  87540563.31947  23820401.8734   23820406.7984   23820402.0224
        44.000          38.000
 106210417.92647  82761363.70447  20211170.8904   20211172.6844   20211171.2514
        54.000          49.000
 121470599.40947  94652417.42747  23115084.1704   23115084.4534   23115084.2884
        48.000          41.000
 129415605.06847 100843315.45147  24626982.5044   24626984.1014   24626982.0194
        41.000          37.000
 128347854.14947 100011298.24947  24423798.7934   24423802.1394   24423797.8144
        42.000          38.000
 09  1 12  1 35 30.0000000  0 11G24G14G 5G30G18G31G 6G21G22G12G29
 123333942.94847  96104350.42547  23469685.4544   23469690.6824   23469685.8154
        46.000          39.000
 119724900.79347  93292123.84547  22782895.9144   22782898.0824   22782896.2334
        48.000          42.000
 123592048.88947  96305474.63047  23518797.7084   23518802.1084   23518798.1134
        46.000          39.000
 118819576.47847  92586670.98147  22610622.6234   22610625.3824   22610622.1644
        50.000          43.000
 118675086.75747  92474099.70347  22583112.8294   22583114.7044   22583113.1774
        49.000          43.000
 110538938.38647  86134214.66247  21034880.8034   21034882.2394   21034880.5064
        54.000          48.000
 135165670.32247  87531688.75047  23818235.2044   23818238.6404   23818235.6754
        43.000          38.000
 106251691.28547  82793524.77147  20219025.0164   20219026.7974   20219025.3914
        54.000          49.000
 121419035.97447  94612238.12547  23105271.8294   23105272.1034   23105271.7574
        48.000          41.000
 129437671.24847 100860509.94547  24631180.9064   24631184.1564   24631180.9314
        41.000          36.000
 128407020.97647 100057402.25747  24435057.3854   24435061.1664   24435056.8724
        42.000          37.000
 09  1 12  1 36  0.0000000  0 11G24G14G 5G30G18G31G 6G21G22G12G29
 123424983.12647  96175290.81047  23487010.0674   23487015.1664   23487010.1704
        46.000          39.000
 119765992.43147  93324143.30547  22790715.7904   22790717.6524   22790715.9754
        48.000          42.000
 123601841.68747  96313105.42147  23520661.7604   23520665.7024   23520662.1114
        45.000          39.000
 118799255.12847  92570836.18047  22606755.5954   22606758.2734   22606754.9954
        50.000          43.000
 118638122.21147  92445296.16047  22576078.7254   22576080.5444   22576079.1814
        50.000          43.000
 110479783.07147  86088119.63847  21023623.9994   21023625.4124   21023623.6924
        54.000          48.000
 135154463.11347  87522955.88947  23816102.2184   23816106.9164   23816101.9204
        44.000          39.000
 106293540.14247  82826134.26747  20226988.6184   20226990.5764   20226989.0854
        54.000          49.000
 121367343.31747  94571958.13147  23095435.1924   23095435.4764   23095435.1284
        48.000          41.000
 129460002.60747 100877911.04747  24635429.6514   24635433.4904   24635429.7534
        40.000          36.000
 128465975.95347 100103341.19147  24446276.2774   24446279.5214   24446276.1504
        42.000          38.000
 09  1 12  1 36 30.0000000  0 11G24G14G 5G30G18G31G 6G21G22G12G29
 123516249.09747  96246407.16347  23504377.4794   23504382.8224   23504377.4744
        46.000          39.000
 119807106.73047  93356180.43247  22798539.5484   22798541.3704   22798539.6684
        48.000          42.000
 123611938.94247  96320973.45147  23522582.9464   23522587.1674   23522583.7344
        46.000          39.000
 118779117.50547  92555144.55647  22602923.0694   22602925.9934   22602922.8054
        50.000          43.000
 118601212.96047  92416535.70647  22569055.0504   22569056.9364   22569055.7274
        50.000          42.000
 110421115.73947  86042404.86247  21012459.8004   21012461.2814   21012459.4164
        54.000          48.000
 135143435.28547  87514362.78747  23814004.0114   23814007.4834   23814003.9854
        44.000          38.000
 106335961.92547  82859190.20947  20235061.2424   20235063.1264   20235061.6914
        54.000          49.000
 121315521.96247  94531577.85047  23085573.8014   23085574.2944   23085573.7084
        47.000          41.000
 129482599.57547 100895519.12847  24639729.3924   24639732.7924   24639729.3814
        39.000          36.000
 128524717.04847 100149113.45447  24457454.2404   24457458.5214   24457454.4274
        43.000          38.000
 09  1 12  1 37  0.0000000  0 11G24G14G 5G30G18G31G 6G21G22G12G29
 123607740.94847  96317699.48447  23521787.9774   23521792.8264   23521787.9834
        46.000          39.000
 119848243.99347  93388235.45047  22806367.4954   22806369.4504   22806367.5844
        48.000          42.000
 123622344.83947  96329081.97347  23524563.4484   23524566.8314   23524564.0304
        46.000          39.000
 118759168.75347  92539600.10447  22599127.2134   22599129.7424   22599127.0344
        50.000          43.000
 118564364.26647  92387822.45347  22562042.8584   22562044.7054   22562043.4054
        49.000          42.000
 110362941.03447  85997073.95147  21001389.4124   21001391.1064   21001389.0274
        54.000          48.000
 135132587.75647  87505910.19847  23811939.8154   23811943.4534   23811939.7244
        44.000          38.000
 106378957.52747  82892693.27847  20243242.9684   20243244.9044   20243243.3514
        55.000          49.000
 121263576.07447  94491100.54147  23075688.4864   23075688.9844   23075688.6544
        48.000          41.000
 129505465.61947 100913336.87047  24644080.6574   24644084.1344   24644080.5904
        39.000          36.000
 128583246.15747 100194720.57347  24468591.6324   24468594.9524   24468591.4404
        42.000          37.000
 09  1 12  1 37 30.0000000  0 11G24G14G 5G30G18G31G 6G21G22G12G29
 123699453.32247  96389163.65647  23539240.2124   23539245.0444   23539240.4804
        45.000          39.000
 119889398.98947  93420304.29547  22814199.2394   22814201.3234   22814199.4044
        49.000          42.000
 123633057.99547  96337429.91647  23526601.8244   23526605.6964   23526602.3284
        46.000          39.000
 118739408.00647  92524202.15547  22595366.8174   22595369.6704   22595366.4344
        50.000          43.000
 118527575.97047  92359156.25147  22555041.8314   22555044.1844   22555042.0874
        49.000          42.000
 110305258.02247  85952126.17547  20990412.6984   20990414.3534   20990412.2924
        54.000          48.000
 135121915.82747  87497594.43747  23809909.0634   23809912.8154   23809909.4844
        44.000          39.000
 106422522.52647  82926640.03947  20251533.2344   20251535.0554   20251533.6504
        54.000          49.000
 121211504.47247  94450525.27447  23065779.9974   23065780.2274   23065780.0194
        48.000          42.000
 129528599.00847 100931362.93847  24648483.8634   24648485.5834   24648483.1624
        41.000          36.000
 128641559.68547 100240159.66247  24479687.8654   24479692.1724   24479687.6834
        41.000          37.000
 09  1 12  1 38  0.0000000  0 11G24G14G 5G30G18G31G 6G21G22G12G29
 123791384.02147  96460797.95047  23556733.9194   23556738.9404   23556733.5234
        45.000          39.000
 119930569.24547  93452385.01247  22822033.6634   22822035.6254   22822034.0214
        48.000          43.000
 123644079.96547  96346018.49147  23528699.4644   23528702.8474   23528700.0854
        45.000          40.000
 118719837.73147  92508952.62847  22591642.4544   22591645.4894   22591642.1544
        50.000          43.000
 118490850.30347  92330538.86947  22548053.3224   22548055.4884   22548053.9424
        49.000          42.000
 110248069.44147  85907563.67047  20979529.9834   20979531.7464   20979529.4764
        54.000          48.000
 135111418.19447  87489414.50447  23807911.3364   23807915.0154   23807911.0784
        43.000          39.000
 106466655.12947  82961029.08547  20259931.1244   20259933.1704   20259931.4954
        54.000          49.000
 121159308.83947  94409853.36147  23055847.3364   23055847.7924   23055847.3044
        48.000          42.000
 129552000.86947 100949598.20247  24652936.3634   24652939.5074   24652936.7624
        41.000          36.000
 128699657.34547 100285430.53347  24490744.0424   24490747.8364   24490743.7334
        42.000          37.000
 09  1 12  1 38 30.0000000  0 11G24G14G 5G30G18G31G 6G21G22G12G29
 123883532.88247  96532602.24247  23574269.5494   23574274.3284   23574269.5084
        46.000          39.000
 119971754.94947  93484477.77947  22829870.9384   22829873.0774   22829871.2024
        48.000          42.000
 123655414.85647  96354850.89447  23530856.1014   23530860.4464   23530856.6224
        45.000          40.000
 118700462.66647  92493855.20547  22587955.5874   22587958.6374   22587955.2204
        50.000          43.000
 118454192.32747  92301974.21047  22541077.8854   22541079.4574   22541078.3394
        50.000          42.000
 110191379.56847  85863389.76347  20968742.3354   20968743.8134   20968741.9254
        54.000          48.000
 135101095.62347  87481370.96847  23805946.9034   23805950.7094   23805946.9414
        43.000          38.000
 106511356.35347  82995861.21047  20268437.5564   20268439.5894   20268437.9394
        54.000          49.000
 121106993.35947  94369088.04847  23045892.3004   23045892.5224   23045892.4694
        49.000          42.000
 129575675.36247 100968045.91547  24657441.7774   24657443.9544   24657441.3514
        41.000          36.000
 128757540.56247 100330534.30947  24501759.2524   24501762.2004   24501758.6544
        43.000          37.000
 09  1 12  1 39  0.0000000  0 11G24G14G 5G30G18G31G 6G21G22G12G29
 123975896.04047  96604573.51347  23591845.7854   23591850.5154   23591845.7864
        45.000          39.000
 120012952.13647  93516579.49547  22837710.5874   22837712.4554   22837710.6114
        48.000          42.000
 123667062.47747  96363926.99447  23533072.9504   23533076.9034   23533073.1374
        46.000          40.000
 118681283.56747  92478910.48547  22584305.6454   22584308.9324   22584305.4304
        50.000          43.000
 118417602.63847  92273462.76447  22534114.8314   22534116.6244   22534115.5834
        49.000          42.000
 110135188.49947  85819604.54047  20958049.6574   20958050.9144   20958049.2204
        54.000          48.000
 135090944.74947  87473461.23247  23804015.1444   23804019.0054   23804015.0624
        44.000          39.000
 106556623.14547  83031134.04447  20277051.4264   20277053.4994   20277051.7434
        54.000          49.000
 121054557.97347  94328229.29347  23035913.9324   23035914.0324   23035913.9304
        49.000          42.000
 129599621.86047 100986705.55847  24661998.9514   24662001.4034   24661998.4014
        41.000          37.000
 128815207.19947 100375469.35547  24512732.4124   24512735.3584   24512731.6754
        41.000          37.000
 09  1 12  1 39 30.0000000  0 11G24G14G 5G30G18G31G 6G21G22G12G29
 124068470.65247  96676709.57647  23609461.9464   23609466.4174   23609461.9014
        45.000          39.000
 120054158.05047  93548687.99747  22845551.6534   22845554.0164   22845551.5734
        48.000          42.000
 123679023.72847  96373247.48747  23535348.8264   23535353.0214   23535349.1594
        45.000          39.000
 118662302.51647  92464120.09247  22580694.0554   22580696.6594   22580693.7424
        50.000          43.000
 118381083.05947  92245005.95347  22527165.3054   22527167.5614   22527165.6704
        49.000          42.000
 110079497.64147  85776209.08547  20947451.9754   20947453.3964   20947451.4584
        54.000          48.000
 135080963.76447  87465683.88147  23802115.8244   23802119.5634   23802116.1484
        43.000          38.000
 106602452.81347  83066845.47747  20285772.5974   20285774.4774   20285773.0264
        54.000          49.000
 121002003.72747  94287277.93447  23025913.1534   23025913.4144   23025913.0454
        48.000          42.000
 129623840.94047 101005577.60847  24666607.5254   24666609.6914   24666607.6844
        40.000          36.000
 128872655.99247 100420234.63847  24523665.0194   24523668.7254   24523664.7574
        43.000          37.000
 09  1 12  1 40  0.0000000  0 11G24G14G 5G30G18G31G 6G21G22G12G29
 124161255.41147  96749009.37747  23627118.5834   23627122.9674   23627118.7274
        45.000          39.000
 120095371.29547  93580802.21847  22853394.2174   22853396.7494   22853394.4204
        48.000          42.000
 123691301.31947  96382814.46847  23537684.5264   23537689.5174   23537685.3284
        44.000          39.000
 118643522.74547  92449486.53047  22577119.9264   22577123.2454   22577119.4024
        50.000          43.000
 118344637.23447  92216606.62447  22520229.7264   22520232.2094   22520230.1554
        49.000          42.000
 110024309.99347  85733205.74547  20936949.9664   20936951.4564   20936949.6494
        54.000          49.000
 135071151.89947  87458038.28947  23800248.6724   23800252.4624   23800248.9344
        44.000          38.000
 106648845.01747  83102995.25447  20294600.6454   20294602.6334   20294601.0544
        54.000          48.000
 120949333.57547  94246236.26447  23015890.1194   23015890.6874   23015890.1444
        49.000          43.000
 129648334.91047 101024663.82647  24671268.7104   24671271.2794   24671268.3504
        41.000          36.000
 128929887.44847 100464830.58447  24534555.3434   24534559.0514   24534555.3984
        42.000          37.000
 09  1 12  1 40 30.0000000  0 11G24G14G 5G30G18G31G 6G21G22G12G29
 124254246.37347  96821469.85747  23644814.3814   23644818.6814   23644814.6544
        45.000          39.000
 120136588.25547  93612919.34047  22861237.6334   22861239.7864   22861238.0574
        48.000          42.000
 123703895.51347  96392628.13247  23540081.6164   23540085.6504   23540082.0494
        44.000          39.000
 118624945.37247  92435010.69647  22573584.8884   22573587.9454   22573584.9664
        50.000          43.000
 118308266.57547  92188265.86047  22513309.1504   22513311.0374   22513309.6394
        50.000          43.000
 109969626.50347  85690595.25447  20926544.1434   20926545.7304   20926543.6204
        54.000          49.000
 135061506.29047  87450522.25547  23798413.0804   23798417.0164   23798413.2234
        43.000          38.000
 106695796.71947  83139581.00047  20303535.2784   20303537.4664   20303535.7174
        54.000          49.000
 120896548.26847  94205104.86247  23005845.6624   23005846.1094   23005845.7334
        49.000          43.000
 129673103.40747 101043963.98547  24675982.4714   24675983.8944   24675982.5634
        41.000          36.000
 128986899.59147 100509255.61947  24545404.7624   24545408.5124   24545404.7574
        43.000          37.000
 09  1 12  1 41  0.0000000  0 11G24G14G 5G30G18G31G 6G21G22G12G29
 124347442.92947  96894090.54147  23662548.7834   23662553.2194   23662548.7984
        44.000          39.000
 120177808.47447  93645038.99247  22869081.5224   22869083.8484   22869081.6824
        48.000          42.000
 123716809.25247  96402690.81847  23542539.1584   23542542.8854   23542539.3904
        45.000          39.000
 118606574.28247  92420695.60047  22570089.2584   22570091.8694   22570088.6124
        50.000          43.000
 118271975.17747  92159986.85147  22506403.1874   22506405.1664   22506403.5114
        49.000          43.000
 109915450.33247  85648380.07847  20916234.6154   20916236.4004   20916234.2584
        54.000          49.000
 135052026.82647  87443135.68347  23796609.4374   23796612.6854   23796608.9114
        43.000          38.000
 106743307.73247  83176602.57147  20312576.3314   20312578.4394   20312576.7264
        54.000          49.000
 120843650.73547  94163886.01347  22995779.6764   22995780.0754   22995779.8114
        50.000          43.000
 129698149.26047 101063480.27047  24680748.3874   24680750.1084   24680748.3124
        40.000          36.000
 129043693.67647 100553510.74347  24556212.4944   24556216.0304   24556212.7454
        43.000          38.000
 09  1 12  1 41 30.0000000  0 11G24G14G 5G30G18G31G 6G21G22G12G29
 124440841.01147  96966868.24147  23680321.4524   23680326.8824   23680321.6134
        43.000          39.000
 120219028.05847  93677158.15447  22876925.2354   22876927.6704   22876925.4394
        48.000          42.000
 123730042.62047  96413002.54647  23545057.3304   23545061.1644   23545058.0104
        45.000          39.000
 118588410.64947  92406542.16847  22566632.5884   22566635.2784   22566632.3064
        50.000          43.000
 118235763.75847  92131770.16247  22499512.2004   22499514.2914   22499512.5724
        49.000          43.000
 109861781.93847  85606560.57047  20906022.0424   20906023.6224   20906021.7224
        54.000          49.000
 135042710.73947  87435876.43947  23794836.4034   23794839.4984   23794836.7104
        44.000          38.000
 106791374.80647  83214057.44047  20321723.2594   20321725.4304   20321723.6274
        54.000          49.000
 120790641.09347  94122579.80547  22985692.4794   22985692.6464   22985692.5234
        49.000          43.000
 129723472.33647 101083212.52447  24685566.3974   24685569.8734   24685567.1214
        40.000          36.000
 129100267.57647 100597594.30347  24566977.6944   24566981.2284   24566977.6954
        42.000          37.000
 09  1 12  1 42  0.0000000  0 11G24G14G 5G30G18G31G 6G21G22G12G29
 124534438.42247  97039801.26747  23698131.8264   23698137.8914   23698132.1934
        43.000          38.000
 120260244.96747  93709275.23447  22884768.5574   22884770.8284   22884768.9724
        48.000          42.000
 123743597.16047  96423564.55547  23547636.8914   23547640.4334   23547637.5724
        45.000          39.000
 118570457.30147  92392552.57247  22563216.1294   22563219.2594   22563215.7404
        50.000          43.000
 118199635.35047  92103618.15547  22492637.2504   22492639.1194   22492637.7604
        50.000          43.000
 109808623.74547  85565138.61847  20895906.1554   20895907.8314   20895905.7094
        54.000          49.000
 135033556.33947  87428743.15847  23793094.7744   23793097.9944   23793095.1364
        44.000          39.000
 106839996.46447  83251944.44947  20330975.7074   20330977.6964   20330976.1354
        54.000          49.000
 120737521.47947  94081187.90247  22975583.9084   22975584.2704   22975584.0174
        49.000          43.000
 129749073.87447 101103161.81047  24690438.1254   24690440.4774   24690438.8344
        41.000          35.000
 129156620.96547 100641506.03247  24577701.5114   24577705.0974   24577701.2264
        42.000          37.000
 09  1 12  1 42 30.0000000  0 11G24G14G 5G30G18G31G 6G21G22G12G29
 124628234.57047  97112889.15247  23715980.8644   23715986.5474   23715981.1584
        44.000          38.000
 120301458.34447  93741389.56447  22892611.1744   22892613.2644   22892611.4934
        47.000          42.000
 123757475.83447  96434379.14547  23550277.6664   23550281.4344   23550278.1904
        45.000          39.000
 118552717.40347  92378729.30647  22559840.2814   22559843.3424   22559839.9284
        50.000          43.000
 118163593.61347  92075533.70147  22485778.8784   22485780.6864   22485779.2404
        50.000          43.000
 109755978.89547  85524116.67447  20885888.2484   20885889.8144   20885887.8194
        54.000          49.000
 135024563.60947  87421735.86647  23791382.9064   23791386.4284   23791382.9334
        44.000          38.000
 106889172.25847  83290263.25547  20340333.4634   20340335.4184   20340333.8524
        54.000          48.000
 120684295.44447  94039713.08247  22965455.2244   22965455.5604   22965455.1594
        49.000          43.000
 129774956.40447 101123330.04647  24695363.8034   24695366.5194   24695363.1964
        40.000          35.000
 129212754.91047 100685246.75047  24588383.4904   24588386.7864   24588383.4054
        42.000          37.000
 09  1 12  1 43  0.0000000  0 11G24G14G 5G30G18G31G 6G21G22G12G29
 124722223.81147  97186127.50747  23733866.6964   23733871.6384   23733866.8504
        45.000          38.000
 120342662.98247  93773497.07647  22900452.1194   22900454.3604   22900452.4594
        48.000          42.000
 123771677.13447  96445445.11347  23552979.7044   23552983.8444   23552980.3984
        45.000          39.000
 118535190.25547  92365071.82047  22556504.8574   22556507.9144   22556504.5714
        50.000          43.000
 118127638.25347  92047516.54747  22478936.4514   22478938.7664   22478937.0024
        50.000          43.000
 109703846.20747  85483493.82547  20875967.7174   20875969.3974   20875967.2964
        54.000          49.000
 135015727.63047  87414850.72247  23789701.2764   23789705.1784   23789701.0884
        44.000          38.000
 106938897.23147  83329009.98847  20349795.9254   20349797.8204   20349796.4954
        54.000          49.000
 120630960.99447  93998153.78447  22955305.9934   22955306.5544   22955306.1394
        49.000          42.000
 129801117.94147 101143715.69947  24700342.2384   24700343.6734   24700342.4904
        41.000          35.000
 129268665.61747 100728813.51047  24599023.2454   24599026.3334   24599023.0094
        42.000          37.000
 09  1 12  1 43 30.0000000  0 11G24G14G 5G30G18G31G 6G21G22G12G29
 124816405.77647  97259516.04547  23751789.0874   23751794.1354   23751789.1304
        44.000          38.000
 120383858.74447  93805597.68047  22908291.7374   22908293.7384   22908292.2444
        48.000          42.000
 123786204.56447  96456765.23247  23555744.4354   23555748.1184   23555745.1184
        45.000          39.000
 118517880.57947  92351583.79047  22553210.8514   22553213.9824   22553210.4284
        50.000          43.000
 118091773.95147  92019570.34547  22472112.1534   22472114.2634   22472112.7564
        50.000          43.000
 109652229.58547  85443273.10947  20866145.3274   20866147.0234   20866144.9984
        54.000          49.000
 135007049.19247  87408088.32947  23788049.9534   23788054.3054   23788050.2854
        44.000          39.000
 106989171.79847  83368184.97747  20359362.9114   20359364.7744   20359363.2674
        55.000          49.000
 120577522.77347  93956513.60847  22945137.3314   22945137.4554   22945137.2754
        49.000          43.000
 129827561.83447 101164321.34947  24705373.9824   24705376.7994   24705373.5624
        40.000          35.000
 129324354.74747 100772207.62147  24609620.3194   24609623.4714   24609619.7244
        40.000          37.000
 09  1 12  1 44  0.0000000  0 11G24G14G 5G30G18G31G 6G21G22G12G29
 124910784.82947  97333058.15747  23769748.7194   23769753.8564   23769748.9824
        44.000          38.000
 120425050.21847  93837694.94247  22916129.9944   22916132.1184   22916130.1994
        47.000          42.000
 123801066.33147  96468345.84247  23558572.4574   23558576.4914   23558572.4494
        45.000          39.000
 118500797.55647  92338272.38147  22549960.3684   22549963.0874   22549960.1474
        50.000          43.000
 118056009.78247  91991702.16147  22465306.4224   22465308.2754   22465307.0754
        50.000          43.000
 109601137.69447  85403461.25847  20856422.9614   20856424.6024   20856422.3964
        54.000          49.000
 134998533.29347  87401452.60347  23786429.3984   23786433.2664   23786429.9434
        44.000          38.000
 107040000.86147  83407792.03847  20369035.3384   20369037.1714   20369035.9014
        54.000          48.000
 120523989.12647  93914799.08347  22934949.9394   22934950.3904   22934949.9074
        49.000          42.000
 129854295.74447 101185153.01347  24710460.5964   24710464.4814   24710460.4814
        40.000          36.000
 129379828.75947 100815434.14147  24620176.6324   24620180.1954   24620176.0794
        40.000          37.000
 09  1 12  1 44 30.0000000  0 11G24G14G 5G30G18G31G 6G21G22G12G29
 125005343.40247  97406740.14247  23787742.7394   23787747.9424   23787742.9784
        44.000          38.000
 120466219.67747  93869775.04147  22923963.8524   22923966.6104   22923964.1514
        47.000          42.000
 123816248.38447  96480176.03747  23561461.8254   23561465.1854   23561462.2064
        45.000          39.000
 118483928.13847  92325127.40047  22546750.2234   22546752.8814   22546749.9284
        50.000          43.000
 118020333.04447  91963902.11047  22458516.8664   22458519.2094   22458517.1824
        49.000          43.000
 109550556.68047  85364047.50347  20846797.7274   20846799.3294   20846797.4954
        54.000          49.000
 134990162.90247  87394930.24647  23784836.6404   23784840.2264   23784836.7014
        43.000          38.000
 107091367.07347  83447817.66247  20378810.0004   20378811.8614   20378810.2754
        54.000          48.000
 120470346.25547  93872999.44847  22924742.2444   22924742.4564   22924742.0624
        49.000          43.000
 129881305.14447 101206199.34347  24715600.4884   24715603.7814   24715600.0564
        41.000          36.000
 129435071.32947 100858480.26547  24630688.4244   24630693.0494   24630688.6384
        41.000          37.000
 09  1 12  1 45  0.0000000  0 11G24G14G 5G30G18G31G 6G21G22G12G29
 125100087.92547  97480567.01247  23805771.8044   23805777.3674   23805771.8694
        43.000          38.000
 120507373.83947  93901843.23347  22931795.6634   22931798.0824   22931795.8834
        47.000          42.000
 123831761.04947  96492263.83747  23564413.0604   23564417.2394   23564413.2094
        44.000          39.000
 118467283.55247  92312157.61047  22543582.7414   22543585.4904   22543582.4714
        50.000          44.000
 117984754.97347  91936178.94247  22451746.4844   22451749.1584   22451746.9904
        50.000          43.000
 109500497.55447  85325040.41147  20837271.5604   20837273.2804   20837271.0794
        54.000          49.000
 134981945.34847  87388526.97447  23783272.7794   23783276.6694   23783272.1834
        43.000          38.000
 107143277.40247  83488267.27147  20388688.1814   20388690.0494   20388688.6784
        54.000          48.000
 120416605.03647  93831123.18847  22914515.7104   22914516.0204   22914515.6674
        49.000          42.000
 129908600.39147 101227468.41247  24720795.4444   24720797.9754   24720794.5904
        39.000          36.000
 129490091.34747 100901352.95047  24641158.7964   24641163.4084   24641157.6684
        40.000          37.000
 09  1 12  1 45 30.0000000  0 11G24G14G 5G30G18G31G 6G21G22G12G29
 125195014.48547  97554535.76547  23823835.9804   23823840.8004   23823835.9064
        43.000          38.000
 120548509.01547  93933896.62947  22939623.1734   22939625.5434   22939623.2154
        47.000          42.000
 123847604.19447  96504609.16247  23567428.4164   23567432.2074   23567428.9584
        44.000          39.000
 118450865.06247  92299364.00447  22540458.5824   22540461.3024   22540458.1464
        50.000          43.000
 117949276.94147  91908533.73447  22444995.5504   22444997.5904   22444995.8424
        50.000          43.000
 109450960.61347  85286440.21847  20827845.0504   20827846.6574   20827844.7494
        54.000          49.000
 134973877.62547  87382240.45247  23781737.7644   23781741.4194   23781738.0674
        43.000          38.000
 107195728.39447  83529138.17647  20398669.2014   20398671.2454   20398669.4354
        54.000          48.000
 120362766.50447  93789171.08847  22904270.5264   22904270.8314   22904270.4174
        49.000          42.000
 129936181.06647 101248959.85347  24726042.4254   24726045.4274   24726042.2984
        41.000          35.000
 129544887.18547 100944050.98247  24651586.5034   24651589.8824   24651586.9554
        41.000          37.000
 09  1 12  1 46  0.0000000  0 11G24G14G 5G30G18G31G 6G21G22G12G29
 125290121.38747  97628645.01147  23841934.3144   23841938.9494   23841934.7544
        44.000          38.000
 120589624.14447  93965934.39347  22947447.4104   22947449.4244   22947447.4154
        48.000          42.000
 123863780.03447  96517213.70447  23570506.7174   23570510.3284   23570507.0804
        45.000          39.000
 118434675.26247  92286748.61447  22537377.3534   22537380.0834   22537376.8374
        49.000          43.000
 117913902.34547  91880969.11147  22438264.2304   22438266.0104   22438264.7614
        50.000          43.000
 109401948.36847  85248248.87947  20818518.2694   20818519.9354   20818517.8304
        54.000          49.000
 134965958.66147  87376069.85447  23780230.8984   23780234.2224   23780231.0094
        44.000          38.000
 107248718.94747  83570429.51747  20408753.0724   20408754.9594   20408753.4404
        54.000          48.000
 120308832.63947  93747144.70147  22894007.4854   22894007.1364   22894007.4294
        49.000          42.000
 129964048.81547 101270675.03347  24731346.6634   24731349.0004   24731346.7054
        41.000          36.000
 129599458.40747 100986574.03447  24661970.7134   24661974.6124   24661970.6384
        41.000          37.000
 09  1 12  1 46 30.0000000  0 11G24G14G 5G30G18G31G 6G21G22G12G29
 125385405.61247  97702892.45047  23860065.8124   23860071.2964   23860065.8524
        44.000          38.000
 120630716.45647  93997954.38247  22955266.9894   22955269.0794   22955266.9474
        47.000          41.000
 123880289.61847  96530078.35047  23573648.3354   23573651.7894   23573648.3394
        45.000          39.000
 118418716.27947  92274313.06547  22534340.5744   22534343.2334   22534340.3894
        49.000          43.000
 117878633.14847  91853486.62947  22431552.1164   22431554.5084   22431552.5044
        50.000          43.000
 109353462.14247  85210467.42547  20809291.6784   20809293.3404   20809291.3064
        54.000          49.000
 134958186.73447  87370013.83347  23778751.9594   23778755.8734   23778751.7774
        44.000          38.000
 107302247.00847  83612139.69447  20418939.0354   20418940.9804   20418939.5354
        55.000          48.000
 120254805.18047  93705045.38147  22883726.3074   22883726.2844   22883726.3544
        48.000          42.000
 129992204.60547 101292614.62347  24736703.7084   24736706.5114   24736704.2244
        41.000          35.000
 129653804.90247 101028921.93747  24672311.5654   24672316.8484   24672311.1994
        41.000          36.000
 09  1 12  1 47  0.0000000  0 11G24G14G 5G30G18G31G 6G21G22G12G29
 125480864.87547  97777276.27447  23878231.1884   23878236.2184   23878231.2344
        44.000          38.000
 120671783.11847  94029954.39547  22963081.5354   22963083.9904   22963081.7014
        47.000          42.000
 123897133.85847  96543203.75147  23576853.6674   23576857.2564   23576854.0294
        46.000          39.000
 118402990.21847  92262059.01547  22531347.8294   22531350.5544   22531347.5004
        50.000          43.000
 117843471.73647  91826088.14947  22424861.1084   22424863.7204   22424861.5034
        50.000          43.000
 109305503.05947  85173096.72847  20800165.3604   20800166.9254   20800165.0704
        54.000          49.000
 134950559.64947  87364070.65747  23777300.4684   23777304.0974   23777300.8514
        44.000          38.000
 107356309.80547  83654266.55447  20429226.9754   20429228.9194   20429227.2864
        54.000          48.000
 120200685.34147  93662874.10047  22873427.2754   22873427.9504   22873427.2724
        48.000          42.000
 130020648.71147 101314778.90247  24742117.0054   24742118.0864   24742117.1044
        41.000          35.000
 129707925.40947 101071093.76547  24682612.1834   24682614.8394   24682611.1484
        41.000          36.000
 09  1 12  1 47 30.0000000  0 11G24G14G 5G30G18G31G 6G21G22G12G29
 125576497.18947  97851794.94647  23896429.9804   23896434.2454   23896430.3284
        44.000          38.000
 120712822.84347  94061933.41347  22970891.1884   22970893.6634   22970891.4574
        48.000          42.000
 123914314.68647  96556591.41847  23580123.2074   23580126.3674   23580124.0424
        45.000          39.000
 118387500.04247  92249988.76347  22528400.2894   22528403.3754   22528400.4584
        50.000          43.000
 117808421.27047  91798776.11547  22418191.5244   22418193.7254   22418191.9304
        50.000          43.000
 109258073.65147  85136138.76747  20791139.9084   20791141.5024   20791139.5464
        54.000          49.000
 134943076.47747  87358239.64347  23775876.4804   23775879.6004   23775876.0854
        44.000          38.000
 107410906.27947  83696809.26447  20439616.2954   20439618.2094   20439616.7774
        55.000          48.000
 120146475.99247  93620633.05847  22863111.2524   22863112.1754   22863111.4884
        48.000          42.000
 130049383.02047 101337169.29247  24747585.2894   24747587.2504   24747584.4434
        40.000          35.000
 129761820.71847 101113090.10147  24692867.3154   24692870.6984   24692867.4094
        41.000          37.000
 09  1 12  1 48  0.0000000  0 11G24G14G 5G30G18G31G 6G21G22G12G29
 125672298.16647  97926445.02447  23914660.5824   23914664.9164   23914661.0554
        44.000          38.000
 120753831.61447  94093888.32547  22978694.9904   22978696.9244   22978695.4894
        47.000          41.000
 123931831.37047  96570240.80447  23583456.6884   23583459.9654   23583457.1004
        45.000          39.000
 118372246.05747  92238102.56147  22525497.5884   22525500.1214   22525497.1864
        50.000          43.000
 117773482.32947  91771550.97747  22411542.7544   22411544.8214   22411543.0834
        50.000          43.000
 109211173.41647  85099593.14847  20782215.0324   20782216.6634   20782214.5534
        54.000          49.000
 134935733.43747  87352517.81247  23774479.4224   23774482.7434   23774479.9194
        44.000          38.000
 107466032.21147  83739764.53747  20450106.3704   20450108.2814   20450106.7854
        54.000          48.000
 120092177.19147  93578322.31347  22852778.8244   22852779.0744   22852779.0204
        49.000          42.000
 130078406.31447 101359784.90347  24753108.4264   24753109.5344   24753107.6984
        41.000          36.000
 129815488.16447 101154908.85747  24703079.8264   24703084.4394   24703079.2534
        41.000          36.000
