     2.11           OBSERVATION DATA    G (GPS)             RINEX VERSION / TYPE
teqc  2013Mar15     gpsops              20140505 00:23:24UTCPGM / RUN BY / DATE
Linux 2.4.21-27.ELsmp|Opteron|gcc -static|Linux x86_64|=+   COMMENT
BIT 2 OF LLI FLAGS DATA COLLECTED UNDER A/S CONDITION       COMMENT
GLPS                                                        MARKER NAME
42005M002                                                   MARKER NUMBER
GGN                 JPL                                     OBSERVER / AGENCY
ZR220013847         ASHTECH UZ-12       CQ00                REC # / TYPE / VERS
CR519992104         ASH701945B_M    SCIT                    ANT # / TYPE
   -33801.4662 -6377516.5323   -82154.3508                  APPROX POSITION XYZ
        0.0083        0.0000        0.0000                  ANTENNA: DELTA H/E/N
     1     1                                                WAVELENGTH FACT L1/2
     7    L1    L2    P1    P2    C1    S1    S2            # / TYPES OF OBSERV
    30.0000                                                 INTERVAL
                                                            COMMENT
This data is provided as a public service by NASA/JPL.      COMMENT
No warranty is expressed or implied regarding suitability   COMMENT
for use.  For further information, contact:                 COMMENT
Dave Stowers, NASA/JPL m/s 238-600                          COMMENT
4800 Oak Grove Drive, Pasadena CA 91109 USA                 COMMENT
                                                            COMMENT
Forced Modulo Decimation to 30 seconds                      COMMENT
 SNR is mapped to RINEX snr flag value [0-9]                COMMENT
  L1 & L2: min(max(int(snr_dBHz/6), 0), 9)                  COMMENT
pseudorange smoothing corrections not applied               COMMENT
  2014     5     4     0     0    0.0000000     GPS         TIME OF FIRST OBS
                                                            END OF HEADER
 14  5  4  0  0  0.0000000  0 12G01G23G20G04G28G17G07G08G09G10G11G13
  20687443.25548  16117666.89247  22207460.8184   22207470.6204   22207459.740
        49.0004         44.0004
  25946885.31746  20206056.24045  24871471.2734   24871476.6184   24871469.089
        40.0004         35.0004
  15416265.75247  12012583.40446  23653882.3804   23653891.7584   23653882.525
        43.0004         39.0004
 -11593920.21447  -8985466.56146  22915256.3344   22915264.0954   22915255.547
        46.0004         41.0004
  -2409531.98147  -1877461.93346  24318477.2164   24318488.2314   24318476.540
        42.0004         37.0004
  16275045.34148  12683332.67247  21953733.4304   21953742.0004   21953733.702
        51.0004         46.0004
  11552842.74849   9007948.95048  20144962.6114   20144968.1594   20144962.108
        54.0004         49.0004
   6252675.04748   4881680.64547  20923931.5474   20923939.5724   20923931.686
        52.0004         47.0004
   6410713.84948   5005192.71847  20948898.5744   20948906.4804   20948898.910
        52.0004         47.0004
  -3608786.66746  -2806584.12246  24868791.9534   24868805.1294   24868792.173
        41.0004         36.0004
  25147353.56547  19589601.54346  23702735.6364   23702744.5724   23702735.592
        43.0004         38.0004
  24139266.65347  18806217.35947  22627305.5754   22627311.3734   22627305.618
        46.0004         42.0004
 14  5  4  0  0 30.0000000  0 12G01G23G20G04G28G17G07G08G09G10G11G13
  20757038.63448  16171897.05447  22220704.1974   22220713.6324   22220703.128
        48.0004         44.0004
  26031739.74346  20272176.62145  24887619.5684   24887623.4354   24887616.684
        40.0004         35.0004
  15411666.81847  12008999.88846  23653007.6284   23653015.3074   23653007.586
        43.0004         39.0004
 -11691849.55747  -9061775.00646  22896619.5804   22896629.3404   22896620.342
        46.0004         41.0004
  -2433517.65247  -1896151.90546  24313911.7724   24313924.6974   24313912.351
        42.0004         37.0004
  16298913.74448  12701931.44047  21958275.8894   21958284.1134   21958275.931
        51.0004         46.0004
  11540552.18049   8998371.93548  20142623.9484   20142629.2334   20142623.606
        54.0004         49.0004
   6177767.18848   4823310.99848  20909677.3424   20909684.8064   20909677.599
        52.0004         48.0004
   6339054.11848   4949354.11047  20935262.5084   20935270.1714   20935262.592
        52.0004         47.0004
  -3641544.55146  -2832109.60846  24862559.2714   24862570.5094   24862558.580
        41.0004         36.0004
  25247181.91047  19667389.81946  23721732.3564   23721741.6034   23721732.449
        43.0004         38.0004
  24221512.67547  18870305.19847  22642956.9044   22642962.9334   22642956.201
        46.0004         42.0004
 14  5  4  0  1  0.0000000  0 12G01G23G20G04G28G17G07G08G09G10G11G13
  20827052.92848  16226453.64447  22234027.4574   22234036.5614   22234026.385
        48.0004         44.0004
  26116393.04246  20338140.28645  24903726.4084   24903733.1984   24903725.532
        39.0004         35.0004
  15407133.08247  12005467.18946  23652143.6274   23652153.3134   23652144.777
        43.0004         39.0004
 -11789643.32847  -9137977.80346  22878011.7104   22878018.8674   22878010.875
        46.0004         41.0004
  -2457787.43647  -1915063.25246  24309293.1974   24309304.8554   24309293.804
        42.0004         37.0004
  16323081.68348  12720763.62247  21962874.6944   21962882.1874   21962874.621
        51.0004         46.0004
  11528838.89449   8989244.74948  20140394.5314   20140400.3394   20140393.983
        54.0004         49.0004
   6103237.51448   4765236.04848  20895494.3174   20895502.4734   20895494.840
        52.0004         48.0004
   6267798.75348   4893830.59147  20921702.7504   20921710.6014   20921702.468
        52.0004         47.0004
  -3674548.83146  -2857827.07646  24856277.1704   24856289.2184   24856278.592
        41.0004         37.0004
  25347181.84047  19745311.79446  23740760.5914   23740770.4254   23740761.507
        43.0004         38.0004
  24303770.97247  18934402.58347  22658609.6484   22658615.4064   22658610.034
        46.0004         42.0004
 14  5  4  0  1 30.0000000  0 12G01G23G20G04G28G17G07G08G09G10G11G13
  20897484.11448  16281335.08947  22247429.4004   22247440.3594   22247428.952
        48.0004         44.0004
  26200843.40746  20403945.78445  24919797.8484   24919803.5944   24919797.258
        39.0004         35.0004
  15402666.19947  12001986.57946  23651294.1594   23651302.8024   23651294.388
        43.0004         39.0004
 -11887298.94247  -9214072.94746  22859427.9784   22859435.7134   22859427.757
        46.0004         41.0004
  -2482341.25847  -1934195.93646  24304619.6984   24304632.3364   24304620.855
        42.0004         37.0004
  16347545.98548  12739826.74747  21967530.3804   21967538.5754   21967529.948
        51.0004         46.0004
  11517703.82649   8980568.12048  20138275.8474   20138281.2524   20138275.434
        54.0004         50.0004
   6029089.47248   4707458.47448  20881384.4094   20881392.4274   20881384.784
        52.0004         48.0004
   6196950.67148   4838624.43247  20908220.6814   20908228.6924   20908220.686
        51.0004         47.0004
  -3707799.77546  -2883736.74846  24849951.1884   24849962.5194   24849951.128
        41.0004         37.0004
  25447350.72647  19823365.41746  23759822.6784   23759833.8654   23759823.052
        43.0004         38.0004
  24386039.16747  18998507.70846  22674265.0374   22674272.7634   22674264.802
        46.0004         41.0004
 14  5  4  0  2  0.0000000  0 12G01G23G20G04G28G17G07G08G09G10G11G13
  20968331.57248  16336540.89847  22260911.4344   22260922.2294   22260910.920
        48.0004         44.0004
  26285090.41146  20469592.84445  24935827.4734   24935832.5834   24935828.420
        39.0004         34.0004
  15398269.42147  11998560.59046  23650457.2014   23650465.9154   23650457.647
        43.0004         39.0004
 -11984812.48447  -9290057.38647  22840870.5714   22840880.5194   22840871.419
        46.0004         42.0004
  -2507177.83247  -1953548.95546  24299894.9484   24299906.6774   24299894.767
        42.0004         37.0004
  16372305.73148  12759120.07947  21972241.9794   21972250.1264   21972241.651
        51.0004         46.0004
  11507149.30349   8972343.87048  20136267.3814   20136272.8794   20136266.969
        54.0004         50.0004
   5955327.49548   4649981.72448  20867348.1834   20867355.8924   20867348.206
        52.0004         48.0004
   6126513.83548   4783738.73247  20894817.0594   20894824.3074   20894816.847
        52.0004         47.0004
  -3741296.47046  -2909837.91746  24843576.3204   24843586.6754   24843576.705
        41.0004         37.0004
  25547687.02447  19901549.49746  23778916.0004   23778927.2414   23778916.901
        43.0004         38.0004
  24468315.79047  19062619.39147  22689920.5034   22689929.0964   22689921.764
        46.0004         42.0004
 14  5  4  0  2 30.0000000  0 12G01G23G20G04G28G17G07G08G09G10G11G13
  21039590.83248  16392067.59747  22274471.5794   22274481.9594   22274471.356
        48.0004         44.0004
  26369130.67546  20535078.78545  24951820.2534   24951828.2224   24951819.974
        39.0004         35.0004
  15393942.04247  11995188.68746  23649633.3154   23649643.3974   23649634.699
        43.0004         39.0004
 -12082183.68247  -9365930.91447  22822342.5034   22822350.7984   22822341.731
        46.0004         42.0004
  -2532299.26247  -1973123.90446  24295114.0364   24295125.4584   24295114.329
        42.0004         38.0004
  16397356.60048  12778640.26147  21977009.0164   21977016.3954   21977008.722
        51.0004         46.0004
  11497174.09149   8964571.02748  20134368.7424   20134374.2394   20134368.513
        54.0004         50.0004
   5881952.22748   4592806.30548  20853384.7334   20853392.7704   20853385.219
        52.0004         48.0004
   6056488.36148   4729173.56747  20881491.3714   20881499.0594   20881491.438
        52.0004         47.0004
  -3775041.96146  -2936132.95946  24837155.2974   24837166.2174   24837154.898
        41.0004         37.0004
  25648185.56447  19979859.98646  23798040.9194   23798052.5744   23798041.243
        43.0004         38.0004
  24550594.96547  19126733.04946  22705577.7854   22705584.8424   22705578.469
        46.0004         41.0004
 14  5  4  0  3  0.0000000  0 12G01G23G20G04G28G17G07G08G09G10G11G13
  21111263.54848  16447916.46247  22288110.0504   22288121.3654   22288109.929
        48.0004         44.0004
  26452966.20246  20600405.18645  24967773.5434   24967778.0984   24967773.555
        39.0004         34.0004
  15389689.45047  11991875.05146  23648824.6814   23648834.0074   23648825.130
        43.0004         39.0004
 -12179406.52547  -9441688.84547  22803841.4534   22803849.5374   22803840.434
        46.0004         42.0004
  -2557702.14147  -1992918.19746  24290280.2164   24290290.1934   24290279.931
        42.0004         37.0004
  16422699.11448  12798387.70347  21981831.2364   21981839.9034   21981831.083
        51.0004         46.0004
  11487782.53149   8957252.97648  20132581.7604   20132587.4684   20132581.414
        54.0004         50.0004
   5808970.48348   4535937.52948  20839496.9504   20839505.0914   20839497.501
        52.0004         48.0004
   5986880.70548   4674933.97147  20868245.2044   20868252.8734   20868245.468
        52.0004         47.0004
  -3809032.98846  -2962619.34546  24830685.5904   24830698.5424   24830686.371
        41.0004         36.0004
  25748847.19747  20058297.56646  23817196.5514   23817206.3654   23817196.499
        43.0004         38.0004
  24632877.90247  19190849.64746  22721236.5004   22721242.8164   22721236.242
        46.0004         41.0004
 14  5  4  0  3 30.0000000  0 12G01G23G20G04G28G17G07G08G09G10G11G13
  21183344.57248  16504083.49247  22301827.3714   22301837.4534   22301826.913
        48.0004         44.0004
  26536592.27846  20665568.36945  24983690.4254   24983691.7384   24983687.028
        39.0004         34.0004
  15385510.31147  11988618.64346  23648029.9134   23648038.0334   23648030.090
        43.0004         39.0004
 -12276481.32547  -9517331.41247  22785367.8284   22785376.9714   22785367.510
        46.0004         42.0004
  -2583389.52947  -2012934.15546  24285392.1764   24285403.2384   24285391.956
        42.0004         37.0004
  16448327.90848  12818358.22047  21986708.3304   21986716.2694   21986707.918
        51.0004         46.0004
  11478972.23549   8950387.86448  20130905.3424   20130910.5384   20130904.788
        54.0004         50.0004
   5736382.44948   4479375.54848  20825683.7464   20825691.7264   20825684.116
        53.0004         48.0004
   5917690.27848   4621019.48847  20855078.4044   20855086.5564   20855078.683
        52.0004         47.0004
  -3843272.96146  -2989299.69546  24824171.6764   24824180.9494   24824170.914
        41.0004         36.0004
  25849665.88247  20136857.50246  23836380.6884   23836390.8854   23836382.035
        42.0004         38.0004
  24715159.06147  19254964.87846  22736893.9914   22736900.2294   22736893.705
        46.0004         41.0004
 14  5  4  0  4  0.0000000  0 12G01G23G20G04G28G17G07G08G09G10G11G13
  21255833.37148  16560568.27047  22315621.3824   22315632.0544   22315620.849
        48.0004         44.0004
  26620008.98546  20730568.41545  24999559.9934   24999567.3714   24999561.072
        40.0004         35.0004
  15381407.77547  11985421.94846  23647248.5804   23647256.0614   23647249.200
        43.0004         39.0004
 -12373404.11547  -9592855.52147  22766923.8514   22766933.1384   22766923.771
        47.0004         42.0004
  -2609359.66647  -2033170.46546  24280449.3814   24280460.1554   24280449.964
        42.0004         37.0004
  16474241.93748  12838551.00947  21991639.8684   21991647.5924   21991639.354
        51.0004         46.0004
  11470745.76849   8943977.68248  20129339.9494   20129345.2654   20129339.385
        54.0004         50.0004
   5664192.52948   4423123.77348  20811946.9344   20811954.5254   20811946.802
        53.0004         48.0004
   5848921.30248   4567433.41147  20841992.4324   20841999.4784   20841992.392
        52.0004         47.0004
  -3877760.57446  -3016172.99346  24817606.7434   24817618.2504   24817606.659
        41.0004         36.0004
  25950640.46547  20215538.93846  23855596.8934   23855606.3444   23855596.646
        42.0004         38.0004
  24797436.94547  19319077.53246  22752551.0214   22752558.4364   22752550.648
        46.0004         41.0004
 14  5  4  0  4 30.0000000  0 12G01G23G20G04G28G17G07G08G09G10G11G13
  21328730.45748  16617371.18747  22329493.2894   22329503.4564   22329492.560
        48.0004         43.0004
  26703217.55846  20795406.28945  25015394.9154   25015405.2434   25015394.725
        39.0004         34.0004
  15377386.41647  11982288.48546  23646484.5664   23646492.0744   23646485.067
        44.0004         39.0004
 -12470169.81547  -9668257.23647  22748510.7874   22748518.2524   22748510.169
        47.0004         42.0004
  -2635609.87947  -2053624.99046  24275454.5054   24275464.9654   24275454.519
        42.0004         38.0004
  16500441.09248  12858965.96647  21996625.6374   21996633.3254   21996625.182
        51.0004         46.0004
  11463106.64449   8938025.16748  20127886.1954   20127891.6864   20127885.491
        54.0004         50.0004
   5592406.40148   4367186.64648  20798286.0244   20798293.4084   20798286.369
        53.0004         48.0004
   5780579.02048   4514179.81447  20828986.7064   20828994.5904   20828987.200
        52.0004         47.0004
  -3912493.92646  -3043237.80446  24810996.7774   24811006.9914   24810997.079
        41.0004         36.0004
  26051770.99447  20294341.87346  23874840.5714   23874851.4094   23874841.109
        42.0004         38.0004
  24879711.65247  19383187.72246  22768207.3914   22768214.1414   22768206.863
        45.0004         41.0004
 14  5  4  0  5  0.0000000  0 12G01G23G20G04G28G17G07G08G09G10G11G13
  21402030.52948  16674488.13547  22343442.4264   22343451.8444   22343441.448
        48.0004         43.0004
  26786213.28346  20860078.27645  25031189.3694   25031195.1204   25031189.002
        39.0004         34.0004
  15373444.58947  11979217.01146  23645733.2724   23645742.0764   23645733.750
        44.0004         39.0004
 -12566779.01847  -9743537.01247  22730127.4984   22730134.8474   22730125.539
        47.0004         42.0004
  -2662143.25547  -2074300.17746  24270404.8024   24270416.0454   24270405.171
        42.0004         38.0004
  16526919.55748  12879598.56047  22001663.8204   22001671.5224   22001663.416
        51.0004         46.0004
  11456052.15649   8932528.21748  20126543.6614   20126549.1074   20126543.240
        54.0004         50.0004
   5521024.21848   4311564.27348  20784702.5744   20784709.9044   20784702.655
        53.0004         48.0004
   5712662.64748   4461258.10047  20816063.2494   20816070.2634   20816062.801
        52.0004         47.0004
  -3947476.56746  -3070496.85646  24804340.3914   24804351.2814   24804341.366
        41.0004         36.0004
  26153051.43447  20373261.62346  23894113.5824   23894122.9174   23894114.216
        42.0004         38.0004
  24961976.95447  19447290.58446  22783862.3954   22783868.4174   22783861.789
        45.0004         41.0004
 14  5  4  0  5 30.0000000  0 12G01G23G20G04G28G17G07G08G09G10G11G13
  21475732.43248  16731918.19047  22357467.6434   22357477.2014   22357466.413
        48.0004         43.0004
  26868995.81146  20924584.13445  25046941.9754   25046947.1824   25046941.088
        39.0004         34.0004
  15369585.05347  11976209.66046  23645000.0024   23645008.0914   23644999.397
        44.0004         39.0004
 -12663227.90547  -9818691.85547  22711771.3124   22711780.1354   22711772.046
        47.0004         42.0004
  -2688958.50747  -2095194.99746  24265301.6864   24265311.7274   24265302.378
        42.0004         38.0004
  16553675.90848  12900447.69647  22006755.9094   22006763.1454   22006755.479
        51.0004         46.0004
  11449584.70749   8927488.69248  20125312.9624   20125318.3194   20125312.651
        54.0004         50.0004
   5450049.98448   4256259.78848  20771196.3214   20771203.8444   20771196.505
        52.0004         48.0004
   5645175.93648   4408671.18247  20803221.0254   20803227.9824   20803220.752
        52.0004         47.0004
  -3982707.54446  -3097949.43046  24797635.1784   24797648.8474   24797636.189
        41.0004         36.0004
  26254479.68047  20452296.56246  23913415.3654   23913425.5204   23913415.425
        42.0004         37.0004
  25044231.18147  19511384.81246  22799514.0794   22799521.3594   22799513.878
        45.0004         41.0004
 14  5  4  0  6  0.0000000  0 12G01G23G20G04G28G17G07G08G09G10G11G13
  21549835.15848  16789660.57247  22371567.7084   22371578.2444   22371567.551
        48.0004         43.0004
  26951564.53946  20988923.40445  25062655.0914   25062661.4204   25062654.258
        39.0004         35.0004
  15365810.70447  11973268.67946  23644280.7324   23644289.1464   23644280.689
        43.0004         39.0004
 -12759513.15747  -9893719.19347  22693449.2794   22693458.0024   22693449.564
        47.0004         42.0004
  -2716054.72347  -2116308.75846  24260147.0184   24260155.2154   24260145.929
        42.0004         38.0004
  16580708.67548  12921512.21947  22011899.4614   22011907.7704   22011899.166
        51.0004         46.0004
  11443705.48249   8922907.53148  20124194.0224   20124199.6954   20124193.722
        54.0004         50.0004
   5379487.89748   4201276.45348  20757768.6714   20757775.8164   20757768.985
        53.0004         48.0004
   5578122.55648   4356421.91847  20790460.5044   20790468.0534   20790460.909
        52.0004         47.0004
  -4018186.59546  -3125595.31146  24790881.5734   24790895.2364   24790884.359
        41.0004         36.0004
  26356054.20247  20531445.47246  23932744.6094   23932754.2184   23932744.686
        42.0004         38.0004
  25126472.74147  19575469.17946  22815164.7754   22815170.6044   22815164.125
        45.0004         41.0004
 14  5  4  0  6 30.0000000  0 12G01G23G20G04G28G17G07G08G09G10G11G13
  21624336.01348  16847713.18947  22385744.0694   22385754.7444   22385744.366
        48.0004         43.0004
  27033917.73346  21053094.69945  25078325.3114   25078331.4164   25078326.225
        39.0004         35.0004
  15362123.02047  11970395.21846  23643578.2174   23643587.2634   23643579.318
        43.0004         39.0004
 -12855632.60347  -9968617.34147  22675159.1134   22675167.7634   22675158.157
        47.0004         42.0004
  -2743432.10247  -2137641.57746  24254935.3914   24254945.9674   24254935.992
        42.0004         38.0004
  16608014.63148  12942789.61347  22017095.8844   22017103.5714   22017095.475
        51.0004         46.0004
  11438414.62949   8918784.84048  20123187.1014   20123192.6154   20123186.759
        54.0004         50.0004
   5309340.48648   4146616.23948  20744419.9864   20744427.3594   20744420.213
        53.0004         48.0004
   5511504.65648   4304511.99047  20777784.0334   20777791.2794   20777783.580
        52.0004         47.0004
  -4053914.17246  -3153434.82446  24784084.9754   24784096.9164   24784085.322
        41.0004         36.0004
  26457771.97947  20610706.00946  23952100.5684   23952110.9614   23952101.037
        42.0004         38.0004
  25208698.44147  19639541.18346  22830809.6474   22830817.7364   22830811.477
        45.0004         41.0004
 14  5  4  0  7  0.0000000  0 12G01G23G20G04G28G17G07G08G09G10G11G13
  21699233.41448  16906074.79547  22399997.0904   22400007.3174   22399996.710
        48.0004         43.0004
  27116054.11346  21117097.07345  25093954.2024   25093961.5784   25093955.925
        39.0004         35.0004
  15358523.76947  11967590.68646  23642893.3884   23642902.5534   23642893.832
        43.0004         38.0004
 -12951583.15647 -10043383.88747  22656899.7114   22656906.8154   22656899.748
        47.0004         42.0004
  -2771089.68847  -2159192.77246  24249672.3804   24249682.8974   24249672.447
        42.0004         37.0004
  16635591.73048  12964278.29147  22022343.3864   22022351.4794   22022343.184
        51.0004         46.0004
  11433713.63049   8915121.77348  20122292.6604   20122298.1414   20122292.059
        54.0004         50.0004
   5239611.36648   4092281.96648  20731150.7824   20731158.2394   20731151.260
        53.0004         48.0004
   5445325.24048   4252943.73947  20765190.1334   20765197.8714   20765190.321
        52.0004         47.0004
  -4089890.42846  -3181468.13346  24777239.9034   24777251.6974   24777239.758
        41.0004         36.0004
  26559630.80047  20690076.44346  23971484.0094   23971494.2254   23971484.390
        42.0004         38.0004
  25290906.25047  19703599.25146  22846456.4574   22846461.6004   22846454.796
        45.0004         41.0004
 14  5  4  0  7 30.0000000  0 12G01G23G20G04G28G17G07G08G09G10G11G13
  21774524.48148  16964743.15547  22414325.7594   22414335.6024   22414324.530
        48.0004         43.0004
  27197972.05246  21180929.20945  25109543.3894   25109551.5224   25109544.146
        40.0004         35.0004
  15355014.52047  11964856.26746  23642225.4164   23642235.1294   23642226.463
        43.0004         39.0004
 -13047362.82947 -10118017.26247  22638674.1184   22638681.7214   22638673.451
        47.0004         42.0004
  -2799028.44947  -2180963.06246  24244355.7784   24244366.2434   24244356.017
        42.0004         37.0004
  16663436.63048  12985975.64247  22027642.1284   22027649.8574   22027641.693
        51.0004         46.0004
  11429602.47949   8911918.33148  20121510.3444   20121515.6634   20121509.874
        54.0004         50.0004
   5170302.83648   4038275.42448  20717961.7484   20717969.1054   20717962.194
        53.0004         48.0004
   5379586.23348   4201718.65647  20752680.3764   20752687.5524   20752680.315
        52.0004         47.0004
  -4126116.16046  -3209695.83946  24770345.9484   24770358.5844   24770346.254
        41.0004         36.0004
  26661627.04647  20769553.97446  23990892.1194   23990904.8804   23990893.840
        42.0004         37.0004
  25373092.84247  19767640.78946  22862095.1544   22862101.6644   22862094.553
        45.0004         41.0004
 14  5  4  0  8  0.0000000  0 12G01G23G20G04G28G17G07G08G09G10G11G13
  21850209.53648  17023718.52747  22428726.5404   22428738.3794   22428726.635
        48.0004         43.0004
  27279672.75746  21244592.08745  25125095.7394   25125098.6814   25125091.308
        40.0004         35.0004
  15351599.31747  11962195.14346  23641575.9014   23641582.6744   23641576.276
        43.0004         38.0004
 -13142966.50747 -10192513.50047  22620480.7214   22620489.1254   22620480.342
        47.0004         42.0004
  -2827245.34947  -2202950.10046  24238986.4234   24238996.7934   24238986.240
        42.0004         38.0004
  16691549.30748  13007881.64747  22032991.9634   22032999.1004   22032991.378
        51.0004         46.0004
  11426084.21749   8909176.87948  20120840.6714   20120846.0144   20120840.213
        54.0004         50.0004
   5101420.56848   3984601.03148  20704853.6914   20704861.3774   20704853.984
        53.0004         48.0004
   5314292.63048   4150840.64047  20740255.3894   20740262.8524   20740255.211
        52.0004         47.0004
  -4162589.46346  -3238116.45546  24763404.3814   24763416.5404   24763405.788
        41.0004         36.0004
  26763760.57447  20849138.47246  24010328.9774   24010338.5524   24010329.056
        42.0004         37.0004
  25455257.70647  19831665.39746  22877729.3274   22877737.1704   22877729.884
        45.0004         40.0004
 14  5  4  0  8 30.0000000  0 12G01G23G20G04G28G17G07G08G09G10G11G13
  21926284.48248  17082997.68647  22443203.0364   22443214.2534   22443202.860
        48.0004         43.0004
  27361152.68546  21308082.92045  25140596.7964   25140601.1474   25140596.563
        39.0004         35.0004
  15348278.04547  11959607.21146  23640943.9024   23640951.9634   23640944.499
        43.0004         39.0004
 -13238393.51747 -10266872.09547  22602322.1514   22602330.2264   22602321.234
        47.0004         42.0004
  -2855742.32347  -2225155.37046  24233563.2194   24233574.0384   24233563.601
        42.0004         38.0004
  16719925.21248  13029992.76247  22038391.6504   22038399.5484   22038391.389
        51.0004         46.0004
  11423157.43449   8906896.31748  20120283.6984   20120289.3494   20120283.483
        54.0004         50.0004
   5032965.53848   3931259.54148  20691827.4724   20691834.6434   20691827.603
        53.0004         48.0004
   5249444.97248   4100310.11148  20727915.1774   20727922.3214   20727915.137
        52.0004         48.0004
  -4199312.29946  -3266731.49746  24756416.0974   24756428.9324   24756417.639
        41.0004         36.0004
  26866026.46147  20928826.09946  24029789.3714   24029798.8164   24029789.834
        42.0004         37.0004
  25537396.57047  19895669.75346  22893360.5374   22893367.1194   22893360.649
        45.0004         41.0004
 14  5  4  0  9  0.0000000  0 12G01G23G20G04G28G17G07G08G09G10G11G13
  22002748.37648  17142579.92847  22457754.2504   22457765.0184   22457754.133
        48.0004         43.0004
  27442411.73046  21371401.63045  25156059.3964   25156068.6934   25156059.415
        40.0004         35.0004
  15345053.62947  11957094.74646  23640330.1164   23640338.9904   23640330.458
        43.0004         39.0004
 -13333640.14047 -10341090.12047  22584196.5364   22584204.1864   22584196.203
        47.0004         42.0004
  -2884518.03647  -2247577.83746  24228086.7674   24228097.2134   24228087.955
        42.0004         37.0004
  16748563.22048  13052308.11247  22043841.4784   22043848.7714   22043841.156
        51.0004         46.0004
  11420824.01649   8905078.11748  20119839.4634   20119844.8734   20119839.307
        54.0004         50.0004
   4964942.20448   3878254.44248  20678882.7164   20678890.2044   20678883.046
        53.0004         48.0004
   5185046.86448   4050129.87748  20715660.5984   20715667.1864   20715660.469
        52.0004         48.0004
  -4236283.61546  -3295540.16246  24749381.4904   24749392.2214   24749381.276
        41.0004         36.0004
  26968423.51147  21008615.92946  24049275.4624   24049285.1674   24049275.073
        42.0004         37.0004
  25619507.80247  19959652.57546  22908987.1994   22908993.9584   22908985.504
        45.0004         40.0004
 14  5  4  0  9 30.0000000  0 12G01G23G20G04G28G17G07G08G09G10G11G13
  22079597.69448  17202462.51347  22472378.3584   22472389.6314   22472377.978
        48.0004         43.0004
  27523447.38846  21434546.28645  25171481.3884   25171486.5284   25171479.828
        40.0004         35.0004
  15341926.67747  11954658.21046  23639735.7184   23639743.1314   23639735.917
        43.0004         38.0004
 -13428705.06547 -10415166.55647  22566106.6064   22566114.4014   22566105.718
        47.0004         42.0004
  -2913572.95047  -2270217.87446  24222559.6434   24222568.9764   24222559.200
        42.0004         37.0004
  16777459.60048  13074824.79747  22049339.9784   22049347.2684   22049339.494
        51.0004         46.0004
  11419083.47349   8903721.90248  20119508.6214   20119513.9294   20119507.949
        54.0004         50.0004
   4897352.27348   3825587.05748  20666020.7824   20666028.5384   20666021.176
        53.0004         48.0004
   5121099.83148   4000301.14148  20703491.4014   20703498.3274   20703491.460
        52.0004         48.0004
  -4273504.83546  -3324543.57546  24742299.8074   24742310.0104   24742298.345
        41.0004         36.0004
  27070947.71647  21088504.85146  24068784.6274   24068794.7834   24068784.730
        42.0004         37.0004
  25701587.55947  20023610.86246  22924606.3894   22924610.5614   22924604.970
        45.0004         40.0004
 14  5  4  0 10  0.0000000  0 12G01G23G20G04G28G17G07G08G09G10G11G13
  22156832.05947  17262645.12247  22487074.9354   22487085.1624   22487074.800
        47.0004         43.0004
  27604260.24146  21497517.31745  25186859.0684   25186864.1254   25186858.692
        40.0004         35.0004
  15338900.70147  11952300.37946  23639158.4924   23639165.8814   23639159.359
        43.0004         38.0004
 -13523583.83047 -10489097.93247  22548050.8294   22548059.6314   22548051.322
        47.0004         43.0004
  -2942904.95047  -2293073.84246  24216976.5324   24216988.0314   24216975.962
        42.0004         38.0004
  16806613.58648  13097542.21447  22054887.8804   22054895.2934   22054887.785
        51.0004         46.0004
  11417938.18449   8902829.51348  20119290.7534   20119295.6784   20119289.940
        54.0004         50.0004
   4830200.49148   3773261.08548  20653242.2454   20653249.5194   20653242.588
        53.0004         48.0004
   5057607.97948   3950827.07248  20691409.9734   20691416.4124   20691409.423
        52.0004         48.0004
  -4310974.44546  -3353740.53046  24735168.0814   24735179.9504   24735168.668
        41.0004         36.0004
  27173598.07346  21168492.06746  24088319.9534   24088329.3374   24088318.762
        41.0004         37.0004
  25783635.00847  20087543.98846  22940216.1014   22940225.9344   22940218.092
        45.0004         40.0004
 14  5  4  0 10 30.0000000  0 12G01G23G20G04G28G17G07G08G09G10G11G13
  22234448.75047  17323125.64747  22501846.6104   22501855.7604   22501845.108
        47.0004         43.0004
  27684848.43046  21560313.30345  25202193.3384   25202199.9404   25202193.703
        40.0004         35.0004
  15335977.31847  11950022.48146  23638603.0064   23638611.0824   23638604.163
        43.0004         38.0004
 -13618273.98847 -10562882.35147  22530032.0364   22530040.0864   22530031.471
        47.0004         43.0004
  -2972514.50647  -2316146.07646  24211341.4054   24211351.6314   24211341.999
        42.0004         38.0004
  16836021.46548  13120457.47147  22060483.4074   22060491.1154   22060483.483
        51.0004         46.0004
  11417387.76349   8902400.66548  20119185.7524   20119190.9534   20119185.257
        54.0004         50.0004
   4763489.46148   3721278.55348  20640547.6094   20640554.9004   20640547.680
        53.0004         48.0004
   4994573.53848   3901709.43148  20679414.1624   20679421.2774   20679414.271
        52.0004         48.0004
  -4348693.30746  -3383131.68846  24727990.5334   24728001.8554   24727991.286
        41.0004         36.0004
  27276371.27746  21248575.00046  24107875.3684   24107885.8944   24107876.172
        41.0004         37.0004
  25865647.28747  20151449.70546  22955823.1464   22955830.8184   22955823.871
        45.0004         40.0004
 14  5  4  0 11  0.0000000  0 12G01G23G20G04G28G17G07G08G09G10G11G13
  22312445.46047  17383902.28347  22516688.0914   22516698.8404   22516687.305
        47.0004         43.0004
  27765210.47846  21622933.07746  25217488.1094   25217494.2944   25217486.483
        40.0004         36.0004
  15333157.79547  11947825.49746  23638066.7384   23638074.7784   23638066.679
        43.0004         39.0004
 -13712773.30547 -10636518.05247  22512048.3664   22512057.1134   22512049.291
        47.0004         43.0004
  -3002401.63047  -2339434.59046  24205654.4184   24205666.0274   24205655.043
        42.0004         38.0004
  16865680.77148  13143568.64647  22066128.0164   22066135.8704   22066127.469
        51.0004         46.0004
  11417432.83449   8902435.83048  20119194.2814   20119199.4724   20119193.591
        54.0004         50.0004
   4697222.10248   3669641.74148  20627937.3154   20627944.6734   20627937.447
        53.0004         48.0004
   4931998.75048   3852949.96148  20667505.9544   20667513.7354   20667506.513
        52.0004         48.0004
  -4386661.81346  -3412717.39646  24720763.6354   24720774.6594   24720766.150
        41.0004         37.0004
  27379264.71946  21328751.62946  24127455.6964   24127462.9164   24127455.606
        41.0004         36.0004
  25947621.98547  20215326.15046  22971424.0914   22971430.8894   22971423.127
        45.0004         40.0004
 14  5  4  0 11 30.0000000  0 12G01G23G20G04G28G17G07G08G09G10G11G13
  22390820.64847  17444973.84847  22531602.4294   22531613.2424   22531601.393
        47.0004         43.0004
  27845346.27746  21685376.53946  25232738.1534   25232741.5854   25232736.180
        40.0004         36.0004
  15330444.73147  11945711.49046  23637550.9204   23637558.2224   23637550.384
        43.0004         38.0004
 -13807078.42548 -10710002.43147  22494103.7854   22494111.9084   22494103.806
        48.0004         43.0004
  -3032564.96447  -2362938.34846  24199914.8874   24199924.5314   24199914.692
        42.0004         38.0004
  16895589.70548  13166874.33247  22071818.8454   22071827.1514   22071819.078
        51.0004         46.0004
  11418074.33649   8902935.75648  20119316.2414   20119321.6184   20119315.611
        54.0004         50.0004
   4631402.33448   3618353.70148  20615411.9844   20615418.9924   20615412.291
        53.0004         48.0004
   4869886.94948   3804551.25848  20655686.9284   20655694.4204   20655686.988
        52.0004         48.0004
  -4424878.95146  -3442496.82146  24713491.7564   24713502.1824   24713493.349
        41.0004         37.0004
  27482276.45346  21409020.45146  24147058.6544   24147068.3634   24147058.376
        41.0004         36.0004
  26029556.94947  20279171.62546  22987015.1794   22987023.2304   22987015.397
        45.0004         40.0004
 14  5  4  0 12  0.0000000  0 12G01G23G20G04G28G17G07G08G09G10G11G13
  22469571.92447  17506338.45247  22546587.9554   22546598.7534   22546587.449
        47.0004         43.0004
  27925254.31146  21747642.53746  25247943.6234   25247948.6904   25247942.173
        41.0004         36.0004
  15327839.80247  11943681.73046  23637055.2404   23637062.4454   23637054.852
        43.0004         38.0004
 -13901186.71747 -10783333.43547  22476195.6244   22476202.9784   22476194.778
        47.0004         43.0004
  -3063004.60347  -2386657.40246  24194122.2214   24194132.2754   24194122.016
        42.0004         38.0004
  16925745.71548  13190372.54447  22077557.3004   22077564.8184   22077557.693
        51.0004         46.0004
  11419312.61849   8903900.70048  20119551.6384   20119557.1124   20119551.160
        54.0004         50.0004
   4566032.92348   3567416.58348  20602972.5154   20602979.2294   20602972.861
        53.0004         48.0004
   4808240.23548   3756514.95648  20643956.1784   20643962.6774   20643956.075
        52.0004         48.0004
  -4463345.31946  -3472470.46246  24706170.5174   24706182.0574   24706172.615
        41.0004         37.0004
  27585403.52446  21489379.12746  24166683.0774   24166692.2544   24166682.609
        41.0004         36.0004
  26111449.18547  20342983.80246  23002599.5894   23002605.2344   23002598.585
        45.0004         40.0004
 14  5  4  0 12 30.0000000  0 12G01G23G20G04G28G17G07G08G09G10G11G13
  22548696.17747  17567993.69247  22561645.4244   22561655.9794   22561644.694
        47.0004         43.0004
  28004932.21446  21809729.21946  25263103.1584   25263110.4094   25263103.468
        41.0004         36.0004
  15325344.21747  11941737.17846  23636578.2374   23636588.0074   23636579.592
        43.0004         38.0004
 -13995096.36047 -10856509.65647  22458324.9274   22458331.8254   22458324.496
        47.0004         43.0004
  -3093720.64247  -2410591.82146  24188278.0454   24188286.9754   24188277.254
        43.0004         38.0004
  16956145.27448  13214060.53047  22083342.6164   22083349.9434   22083342.420
        51.0004         46.0004
  11421147.34449   8905330.40148  20119901.0184   20119906.4444   20119900.603
        54.0004         50.0004
   4501115.84048   3516831.93248  20590619.0194   20590626.4054   20590619.411
        53.0004         48.0004
   4747060.30448   3708842.37648  20632313.6084   20632321.2004   20632313.621
        52.0004         48.0004
  -4502062.12946  -3502639.23946  24698804.2684   24698816.3664   24698805.129
        41.0004         36.0004
  27688642.27446  21569824.85046  24186327.8764   24186339.8364   24186329.329
        40.0004         36.0004
  26193295.99047  20406760.58546  23018173.8594   23018181.1234   23018173.556
        45.0004         40.0004
 14  5  4  0 13  0.0000000  0 12G01G23G20G04G28G17G07G08G09G10G11G13
  22628193.99847  17629940.03347  22576773.5134   22576783.2234   22576772.548
        47.0004         43.0004
  28084381.79046  21871638.00446  25278223.6584   25278229.8094   25278222.461
        41.0004         36.0004
  15322962.29147  11939881.18546  23636125.7824   23636134.3844   23636126.369
        43.0004         38.0004
 -14088802.09047 -10929526.97047  22440492.3344   22440500.6174   22440492.962
        47.0004         43.0004
  -3124710.14147  -2434739.33546  24182378.6814   24182389.5634   24182379.264
        43.0004         38.0004
  16986788.48948  13237938.38047  22089173.6664   22089181.7004   22089173.689
        51.0004         46.0004
  11423581.70349   8907227.35848  20120364.0744   20120369.3764   20120363.768
        54.0004         50.0004
   4436657.00448   3466604.35348  20578353.0894   20578359.7974   20578353.355
        53.0004         48.0004
   4686352.27048   3661537.51448  20620761.4494   20620768.4114   20620761.130
        52.0004         48.0004
  -4541026.52946  -3533000.93746  24691389.8714   24691401.8374   24691390.234
        41.0004         36.0004
  27791993.09546  21650357.86046  24205996.1874   24206003.6744   24205995.497
        41.0004         36.0004
  26275097.09647  20470501.74746  23033740.3004   23033745.9164   23033739.192
        44.0004         40.0004
 14  5  4  0 13 30.0000000  0 12G01G23G20G04G28G17G07G08G09G10G11G13
  22708061.08747  17692174.10147  22591971.4784   22591981.4384   22591970.722
        47.0004         42.0004
  28163599.79546  21933366.32646  25293296.5954   25293304.6984   25293296.841
        40.0004         36.0004
  15320693.96847  11938113.72446  23635694.8294   23635702.3384   23635694.652
        43.0004         38.0004
 -14182303.31447 -11002384.94647  22422700.8024   22422707.6904   22422700.031
        47.0004         43.0004
  -3155974.65947  -2459101.15446  24176429.1804   24176439.6724   24176429.505
        43.0004         38.0004
  17017670.69748  13262002.45947  22095050.5134   22095058.0564   22095050.467
        51.0004         46.0004
  11426614.21549   8909590.40148  20120941.3694   20120946.6484   20120940.905
        54.0004         50.0004
   4372657.34048   3416734.57148  20566174.0754   20566180.9094   20566174.205
        53.0004         48.0004
   4626116.69048   3614600.79048  20609299.1594   20609306.0064   20609298.964
        52.0004         48.0004
  -4580240.65146  -3563557.24546  24683928.8414   24683938.8074   24683928.481
        41.0004         36.0004
  27895451.25046  21730974.54546  24225682.1344   24225691.6324   24225683.274
        41.0004         36.0004
  26356848.24347  20534203.98746  23049296.5804   23049303.8294   23049296.206
        44.0004         40.0004
 14  5  4  0 14  0.0000000  0 11G01G20G04G28G17G07G08G09G10G11G13
  22788295.05847  17754694.06247  22607238.7064   22607249.5494   22607238.638
        47.0004         42.0004
  15318540.94747  11936436.09946  23635284.9284   23635294.1804   23635285.196
        43.0004         39.0004
 -14275597.29048 -11075081.42747  22404947.6144   22404953.9624   22404946.398
        48.0004         43.0004
  -3187513.73547  -2483676.91146  24170428.0204   24170438.0444   24170427.804
        43.0004         38.0004
  17048789.19848  13286250.66147  22100971.9004   22100980.7364   22100971.859
        51.0004         46.0004
  11430244.91249   8912419.56448  20121631.9714   20121637.0824   20121631.458
        54.0004         49.0004
   4309119.88148   3367224.95448  20554083.4804   20554090.4784   20554083.546
        53.0004         48.0004
   4566355.96548   3568034.08348  20597926.8154   20597933.4104   20597926.677
        53.0004         48.0004
  -4619704.74846  -3594308.32246  24676416.8924   24676429.4984   24676418.741
        41.0004         36.0004
  27999013.95546  21811672.68745  24245390.4324   24245400.1604   24245390.537
        40.0004         35.0004
  26438546.90247  20597865.32146  23064843.5204   23064849.9034   23064842.730
        44.0004         40.0004
 14  5  4  0 14 30.0000000  0 11G01G20G04G28G17G07G08G09G10G11G13
  22868894.91847  17817499.12347  22622577.8254   22622586.7724   22622576.289
        47.0004         42.0004
  15316506.23347  11934850.66746  23634898.0904   23634905.2294   23634898.194
        43.0004         39.0004
 -14368679.93948 -11147613.22547  22387233.2614   22387242.6974   22387234.043
        48.0004         43.0004
  -3219325.66647  -2508465.27146  24164375.0224   24164384.3754   24164374.483
        42.0004         38.0004
  17080143.02148  13310682.23147  22106938.8184   22106945.9504   22106938.363
        51.0004         46.0004
  11434475.41949   8915716.11148  20122437.1184   20122442.2204   20122436.801
        54.0004         50.0004
   4246048.86448   3318078.79448  20542081.3154   20542088.2094   20542081.333
        53.0004         48.0004
   4507073.70348   3521840.20548  20586645.4924   20586652.6144   20586645.380
        53.0004         48.0004
  -4659417.49046  -3625253.13646  24668859.4654   24668872.0964   24668861.256
        41.0004         36.0004
  28102679.82546  21892451.21145  24265117.4304   24265127.9434   24265117.721
        40.0004         35.0004
  26520191.70647  20661484.71046  23080379.1754   23080386.6084   23080379.489
        44.0004         40.0004
 14  5  4  0 15  0.0000000  0 11G01G20G04G28G17G07G08G09G10G11G13
  22949858.40947  17880587.53447  22637984.1744   22637994.9814   22637983.119
        47.0004         42.0004
  15314591.91947  11933359.05346  23634533.3344   23634541.9864   23634533.709
        43.0004         38.0004
 -14461549.04248 -11219978.63447  22369561.4824   22369569.7554   22369561.085
        48.0004         43.0004
  -3251409.86547  -2533465.79246  24158268.1714   24158278.5964   24158268.846
        43.0004         38.0004
  17111729.44348  13335295.04747  22112949.2504   22112957.3084   22112948.715
        51.0004         46.0004
  11439306.15849   8919480.37148  20123356.2604   20123361.3934   20123355.633
        54.0004         50.0004
   4183447.29048   3269298.42848  20530168.2394   20530175.4224   20530168.728
        53.0004         48.0004
   4448272.32548   3476021.04348  20575456.2594   20575462.5974   20575456.168
        53.0004         48.0004
  -4699378.74346  -3656391.61646  24661255.6034   24661266.6964   24661256.240
        41.0004         37.0004
  28206446.26146  21973308.11446  24284863.4204   24284873.2994   24284863.931
        40.0004         36.0004
  26601780.34747  20725060.32046  23095906.2024   23095914.0864   23095905.587
        44.0004         40.0004
 14  5  4  0 15 30.0000000  0 11G01G20G04G28G17G07G08G09G10G11G13
  23031183.06247  17943957.36147  22653459.4634   22653469.4924   22653458.459
        47.0004         42.0004
  15312799.52747  11931962.45146  23634193.6014   23634199.7304   23634192.619
        43.0004         38.0004
 -14554201.60648 -11292175.30247  22351930.5574   22351938.3004   22351929.847
        48.0004         43.0004
  -3283766.42247  -2558678.53746  24152109.9014   24152121.2864   24152111.695
        43.0004         38.0004
  17143545.54748  13360086.82747  22119003.8944   22119011.0324   22119003.178
        51.0004         46.0004
  11444737.08949   8923712.30948  20124389.4134   20124394.9234   20124389.431
        54.0004         50.0004
   4121317.77848   3220885.90148  20518345.7914   20518352.5794   20518346.283
        53.0004         49.0004
   4389954.04448   3430578.32648  20564358.4824   20564365.1454   20564358.246
        53.0004         48.0004
  -4739588.88746  -3687724.02946  24653603.6444   24653615.7724   24653604.417
        41.0004         37.0004
  28310310.15646  22054240.95146  24304629.7874   24304637.5634   24304628.451
        40.0004         36.0004
  26683310.37447  20788590.28146  23111421.3644   23111427.0714   23111420.154
        44.0004         40.0004
 14  5  4  0 16  0.0000000  0 11G01G20G04G28G17G07G08G09G10G11G13
  23112866.81447  18007607.01147  22669003.2654   22669013.8674   22669002.558
        47.0004         42.0004
  15311131.29647  11930662.58546  23633874.7274   23633882.2144   23633875.130
        43.0004         39.0004
 -14646634.68248 -11364200.94747  22334340.8464   22334347.2204   22334340.553
        48.0004         43.0004
  -3316394.15647  -2584102.60846  24145902.7034   24145913.6384   24145902.417
        43.0004         38.0004
  17175588.90348  13385055.69347  22125102.1844   22125108.7134   22125101.081
        51.0004         46.0004
  11450768.62749   8928412.25948  20125537.3134   20125542.9024   20125536.805
        54.0004         49.0004
   4059663.50748   3172843.70048  20506613.1414   20506620.1684   20506613.622
        53.0004         49.0004
   4332121.59448   3385514.17148  20553353.0894   20553360.4214   20553353.046
        53.0004         48.0004
  -4780047.63246  -3719250.15846  24645905.5814   24645915.7274   24645905.104
        41.0004         37.0004
  28414269.69646  22135248.32146  24324411.7024   24324422.5484   24324410.620
        40.0004         36.0004
  26764779.49947  20852072.77746  23126923.3114   23126929.2264   23126923.112
        44.0004         40.0004
 14  5  4  0 16 30.0000000  0 11G01G20G04G28G17G07G08G09G10G11G13
  23194905.78147  18071533.45347  22684614.6574   22684624.2644   22684614.315
        47.0004         43.0004
  15309587.20547  11929459.45446  23633580.6864   23633587.7514   23633581.222
        43.0004         38.0004
 -14738847.35348 -11436054.84347  22316792.9074   22316801.2644   22316792.705
        48.0004         43.0004
  -3349294.37847  -2609739.01046  24139641.5794   24139652.4414   24139641.750
        43.0004         38.0004
  17207855.58048  13410198.57047  22131241.3704   22131249.1104   22131241.029
        51.0004         46.0004
  11457399.40449   8933579.14948  20126798.5934   20126804.4074   20126798.357
        54.0004         49.0004
   3998485.73348   3125172.78748  20494971.3494   20494978.1854   20494971.928
        53.0004         49.0004
   4274775.67248   3340829.13748  20542440.6794   20542446.9054   20542440.557
        53.0004         48.0004
  -4820756.60246  -3750971.26246  24638156.9864   24638167.3824   24638158.523
        41.0004         37.0004
  28518320.59546  22216326.89046  24344211.0714   24344222.4984   24344211.204
        40.0004         36.0004
  26846183.84347  20915504.78746  23142413.1074   23142421.8474   23142413.806
        44.0004         40.0004
 14  5  4  0 17  0.0000000  0 11G01G20G04G28G17G07G08G09G10G11G13
  23277299.66747  18135736.45347  22700293.5824   22700303.7404   22700293.052
        47.0004         42.0004
  15308171.14047  11928356.08446  23633311.4604   23633319.8994   23633311.435
        43.0004         38.0004
 -14830834.78948 -11507733.23847  22299288.8894   22299295.9714   22299288.007
        48.0004         43.0004
  -3382464.69347  -2635585.86746  24133329.3704   24133339.6784   24133329.460
        43.0004         38.0004
  17240344.87448  13435514.92747  22137424.0324   22137431.9964   22137423.405
        51.0004         46.0004
  11464631.83649   8939214.86148  20128175.3874   20128180.5784   20128174.943
        54.0004         49.0004
   3937789.63248   3077877.20948  20483420.9794   20483428.1354   20483421.282
        53.0004         49.0004
   4217920.59148   3296526.56748  20531621.5244   20531627.7324   20531621.269
        53.0004         48.0004
  -4861713.84946  -3782885.81046  24630364.6704   24630373.1984   24630364.148
        41.0004         37.0004
  28622462.22046  22297476.15046  24364029.3494   24364041.8144   24364028.372
        40.0004         36.0004
  26927523.10747  20978886.09946  23157891.5164   23157899.2204   23157891.955
        44.0004         40.0004
 14  5  4  0 17 30.0000000  0 11G01G20G04G28G17G07G08G09G10G11G13
  23360046.77247  18200214.68747  22716041.1204   22716050.4464   22716039.692
        47.0004         42.0004
  15306885.57547  11927354.39946  23633066.1044   23633075.0304   23633067.005
        43.0004         38.0004
 -14922593.83248 -11579233.65947  22281827.6824   22281834.1334   22281827.178
        48.0004         43.0004
  -3415903.68747  -2661642.06946  24126966.7314   24126976.7064   24126966.615
        43.0004         39.0004
  17273054.91548  13461003.28947  22143648.6824   22143655.8404   22143648.014
        51.0004         46.0004
  11472466.62849   8945319.94548  20129666.1704   20129671.5154   20129665.721
        54.0004         49.0004
   3877578.79848   3030959.75548  20471963.5014   20471970.4104   20471963.798
        53.0004         49.0004
   4161559.24648   3252608.72948  20520895.6464   20520902.8914   20520895.699
        53.0004         48.0004
  -4902918.59447  -3814993.23046  24622522.9174   24622535.2844   24622524.210
        42.0004         37.0004
  28726692.34546  22378694.38246  24383863.8504   24383874.6784   24383862.996
        40.0004         36.0004
  27008795.48347  21042215.29646  23173358.4004   23173365.3684   23173357.321
        44.0004         39.0004
 14  5  4  0 18  0.0000000  0 11G01G20G04G28G17G07G08G09G10G11G13
  23443143.73447  18264965.54547  22731852.9614   22731863.9454   22731851.997
        47.0004         42.0004
  15305731.57847  11926455.22846  23632847.4214   23632855.1404   23632848.079
        43.0004         38.0004
 -15014122.66948 -11650554.69347  22264409.9134   22264417.5604   22264408.959
        48.0004         43.0004
  -3449611.89247  -2687908.05846  24120551.8404   24120560.7124   24120551.703
        43.0004         39.0004
  17305982.08648  13486660.84447  22149914.8564   22149922.0524   22149913.701
        51.0004         46.0004
  11480902.81649   8951893.64448  20131271.4734   20131276.8034   20131271.109
        54.0004         49.0004
   3817854.81948   2984421.67048  20460598.1254   20460605.0394   20460598.581
        53.0004         49.0004
   4105692.95048   3209076.64748  20510265.0094   20510271.9234   20510264.937
        53.0004         48.0004
  -4944371.85647  -3847294.28646  24614634.7794   24614644.7834   24614634.540
        42.0004         37.0004
  28831007.49146  22459978.85346  24403712.5064   24403722.1744   24403713.409
        40.0004         36.0004
  27089997.46947  21105489.63346  23188809.7354   23188816.7584   23188809.298
        44.0004         39.0004
 14  5  4  0 18 30.0000000  0 11G01G20G04G28G17G07G08G09G10G11G13
  23526589.01147  18329987.78847  22747732.5064   22747742.0824   22747731.151
        47.0004         42.0004
  15304711.69147  11925660.57246  23632651.7564   23632661.7944   23632653.033
        43.0004         38.0004
 -15105417.78548 -11721693.60747  22247037.5104   22247043.4914   22247036.695
        48.0004         43.0004
  -3483587.86447  -2714382.71346  24114085.9564   24114095.3824   24114086.391
        43.0004         38.0004
  17339124.75548  13512486.32147  22156221.2444   22156228.6514   22156220.621
        50.0004         46.0004
  11489941.46849   8958936.79948  20132991.3204   20132996.8164   20132991.083
        54.0004         49.0004
   3758621.71648   2938266.08148  20449326.5734   20449333.4884   20449327.061
        53.0004         49.0004
   4050324.96748   3165932.86148  20499728.3064   20499735.6284   20499728.580
        53.0004         48.0004
  -4986072.76147  -3879788.30246  24606698.5884   24606710.6894   24606698.685
        42.0004         37.0004
  28935405.80846  22541328.15245  24423580.6604   24423591.0624   24423579.797
        40.0004         35.0004
  27171127.53747  21168707.94546  23204247.5154   23204253.8164   23204248.218
        44.0004         39.0004
 14  5  4  0 19  0.0000000  0 11G01G20G04G28G17G07G08G09G10G11G13
  23610388.50447  18395286.06847  22763679.0214   22763689.3864   22763677.965
        46.0004         42.0004
  15303835.72947  11924978.04846  23632487.6814   23632494.5004   23632487.643
        43.0004         38.0004
 -15196468.34848 -11792641.95947  22229710.3054   22229718.1934   22229709.812
        48.0004         43.0004
  -3517822.83847  -2741059.18746  24107570.4364   24107581.8884   24107571.007
        43.0004         39.0004
  17372488.00048  13538483.67347  22162570.0004   22162577.6074   22162569.369
        50.0004         46.0004
  11499590.74249   8966455.76148  20134827.8244   20134832.8814   20134827.268
        54.0004         49.0004
   3699890.28848   2892501.41148  20438150.1254   20438157.0584   20438150.531
        53.0004         49.0004
   3995465.64048   3123185.43148  20489289.2054   20489296.1214   20489288.980
        53.0004         48.0004
  -5028013.22347  -3912468.99846  24598718.3854   24598730.0454   24598717.970
        42.0004         37.0004
  29039892.94546  22622746.62945  24443461.5034   24443474.9454   24443462.847
        40.0004         35.0004
  27252191.84347  21231874.99646  23219674.6214   23219682.0894   23219674.036
        44.0004         39.0004
 14  5  4  0 19 30.0000000  0 11G01G20G04G28G17G07G08G09G10G11G13
  23694520.54947  18460843.46947  22779688.3544   22779699.1184   22779687.921
        46.0004         42.0004
  15303086.67047  11924394.42046  23632341.8644   23632351.0714   23632343.242
        43.0004         38.0004
 -15287290.85248 -11863412.60947  22212427.1174   22212433.2064   22212426.415
        48.0004         44.0004
  -3552335.35647  -2767951.92546  24101004.4884   24101013.7944   24101003.961
        43.0004         39.0004
  17406050.76148  13564636.48247  22168956.6244   22168963.8524   22168956.527
        50.0004         46.0004
  11509831.44149   8974435.57548  20136776.4884   20136781.2014   20136776.017
        54.0004         49.0004
   3641644.21248   2847114.93448  20427066.3484   20427072.9224   20427066.428
        53.0004         49.0004
   3941097.91848   3080821.06448  20478943.2344   20478950.0654   20478943.190
        53.0004         48.0004
  -5070212.43347  -3945351.30946  24590687.6114   24590697.7814   24590687.836
        42.0004         37.0004
  29144447.31346  22704217.53545  24463357.6014   24463373.5024   24463358.630
        40.0004         35.0004
  27333168.60747  21294973.85346  23235084.5854   23235091.1974   23235083.182
        44.0004         39.0004
 14  5  4  0 20  0.0000000  0 11G01G20G04G28G17G07G08G09G10G11G13
  23778995.13547  18526667.79746  22795763.0714   22795773.8134   22795762.621
        46.0004         41.0004
  15302478.40147  11923920.48146  23632227.5774   23632235.7824   23632229.199
        43.0004         38.0004
 -15377870.24348 -11933993.81747  22195189.9614   22195197.5954   22195190.192
        48.0004         44.0004
  -3587112.15247  -2795050.59746  24094385.9684   24094395.5284   24094386.076
        43.0004         39.0004
  17439821.74948  13590951.55647  22175382.8294   22175390.4624   22175382.707
        50.0004         46.0004
  11520675.72749   8982885.71548  20138840.2824   20138844.6604   20138839.568
        54.0004         49.0004
   3583898.81848   2802118.59748  20416077.8064   20416084.7184   20416077.663
        53.0004         49.0004
   3887236.40548   3038851.15548  20468693.3994   20468700.5554   20468693.500
        53.0004         48.0004
  -5112657.78547  -3978425.40846  24582610.5884   24582620.1524   24582610.476
        42.0004         37.0004
  29249078.47346  22785748.24545  24483270.0274   24483278.6034   24483269.620
        39.0004         35.0004
  27414067.94547  21358012.36346  23250477.5004   23250485.9344   23250477.780
        44.0004         39.0004
 14  5  4  0 20 30.0000000  0 11G01G20G04G28G17G07G08G09G10G11G13
  23863806.82047  18592754.78246  22811903.3764   22811912.8664   22811901.985
        46.0004         41.0004
  15302009.57847  11923555.21646  23632138.9044   23632146.1614   23632138.135
        43.0004         38.0004
 -15468206.92448 -12004385.90847  22177999.6284   22178006.6094   22177998.576
        48.0004         44.0004
  -3622156.23347  -2822357.54246  24087717.1364   24087727.2154   24087717.202
        43.0004         38.0004
  17473795.83348  13617424.88447  22181848.6224   22181856.0084   22181847.810
        50.0004         46.0004
  11532120.78349   8991803.99148  20141018.0994   20141022.8264   20141017.277
        54.0004         49.0004
   3526653.69848   2757512.08448  20405184.2974   20405191.0774   20405184.449
        53.0004         49.0004
   3833880.28848   2997275.05448  20458540.3494   20458547.0454   20458540.417
        53.0004         48.0004
  -5155352.22047  -4011693.60446  24574487.2724   24574497.6634   24574486.133
        42.0004         37.0004
  29353780.72746  22867334.39245  24503195.6474   24503205.9404   24503194.257
        39.0004         34.0004
  27494884.56647  21420986.41846  23265857.4734   23265864.6564   23265857.436
        44.0004         39.0004
 14  5  4  0 21  0.0000000  0 11G01G20G04G28G17G07G08G09G10G11G13
  23948956.07647  18659104.80447  22828105.8054   22828116.7534   22828105.598
        46.0004         42.0004
  15301685.17047  11923302.47946  23632077.0134   23632084.5694   23632077.798
        43.0004         38.0004
 -15558295.15048 -12074584.39447  22160856.9524   22160862.6784   22160856.599
        48.0004         44.0004
  -3657464.04247  -2849869.99346  24080997.9404   24081006.3474   24080997.777
        43.0004         38.0004
  17507973.40848  13644056.78147  22188352.1864   22188359.8684   22188351.524
        50.0004         46.0004
  11544169.53949   9001192.67548  20143310.6854   20143315.6844   20143310.268
        54.0004         49.0004
   3469914.59549   2713299.87048  20394387.2934   20394394.0514   20394387.643
        54.0004         49.0004
   3781034.62148   2956096.69948  20448484.0504   20448490.7864   20448484.179
        53.0004         48.0004
  -5198292.65447  -4045153.50246  24566312.7104   24566324.5984   24566314.984
        42.0004         37.0004
  29458554.64246  22948976.36345  24523130.4714   24523143.5514   24523131.526
        39.0004         34.0004
  27575619.02247  21483896.46046  23281220.7814   23281227.0574   23281220.151
        44.0004         39.0004
 14  5  4  0 21 30.0000000  0 11G01G20G04G28G17G07G08G09G10G11G13
  24034439.42247  18725715.15047  22844373.3584   22844383.2104   22844372.893
        46.0004         42.0004
  15301505.55447  11923162.55046  23632042.9824   23632050.5584   23632042.379
        43.0004         38.0004
 -15648133.45648 -12144588.13747  22143760.3174   22143767.1674   22143760.921
        48.0004         44.0004
  -3693035.67547  -2877588.01946  24074228.5934   24074238.9054   24074229.258
        43.0004         39.0004
  17542351.14548  13670844.64047  22194894.0184   22194901.4304   22194893.223
        50.0004         46.0004
  11556820.69949   9011050.77348  20145718.0044   20145722.7664   20145717.788
        54.0004         49.0004
   3413683.30449   2669483.35548  20383686.7374   20383693.2464   20383687.024
        54.0004         49.0004
   3728700.59748   2915317.02048  20438525.1474   20438531.5074   20438525.219
        53.0004         48.0004
  -5241480.28646  -4078806.00246  24558096.5694   24558107.0454   24558096.767
        41.0004         37.0004
  29563396.20746  23030671.04345  24543082.9044   24543092.9934   24543082.042
        38.0004         34.0004
  27656267.92347  21546739.84446  23296565.7704   23296574.0004   23296567.291
        44.0004         39.0004
 14  5  4  0 22  0.0000000  0 11G01G20G04G28G17G07G08G09G10G11G13
  24120255.63147  18792584.87846  22860703.3134   22860713.9784   22860702.641
        46.0004         41.0004
  15301474.31447  11923138.26146  23632035.7384   23632044.5444   23632037.199
        43.0004         38.0004
 -15737718.22348 -12214394.31347  22126713.6954   22126719.6254   22126713.051
        48.0004         44.0004
  -3728869.42347  -2905510.30446  24067409.8044   24067419.8544   24067410.251
        43.0004         39.0004
  17576926.97748  13697786.87447  22201474.0164   22201480.6714   22201473.081
        50.0004         46.0004
  11570075.37749   9021379.14248  20148240.2984   20148245.2404   20148239.818
        54.0004         49.0004
   3357963.42749   2626065.33548  20373083.2604   20373090.2474   20373083.910
        54.0004         49.0004
   3676881.56548   2874938.63448  20428664.3144   20428670.8824   20428664.519
        53.0004         48.0004
  -5284913.49847  -4112649.88146  24549832.0094   24549840.9214   24549831.337
        42.0004         37.0004
                  23112417.52945                  24563058.9214   24563046.281
                        33.0004
  27736830.18947  21609515.70746  23311897.3714   23311903.4854   23311897.819
        44.0004         39.0004
 14  5  4  0 22 30.0000000  0 11G01G20G04G28G17G07G08G09G10G11G13
  24206400.11547  18859710.40446  22877096.2934   22877106.8294   22877095.419
        46.0004         41.0004
  15301590.93747  11923229.16846  23632058.1534   23632067.3734   23632059.298
        43.0004         39.0004
 -15827048.62148 -12284002.29547  22109714.0664   22109721.8204   22109714.028
        49.0004         44.0004
  -3764966.72647  -2933637.94446  24060540.3924   24060550.7294   24060540.739
        43.0004         39.0004
  17611696.28648  13724879.85747  22208089.8514   22208096.9454   22208089.278
        50.0004         46.0004
  11583931.25449   9032175.97848  20150876.8744   20150881.9134   20150876.539
        54.0004         49.0004
   3302755.86549   2583046.52548  20362577.6744   20362584.3664   20362577.819
        54.0004         49.0004
   3625577.48648   2834961.51548  20418900.9184   20418908.2324   20418901.267
        53.0004         48.0004
  -5328594.58747  -4146686.90246  24541518.9924   24541528.9024   24541518.184
        42.0004         37.0004
                  23194212.32045                  24583034.3054   24583021.335
                        32.0004
  27817301.51947  21672220.71646  23327209.8834   23327216.5474   23327210.476
        44.0004         39.0004
 14  5  4  0 23  0.0000000  0 11G01G20G04G28G17G07G08G09G10G11G13
  24292871.48047  18927090.64246  22893551.0814   22893561.6054   22893550.339
        46.0004         41.0004
  15301857.81947  11923437.15646  23632109.4514   23632117.6684   23632109.865
        43.0004         38.0004
 -15916120.80048 -12353409.06347  22092763.9104   22092771.3054   22092764.229
        49.0004         44.0004
  -3801325.85247  -2961969.59646  24053620.9254   24053632.1364   24053621.599
        43.0004         38.0004
  17646657.39748  13752122.29947  22214742.8194   22214750.1114   22214742.444
        50.0004         46.0004
  11598389.15949   9043441.92648  20153628.1174   20153633.1944   20153627.754
        54.0004         49.0004
   3248064.33949   2540429.81448  20352170.0414   20352176.6714   20352170.507
        54.0004         49.0004
   3574791.39748   2795388.01448  20409236.8424   20409243.6054   20409237.021
        53.0004         48.0004
  -5372522.45547  -4180916.22846  24533160.4964   24533169.6964   24533159.487
        42.0004         37.0004
                                                                  24603007.325

  27897680.96047  21734854.12146  23342505.9814   23342513.8744   23342505.697
        44.0004         39.0004
 14  5  4  0 23 30.0000000  0 11G01G20G04G28G17G07G08G09G10G11G13
  24379669.03547  18994725.05646  22910068.3494   22910079.4794   22910067.490
        46.0004         41.0004
  15302278.79047  11923765.20946  23632189.2364   23632198.6084   23632189.800
        43.0004         38.0004
 -16004930.61448 -12422611.39747  22075864.5524   22075871.0384   22075864.039
        49.0004         44.0004
  -3837944.41047  -2990503.39546  24046652.3784   24046662.7834   24046653.439
        43.0004         38.0004
  17681810.06148  13779514.00447  22221432.6244   22221439.1024   22221431.736
        50.0004         46.0004
  11613450.72749   9055178.26148  20156494.3994   20156499.3284   20156493.862
        54.0004         49.0004
   3193893.50249   2498218.84248  20341861.6704   20341868.6514   20341862.059
        54.0004         49.0004
   3524527.15148   2756221.14648  20399672.0374   20399678.4344   20399672.050
        53.0004         48.0004
  -5416694.72446  -4215335.99146  24524752.7334   24524763.0304   24524753.349
        41.0004         37.0004
                                                                  24623005.605

  27977967.59547  21797415.20746  23357784.0374   23357792.1014   23357783.695
        44.0004         39.0004
 14  5  4  0 24  0.0000000  0 11G01G20G04G28G17G07G08G09G10G11G13
  24466787.76747  19062609.72846  22926646.1324   22926657.7224   22926645.510
        46.0004         41.0004
  15302853.40847  11924213.00146  23632298.2764   23632306.5764   23632298.953
        43.0004         38.0004
 -16093477.78548 -12491609.06947  22059014.2654   22059020.8634   22059013.714
        49.0004         44.0004
  -3874824.13847  -3019240.71046  24039635.4754   24039644.3364   24039634.945
        43.0004         38.0004
  17717148.44948  13807050.43547  22228156.5714   22228164.1404   22228156.202
        50.0004         46.0004
  11629113.03849   9067382.70848  20159474.8024   20159479.9094   20159474.208
        54.0004         49.0004
   3140242.92449   2456413.26048  20331652.6394   20331659.0814   20331652.803
        54.0004         49.0004
   3474784.34548   2717460.59148  20390206.4314   20390212.8484   20390206.285
        53.0004         49.0004
  -5461113.93646  -4249948.16046  24516300.2474   24516310.5844   24516300.719
        41.0004         37.0004
                                                                  24643013.798

  28058156.65947  21859900.26546  23373042.3984   23373051.8804   23373043.325
        43.0004         39.0004
 14  5  4  0 24 30.0000000  0 11G01G20G04G28G17G07G08G09G10G11G13
  24554225.82147  19130743.21046  22943285.4344   22943295.8794   22943284.726
        46.0004         41.0004
  15303583.92947  11924782.26446  23632437.5254   23632445.8864   23632438.410
        43.0004         38.0004
 -16181759.06748 -12560399.56847  22042214.5684   22042221.6284   22042214.130
        49.0004         44.0004
  -3911963.62647  -3048180.41046  24032567.4314   24032577.5464   24032568.030
        43.0004         39.0004
  17752670.34448  13834729.85747  22234916.2324   22234923.7094   22234915.825
        50.0004         46.0004
  11645376.40949   9080055.51148  20162569.7414   20162574.3954   20162569.149
        54.0004         49.0004
   3087116.13449   2415015.82248  20321542.4924   20321549.1474   20321542.924
        54.0004         49.0004
   3425565.83948   2679108.57948  20380840.3174   20380846.8294   20380840.109
        53.0004         49.0004
  -5505779.56446  -4284752.36146  24507799.9104   24507810.1164   24507800.842
        41.0004         37.0004
                                                                  24663032.522

  28138246.81747  21922308.25146  23388284.6264   23388291.7064   23388284.126
        44.0004         39.0004
 14  5  4  0 25  0.0000000  0 11G01G20G04G28G17G07G08G09G10G11G13
  24641983.34547  19199125.64546  22959984.6374   22959996.2834   22959984.143
        46.0004         41.0004
  15304474.41347  11925476.17446  23632607.3604   23632615.9454   23632608.043
        43.0004         38.0004
 -16269769.25548 -12628978.81947  22025467.0844   22025473.5794   22025466.690
        49.0004         44.0004
  -3949359.96847  -3077320.26346  24025451.3514   24025460.6694   24025450.980
        43.0004         39.0004
  17788376.07348  13862552.52247  22241711.0314   22241718.2514   22241710.223
        50.0004         46.0004
  11662243.29149   9093198.58648  20165779.2844   20165784.1334   20165778.680
        54.0004         49.0004
   3034518.76449   2374030.91748  20311533.9874   20311540.4414   20311534.203
        54.0004         49.0004
   3376876.07148   2641168.57048  20371574.7104   20371581.3574   20371574.862
        53.0004         49.0004
  -5550688.49047  -4319746.15246  24499251.6374   24499264.9014   24499254.969
        42.0004         37.0004
                                                                  24683060.683

  28218238.23347  21984639.30246  23403506.9524   23403512.9044   23403506.316
        44.0004         39.0004
 14  5  4  0 25 30.0000000  0 10G01G20G04G28G17G07G08G09G10G13
  24730055.44447  19267753.21646  22976744.6664   22976756.0044   22976743.694
        46.0004         41.0004
  15305524.48647  11926294.43746  23632807.2284   23632815.7104   23632807.871
        43.0004         38.0004
 -16357508.03048 -12697346.58647  22008770.5874   22008778.4014   22008770.202
        49.0004         44.0004
  -3987014.47447  -3106661.28646  24018284.9134   24018295.0494   24018285.975
        43.0004         38.0004
  17824260.73248  13890514.61747  22248539.2444   22248546.5754   22248539.030
        50.0004         46.0004
  11679710.99149   9106809.82848  20169103.0924   20169108.1524   20169102.706
        54.0004         49.0004
   2982450.71049   2333458.47948  20301625.5254   20301631.9584   20301625.678
        54.0004         49.0004
   3328714.54248   2603640.17648  20362409.9344   20362416.6624   20362410.163
        53.0004         49.0004
  -5595842.82247  -4354931.15246  24490661.6334   24490670.6534   24490662.440
        42.0004         37.0004
  28298126.66547  22046890.09746  23418709.2004   23418715.7194   23418708.508
        44.0004         39.0004
 14  5  4  0 26  0.0000000  0 10G01G20G04G28G17G07G08G09G10G13
  24818440.17647  19336624.37646  22993562.6884   22993574.4024   22993562.959
        45.0004         41.0004
  15306736.36847  11927238.80246  23633038.9154   23633045.7814   23633038.692
        43.0004         38.0004
 -16444971.96848 -12765500.18647  21992126.3204   21992133.5564   21992126.363
        49.0004         44.0004
  -4024925.63647  -3136202.28146  24011071.7254   24011081.4334   24011071.221
        43.0004         38.0004
  17860322.52748  13918614.73947  22255401.9324   22255409.1334   22255401.279
        50.0004         46.0004
  11697779.44249   9120889.19148  20172541.3894   20172546.3954   20172540.905
        54.0004         49.0004
   2930915.08849   2293300.91348  20291818.5964   20291824.8954   20291818.805
        54.0004         49.0004
   3281083.90448   2566525.46048  20353346.1514   20353352.8384   20353346.170
        53.0004         49.0004
  -5641242.24947  -4390307.14446  24482023.1624   24482032.0414   24482023.447
        42.0004         37.0004
  28377910.47347  22109059.37246  23433891.3094   23433897.4284   23433891.139
        44.0004         39.0004
 14  5  4  0 26 30.0000000  0 10G01G20G04G28G17G07G08G09G10G13
  24907135.98847  19405737.95146  23010441.4734   23010452.9924   23010441.060
        45.0004         41.0004
  15308112.94647  11928311.48446  23633300.3244   23633308.1464   23633300.476
        43.0004         38.0004
 -16532157.70048 -12833437.01547  21975535.3204   21975543.1994   21975535.354
        49.0004         44.0004
  -4063091.33947  -3165941.62146  24003807.3944   24003818.1344   24003808.647
        43.0004         38.0004
  17896559.59448  13946851.44447  22262296.3724   22262305.1194   22262296.928
        50.0004         46.0004
  11716449.88149   9135437.63548  20176094.5214   20176098.7664   20176093.779
        54.0004         49.0004
   2879915.52249   2253561.05948  20282113.5684   20282119.7854   20282113.712
        54.0004         49.0004
   3233987.16348   2529826.77148  20344383.7254   20344390.3844   20344383.860
        53.0004         49.0004
  -5686885.26747  -4425872.93746  24473337.0814   24473346.7634   24473337.678
        42.0004         37.0004
  28457589.07647  22171146.66946  23449052.8054   23449059.1574   23449052.939
        44.0004         39.0004
 14  5  4  0 27  0.0000000  0 10G01G20G04G28G17G07G08G09G10G13
  24996138.56847  19475090.56646  23027377.9394   23027389.7364   23027377.780
        45.0004         41.0004
  15309654.30147  11929512.57646  23633592.5844   23633601.0754   23633593.634
        43.0004         38.0004
 -16619064.19448 -12901156.24847  21958997.8524   21959004.3004   21958997.365
        49.0004         45.0004
  -4101513.33447  -3195880.65246  23996497.6564   23996506.9884   23996496.500
        43.0004         38.0004
  17932967.16048  13975221.00347  22269224.9604   22269233.3614   22269224.704
        50.0004         46.0004
  11735719.55749   9150453.02148  20179761.0794   20179765.8594   20179760.808
        54.0004         49.0004
   2829452.82449   2214239.54248  20272510.6534   20272517.4994   20272511.000
        54.0004         49.0004
   3187424.31148   2493544.09548  20335523.0684   20335529.3594   20335523.143
        53.0004         49.0004
  -5732773.43047  -4461629.75846  24464602.3534   24464613.3544   24464604.705
        42.0004         38.0004
  28537157.45747  22233148.07946  23464196.4124   23464199.6184   23464194.585
        43.0004         39.0004
 14  5  4  0 27 30.0000000  0 10G01G20G04G28G17G07G08G09G10G13
  25085448.74747  19544682.86346  23044373.8794   23044383.7854   23044373.433
        45.0004         41.0004
  15311365.53247  11930846.02246  23633918.5824   23633926.2144   23633919.287
        43.0004         38.0004
 -16705685.54948 -12968653.30247  21942514.2204   21942521.4344   21942513.948
        49.0004         45.0004
  -4140187.29647  -3226016.00446  23989138.1664   23989147.4634   23989137.154
        43.0004         39.0004
  17969546.00348  14003724.02547  22276186.8514   22276193.2844   22276185.846
        50.0004         46.0004
  11755591.37549   9165937.61048  20183542.3434   20183547.5404   20183542.095
        54.0004         49.0004
   2779532.79249   2175340.87748  20263010.8364   20263017.4564   20263011.178
        54.0004         49.0004
   3141400.45248   2457681.41848  20326764.6874   20326771.5414   20326764.937
        53.0004         49.0004
  -5778903.12847  -4497574.79146  24455826.7154   24455836.3694   24455826.539
        42.0004         38.0004
  28616617.13447  22295064.80146  23479314.5344   23479320.4584   23479315.019
        43.0004         39.0004
 14  5  4  0 28  0.0000000  0 10G01G20G04G28G17G07G08G09G10G13
  25175060.09347  19614509.83946  23061426.6964   23061436.8344   23061425.882
        45.0004         41.0004
  15313244.43347  11932310.13846  23634275.7754   23634284.1834   23634276.421
        43.0004         38.0004
 -16792023.01348 -13035929.13147  21926084.0284   21926092.1584   21926084.080
        49.0004         45.0004
  -4179116.21347  -3256350.05246  23981729.5944   23981738.5054   23981728.977
        43.0004         39.0004
  18006289.62148  14032355.44947  22283178.9134   22283185.8154   22283177.980
        50.0004         46.0004
  11776060.90149   9181887.93948  20187437.5674   20187442.1964   20187436.970
        54.0004         49.0004
   2730154.34349   2136864.22548  20253614.7994   20253621.3164   20253615.065
        54.0004         49.0004
   3095913.80748   2422237.34448  20318109.0284   20318115.3944   20318109.004
        53.0004         49.0004
  -5825277.90747  -4533710.79746  24447000.5184   24447010.7344   24447001.876
        42.0004         38.0004
  28695962.05247  22356892.08546  23494413.8144   23494421.1594   23494413.838
        43.0004         39.0004
 14  5  4  0 28 30.0000000  0 10G01G20G04G28G17G07G08G09G10G13
  25264974.52747  19684572.97046  23078536.1924   23078547.2774   23078536.006
        45.0004         41.0004
  15315297.29147  11933909.80146  23634666.5864   23634674.7704   23634667.047
        43.0004         38.0004
 -16878069.53448 -13102978.25847  21909711.0484   21909717.6364   21909709.900
        49.0004         45.0004
  -4218294.78347  -3286878.61546  23974272.1164   23974282.4714   23974273.259
        43.0004         38.0004
  18043199.96048  14061116.77647  22290201.4154   22290209.5494   22290201.659
        50.0004         46.0004
  11797132.36049   9198307.30748  20191447.3674   20191452.1874   20191446.946
        54.0004         49.0004
   2681324.11649   2098814.76548  20244322.3344   20244329.0264   20244322.513
        54.0004         49.0004
   3050970.71348   2387216.82148  20309556.7504   20309563.5854   20309556.510
        53.0004         49.0004
  -5871893.02847  -4570034.08246  24438129.8104   24438140.2544   24438130.869
        42.0004         38.0004
  28775194.80547  22418631.98346  23509491.9624   23509498.2504   23509491.151
        43.0004         38.0004
 14  5  4  0 29  0.0000000  0 10G01G20G04G28G17G07G08G09G10G13
  25355186.04547  19754867.60646  23095702.5054   23095714.7954   23095702.708
        45.0004         41.0004
  15317522.13247  11935643.47446  23635090.0934   23635096.5424   23635089.670
        42.0004         38.0004
 -16963825.91148 -13169801.31347  21893391.5044   21893398.4134   21893391.336
        49.0004         45.0004
  -4257725.81347  -3317603.90846  23966769.8784   23966779.8644   23966770.097
        43.0004         38.0004
  18080270.83648  14090003.20147  22297256.9164   22297263.8224   22297256.037
        50.0004         45.0004
  11818801.78149   9215192.61948  20195570.9124   20195575.4744   20195570.556
        54.0004         49.0004
   2633041.04549   2061191.65648  20235134.5714   20235140.8664   20235134.992
        54.0004         49.0004
   3006569.44348   2352618.49848  20301107.4864   20301114.0424   20301107.407
        53.0004         49.0004
  -5918751.60147  -4606547.05846  24429213.9364   24429222.6874   24429214.561
        42.0004         38.0004
  28854309.68247  22480280.02146  23524546.1874   23524551.8674   23524546.444
        43.0004         38.0004
 14  5  4  0 29 30.0000000  0 10G01G20G04G28G17G07G08G09G10G13
  25445692.89847  19825392.37146  23112925.1994   23112937.1554   23112925.261
        45.0004         40.0004
  15319921.60547  11937513.22246  23635546.3784   23635553.3934   23635547.477
        43.0004         38.0004
 -17049288.56548 -13236395.47947  21877128.2314   21877135.1704   21877128.311
        49.0004         45.0004
  -4297407.76247  -3348524.71446  23959218.7464   23959227.6214   23959218.870
        43.0004         39.0004
  18117500.52248  14119013.37347  22304340.2454   22304348.5704   22304340.078
        50.0004         45.0004
  11841069.17549   9232543.88148  20199808.5334   20199812.7804   20199807.968
        54.0004         49.0004
   2585308.57649   2023997.59448  20226051.4374   20226057.8574   20226051.615
        54.0004         49.0004
   2962712.73648   2318444.50548  20292761.4894   20292767.9434   20292761.450
        53.0004         49.0004
  -5965852.54547  -4643248.90146  24420250.0814   24420260.2874   24420250.841
        42.0004         38.0004
  28933305.55847  22541835.32646  23539578.8764   23539584.6034   23539579.219
        43.0004         38.0004
 14  5  4  0 30  0.0000000  0 10G01G20G04G28G17G07G08G09G10G13
  25536494.73347  19896147.00646  23130204.8484   23130216.5364   23130204.871
        45.0004         40.0004
  15322499.71947  11939522.18346  23636038.1524   23636044.8794   23636037.583
        42.0004         38.0004
 -17134452.63648 -13302756.99647  21860922.1744   21860929.0484   21860921.740
        49.0004         45.0004
  -4337336.86847  -3379638.09846  23951620.1394   23951629.7974   23951620.702
        43.0004         39.0004
  18154888.42748  14148146.83447  22311455.4084   22311463.1444   22311455.108
        50.0004         45.0004
  11863936.15049   9250362.35148  20204160.1634   20204164.4834   20204159.440
        54.0004         49.0004
   2538131.40749   1987236.22748  20217073.9744   20217080.3444   20217074.490
        54.0004         49.0004
   2919404.61948   2284697.98648  20284520.3584   20284526.7494   20284520.426
        53.0004         49.0004
  -6013193.24347  -4680137.56246  24411241.6854   24411251.1124   24411241.840
        42.0004         38.0004
  29012182.31047  22603297.82746  23554587.5004   23554594.4864   23554588.393
        43.0004         38.0004
 14  5  4  0 30 30.0000000  0 10G01G20G04G28G17G07G08G09G10G13
  25627585.14047  19967126.49846  23147539.1934   23147550.7344   23147538.632
        45.0004         41.0004
  15325254.50447  11941668.80646  23636562.1794   23636568.8084   23636562.504
        42.0004         37.0004
 -17219319.56948 -13368886.95947  21844771.6664   21844779.6474   21844772.173
        49.0004         45.0004
  -4377516.45647  -3410946.66946  23943973.8854   23943983.3644   23943974.768
        43.0004         39.0004
  18192428.61048  14177398.94747  22318599.3564   22318606.8254   22318598.737
        50.0004         45.0004
  11887398.31349   9268644.60648  20208624.4994   20208628.9664   20208623.800
        54.0004         49.0004
   2491508.13149   1950906.47148  20208201.5944   20208208.0784   20208201.914
        54.0004         49.0004
   2876642.93948   2251377.26848  20276383.0674   20276389.5844   20276382.976
        53.0004         49.0004
  -6060777.27147  -4717215.83246  24402187.3594   24402195.8874   24402186.553
        42.0004         37.0004
  29090934.37647  22664663.14546  23569574.3364   23569578.9834   23569574.435
        43.0004         38.0004
 14  5  4  0 31  0.0000000  0 10G01G20G04G28G17G07G08G09G10G13
  25718966.21747  20038332.48746  23164928.8274   23164938.9004   23164928.121
        45.0004         40.0004
  15328192.13647  11943957.91446  23637119.6034   23637128.5474   23637120.273
        42.0004         37.0004
 -17303882.04448 -13434779.69547  21828680.5194   21828687.1484   21828680.145
        49.0004         45.0004
  -4417941.18347  -3442446.25146  23936282.2414   23936291.3114   23936281.962
        43.0004         39.0004
  18230122.19848  14206770.60547  22325771.7584   22325779.2534   22325771.497
        50.0004         45.0004
  11911459.83449   9287393.89248  20213203.2364   20213207.7604   20213202.893
        54.0004         49.0004
   2445445.64849   1915013.69448  20199436.4794   20199442.4214   20199436.620
        54.0004         49.0004
   2834433.96248   2218487.22448  20268350.6754   20268357.1264   20268350.989
        53.0004         49.0004
  -6108599.70547  -4754479.86646  24393085.7474   24393095.3584   24393086.374
        42.0004         37.0004
  29169564.25147  22725933.26646  23584535.7624   23584542.1074   23584536.645
        43.0004         38.0004
 14  5  4  0 31 30.0000000  0 10G01G20G04G28G17G07G08G09G10G13
  25810632.78147  20109760.93346  23182371.6634   23182382.9694   23182371.117
        45.0004         40.0004
  15331311.86747  11946388.91346  23637713.4814   23637721.6794   23637714.159
        42.0004         37.0004
 -17388139.88348 -13500435.05547  21812647.2934   21812653.2704   21812646.523
        49.0004         45.0004
  -4458612.52747  -3474138.02446  23928542.1214   23928550.7624   23928541.867
        43.0004         39.0004
  18267964.33048  14236258.00847  22332972.5144   22332980.5404   22332972.777
        50.0004         45.0004
  11936117.22049   9306607.48348  20217895.2314   20217900.1034   20217894.675
        54.0004         49.0004
   2399943.67849   1879557.68448  20190777.4954   20190783.8464   20190777.683
        54.0004         49.0004
   2792776.94648   2186027.27948  20260423.8514   20260430.2194   20260423.768
        53.0004         49.0004
  -6156662.76647  -4791931.41546  24383938.9344   24383946.9734   24383940.163
        42.0004         38.0004
  29248067.48147  22787104.69846  23599475.3134   23599481.8114   23599475.286
        43.0004         38.0004
 14  5  4  0 32  0.0000000  0 10G01G20G04G28G17G07G08G09G10G13
  25902582.17747  20181409.77146  23199869.8274   23199880.6254   23199868.754
        45.0004         40.0004
  15334615.31447  11948963.05846  23638341.6284   23638350.3884   23638342.429
        42.0004         37.0004
 -17472090.57748 -13565851.08147  21796671.5754   21796678.6484   21796670.926
        49.0004         45.0004
  -4499529.50547  -3506021.18946  23920755.3414   23920764.0964   23920755.500
        44.0004         39.0004
  18305952.37448  14265859.10747  22340201.9684   22340209.0844   22340201.521
        50.0004         45.0004
  11961369.77849   9326284.84448  20222700.4514   20222705.1684   20222700.115
        54.0004         49.0004
   2355004.72849   1844540.38948  20182225.8404   20182232.1744   20182226.002
        54.0004         49.0004
   2751673.66349   2153998.81448  20252602.1004   20252608.5124   20252602.285
        54.0004         49.0004
  -6204965.99847  -4829570.11746  24374746.3584   24374757.1604   24374748.830
        42.0004         38.0004
  29326441.58047  22848175.52246  23614388.9574   23614394.9254   23614389.651
        43.0004         38.0004
 14  5  4  0 32 30.0000000  0 10G01G20G04G28G17G07G08G09G10G13
  25994814.21047  20253278.83546  23217421.2534   23217431.6514   23217420.043
        45.0004         40.0004
  15338106.58347  11951683.55846  23639007.1314   23639014.2104   23639007.589
        42.0004         37.0004
 -17555729.20548 -13631023.93847  21780754.7154   21780762.4554   21780754.584
        49.0004         45.0004
  -4540688.83347  -3538093.17746  23912923.1014   23912932.5314   23912923.246
        44.0004         39.0004
  18344086.13948  14295573.75247  22347458.9514   22347465.9894   22347458.259
        50.0004         45.0004
  11987218.98449   9346427.13148  20227619.1884   20227623.7964   20227619.033
        54.0004         49.0004
   2310633.56049   1809965.52548  20173781.7364   20173788.3764   20173782.217
        54.0004         49.0004
   2711127.98849   2122404.85448  20244886.6684   20244892.7504   20244886.219
        54.0004         49.0004
  -6253506.77147  -4867393.90046  24365510.6674   24365519.1324   24365511.684
        42.0004         38.0004
  29404687.18047  22909146.20346  23629278.0334   23629282.8144   23629278.812
        42.0004         38.0004
 14  5  4  0 33  0.0000000  0 10G01G20G04G28G17G07G08G09G10G13
  26087323.70647  20325364.10646  23235025.0074   23235035.5744   23235023.896
        45.0004         40.0004
  15341784.80347  11954549.73446  23639706.8334   23639713.2114   23639706.719
        42.0004         37.0004
 -17639055.58048 -13695953.47947  21764899.1324   21764906.3714   21764899.178
        50.0004         45.0004
  -4582092.22847  -3570355.35946  23905044.3344   23905052.9104   23905044.551
        44.0004         39.0004
  18382360.58048  14325398.01247  22354741.6304   22354748.9844   22354741.460
        50.0004         45.0004
  12013661.69149   9367031.88248  20232651.3104   20232655.9734   20232650.979
        54.0004         49.0004
   2266829.62749   1775832.65748  20165446.4774   20165453.0534   20165446.783
        54.0004         49.0004
   2671138.96249   2091244.64048  20237276.7954   20237283.2324   20237276.851
        54.0004         49.0004
  -6302287.52247  -4905404.69546  24356226.5964   24356236.2374   24356228.696
        42.0004         38.0004
  29482799.80247  22970013.25246  23644143.2674   23644148.3474   23644143.159
        42.0004         38.0004
 14  5  4  0 33 30.0000000  0 10G01G20G04G28G17G07G08G09G10G13
  26180108.94247  20397664.22846  23252681.2984   23252692.2224   23252680.807
        45.0004         40.0004
  15345652.65147  11957563.66146  23640443.7224   23640450.9904   23640443.472
        42.0004         38.0004
 -17722066.33148 -13760637.09047  21749102.8194   21749109.3874   21749101.501
        50.0004         45.0004
  -4623737.84447  -3602806.29046  23897118.3524   23897127.5054   23897119.038
        43.0004         39.0004
  18420773.93048  14355330.51147  22362052.0364   22362059.0764   22362051.340
        50.0004         45.0004
  12040698.04849   9388099.21548  20237795.9904   20237801.1654   20237795.662
        54.0004         49.0004
   2223596.06849   1742144.23648  20157219.5784   20157225.9254   20157219.534
        54.0004         49.0004
   2631709.14749   2060520.17848  20229773.0994   20229779.7014   20229773.252
        54.0004         49.0004
  -6351306.48447  -4943601.11846  24346899.4024   24346906.8424   24346900.203
        42.0004         37.0004
  29560778.16447  23030775.69646  23658981.5284   23658986.1964   23658981.566
        42.0004         38.0004
 14  5  4  0 34  0.0000000  0 10G01G20G04G28G17G07G08G09G10G13
  26273169.11447  20470178.59046  23270389.4164   23270400.6274   23270389.477
        45.0004         40.0004
  15349713.60747  11960728.07846  23641215.8684   23641224.0364   23641215.972
        42.0004         38.0004
 -17804757.10848 -13825071.36047  21733367.1994   21733373.5674   21733366.811
        50.0004         45.0004
  -4665623.20047  -3635444.03346  23889147.7334   23889157.3774   23889148.486
        43.0004         39.0004
  18459324.90648  14385370.25847  22369387.5674   22369395.9884   22369387.321
        50.0004         45.0004
  12068328.89549   9409629.78748  20243054.1294   20243058.7444   20243053.883
        54.0004         49.0004
   2180937.18649   1708903.62148  20149101.5744   20149107.9144   20149102.039
        54.0004         49.0004
   2592842.13049   2030234.26048  20222377.0974   20222383.4814   20222377.180
        54.0004         49.0004
  -6400561.50947  -4981981.47946  24337525.3234   24337535.9074   24337527.357
        42.0004         37.0004
  29638622.19247  23091433.46446  23673795.5824   23673802.7054   23673794.918
        42.0004         38.0004
 14  5  4  0 34 30.0000000  0 10G01G20G04G28G17G07G08G09G10G13
  26366499.61547  20542903.60946  23288150.7014   23288161.8564   23288149.960
        45.0004         40.0004
  15353967.66347  11964042.95646  23642026.4044   23642032.9374   23642026.497
        42.0004         38.0004
 -17887127.26048 -13889255.80447  21717692.5784   21717699.1454   21717691.638
        50.0004         45.0004
  -4707748.52347  -3668268.76846  23881131.9674   23881140.4234   23881131.545
        43.0004         39.0004
  18498009.06948  14415513.76847  22376749.1564   22376756.8704   22376748.608
        50.0004         45.0004
  12096551.57749   9431621.52448  20248424.6584   20248428.9854   20248424.341
        54.0004         49.0004
   2138853.05649   1676110.85948  20141093.2284   20141099.6264   20141093.402
        54.0004         49.0004
   2554537.41849   2000386.50248  20215088.2854   20215094.3194   20215087.872
        54.0004         49.0004
  -6450054.38747  -5020547.16846  24328108.8424   24328116.9224   24328108.839
        42.0004         37.0004
  29716327.95947  23151983.48446  23688582.5814   23688589.2394   23688582.251
        42.0004         38.0004
 14  5  4  0 35  0.0000000  0 10G01G20G04G28G17G07G08G09G10G13
  26460098.88847  20615838.07646  23305961.6374   23305972.2034   23305960.954
        45.0004         40.0004
  15358417.24947  11967510.18846  23642871.0374   23642879.2064   23642872.019
        42.0004         37.0004
 -17969173.07848 -13953187.51847  21702080.3484   21702086.0524   21702079.151
        50.0004         45.0004
  -4750112.23347  -3701279.26246  23873070.0394   23873078.5534   23873070.286
        43.0004         39.0004
  18536825.08948  14445760.04247  22384135.2714   22384142.4804   22384135.106
        50.0004         45.0004
  12125366.35549   9454074.63848  20253907.7574   20253912.3114   20253907.400
        54.0004         49.0004
   2097346.78649   1643768.37748  20133194.9684   20133201.1224   20133195.277
        54.0004         49.0004
   2516797.61249   1970978.93048  20207906.0924   20207912.4694   20207906.150
        54.0004         49.0004
  -6499783.53747  -5059296.98846  24318644.3194   24318654.8814   24318646.108
        42.0004         37.0004
  29793894.69747  23212425.18546  23703343.1604   23703348.0664   23703342.714
        42.0004         38.0004
 14  5  4  0 35 30.0000000  0 10G01G20G04G28G17G07G08G09G10G13
  26553963.33847  20688979.15546  23323822.9854   23323834.7924   23323822.828
        45.0004         40.0004
  15363063.18447  11971130.41646  23643756.5244   23643763.6564   23643756.799
        42.0004         38.0004
 -18050892.98148 -14016865.26847  21686529.1394   21686534.5514   21686528.314
        50.0004         45.0004
  -4792714.26147  -3734475.45046  23864963.1554   23864971.1484   23864963.164
        43.0004         39.0004
  18575769.32348  14476106.21247  22391546.1944   22391553.9464   22391545.691
        50.0004         45.0004
  12154771.03549   9476987.41148  20259503.1734   20259508.1384   20259502.833
        54.0004         49.0004
   2056419.94449   1611877.40148  20125406.8294   20125412.9084   20125406.856
        54.0004         49.0004
   2479623.27149   1942011.98048  20200832.3464   20200838.3364   20200832.208
        54.0004         49.0004
  -6549749.19947  -5098231.09246  24309137.0514   24309145.5144   24309136.795
        42.0004         37.0004
  29871319.27547  23272756.10846  23718075.5604   23718082.1674   23718075.830
        42.0004         38.0004
 14  5  4  0 36  0.0000000  0 10G01G20G04G28G17G07G08G09G10G13
  26648093.08547  20762326.95146  23341736.2124   23341746.6824   23341735.231
        45.0004         40.0004
  15367909.84647  11974907.05946  23644677.9914   23644685.6164   23644677.529
        42.0004         38.0004
 -18132281.76548 -14080285.00547  21671039.8994   21671046.6834   21671040.011
        50.0004         45.0004
  -4835550.77947  -3767854.37346  23856811.4564   23856819.7334   23856811.697
        43.0004         39.0004
  18614841.80848  14506552.31347  22398981.2134   22398988.3744   22398980.976
        50.0004         45.0004
  12184767.35349   9500361.20848  20265211.4824   20265216.3094   20265210.672
        54.0004         49.0004
   2016077.46249   1580441.76648  20117729.8654   20117735.7464   20117730.096
        54.0004         49.0004
   2443018.59549   1913488.92148  20193866.6894   20193872.4384   20193866.406
        54.0004         49.0004
  -6599948.27747  -5137347.07246  24299582.6314   24299592.6644   24299583.557
        42.0004         37.0004
  29948602.73347  23332977.05746  23732783.5084   23732786.3914   23732781.821
        42.0004         38.0004
 14  5  4  0 36 30.0000000  0 10G01G20G04G28G17G07G08G09G10G13
  26742482.11447  20835876.79646  23359696.9474   23359708.3434   23359696.635
        45.0004         40.0004
  15372955.44247  11978838.70446  23645638.5314   23645645.1924   23645639.493
        42.0004         38.0004
 -18213340.01648 -14143447.18247  21655615.5894   21655621.7044   21655615.682
        50.0004         45.0004
  -4878624.07847  -3801417.80246  23848613.5134   23848623.6704   23848614.918
        44.0004         39.0004
  18654036.39448  14537093.55247  22406440.1414   22406447.7454   22406439.763
        50.0004         45.0004
  12215350.93749   9524192.61248  20271031.2374   20271036.0084   20271030.837
        54.0004         49.0004
   1976317.91249   1549460.36948  20110163.6784   20110169.6544   20110163.885
        54.0004         49.0004
   2406981.83149   1885408.39848  20187008.8264   20187015.2744   20187009.085
        54.0004         49.0004
  -6650383.66347  -5176647.20846  24289985.7974   24289996.3634   24289985.409
        42.0004         37.0004
  30025739.66347  23393083.82246  23747461.7574   23747467.2524   23747460.974
        42.0004         38.0004
 14  5  4  0 37  0.0000000  0 10G01G20G04G28G17G07G08G09G10G13
  26837130.37547  20909628.62546  23377709.1184   23377719.5734   23377708.067
        45.0004         40.0004
  15378204.26847  11982928.72346  23646637.0324   23646645.0574   23646637.522
        42.0004         38.0004
 -18294062.85948 -14206348.01747  21640254.7664   21640260.9564   21640254.121
        50.0004         45.0004
  -4921930.44347  -3835162.84246  23840372.8634   23840381.9384   23840373.785
        44.0004         39.0004
  18693353.39748  14567730.18347  22413920.9914   22413929.5594   22413921.312
        50.0004         45.0004
  12246523.64549   9548483.07648  20276963.2604   20276967.9984   20276962.616
        54.0004         49.0004
   1937145.65949   1518936.59948  20102709.5024   20102715.4984   20102709.571
        54.0004         49.0004
   2371516.87849   1857773.43848  20180260.0934   20180266.2544   20180259.784
        54.0004         49.0004
  -6701052.10847  -5216128.94946  24280343.2004   24280352.5434   24280343.978
        42.0004         37.0004
  30102731.15647  23453077.27146  23762111.3154   23762117.1524   23762111.616
        42.0004         37.0004
 14  5  4  0 37 30.0000000  0 11G01G26G20G04G28G17G07G08G09G10G13
  26932029.91947  20983576.27346  23395767.3304   23395778.7774   23395766.961
        45.0004         40.0004
                                                                  24169435.343

  15383652.79047  11987174.34546  23647674.9434   23647680.9224   23647675.144
        42.0004         38.0004
 -18374452.82748 -14268989.45247  21624957.0354   21624963.0554   21624956.757
        50.0004         46.0004
  -4965474.27447  -3869092.92746  23832087.2414   23832095.9004   23832087.825
        44.0004         39.0004
  18732784.74948  14598455.92447  22421424.4604   22421432.7854   22421424.679
        49.0004         45.0004
  12278279.31449   9573227.80148  20283006.2834   20283010.5324   20283005.695
        54.0004         49.0004
   1898557.84049   1488868.23748  20095366.1944   20095372.6434   20095366.602
        54.0004         49.0004
   2336619.94849   1830581.09648  20173619.3724   20173625.9424   20173619.564
        54.0004         49.0004
  -6751958.58147  -5255796.15146  24270656.6354   24270667.0264   24270658.016
        42.0004         37.0004
  30179569.56847  23512951.42546  23776734.6214   23776739.2044   23776732.808
        42.0004         37.0004
 14  5  4  0 38  0.0000000  0 11G01G26G20G04G28G17G07G08G09G10G13
  27027184.33247  21057722.51546  23413873.9224   23413886.0004   23413873.786
        45.0004         40.0004
                                                                  24165387.008

  15389308.86947  11991581.71746  23648749.4314   23648755.4434   23648750.658
        42.0004         38.0004
 -18454501.21548 -14331364.73847  21609724.2174   21609730.3634   21609723.806
        50.0004         46.0004
  -5009248.14047  -3903202.25046  23823757.7664   23823766.5324   23823757.679
        44.0004         39.0004
  18772333.94748  14629273.46747  22428951.2014   22428958.1754   22428950.884
        49.0004         45.0004
  12310623.02849   9598430.73348  20289160.6664   20289165.3104   20289160.306
        54.0004         49.0004
   1860562.73349   1459261.72148  20088136.0284   20088142.0874   20088136.323
        54.0004         49.0004
   2302298.55449   1803837.22148  20167088.1124   20167094.0474   20167088.012
        54.0004         49.0004
  -6803096.33947  -5295643.59046  24260924.9384   24260934.5244   24260926.277
        42.0004         37.0004
  30256259.24947  23572709.68046  23791327.2054   23791332.0424   23791326.875
        42.0004         37.0004
 14  5  4  0 38 30.0000000  0 11G01G26G20G04G28G17G07G08G09G10G13
  27122589.92447  21132064.47946  23432029.6704   23432040.4994   23432029.315
        45.0004         40.0004
   -991081.66649   -683155.96346  24161409.7434   24161423.5134   24161409.179
        54.0004         36.0004
  15395173.17147  11996151.31046  23649867.1394   23649874.5674   23649867.729
        42.0004         38.0004
 -18534206.42548 -14393472.60247  21594556.5184   21594562.8724   21594556.070
        50.0004         45.0004
  -5053251.99247  -3937490.79846  23815384.3714   23815391.6134   23815384.553
        44.0004         39.0004
  18811997.58248  14660180.19547  22436499.5234   22436506.6384   22436498.568
        49.0004         45.0004
  12343552.43649   9624090.05748  20295427.3384   20295431.8894   20295426.719
        54.0004         49.0004
   1823161.43649   1430117.91948  20081018.8194   20081024.9294   20081019.268
        54.0004         49.0004
   2268553.06449   1777542.10048  20160666.7524   20160672.7694   20160666.717
        54.0004         49.0004
  -6854465.87847  -5335671.65746  24251150.6714   24251158.5744   24251151.016
        42.0004         38.0004
  30332797.68747  23632350.10046  23805891.4714   23805896.2474   23805892.027
        42.0004         37.0004
 14  5  4  0 39  0.0000000  0 11G01G26G20G04G28G17G07G08G09G10G13
  27218245.00547  21206600.85046  23450233.1074   23450243.7984   23450231.640
        45.0004         40.0004
  -1011625.62648   -699163.99846  24157499.8044   24157513.9984   24157499.181
        48.0004         37.0004
  15401248.22947  12000885.13846  23651021.4554   23651029.8714   23651022.061
        42.0004         38.0004
 -18613565.18348 -14455310.51147  21579455.0224   21579461.4924   21579454.677
        50.0004         46.0004
  -5097483.64647  -3971956.85446  23806967.0444   23806974.3304   23806966.871
        44.0004         39.0004
  18851773.97148  14691174.78647  22444068.3934   22444075.8804   22444067.547
        49.0004         45.0004
  12377067.58449   9650205.79948  20301804.8814   20301809.3354   20301804.441
        54.0004         49.0004
   1786356.80349   1401439.04548  20074015.0274   20074021.1994   20074015.187
        54.0004         49.0004
   2235385.96149   1751697.67048  20154355.3794   20154361.0304   20154355.191
        54.0004         49.0004
  -6906065.51147  -5375878.99646  24241330.9414   24241339.3674   24241331.938
        42.0004         38.0004
  30409183.93547  23691871.90146  23820428.4544   23820433.8744   23820427.326
        42.0004         37.0004
 14  5  4  0 39 30.0000000  0 11G01G26G20G04G28G17G07G08G09G10G13
  27314150.78247  21281332.56646  23468483.3104   23468493.2314   23468481.720
        45.0004         40.0004
  -1031803.95647   -714887.11046  24153660.2374   24153671.6024   24153659.436
        44.0004         37.0004
  15407539.51047  12005787.43946  23652220.9204   23652226.7184   23652220.287
        42.0004         37.0004
 -18692570.80548 -14516873.24647  21564421.3594   21564427.0414   21564420.514
        50.0004         46.0004
  -5141938.01447  -4006596.46046  23798507.5444   23798515.1134   23798507.275
        44.0004         39.0004
  18891664.17848  14722258.06747  22451658.8754   22451666.8074   22451658.551
        49.0004         45.0004
  12411171.14648   9676780.05148  20308294.3164   20308299.2084   20308294.067
        53.0004         49.0004
   1750154.63349   1373229.62148  20067125.8934   20067131.7754   20067126.263
        54.0004         49.0004
   2202802.35049   1726307.90748  20148154.5304   20148160.2464   20148154.441
        54.0004         49.0004
  -6957890.92047  -5416262.27446  24231467.6194   24231477.3144   24231469.557
        42.0004         38.0004
  30485419.80447  23751276.55246  23834934.0164   23834940.3134   23834934.479
        42.0004         37.0004
 14  5  4  0 40  0.0000000  0 11G01G26G20G04G28G17G07G08G09G10G13
  27410292.71847  21356248.29746  23486778.2604   23486788.4584   23486776.777
        45.0004         40.0004
  -1051629.55247   -730335.36546  24149886.0144   24149899.1164   24149885.817
        42.0004         37.0004
  15414037.02047  12010850.45246  23653456.3314   23653464.0864   23653456.122
        42.0004         38.0004
 -18771232.84848 -14578168.26247  21549451.7844   21549458.1934   21549451.439
        50.0004         46.0004
  -5186626.07447  -4041418.17346  23790003.1824   23790011.2554   23790003.487
        44.0004         39.0004
  18931653.80948  14753418.81247  22459269.0884   22459276.0604   22459268.175
        49.0004         45.0004
  12445850.00548   9703802.58548  20314893.4734   20314898.1654   20314893.100
        53.0004         49.0004
   1714544.93649   1345481.86748  20060349.6124   20060355.6474   20060349.487
        54.0004         49.0004
   2170791.58749   1701364.52248  20142062.9574   20142069.4894   20142063.143
        54.0004         49.0004
  -7009953.28947  -5456830.18146  24221561.0254   24221569.8754   24221561.757
        42.0004         37.0004
  30561491.69546  23810553.39946  23849411.7394   23849415.0774   23849410.461
        41.0004         37.0004
 14  5  4  0 40 30.0000000  0 11G01G26G20G04G28G17G07G08G09G10G13
  27506678.10447  21431353.73746  23505119.5014   23505131.0814   23505118.562
        44.0004         40.0004
  -1071093.50547   -745501.82746  24146181.5174   24146196.5524   24146182.513
        42.0004         37.0004
  15420752.37947  12016083.20246  23654734.0584   23654741.7474   23654734.950
        42.0004         38.0004
 -18849538.61448 -14639185.65447  21534550.7554   21534556.3364   21534550.415
        50.0004         46.0004
  -5231536.57647  -4076413.22246  23781455.8704   23781465.6254   23781457.122
        44.0004         39.0004
  18971750.26448  14784662.79447  22466898.5534   22466906.4884   22466898.437
        49.0004         45.0004
  12481113.00948   9731280.29448  20321603.8404   20321608.1884   20321603.499
        53.0004         49.0004
   1679539.75049   1318205.15848  20053688.3924   20053694.1204   20053688.755
        54.0004         49.0004
   2139364.83949   1676876.21348  20136082.9384   20136088.5174   20136082.691
        54.0004         49.0004
  -7062241.97547  -5497574.45146  24211611.6594   24211620.1264   24211611.549
        43.0004         38.0004
  30637407.85446  23869708.91546  23863856.9694   23863862.7174   23863856.961
        41.0004         37.0004
 14  5  4  0 41  0.0000000  0 11G01G26G20G04G28G17G07G08G09G10G13
  27603300.64347  21506643.96946  23523507.2754   23523517.1544   23523505.570
        44.0004         40.0004
  -1090200.58446   -760390.19246  24142546.1024   24142558.7414   24142545.363
        41.0004         36.0004
  15427682.93947  12021483.64346  23656052.0354   23656061.4994   23656053.125
        42.0004         37.0004
 -18927489.49148 -14699926.52347  21519717.1104   21519724.2534   21519716.427
        50.0004         46.0004
  -5276672.04347  -4111583.57546  23772867.1944   23772875.1464   23772868.038
        44.0004         39.0004
  19011947.46148  14815985.28647  22474548.0164   22474555.3764   22474547.745
        49.0004         44.0004
  12516955.24248   9759209.35348  20328424.3114   20328429.0784   20328423.997
        53.0004         49.0004
   1645137.45649   1291398.23848  20047141.4564   20047147.5274   20047141.701
        54.0004         49.0004
   2108519.95049   1652841.30148  20130213.1244   20130218.8674   20130213.259
        54.0004         49.0004
  -7114759.97447  -5538497.38046  24201617.2494   24201626.1194   24201618.377
        43.0004         38.0004
  30713162.93547  23928738.89946  23878274.0364   23878277.1314   23878272.564
        42.0004         37.0004
 14  5  4  0 41 30.0000000  0 11G01G26G20G04G28G17G07G08G09G10G13
  27700159.51247  21582118.34146  23541938.5604   23541948.8864   23541937.618
        44.0004         40.0004
  -1108950.17646   -775000.01746  24138977.3544   24138990.9994   24138977.883
        41.0004         37.0004
  15434832.88347  12027055.02846  23657413.7324   23657419.8274   23657413.798
        42.0004         37.0004
 -19005081.19248 -14760387.50747  21504951.9874   21504958.0574   21504951.562
        50.0004         46.0004
  -5322029.54047  -4146926.92946  23764235.2594   23764244.4714   23764236.677
        44.0004         39.0004
  19052244.39948  14847385.49447  22482216.2464   22482223.8654   22482216.103
        49.0004         44.0004
  12553377.47148   9787590.35748  20335355.4904   20335359.3644   20335354.912
        53.0004         49.0004
   1611341.56249   1265063.83648  20040710.6224   20040716.8914   20040710.838
        54.0004         49.0004
   2078259.78249   1629262.02148  20124454.6694   20124460.8634   20124454.615
        54.0004         49.0004
  -7167504.81847  -5579597.09246  24191579.1254   24191587.8144   24191580.972
        43.0004         38.0004
  30788756.95547  23987643.39646  23892658.1534   23892662.8304   23892657.818
        42.0004         37.0004
 14  5  4  0 42  0.0000000  0 11G01G26G20G04G28G17G07G08G09G10G13
  27797251.91747  21657774.69546  23560412.9604   23560424.9094   23560413.615
        44.0004         40.0004
  -1127343.56246   -789332.26146  24135477.3204   24135491.1154   24135476.858
        41.0004         37.0004
  15442203.29747  12032798.21346  23658816.6814   23658824.6334   23658816.637
        42.0004         37.0004
 -19082311.11248 -14820566.58647  21490255.5124   21490261.8964   21490254.478
        50.0004         46.0004
  -5367607.89647  -4182442.39246  23755563.8114   23755571.6714   23755563.345
        44.0004         39.0004
  19092638.48948  14878861.40347  22489903.1974   22489909.8334   22489902.654
        49.0004         44.0004
  12590378.33548   9816422.24248  20342396.2794   20342400.7234   20342395.681
        53.0004         49.0004
   1578153.83249   1239203.32748  20034395.1524   20034401.0364   20034395.351
        54.0004         49.0004
   2048585.55449   1606139.30648  20118807.9924   20118813.5674   20118807.893
        54.0004         49.0004
  -7220476.19847  -5620873.31246  24181500.4764   24181508.0814   24181501.407
        43.0004         38.0004
  30864188.05147  24046420.93846  23907012.1014   23907016.9004   23907011.763
        42.0004         37.0004
 14  5  4  0 42 30.0000000  0 11G01G26G20G04G28G17G07G08G09G10G13
  27894573.64247  21733609.74246  23578933.3134   23578945.0434   23578932.932
        44.0004         40.0004
  -1145383.45246   -803389.07246  24132044.0714   24132057.7284   24132044.010
        41.0004         36.0004
  15449794.36347  12038713.32846  23660261.2404   23660267.3444   23660261.067
        42.0004         37.0004
 -19159178.38948 -14880463.08847  21475627.4774   21475634.4174   21475627.487
        50.0004         46.0004
  -5413406.84947  -4218129.74646  23746846.8244   23746856.0154   23746847.982
        44.0004         39.0004
  19133125.85448  14910410.00047  22497607.6044   22497615.1234   22497607.399
        49.0004         44.0004
  12627955.29148   9845703.03448  20349546.7964   20349551.2354   20349546.381
        53.0004         49.0004
   1545574.45849   1213816.85748  20028195.3984   20028201.2184   20028195.559
        54.0004         49.0004
   2019496.95349   1583472.93148  20113272.3834   20113278.1004   20113272.511
        54.0004         49.0004
  -7273674.80947  -5662326.60446  24171376.6964   24171385.1004   24171377.445
        43.0004         39.0004
  30939453.13647  24105069.10546  23921334.6864   23921341.0864   23921334.011
        42.0004         37.0004
 14  5  4  0 43  0.0000000  0 11G01G26G20G04G28G17G07G08G09G10G13
  27992122.92847  21809622.10146  23597496.4874   23597507.8504   23597496.362
        44.0004         40.0004
  -1163070.05246   -817170.59746  24128677.3394   24128691.3594   24128678.608
        41.0004         36.0004
  15457608.66647  12044802.39746  23661746.7014   23661754.7104   23661747.565
        42.0004         37.0004
 -19235679.70348 -14940074.42047  21461070.1314   21461076.3034   21461069.605
        51.0004         46.0004
  -5459425.15847  -4253988.02946  23738090.4644   23738098.6724   23738090.502
        44.0004         39.0004
  19173704.66348  14942029.85247  22505329.8014   22505336.5154   22505329.104
        49.0004         44.0004
  12666107.44148   9875432.02648  20356806.6964   20356811.5254   20356806.622
        53.0004         49.0004
   1513606.16049   1188906.55548  20022111.5804   20022117.8314   20022112.207
        54.0004         49.0004
   1990995.73049   1561264.24948  20107848.8704   20107854.8214   20107848.669
        54.0004         49.0004
  -7327099.21047  -5703955.82546  24161209.5264   24161218.7214   24161210.213
        43.0004         39.0004
  31014551.29947  24163587.19746  23935625.2994   23935631.6904   23935625.416
        42.0004         37.0004
 14  5  4  0 43 30.0000000  0 11G01G26G20G04G28G17G07G08G09G10G13
  28089897.49847  21885809.99746  23616103.4924   23616113.8814   23616102.209
        44.0004         40.0004
  -1180404.28146   -830677.54746  24125379.9794   24125392.0744   24125379.756
        41.0004         37.0004
  15465648.27947  12051067.03546  23663276.5164   23663285.5144   23663278.009
        42.0004         37.0004
 -19311812.10848 -14999398.30247  21446582.7134   21446588.6014   21446582.157
        51.0004         46.0004
  -5505660.61447  -4290015.53646  23729291.8654   23729299.8004   23729292.654
        44.0004         39.0004
  19214372.82848  14973719.32947  22513068.9824   22513075.5044   22513067.727
        49.0004         44.0004
  12704833.81248   9905608.46548  20364176.0934   20364180.8864   20364175.662
        53.0004         49.0004
   1482251.33249   1164474.27948  20016145.1934   20016151.3604   20016145.499
        54.0004         49.0004
   1963083.70849   1539514.68948  20102537.2874   20102543.1884   20102537.374
        54.0004         49.0004
  -7380748.36847  -5745760.17746  24151001.2774   24151009.0484   24151000.920
        43.0004         39.0004
  31089480.88347  24221973.92346  23949883.1634   23949888.1414   23949883.517
        42.0004         37.0004
 14  5  4  0 44  0.0000000  0 11G01G26G20G04G28G17G07G08G09G10G13
  28187894.34347  21962171.10046  23634750.8744   23634762.2434   23634750.559
        44.0004         40.0004
  -1197387.63946   -843911.07846  24122147.8944   24122160.7304   24122148.124
        41.0004         37.0004
  15473914.09147  12057507.92946  23664849.9354   23664858.4854   23664850.805
        42.0004         37.0004
 -19387573.31148 -15058432.92047  21432165.5934   21432171.4944   21432165.496
        51.0004         46.0004
  -5552112.35247  -4326211.58846  23720452.6304   23720460.0814   23720452.453
        44.0004         39.0004
  19255127.27548  15005476.03647  22520823.6484   22520831.0954   22520823.358
        49.0004         44.0004
  12744132.92448   9936231.19148  20371654.3284   20371659.1624   20371654.161
        53.0004         49.0004
   1451511.45249   1140521.18248  20010295.2184   20010301.6534   20010295.641
        54.0004         49.0004
   1935761.39749   1518224.64248  20097338.1664   20097343.4854   20097338.002
        54.0004         49.0004
  -7434621.71947  -5787739.22846  24140748.7584   24140757.1244   24140749.574
        43.0004         39.0004
  31164240.43347  24280228.16346  23964109.0484   23964116.6634   23964109.776
        42.0004         37.0004
 14  5  4  0 44 30.0000000  0 11G01G26G20G04G28G17G07G08G09G10G13
  28286110.44847  22038703.05246  23653441.0014   23653452.3194   23653440.083
        44.0004         40.0004
  -1214021.73247   -856872.45746  24118981.6654   24118994.5294   24118981.865
        42.0004         37.0004
  15482407.77947  12064126.38046  23666466.8224   23666472.6934   23666467.008
        42.0004         37.0004
 -19462961.42748 -15117176.83647  21417819.3954   21417825.5874   21417819.205
        51.0004         46.0004
  -5598779.75847  -4362575.68046  23711572.5304   23711579.6584   23711572.362
        44.0004         39.0004
  19295965.29648  15037297.87247  22528595.1894   22528602.4064   22528594.615
        49.0004         44.0004
  12784002.98148   9967298.81148  20379241.4194   20379246.0114   20379240.969
        53.0004         49.0004
   1421387.72349   1117048.20148  20004563.0614   20004569.0764   20004563.323
        54.0004         49.0004
   1909029.74949   1497394.84948  20092251.2474   20092257.0254   20092251.267
        54.0004         49.0004
  -7488718.79747  -5829892.61046  24130454.2704   24130462.3184   24130455.071
        43.0004         38.0004
  31238827.63646  24338348.09846  23978302.9174   23978309.2694   23978303.007
        41.0004         37.0004
 14  5  4  0 45  0.0000000  0 11G01G26G20G04G28G17G07G08G09G10G13
  28384544.95447  22115405.18446  23672172.4794   23672182.8304   23672172.149
        44.0004         40.0004
  -1230305.90047   -869561.19446  24115883.3784   24115895.9664   24115883.283
        42.0004         37.0004
  15491132.64946  12070924.99046  23668125.8274   23668134.2794   23668126.316
        41.0004         37.0004
 -19537972.07348 -15175626.61347  21403545.3894   21403551.3474   21403545.665
        51.0004         46.0004
  -5645659.26147  -4399105.04446  23702650.2084   23702658.8404   23702651.077
        44.0004         39.0004
  19336886.10948  15069184.21447  22536381.6204   22536389.5634   22536381.630
        49.0004         44.0004
  12824444.70948   9998811.88848  20386937.2814   20386941.4974   20386936.651
        53.0004         49.0004
   1391883.89549   1094058.26648  19998948.7744   19998954.7564   19998949.063
        54.0004         49.0004
   1882891.69849   1477027.59848  20087276.9754   20087282.9224   20087277.345
        54.0004         49.0004
  -7543037.08147  -5872218.36546  24120117.6994   24120125.8614   24120118.182
        43.0004         38.0004
  31313242.82147  24396333.99846  23992463.0024   23992468.5814   23992463.793
        42.0004         37.0004
 14  5  4  0 45 30.0000000  0 11G01G26G20G04G28G17G07G08G09G10G13
  28483193.21347  22192273.88946  23690944.3154   23690955.7294   23690944.277
        44.0004         40.0004
  -1246243.46947   -881979.82546  24112849.6544   24112863.0844   24112850.640
        42.0004         37.0004
  15500088.32146  12077903.42346  23669830.4424   23669836.7094   23669831.166
        41.0004         37.0004
 -19612604.81548 -15233781.91847  21389343.5804   21389349.6504   21389342.996
        51.0004         46.0004
  -5692751.54347  -4435800.21546  23693690.0724   23693696.7684   23693689.903
        44.0004         39.0004
  19377885.07548  15101131.46347  22544183.6044   22544191.2614   22544183.169
        49.0004         44.0004
  12865454.38548  10030767.51948  20394741.4174   20394745.7124   20394740.765
        53.0004         49.0004
   1362999.43749   1071550.94948  19993452.2574   19993458.2284   19993452.252
        54.0004         49.0004
   1857346.10249   1457122.00048  20082415.6044   20082421.7994   20082415.940
        54.0004         49.0004
  -7597577.80147  -5914717.43046  24109738.3864   24109746.5174   24109739.835
        43.0004         38.0004
  31387482.23446  24454182.93646  24006592.0484   24006597.3744   24006591.127
        41.0004         37.0004
 14  5  4  0 46  0.0000000  0 11G01G26G20G04G28G17G07G08G09G10G13
  28582053.82447  22269308.05246  23709757.2674   23709768.3124   23709757.121
        44.0004         39.0004
  -1261834.41847   -894128.39246  24109883.3974   24109895.3214   24109883.344
        42.0004         37.0004
  15509277.25946  12085063.63146  23671577.9214   23671587.9494   23671578.788
        41.0004         37.0004
 -19686855.95148 -15291639.86847  21375214.0454   21375219.9444   21375213.682
        51.0004         46.0004
  -5740054.18747  -4472659.29746  23684686.7044   23684696.9444   23684687.994
        44.0004         39.0004
  19418961.03648  15133138.71547  22552000.5114   22552007.5214   22551999.752
        49.0004         44.0004
  12907031.93048  10063165.64848  20402653.0824   20402657.8254   20402652.702
        53.0004         49.0004
   1334737.24249   1049528.51248  19988074.0634   19988080.1864   19988074.396
        54.0004         49.0004
   1832395.13349   1437679.75148  20077667.5934   20077673.5814   20077667.699
        54.0004         49.0004
  -7652339.08847  -5957388.37046  24099317.0014   24099326.5314   24099318.470
        43.0004         38.0004
  31461545.44046  24511894.56946  24020685.0584   24020690.2734   24020684.392
        41.0004         37.0004
 14  5  4  0 46 30.0000000  0 11G01G26G20G04G28G17G07G08G09G10G13
  28681124.00847  22346505.53046  23728609.5694   23728621.1944   23728609.359
        44.0004         40.0004
  -1277080.16847   -906007.96646  24106982.0414   24106995.5864   24106982.141
        42.0004         37.0004
  15518701.17146  12092406.91846  23673372.6884   23673380.2994   23673373.115
        41.0004         37.0004
 -19760722.95148 -15349198.49547  21361156.8984   21361163.1174   21361156.892
        51.0004         46.0004
  -5787565.85947  -4509681.27246  23675647.0714   23675655.5564   23675647.590
        43.0004         38.0004
  19460111.47248  15165203.98947  22559831.0204   22559838.6284   22559830.405
        49.0004         44.0004
  12949175.80948  10096005.08048  20410672.5314   20410677.0284   20410672.338
        53.0004         49.0004
   1307098.88949   1027992.19148  19982814.1984   19982820.7064   19982814.723
        54.0004         49.0004
   1808039.75349   1418701.59148  20073033.0704   20073038.7304   20073032.995
        54.0004         49.0004
  -7707320.19147  -6000230.59546  24088854.6824   24088864.1414   24088855.181
        43.0004         38.0004
  31535430.98946  24569467.76446  24034743.6084   24034750.9374   24034745.175
        41.0004         37.0004
 14  5  4  0 47  0.0000000  0 11G01G26G20G04G28G17G07G08G09G10G13
  28780400.83147  22423864.01746  23747501.8814   23747512.2714   23747500.643
        44.0004         40.0004
  -1291982.30447   -917619.79246  24104145.8684   24104159.6124   24104146.460
        42.0004         38.0004
  15528361.47846  12099934.43846  23675210.7894   23675218.6604   23675210.211
        41.0004         36.0004
 -19834203.85748 -15406456.27347  21347173.7584   21347179.9284   21347174.243
        51.0004         46.0004
  -5835285.43547  -4546865.23946  23666565.9054   23666573.3694   23666566.060
        43.0004         38.0004
  19501333.72748  15197325.23447  22567674.8584   22567682.6204   22567674.688
        49.0004         44.0004
  12991884.21548  10129284.39448  20418799.9494   20418804.2394   20418799.590
        53.0004         49.0004
   1280085.68449   1006942.99548  19977673.9844   19977679.9654   19977674.209
        54.0004         49.0004
   1784280.75449   1400188.14748  20068511.9234   20068517.6924   20068511.551
        54.0004         49.0004
  -7762520.52047  -6043243.64246  24078350.6484   24078360.0584   24078351.188
        43.0004         38.0004
  31609136.85746  24626900.94346  24048770.3374   24048775.9524   24048769.954
        41.0004         37.0004
 14  5  4  0 47 30.0000000  0 11G01G26G20G04G28G17G07G08G09G10G13
  28879881.38747  22501381.25346  23766431.8244   23766443.2714   23766431.198
        44.0004         40.0004
  -1306542.24647   -928964.97546  24101376.3844   24101388.1514   24101375.332
        42.0004         38.0004
  15538259.37746  12107647.08146  23677093.4164   23677099.9604   23677094.896
        41.0004         36.0004
 -19907296.49548 -15463411.50447  21333265.3034   21333271.2374   21333264.713
        51.0004         46.0004
  -5883212.01947  -4584210.53046  23657443.3854   23657454.1964   23657445.955
        43.0004         38.0004
  19542624.76648  15229500.06647  22575531.7754   22575540.4314   22575531.886
        49.0004         44.0004
  13035155.30148  10163002.16248  20427033.9274   20427038.6264   20427033.658
        53.0004         49.0004
   1253698.91249    986381.93448  19972652.5504   19972658.9064   19972652.803
        54.0004         49.0004
   1761118.74849   1382139.88948  20064103.9904   20064109.8664   20064104.176
        54.0004         49.0004
  -7817939.37247  -6086426.96146  24067804.6954   24067812.1174   24067805.505
        43.0004         38.0004
  31682661.23246  24684192.70146  24062760.6504   24062767.6164   24062760.988
        41.0004         37.0004
 14  5  4  0 48  0.0000000  0 11G01G26G20G04G28G17G07G08G09G10G13
  28979563.54647  22579055.58146  23785401.2354   23785412.8224   23785400.544
        44.0004         40.0004
  -1320760.91047   -940044.23846  24098669.9314   24098681.4634   24098669.573
        42.0004         38.0004
  15548397.06946  12115546.56546  23679023.5254   23679029.7104   23679023.906
        41.0004         36.0004
 -19979997.70648 -15520061.72347  21319430.6624   21319436.5954   21319430.438
        51.0004         46.0004
  -5931343.50547  -4621715.48846  23648286.1044   23648295.0294   23648286.808
        43.0004         38.0004
  19583982.63348  15261726.97547  22583402.1124   22583410.0414   22583402.341
        49.0004         44.0004
  13078988.06848  10197157.60148  20435375.3454   20435379.6474   20435374.653
        53.0004         49.0004
   1227940.52149    966310.51548  19967750.8874   19967756.9994   19967751.141
        54.0004         49.0004
   1738555.15449   1364557.92648  20059810.1604   20059816.3304   20059810.320
        54.0004         49.0004
  -7873575.37447  -6129779.49046  24057217.7504   24057225.6424   24057218.673
        43.0004         38.0004
  31756003.28746  24741342.37346  24076718.5514   24076723.6004   24076717.434
        41.0004         36.0004
 14  5  4  0 48 30.0000000  0 11G01G26G20G04G28G17G07G08G09G10G13
  29079444.76747  22656885.01746  23804408.2124   23804419.7554   23804407.338
        44.0004         40.0004
  -1334639.43147   -950858.45046  24096028.4124   24096041.3484   24096027.930
        42.0004         38.0004
  15558776.14346  12123634.16346  23680999.7584   23681006.6284   23680999.185
        41.0004         36.0004
 -20052305.29648 -15576405.23147  21305671.3274   21305676.7514   21305670.229
        51.0004         46.0004
  -5979678.28347  -4659378.83646  23639088.2294   23639096.5844   23639088.573
        43.0004         39.0004
  19625405.16348  15294004.26947  22591286.2104   22591293.1844   22591285.052
        49.0004         44.0004
  13123381.13648  10231749.64348  20443822.5444   20443827.0764   20443822.632
        53.0004         49.0004
   1202812.38849    946730.20548  19962969.3204   19962975.4014   19962969.446
        54.0004         49.0004
   1716590.97949   1347443.04648  20055630.3514   20055636.5514   20055630.436
        54.0004         49.0004
  -7929427.74847  -6173300.60146  24046589.0774   24046596.3034   24046589.848
        43.0004         38.0004
  31829161.57546  24798348.89046  24090640.3234   24090644.2734   24090639.166
        41.0004         37.0004
 14  5  4  0 49  0.0000000  0 11G01G26G20G04G28G17G07G08G09G10G13
  29179523.17847  22734868.10746  23823452.8364   23823464.2014   23823451.796
        44.0004         40.0004
  -1348178.35947   -961408.03946  24093451.9324   24093464.5964   24093451.774
        42.0004         37.0004
  15569398.97546  12131911.68646  23683020.2324   23683026.5864   23683020.474
        41.0004         36.0004
 -20124215.93948 -15632439.43047  21291986.4334   21291992.3224   21291986.447
        51.0004         46.0004
  -6028214.13847  -4697198.88946  23629852.4114   23629860.3874   23629852.799
        43.0004         39.0004
  19666890.45148  15326330.46847  22599180.1924   22599186.9974   22599179.547
        49.0004         44.0004
  13168333.69848  10266777.64648  20452377.0214   20452381.4574   20452376.505
        53.0004         49.0004
   1178316.66749    927642.68448  19958308.0854   19958313.7544   19958308.319
        54.0004         49.0004
   1695227.95849   1330796.59548  20051565.5114   20051571.0044   20051565.478
        54.0004         49.0004
  -7985494.69247  -6216988.93646  24035920.8394   24035928.2924   24035920.624
        43.0004         39.0004
  31902135.31446  24855211.58846  24104526.3154   24104531.4954   24104526.002
        41.0004         37.0004
 14  5  4  0 49 30.0000000  0 12G01G26G20G04G28G17G07G08G09G10G02G13
  29279792.57847  22813000.00846  23842532.6514   23842543.9404   23842532.246
        44.0004         40.0004
  -1361382.77047   -971696.97646  24090940.2514   24090950.6044   24090938.801
        42.0004         37.0004
  15580263.24146  12140377.33846  23685087.3394   23685096.0614   23685088.192
        41.0004         36.0004
 -20195730.78148 -15688165.21147  21278377.9554   21278383.5874   21278377.138
        51.0004         46.0004
  -6076953.29247  -4735177.36746  23620578.4664   23620585.7824   23620578.063
        43.0004         39.0004
  19708432.62448  15358700.98347  22607085.5424   22607092.6294   22607084.682
        49.0004         45.0004
  13213840.64448  10302237.63948  20461036.6874   20461040.7084   20461036.543
        53.0004         49.0004
   1154451.18149    909046.25348  19953766.3164   19953772.3024   19953766.815
        54.0004         49.0004
   1674463.16449   1314616.29948  20047614.0904   20047619.7664   20047613.885
        54.0004         49.0004
  -8041778.80147  -6260846.47546  24025209.1504   24025216.8764   24025209.374
        43.0004         39.0004
   -803583.30848   -581101.96946  24096779.7714   24096788.0014   24096780.990
        48.0004         37.0004
  31974919.43046  24911926.53046  24118376.0294   24118381.7024   24118376.737
        41.0004         37.0004
 14  5  4  0 50  0.0000000  0 12G01G26G20G04G28G17G07G08G09G10G02G13
  29380254.25247  22891281.75046  23861650.0694   23861662.0934   23861650.315
        44.0004         39.0004
  -1374249.81347   -981723.03046  24088490.3814   24088502.1654   24088490.032
        42.0004         37.0004
  15591374.69246  12149035.60946  23687203.2914   23687209.3434   23687202.724
        41.0004         36.0004
 -20266843.18948 -15743577.41447  21264845.2824   21264851.4004   21264845.191
        51.0004         46.0004
  -6125889.93647  -4773309.72646  23611265.1854   23611272.9564   23611265.902
        44.0004         39.0004
  19750033.35648  15391117.13747  22615001.3994   22615008.3674   22615000.931
        49.0004         44.0004
  13259904.48748  10338131.57948  20469802.0764   20469806.7764   20469801.813
        53.0004         49.0004
   1131221.65149    890945.37548  19949345.9554   19949351.7684   19949346.160
        54.0004         49.0004
   1654301.64849   1298906.08348  20043777.5044   20043783.1004   20043777.355
        54.0004         49.0004
  -8098275.38547  -6304869.60546  24014458.6534   24014464.2804   24014458.422
        43.0004         39.0004
   -897367.90047   -654180.59046  24078932.5564   24078941.5844   24078933.447
        44.0004         37.0004
  32047516.81046  24968495.94246  24132191.3444   24132197.3744   24132191.073
        41.0004         36.0004
 14  5  4  0 50 30.0000000  0 12G01G26G20G04G28G17G07G08G09G10G02G13
  29480904.82447  22969710.68046  23880803.9104   23880815.7514   23880802.538
        44.0004         39.0004
  -1386781.64847   -991487.88346  24086107.1554   24086118.5564   24086105.444
        42.0004         37.0004
  15602734.44746  12157887.33946  23689365.3364   23689372.0534   23689364.176
        41.0004         36.0004
 -20337551.86148 -15798675.01147  21251390.2354   21251395.8194   21251389.510
        51.0004         47.0004
  -6175023.67647  -4811595.67246  23601915.7894   23601923.0874   23601915.499
        44.0004         39.0004
  19791689.17248  15423576.22147  22622927.8294   22622935.4544   22622928.010
        49.0004         45.0004
  13306522.56348  10374457.38948  20478673.1574   20478677.5524   20478672.938
        53.0004         49.0004
   1108628.51649    873340.38848  19945046.5574   19945052.1294   19945046.747
        54.0004         49.0004
   1634743.23649   1283665.82148  20040055.4214   20040061.1184   20040055.534
        54.0004         49.0004
  -8154984.18047  -6349058.09046  24003666.7874   24003673.9694   24003667.865
        43.0004         39.0004
   -990994.73247   -727136.28646  24061115.9614   24061123.2024   24061116.215
        43.0004         38.0004
  32119924.41346  25024917.49246  24145969.4974   24145975.1184   24145969.382
        41.0004         36.0004
 14  5  4  0 51  0.0000000  0 12G01G26G20G04G28G17G07G08G09G10G02G13
  29581741.23347  23048284.41746  23899991.5844   23900003.9064   23899991.568
        44.0004         39.0004
  -1398980.14246  -1000992.98646  24083783.5844   24083795.8904   24083783.663
        41.0004         37.0004
  15614343.30446  12166933.20346  23691573.5064   23691579.9644   23691572.884
        41.0004         36.0004
 -20407854.61248 -15853456.30947  21238012.0334   21238018.0364   21238011.394
        51.0004         47.0004
  -6224353.41847  -4850034.34746  23592528.5224   23592536.2664   23592528.539
        44.0004         39.0004
  19833397.18348  15456075.96347  22630864.5444   22630871.8974   22630864.253
        49.0004         44.0004
  13353692.87248  10411213.50248  20487649.7034   20487654.1574   20487649.330
        53.0004         49.0004
   1086672.83649    856232.11948  19940868.4654   19940874.4184   19940868.748
        54.0004         49.0004
   1615788.25649   1268895.76848  20036448.2524   20036454.0074   20036448.483
        54.0004         49.0004
  -8211904.51747  -6393411.40546  23992834.0514   23992842.6054   23992836.096
        43.0004         39.0004
  -1084461.76847   -799967.48846  24043329.4904   24043336.7664   24043330.244
        42.0004         38.0004
  32192140.93746  25081190.15346  24159712.4114   24159717.1304   24159712.491
        41.0004         36.0004
 14  5  4  0 51 30.0000000  0 12G01G26G20G04G28G17G07G08G09G10G02G13
  29682760.93647  23127000.97846  23919216.3444   23919227.5204   23919215.418
        44.0004         39.0004
  -1410846.59047  -1010239.35946  24081525.4274   24081537.5894   24081525.380
        42.0004         37.0004
  15626202.81946  12176174.37546  23693829.0374   23693838.2674   23693831.079
        41.0004         37.0004
 -20477749.23448 -15907919.59247  21224711.1484   21224717.3524   21224711.002
        51.0004         47.0004
  -6273877.37947  -4888624.36246  23583105.3114   23583112.0504   23583104.567
        44.0004         39.0004
  19875155.21548  15488614.69047  22638810.5924   22638818.8414   22638810.649
        49.0004         44.0004
  13401413.90848  10448398.75948  20496730.8054   20496734.6214   20496730.182
        53.0004         48.0004
   1065355.95249    839621.61548  19936812.2564   19936817.9364   19936812.174
        54.0004         49.0004
   1597437.41149   1254596.46848  20032956.4144   20032962.1024   20032956.294
        54.0004         49.0004
  -8269035.39447  -6437928.78546  23981962.4384   23981970.5514   23981963.385
        43.0004         39.0004
  -1177766.69847   -872672.35546  24025575.4074   24025580.9254   24025574.911
        42.0004         38.0004
  32264164.98646  25137312.83046  24173419.9834   24173422.7464   24173417.955
        41.0004         36.0004
 14  5  4  0 52  0.0000000  0 12G01G26G20G04G28G17G07G08G09G10G02G13
  29783961.89447  23205858.77946  23938473.9634   23938486.0374   23938473.354
        44.0004         39.0004
  -1422381.84046  -1019227.66446  24079330.8934   24079341.9194   24079329.585
        41.0004         37.0004
  15638315.15046  12185612.56646  23696135.6054   23696142.4694   23696135.060
        41.0004         36.0004
 -20547232.66348 -15962062.45847  21211489.2944   21211495.2354   21211488.680
        51.0004         47.0004
  -6323593.62847  -4927364.20746  23573643.1404   23573651.1944   23573643.513
        44.0004         39.0004
  19916961.50848  15521191.01447  22646766.4924   22646774.5304   22646766.360
        49.0004         44.0004
  13449684.77648  10486012.45548  20505916.3114   20505920.6724   20505915.725
        53.0004         48.0004
   1044679.92949    823510.47848  19932877.7264   19932883.2984   19932877.742
        54.0004         49.0004
   1579692.10349   1240769.01348  20029579.4284   20029584.9704   20029579.570
        54.0004         49.0004
  -8326375.40847  -6482609.13346  23971051.0764   23971058.9954   23971052.177
        43.0004         39.0004
  -1270906.51747   -945248.56846  24007850.7374   24007856.9394   24007851.222
        43.0004         38.0004
  32335995.68846  25193284.86246  24187087.2724   24187092.6454   24187086.568
        41.0004         36.0004
 14  5  4  0 52 30.0000000  0 12G01G26G20G04G28G17G07G08G09G10G02G13
  29885340.77447  23284855.22546  23957764.8294   23957777.3314   23957764.675
        44.0004         39.0004
  -1433587.82646  -1027959.38946  24077199.1534   24077211.9044   24077198.129
        41.0004         37.0004
  15650681.20246  12195248.44046  23698487.5814   23698493.3524   23698488.281
        41.0004         36.0004
 -20616303.05748 -16015883.48347  21198345.0924   21198351.6784   21198345.022
        51.0004         47.0004
  -6373500.72547  -4966252.77846  23564146.5614   23564154.6884   23564146.462
        44.0004         39.0004
  19958813.00948  15553802.56647  22654730.5774   22654738.0974   22654730.206
        49.0004         44.0004
  13498502.78048  10524052.48948  20515206.1404   20515210.4354   20515205.178
        53.0004         48.0004
   1024645.49649    807899.28448  19929064.9594   19929070.8044   19929065.260
        54.0004         49.0004
   1562552.46449   1227413.51048  20026317.9784   20026323.5844   20026317.909
        54.0004         49.0004
  -8383924.03247  -6527452.04446  23960100.2554   23960108.3164   23960100.247
        43.0004         39.0004
  -1363879.36947  -1017694.68546  23990158.8694   23990164.9644   23990159.108
        43.0004         38.0004
  32407630.98646  25249104.63146  24200721.0094   24200725.2644   24200717.474
        41.0004         36.0004
 14  5  4  0 53  0.0000000  0 12G01G26G20G04G28G17G07G08G09G10G02G13
  29986894.17447  23363987.65046  23977090.4054   23977101.6754   23977089.972
        44.0004         39.0004
  -1444466.96947  -1036436.43746  24075127.1534   24075138.7104   24075128.183
        42.0004         37.0004
  15663301.82446  12205082.69946  23700888.2094   23700896.6454   23700889.755
        41.0004         36.0004
 -20684959.22348 -16069381.73247  21185279.9434   21185286.2234   21185280.129
        51.0004         47.0004
  -6423598.20047  -5005289.69346  23554612.2944   23554619.0754   23554612.554
        44.0004         39.0004
  20000706.54148  15586446.86947  22662702.9944   22662709.7604   22662702.284
        49.0004         44.0004
  13547865.51648  10562516.99348  20524599.4094   20524603.3484   20524598.943
        53.0004         48.0004
   1005252.84349    792788.18148  19925374.4934   19925380.6524   19925374.842
        54.0004         49.0004
   1546018.30849   1214529.81348  20023171.6874   20023177.0094   20023171.433
        54.0004         49.0004
  -8441681.24547  -6572457.47846  23949109.2994   23949116.6854   23949109.534
        43.0004         39.0004
  -1456683.73847  -1090009.52846  23972498.3494   23972504.3414   23972498.486
        43.0004         38.0004
  32479068.89346  25304770.56146  24214313.0094   24214317.5044   24214312.189
        41.0004         36.0004
 14  5  4  0 53 30.0000000  0 12G01G26G20G04G28G17G07G08G09G10G02G13
  30088621.38747  23443255.51346  23996448.5774   23996460.0804   23996447.918
        44.0004         39.0004
  -1455018.61547  -1044658.28646  24073119.2274   24073130.3204   24073118.314
        42.0004         37.0004
  15676179.96046  12215117.59746  23703339.9744   23703347.3204   23703340.517
        41.0004         36.0004
 -20753196.51448 -16122553.58947  21172295.3134   21172301.3074   21172294.795
        51.0004         47.0004
  -6473882.53747  -5044472.21246  23545043.7194   23545052.2964   23545044.237
        44.0004         39.0004
  20042641.67148  15619123.58947  22670683.3164   22670689.4824   22670682.219
        49.0004         44.0004
  13597773.07848  10601406.03148  20534096.4404   20534100.6804   20534095.738
        53.0004         48.0004
    986505.04649    778179.55748  19921806.7834   19921812.7174   19921807.140
        54.0004         49.0004
   1530091.98449   1202119.74948  20020140.9734   20020146.3564   20020140.719
        54.0004         49.0004
  -8499643.95947  -6617623.06546  23938078.1374   23938086.2714   23938079.107
        43.0004         39.0004
  -1549315.36647  -1162189.76646  23954870.9004   23954876.9424   23954870.509
        43.0004         38.0004
  32550310.34546  25360283.46346  24227869.3354   24227874.7764   24227868.668
        41.0004         36.0004
 14  5  4  0 54  0.0000000  0 12G01G26G20G04G28G17G07G08G09G10G02G13
  30190517.55847  23522655.03546  24015838.5934   24015850.7574   24015838.084
        44.0004         39.0004
  -1465246.53847  -1052627.87846  24071172.4274   24071184.0384   24071173.423
        42.0004         37.0004
  15689315.18646  12225352.84146  23705838.4484   23705848.0604   23705839.715
        41.0004         36.0004
 -20821014.95248 -16175399.06647  21159389.6854   21159395.5204   21159389.466
        51.0004         47.0004
  -6524354.44647  -5083800.88846  23535439.7104   23535447.2484   23535440.215
        44.0004         40.0004
  20084613.67448  15651829.05447  22678670.0074   22678676.9624   22678669.529
        49.0004         44.0004
  13648221.51648  10640716.53148  20543696.9474   20543700.7604   20543695.893
        53.0004         48.0004
    968401.35449    764072.83648  19918361.8934   19918367.8784   19918362.035
        54.0004         49.0004
   1514772.01849   1190182.17248  20017225.4954   20017230.9654   20017225.284
        54.0004         49.0004
  -8557813.23647  -6662949.60846  23927009.3144   23927015.9554   23927009.840
        43.0004         39.0004
  -1641774.13447  -1234235.30646  23937276.4564   23937283.0564   23937276.643
        43.0004         38.0004
  32621350.84346  25415639.73446  24241387.9164   24241392.5754   24241387.798
        41.0004         36.0004
 14  5  4  0 54 30.0000000  0 12G01G26G20G04G28G17G07G08G09G10G02G13
  30292581.01247  23602184.89946  24035261.3814   24035272.4214   24035260.624
        43.0004         39.0004
  -1475151.16847  -1060345.58746  24069287.5924   24069300.9434   24069287.424
        42.0004         37.0004
  15702710.11146  12235790.45146  23708388.8074   23708396.6494   23708387.790
        41.0004         36.0004
 -20888411.28248 -16227915.62547  21146564.4344   21146570.0504   21146564.339
        52.0004         47.0004
  -6575011.45847  -5123273.81146  23525799.6944   23525808.0154   23525800.191
        44.0004         40.0004
  20126621.07848  15684562.10247  22686663.3964   22686670.7444   22686663.228
        49.0004         44.0004
  13699210.00748  10680447.85848  20553399.0994   20553403.7634   20553398.746
        53.0004         48.0004
    950943.77449    750469.57548  19915039.8524   19915045.5564   19915040.240
        54.0004         49.0004
   1500059.89149   1178718.23448  20014426.0144   20014431.2634   20014425.767
        54.0004         49.0004
  -8616186.93347  -6708435.43946  23915901.2504   23915908.0554   23915901.779
        43.0004         39.0004
  -1734057.02647  -1306143.81646  23919714.4974   23919721.3294   23919716.180
        43.0004         38.0004
  32692190.37346  25470839.41546  24254868.7434   24254873.6284   24254867.843
        40.0004         36.0004
 14  5  4  0 55  0.0000000  0 12G01G26G20G04G28G17G07G08G09G10G02G13
  30394809.40847  23681843.29546  24054714.7174   24054726.0074   24054713.891
        43.0004         39.0004
  -1484733.74447  -1067812.32946  24067462.9294   24067476.4044   24067464.257
        42.0004         37.0004
  15716366.29846  12246431.61646  23710986.4644   23710994.6624   23710988.383
        41.0004         36.0004
 -20955383.06248 -16280101.36947  21133820.3324   21133825.9384   21133819.765
        51.0004         47.0004
  -6625851.58247  -5162889.41446  23516124.7894   23516132.3074   23516125.476
        45.0004         40.0004
  20168661.99248  15717321.23847  22694663.7184   22694671.3224   22694663.623
        49.0004         44.0004
  13750736.97248  10720598.76648  20563204.5704   20563208.8274   20563204.142
        53.0004         48.0004
    934133.96349    737371.07248  19911840.9624   19911846.5954   19911841.444
        54.0004         49.0004
   1485956.61449   1167728.73048  20011741.7104   20011747.1674   20011741.807
        54.0004         49.0004
  -8674763.71047  -6754079.50846  23904754.0914   23904762.7914   23904754.688
        43.0004         39.0004
  -1826161.11847  -1377912.99146  23902187.9414   23902194.2844   23902188.427
        43.0004         38.0004
  32762828.10446  25525881.84746  24268308.7304   24268317.2874   24268309.623
        40.0004         36.0004
 14  5  4  0 55 30.0000000  0 12G01G26G20G04G28G17G07G08G09G10G02G13
  30497200.04947  23761628.10846  24074199.6114   24074210.9454   24074198.549
        44.0004         39.0004
  -1493995.81347  -1075029.32446  24065701.3354   24065713.7414   24065701.249
        42.0004         37.0004
  15730284.99746  12257277.35646  23713634.1554   23713645.1954   23713636.771
        41.0004         36.0004
 -21021927.81648 -16331954.36747  21121157.6534   21121162.9004   21121157.012
        51.0004         47.0004
  -6676872.92147  -5202646.23246  23506416.5894   23506423.2414   23506416.346
        45.0004         40.0004
  20210734.11048  15750104.69947  22702669.8884   22702676.7244   22702669.512
        49.0004         44.0004
  13802800.42348  10761167.72748  20573112.0334   20573116.1844   20573111.240
        53.0004         48.0004
    917972.84749    724778.04148  19908765.7474   19908771.3044   19908765.998
        54.0004         49.0004
   1472462.39849   1157213.81448  20009173.9944   20009179.5644   20009173.794
        54.0004         49.0004
  -8733542.83447  -6799881.23346  23893569.2714   23893576.7594   23893569.077
        43.0004         39.0004
  -1918084.14247  -1449541.09046  23884696.0864   23884701.6424   23884695.092
        43.0004         38.0004
  32833262.44446  25580765.78946  24281712.9124   24281717.8294   24281713.073
        41.0004         36.0004
 14  5  4  0 56  0.0000000  0 12G01G26G20G04G28G17G07G08G09G10G02G13
  30599750.56147  23841537.50446  24093713.3444   24093724.7384   24093713.429
        44.0004         39.0004
  -1502938.69047  -1081997.60046  24064000.5174   24064012.4954   24063999.050
        42.0004         37.0004
  15744468.15946  12268329.16046  23716335.2494   23716343.2034   23716335.868
        41.0004         36.0004
 -21088043.22648 -16383472.80947  21108576.0894   21108580.8924   21108575.400
        51.0004         47.0004
  -6728073.68447  -5242542.85946  23496673.8044   23496681.3664   23496673.129
        45.0004         40.0004
  20252834.88948  15782910.50747  22710680.6324   22710688.3534   22710680.710
        49.0004         44.0004
  13855398.87148  10802153.56348  20583120.6754   20583125.1864   20583120.359
        53.0004         48.0004
    902461.71149    712691.48948  19905814.0614   19905819.6204   19905814.227
        54.0004         49.0004
   1459577.99749   1147174.07948  20006722.4594   20006727.7594   20006722.218
        54.0004         49.0004
  -8792522.71947  -6845839.41146  23882344.8484   23882352.9154   23882345.734
        44.0004         39.0004
  -2009823.51847  -1521026.08146  23867238.4284   23867244.1944   23867238.062
        43.0004         38.0004
  32903492.50646  25635490.55846  24295077.3244   24295083.6974   24295077.560
        41.0004         36.0004
 14  5  4  0 56 30.0000000  0 12G01G26G20G04G28G17G07G08G09G10G02G13
  30702457.75947  23921568.97846  24113258.7074   24113270.1164   24113257.811
        44.0004         39.0004
  -1511564.35647  -1088718.73046  24062358.5224   24062369.6724   24062358.213
        42.0004         37.0004
  15758916.67146  12279587.72846  23719083.4244   23719092.6064   23719084.054
        40.0004         36.0004
 -21153727.55448 -16434655.34947  21096076.6384   21096081.7134   21096076.091
        51.0004         47.0004
  -6779452.72747  -5282578.40246  23486895.6934   23486903.5594   23486896.016
        45.0004         40.0004
  20294961.46448  15815736.39947  22718698.3044   22718704.9504   22718697.232
        49.0004         44.0004
  13908530.08448  10843554.54248  20593230.9674   20593235.5244   20593230.735
        53.0004         48.0004
    887601.18949    701111.90748  19902986.4494   19902991.8654   19902986.415
        54.0004         49.0004
   1447303.37449   1137609.49548  20004386.2654   20004391.8104   20004386.137
        54.0004         49.0004
  -8851703.06947  -6891953.79746  23871083.3324   23871090.0504   23871084.372
        44.0004         39.0004
  -2101377.40547  -1592366.54046  23849815.2574   23849821.8304   23849816.008
        43.0004         39.0004
  32973516.41146  25690054.67346  24308403.5434   24308406.8374   24308402.446
        41.0004         36.0004
 14  5  4  0 57  0.0000000  0 12G01G26G20G04G28G17G07G08G09G10G02G13
  30805319.49847  24001720.87646  24132831.9574   24132844.8114   24132831.948
        44.0004         39.0004
  -1519873.87547  -1095193.48846  24060775.8284   24060788.0244   24060775.844
        42.0004         37.0004
  15773632.26746  12291054.42046  23721885.0264   23721892.1774   23721885.078
        40.0004         36.0004
 -21218978.03548 -16485499.82247  21083659.7474   21083664.8214   21083659.351
        51.0004         47.0004
  -6831008.10347  -5322751.34646  23477084.9764   23477092.6414   23477085.254
        45.0004         40.0004
  20337112.31448  15848581.21947  22726718.8514   22726726.1714   22726718.398
        49.0004         44.0004
  13962192.38748  10885369.35848  20603442.6684   20603447.2854   20603442.132
        53.0004         48.0004
    873392.75649    690040.44448  19900282.0314   19900287.8224   19900282.505
        54.0004         49.0004
   1435639.30049   1128520.66148  20002166.8664   20002172.0024   20002166.803
        54.0004         50.0004
  -8911082.18847  -6938223.07146  23859783.8104   23859791.5714   23859784.312
        43.0004         39.0004
  -2192743.06947  -1663560.34146  23832429.4274   23832434.8564   23832429.510
        43.0004         39.0004
  33043333.50446  25744457.62646  24321688.4344   24321694.5224   24321687.999
        40.0004         36.0004
 14  5  4  0 57 30.0000000  0 12G01G26G20G04G28G17G07G08G09G10G02G13
  30908332.19547  24081990.40146  24152434.4824   24152447.3014   24152434.614
        44.0004         39.0004
  -1527869.80047  -1101423.88346  24059254.5254   24059266.9184   24059255.276
        42.0004         37.0004
  15788615.53046  12302729.69446  23724735.4734   23724744.5244   23724735.607
        40.0004         36.0004
 -21283793.34948 -16536005.21647  21071325.7244   21071331.3114   21071325.597
        52.0004         47.0004
  -6882738.98247  -5363061.02946  23467240.1294   23467248.5824   23467240.898
        45.0004         40.0004
  20379283.83548  15881442.13647  22734744.5104   22734750.2044   22734743.320
        49.0004         44.0004
  14016382.69448  10927595.60848  20613754.5484   20613759.5164   20613754.475
        53.0004         48.0004
    859836.30049    679477.01448  19897702.5724   19897708.3024   19897702.880
        54.0004         49.0004
   1424585.29349   1119907.20648  20000063.1044   20000068.6904   20000063.217
        54.0004         49.0004
  -8970659.89747  -6984647.07746  23848446.5474   23848454.8734   23848446.815
        43.0004         39.0004
  -2283919.31247  -1734606.53646  23815077.9074   23815084.9314   23815079.350
        43.0004         39.0004
  33112941.57346  25798697.72846  24334935.7734   24334940.5174   24334933.749
        40.0004         36.0004
 14  5  4  0 58  0.0000000  0 12G01G26G20G04G28G17G07G08G09G10G02G13
  31011493.97747  24162376.08946  24172066.8394   24172078.1584   24172065.686
        44.0004         39.0004
  -1535552.83947  -1107410.47246  24057792.6744   24057803.2324   24057792.198
        42.0004         37.0004
  15803868.50146  12314615.08846  23727637.6524   23727646.9994   23727638.610
        40.0004         36.0004
 -21348170.64248 -16586169.28947  21059075.0874   21059081.2194   21059074.367
        52.0004         47.0004
  -6934642.70647  -5403505.40246  23457363.7784   23457371.7284   23457364.112
        45.0004         40.0004
  20421474.64348  15914318.07747  22742773.2334   22742779.7644   22742772.243
        49.0004         44.0004
  14071099.95548  10970232.46648  20624167.2014   20624171.5804   20624166.656
        53.0004         48.0004
    846933.55049    669422.96848  19895247.1614   19895253.0654   19895247.527
        54.0004         49.0004
   1414142.40349   1111769.94648  19998075.8154   19998081.1484   19998075.780
        54.0004         49.0004
  -9030434.04347  -7031224.14546  23837071.2494   23837078.7774   23837072.199
        43.0004         39.0004
  -2374902.64247  -1805502.42146  23797765.6254   23797769.9124   23797764.950
        43.0004         39.0004
  33182339.99046  25852774.43445  24348140.5114   24348146.5484   24348140.400
        40.0004         35.0004
 14  5  4  0 58 30.0000000  0 12G01G26G20G04G28G17G07G08G09G10G02G13
  31114802.12347  24242875.82746  24191724.6264   24191736.6094   24191724.218
        43.0004         38.0004
  -1542924.73247  -1113154.62946  24056389.4484   24056401.8914   24056389.439
        42.0004         37.0004
  15819392.72546  12326711.89346  23730592.6184   23730602.0094   23730592.984
        40.0004         36.0004
 -21412107.80848 -16635990.40647  21046907.8164   21046913.6484   21046907.524
        52.0004         47.0004
  -6986717.84647  -5444083.34846  23447453.8694   23447462.3734   23447454.685
        45.0004         41.0004
  20463682.43148  15947207.25747  22750803.8824   22750811.9494   22750803.850
        49.0004         44.0004
  14126342.29748  11013278.47948  20634679.6044   20634683.7214   20634679.097
        53.0004         48.0004
    834685.61049    659879.16148  19892916.4924   19892922.0434   19892916.466
        54.0004         49.0004
   1404310.91049   1104109.10048  19996205.1644   19996210.5054   19996205.080
        54.0004         50.0004
  -9090403.72347  -7077953.57846  23825659.5474   23825667.4844   23825660.277
        43.0004         39.0004
  -2465690.98347  -1876246.36046  23780488.4944   23780493.8414   23780488.116
        44.0004         39.0004
  33251527.47346  25906686.78445  24361307.8354   24361310.6044   24361306.808
        40.0004         35.0004
 14  5  4  0 59  0.0000000  0 12G01G26G20G04G28G17G07G08G09G10G02G13
  31218255.21547  24323488.50146  24211411.9234   24211423.9244   24211410.704
        43.0004         38.0004
  -1549985.83447  -1118656.59946  24055045.7714   24055057.4364   24055045.629
        42.0004         37.0004
  15835190.61946  12339021.93346  23733598.9324   23733607.6374   23733599.576
        40.0004         36.0004
 -21475601.22448 -16685465.74347  21034825.4284   21034831.3034   21034825.473
        52.0004         47.0004
  -7038961.43047  -5484792.55146  23437512.4114   23437521.3294   23437512.797
        45.0004         41.0004
  20505905.88448  15980108.64647  22758839.0124   22758846.3774   22758838.695
        49.0004         44.0004
  14182108.84948  11056732.97348  20645291.2294   20645295.2224   20645290.639
        53.0004         48.0004
    823094.51849    650847.18348  19890710.7514   19890716.1204   19890711.169
        54.0004         49.0004
   1395092.28649   1096925.81748  19994450.6194   19994456.2164   19994450.571
        54.0004         49.0004
  -9150566.64947  -7124833.59046  23814210.9004   23814217.6864   23814211.861
        43.0004         39.0004
  -2556281.05947  -1946835.81746  23763249.9124   23763255.1994   23763249.779
        44.0004         39.0004
  33320504.06346  25960434.79245  24374433.7164   24374436.9924   24374432.392
        40.0004         35.0004
 14  5  4  0 59 30.0000000  0 12G01G26G20G04G28G17G07G08G09G10G02G13
  31321847.41947  24404209.58946  24231125.4934   24231136.8954   24231124.249
        43.0004         38.0004
  -1556740.96047  -1123920.15446  24053760.6214   24053772.0334   24053760.655
        42.0004         37.0004
  15851260.29046  12351543.74846  23736656.6954   23736665.4694   23736657.386
        40.0004         36.0004
 -21538652.20548 -16734596.32847  21022827.3384   21022833.4814   21022827.250
        52.0004         47.0004
  -7091374.78147  -5525634.05946  23427538.9794   23427546.6274   23427539.266
        45.0004         41.0004
  20548139.76948  16013018.14847  22766877.4534   22766883.3514   22766875.957
        49.0004         44.0004
  14238394.31648  11100591.80748  20656002.5004   20656006.6454   20656001.855
        53.0004         48.0004
    812157.65849    642324.99548  19888629.3404   19888635.0764   19888629.619
        54.0004         49.0004
   1386483.49749   1090217.72248  19992812.4724   19992817.7904   19992812.529
        54.0004         50.0004
  -9210924.46847  -7171865.46746  23802724.0544   23802732.6194   23802725.419
        43.0004         39.0004
  -2646673.47547  -2017271.25746  23746048.0364   23746053.7434   23746048.504
        43.0004         39.0004
  33389265.32346  26014015.00545  24387517.3004   24387522.7864   24387517.406
        40.0004         35.0004
 14  5  4  1  0  0.0000000  0 12G01G26G20G04G28G17G07G08G09G10G02G13
  31425580.01547  24485040.06646  24250864.2284   24250877.5574   24250864.072
        43.0004         38.0004
  -1563187.90147  -1128943.55546  24052533.1594   24052545.1814   24052533.387
        42.0004         38.0004
  15867607.06946  12364281.47546  23739767.6364   23739775.8784   23739767.221
        40.0004         36.0004
 -21601254.67048 -16783377.41947  21010914.3654   21010920.1224   21010914.219
        52.0004         47.0004
  -7143952.09347  -5566603.30846  23417533.6914   23417540.5384   23417533.410
        45.0004         41.0004
  20590385.31348  16045936.75147  22774913.7864   22774922.5454   22774914.737
        48.0004         44.0004
  14295200.47648  11144856.38248  20666811.7914   20666816.5864   20666811.375
        53.0004         48.0004
    801879.76849    634316.28748  19886673.8364   19886679.1244   19886674.101
        54.0004         49.0004
   1378488.95349   1083988.26648  19991291.3034   19991296.3524   19991290.906
        54.0004         50.0004
  -9271472.42847  -7219045.49146  23791202.4824   23791210.9184   23791203.397
        43.0004         39.0004
  -2736862.00347  -2087547.82646  23728886.9904   23728890.0994   23728885.983
        43.0004         39.0004
  33457814.21146  26067429.75245  24400562.1434   24400565.4604   24400561.626
        40.0004         35.0004
 14  5  4  1  0 30.0000000  0 12G01G26G20G04G28G17G07G08G09G10G02G13
  31529446.74847  24565975.07146  24270629.5374   24270642.4124   24270629.520
        42.0004         38.0004
  -1569331.76847  -1133730.79446  24051364.1464   24051376.3394   24051364.534
        42.0004         37.0004
  15884228.72946  12377233.40646  23742931.4314   23742939.2954   23742930.972
        40.0004         36.0004
 -21663410.01148 -16831810.10447  20999087.1494   20999092.2524   20999086.480
        52.0004         47.0004
  -7196695.58747  -5607702.06146  23407496.3584   23407504.6964   23407497.458
        45.0004         40.0004
  20632636.85648  16078860.01847  22782955.3074   22782962.3084   22782954.588
        48.0004         44.0004
  14352521.70448  11189522.31148  20677719.7804   20677723.9914   20677719.312
        52.0004         48.0004
    792258.11949    626818.94248  19884842.6064   19884848.3864   19884842.929
        54.0004         49.0004
   1371105.10849   1078234.67248  19989885.9424   19989891.2544   19989885.998
        54.0004         50.0004
  -9332212.84247  -7266375.46746  23779643.3944   23779651.7504   23779645.078
        43.0004         39.0004
  -2826847.88547  -2157666.49346  23711760.8174   23711766.9664   23711762.534
        43.0004         39.0004
  33526145.78646  26120675.13745  24413564.4404   24413568.0094   24413565.138
        40.0004         35.0004
 14  5  4  1  1  0.0000000  0 12G01G26G20G04G28G17G07G08G09G10G02G13
  31633447.53247  24647014.54846  24290421.3364   24290432.0664   24290420.164
        42.0004         37.0004
  -1575171.73047  -1138281.23046  24050253.7824   24050263.6304   24050253.532
        42.0004         38.0004
  15901129.00846  12390402.44146  23746146.3094   23746155.1374   23746146.836
        40.0004         36.0004
 -21725113.49748 -16879890.69547  20987344.9494   20987350.6814   20987344.746
        52.0004         47.0004
  -7249600.97347  -5648926.96446  23397429.1414   23397436.9354   23397429.040
        45.0004         40.0004
  20674894.44448  16111788.00447  22790997.1664   22791003.8844   22790995.834
        48.0004         44.0004
  14410358.24148  11234589.78348  20688725.8524   20688729.9084   20688725.257
        52.0004         48.0004
    783295.79749    619835.35448  19883136.8024   19883142.5354   19883137.398
        54.0004         49.0004
   1364334.64349   1072959.03948  19988597.4624   19988603.0064   19988597.517
        54.0004         50.0004
  -9393142.14947  -7313852.64546  23768049.0054   23768056.5744   23768050.374
        43.0004         39.0004
  -2916626.28647  -2227623.49546  23694678.0744   23694682.3194   23694678.315
        43.0004         39.0004
  33594261.43746  26173752.27645  24426526.3074   24426530.8984   24426526.179
        40.0004         35.0004
 14  5  4  1  1 30.0000000  0 12G01G26G20G04G28G17G07G08G09G10G02G13
  31737579.03047  24728155.87846  24310236.3244   24310248.6214   24310236.130
        42.0004         37.0004
  -1580710.19347  -1142596.73146  24049198.4934   24049209.7714   24049198.678
        43.0004         38.0004
  15918308.53846  12403789.05146  23749415.4064   23749422.5314   23749416.391
        40.0004         36.0004
 -21786363.86148 -16927618.20347  20975689.2184   20975694.8734   20975688.841
        52.0004         47.0004
  -7302666.83047  -5690276.90446  23387332.5564   23387338.9944   23387330.892
        45.0004         40.0004
  20717155.35948  16144718.56847  22799037.8184   22799046.0834   22799037.957
        48.0004         43.0004
  14468707.73148  11280056.95248  20699828.7774   20699833.4124   20699828.590
        52.0004         48.0004
    774993.03149    613365.70548  19881557.4064   19881563.0904   19881557.400
        54.0004         49.0004
   1358176.86549   1068160.82248  19987425.9244   19987430.8904   19987425.739
        54.0004         50.0004
  -9454259.46747  -7361476.30946  23756418.8494   23756425.8704   23756418.891
        43.0004         39.0004
  -3006195.94347  -2297417.84446  23677632.8024   23677637.8064   23677633.415
        43.0004         39.0004
  33662159.07246  26226659.54145  24439444.3694   24439450.9484   24439446.585
        40.0004         35.0004
 14  5  4  1  2  0.0000000  0 12G01G26G20G04G28G17G07G08G09G10G02G13
  31841838.91546  24809397.23046  24330076.1704   24330088.7884   24330075.813
        41.0004         37.0004
  -1585948.45547  -1146678.30046  24048202.6944   24048214.9264   24048202.026
        43.0004         38.0004
  15935768.78646  12417394.44846  23752737.6994   23752743.6174   23752738.382
        40.0004         36.0004
 -21847158.74948 -16974990.80047  20964120.7824   20964125.8254   20964120.399
        52.0004         47.0004
  -7355891.06347  -5731750.25446  23377202.5494   23377210.4584   23377203.014
        45.0004         40.0004
  20759417.59348  16177650.15947  22807080.8864   22807087.9124   22807079.822
        48.0004         43.0004
  14527568.15848  11325922.26048  20711029.8074   20711034.2444   20711029.737
        52.0004         48.0004
    767350.94249    607410.87148  19880103.1244   19880108.3894   19880103.140
        54.0004         49.0004
   1352632.25149   1063840.39548  19986370.7034   19986376.0394   19986370.680
        54.0004         50.0004
  -9515563.25147  -7409245.25446  23744754.3144   23744760.2624   23744753.431
        43.0004         39.0004
  -3095554.04247  -2367047.34546  23660628.9214   23660633.5034   23660629.108
        43.0004         39.0004
  33729838.07746  26279396.42245  24452326.5444   24452328.9364   24452324.859
        40.0004         35.0004
 14  5  4  1  2 30.0000000  0 12G01G26G20G04G28G17G07G08G09G10G02G13
  31946222.48146  24890734.96846  24349940.3004   24349950.7384   24349939.453
        41.0004         37.0004
  -1590890.26847  -1150528.87846  24047261.3554   24047270.9734   24047260.796
        43.0004         38.0004
  15953509.41046  12431218.28246  23756114.8304   23756121.5954   23756114.592
        40.0004         36.0004
 -21907497.91148 -17022008.28247  20952638.4784   20952643.9444   20952637.919
        52.0004         47.0004
  -7409274.13147  -5773347.37946  23367044.4804   23367050.0914   23367044.560
        45.0004         40.0004
  20801676.53148  16210579.19747  22815122.0484   22815129.6604   22815121.928
        48.0004         43.0004
  14586935.12848  11372182.26348  20722327.0894   20722331.0604   20722326.559
        52.0004         48.0004
    760367.96149    601969.63148  19878773.9224   19878779.6704   19878774.152
        54.0004         49.0004
   1347698.74349   1059996.15548  19985431.7564   19985436.9094   19985431.701
        54.0004         50.0004
  -9577054.58347  -7457160.35146  23733053.0634   23733058.0824   23733053.077
        43.0004         39.0004
  -3184700.22847  -2436511.70846  23643664.4964   23643669.9084   23643665.122
        44.0004         39.0004
  33797295.18246  26331960.41545  24465163.1864   24465166.4664   24465161.984
        40.0004         35.0004
 14  5  4  1  3  0.0000000  0 12G01G26G20G04G28G17G07G08G09G10G02G13
  32050731.12846  24972170.15746  24369827.1794   24369839.9744   24369826.608
        41.0004         36.0004
  -1595533.44247  -1154146.73846  24046378.7334   24046388.6654   24046377.837
        43.0004         38.0004
  15971535.55946  12445264.61046  23759544.4774   23759550.4604   23759545.058
        40.0004         36.0004
 -21967375.71148 -17068666.26547  20941244.3324   20941249.1874   20941243.589
        52.0004         47.0004
  -7462810.22547  -5815063.73346  23356856.1834   23356863.7524   23356856.835
        45.0004         40.0004
  20843933.88048  16243506.99747  22823163.1004   22823171.2984   22823163.045
        48.0004         43.0004
  14646810.70348  11418838.59048  20733721.0674   20733725.2024   20733720.696
        52.0004         48.0004
    754048.51949    597045.43348  19877571.6244   19877576.9954   19877571.901
        54.0004         49.0004
   1343380.51849   1056631.35748  19984609.7324   19984615.2584   19984610.066
        54.0004         50.0004
  -9638727.84047  -7505217.20546  23721315.8494   23721321.5034   23721315.841
        44.0004         39.0004
  -3273628.44147  -2505806.24546  23626741.1374   23626746.6224   23626742.259
        44.0004         39.0004
  33864533.36446  26384353.80745  24477955.7214   24477962.6244   24477956.453
        39.0004         35.0004
 14  5  4  1  3 30.0000000  0 12G01G26G20G04G28G17G07G08G09G10G02G13
  32155358.61946  25053697.95046  24389735.8554   24389748.8024   24389736.528
        41.0004         36.0004
  -1599883.20447  -1157535.96746  24045550.5034   24045560.4874   24045549.620
        43.0004         38.0004
  15989844.70746  12459531.44746  23763028.7594   23763036.5304   23763029.489
        40.0004         36.0004
 -22026793.30248 -17114965.64147  20929937.2334   20929942.1554   20929936.409
        52.0004         47.0004
  -7516501.05747  -5856900.66446  23346638.4524   23346646.2404   23346639.497
        45.0004         40.0004
  20886184.02848  16276429.17347  22831203.5644   22831210.1194   22831203.267
        48.0004         43.0004
  14707188.76348  11465886.46448  20745210.1574   20745214.8434   20745209.801
        52.0004         48.0004
    748389.69749    592636.00148  19876494.4284   19876500.1844   19876494.872
        54.0004         49.0004
   1339673.87849   1053743.11348  19983904.7694   19983909.8184   19983904.658
        54.0004         50.0004
  -9700585.32847  -7553417.62046  23709544.6844   23709551.1094   23709544.908
        44.0004         39.0004
  -3362339.66847  -2574931.70346  23609860.7034   23609865.1674   23609860.585
        44.0004         39.0004
  33931547.76746  26436572.84145  24490710.7544   24490713.8104   24490710.320
        39.0004         35.0004
 14  5  4  1  4  0.0000000  0 12G01G26G20G04G28G17G07G08G09G10G02G13
  32260103.46346  25135317.20346  24409668.7064   24409681.9674   24409669.128
        41.0004         36.0004
  -1603940.02047  -1160696.92046  24044778.9414   24044787.8244   24044778.450
        42.0004         38.0004
  16008439.10246  12474020.57945  23766570.2644   23766574.1224   23766566.969
        40.0004         35.0004
 -22085747.69848 -17160904.08747  20918718.5414   20918723.9544   20918718.066
        52.0004         47.0004
  -7570343.49347  -5898855.74246  23336393.4414   23336400.7474   23336393.389
        45.0004         40.0004
  20928425.88848  16309344.89147  22839241.9504   22839249.2074   22839241.874
        48.0004         44.0004
  14768068.43848  11513325.21248  20756795.7374   20756799.5384   20756795.209
        52.0004         48.0004
    743393.26749    588742.71948  19875543.5394   19875549.2074   19875544.012
        54.0004         49.0004
   1336580.03649   1051332.38048  19983315.8554   19983320.8864   19983315.923
        54.0004         50.0004
  -9762625.03147  -7601760.01446  23697738.2834   23697744.4024   23697739.341
        44.0004         39.0004
  -3450830.60047  -2643885.49746  23593021.0304   23593026.4044   23593021.661
        44.0004         39.0004
  33998338.79346  26488617.80745  24503419.5014   24503425.1794   24503419.962
        39.0004         35.0004
 14  5  4  1  4 30.0000000  0 12G01G26G20G04G28G17G07G08G09G10G02G13
  32364964.21246  25217026.74146  24429622.9324   24429637.6624   24429623.384
        41.0004         36.0004
  -1607704.65147  -1163630.20146  24044061.4554   24044072.0394   24044061.125
        43.0004         38.0004
  16027321.56846  12488734.16645  23770160.5334   23770167.4084   23770160.279
        40.0004         35.0004
 -22144235.99548 -17206479.34347  20907588.4084   20907593.6884   20907588.021
        52.0004         47.0004
  -7624334.59847  -5940926.64546  23326117.9394   23326125.5794   23326119.417
        45.0004         40.0004
  20970658.16548  16342253.13947  22847278.7354   22847286.4874   22847278.074
        48.0004         44.0004
  14829448.87148  11561154.16448  20768476.0244   20768480.1654   20768475.064
        52.0004         48.0004
    739060.80849    585366.81948  19874719.3764   19874724.7094   19874719.564
        54.0004         49.0004
   1334099.86749   1049399.82848  19982843.5094   19982848.8644   19982843.517
        54.0004         50.0004
  -9824844.46647  -7650242.46746  23685898.4294   23685904.3554   23685899.027
        44.0004         39.0004
  -3539097.94047  -2712665.07346  23576224.2924   23576229.0774   23576225.334
        44.0004         39.0004
  34064906.30046  26540488.58245  24516085.5864   24516093.0284   24516086.828
        40.0004         35.0004
 14  5  4  1  5  0.0000000  0 12G01G26G20G04G28G17G07G08G09G10G02G13
  32469935.54646  25298822.45446  24449598.7284   24449612.9734   24449598.837
        41.0004         36.0004
  -1611181.47147  -1166339.21346  24043398.9024   24043408.6154   24043399.362
        43.0004         38.0004
  16046490.69346  12503671.11045  23773809.6954   23773815.2774   23773808.834
        40.0004         35.0004
 -22202258.78448 -17251691.86847  20896547.0184   20896552.7164   20896546.420
        52.0004         47.0004
  -7678475.22647  -5983114.08146  23315815.2094   23315823.3534   23315816.176
        45.0004         40.0004
  21012876.02548  16375150.14747  22855313.5934   22855320.8914   22855312.493
        48.0004         44.0004
  14891324.93548  11609369.30948  20780250.6864   20780254.6654   20780250.265
        52.0004         48.0004
    735389.89849    582506.41348  19874020.7964   19874026.3194   19874021.087
        54.0004         49.0004
   1332230.75449   1047943.41948  19982488.1854   19982493.6284   19982488.187
        54.0004         50.0004
  -9887244.61047  -7698865.73446  23674024.3634   23674029.2664   23674025.196
        44.0004         39.0004
  -3627141.84847  -2781270.54746  23559469.9974   23559475.3374   23559470.071
        44.0004         40.0004
  34131246.56546  26592182.30645  24528712.5164   24528715.7674   24528710.986
        40.0004         35.0004
 14  5  4  1  5 30.0000000  0 12G01G26G20G04G28G17G07G08G09G10G02G13
  32575016.82046  25380703.82846  24469596.8714   24469607.3704   24469595.283
        41.0004         37.0004
  -1614370.30247  -1168823.83146  24042792.9284   24042803.6034   24042791.931
        43.0004         38.0004
  16065949.37046  12518833.69045  23777510.1664   23777516.3164   23777511.050
        40.0004         35.0004
 -22259811.96548 -17296538.46548  20885594.6664   20885600.4054   20885594.818
        52.0004         48.0004
  -7732761.34847  -6025414.87446  23305486.9534   23305493.7594   23305485.915
        45.0004         40.0004
  21055079.11548  16408035.66647  22863344.1644   22863350.5474   22863343.279
        48.0004         44.0004
  14953696.23548  11657970.36148  20792118.9824   20792123.4014   20792118.828
        52.0004         48.0004
    732383.10249    580163.50048  19873448.7244   19873453.9204   19873448.780
        54.0004         49.0004
   1330974.64149   1046964.67348  19982248.8214   19982254.1154   19982249.164
        54.0004         50.0004
  -9949822.09747  -7747627.19846  23662115.9984   23662122.2304   23662116.786
        44.0004         40.0004
  -3714958.38647  -2849698.85146  23542758.8184   23542764.0324   23542758.511
        44.0004         39.0004
  34197360.60646  26643699.72045  24541292.3204   24541297.0454   24541292.193
        40.0004         35.0004
 14  5  4  1  6  0.0000000  0 12G01G26G20G04G28G17G07G08G09G10G02G13
  32680206.55446  25462669.71346  24489613.0254   24489626.2474   24489612.537
        41.0004         37.0004
  -1617271.75747  -1171084.52246  24042240.5174   24042250.5044   24042240.501
        42.0004         38.0004
  16085699.95846  12534223.75345  23781269.9144   23781278.2744   23781269.258
        40.0004         35.0004
 -22316892.46748 -17341016.74547  20874732.8384   20874738.6484   20874732.484
        52.0004         47.0004
  -7787190.00347  -6067826.75346  23295129.5184   23295135.4904   23295128.946
        45.0004         40.0004
  21097266.50648  16440908.92947  22871371.9024   22871379.4714   22871371.422
        48.0004         44.0004
  15016561.71748  11706956.48348  20804082.1464   20804086.0924   20804081.969
        52.0004         48.0004
    730042.05349    578339.34648  19873003.0654   19873008.3694   19873003.443
        54.0004         49.0004
   1330332.40249   1046464.26748  19982126.7714   19982131.8054   19982126.737
        54.0004         50.0004
 -10012574.68047  -7796525.10646  23650174.0394   23650179.9154   23650174.595
        44.0004         40.0004
  -3802544.09047  -2917947.29146  23526091.5554   23526097.2564   23526092.164
        44.0004         39.0004
  34263248.23846  26695040.72245  24553832.1974   24553836.4844   24553829.821
        40.0004         35.0004
 14  5  4  1  6 30.0000000  0 12G01G26G20G04G28G17G07G08G09G10G02G13
  32785499.81546  25544716.26646  24509650.8854   24509664.4724   24509649.185
        41.0004         37.0004
  -1619889.88247  -1173124.42646  24041741.4864   24041751.6784   24041741.349
        42.0004         38.0004
  16105741.29546  12549840.33345  23785082.7244   23785093.3004   23785083.689
        40.0004         35.0004
 -22373500.76348 -17385127.06747  20863960.4354   20863966.4114   20863960.273
        52.0004         47.0004
  -7841761.75547  -6110350.13846  23284743.9854   23284752.1234   23284743.747
        45.0004         40.0004
  21139433.72948  16473766.48847  22879396.4164   22879402.8694   22879395.629
        48.0004         44.0004
  15079916.62348  11756323.97748  20816138.6734   20816142.8404   20816137.900
        52.0004         48.0004
    728364.77349    577032.41748  19872684.0064   19872689.2344   19872684.273
        54.0004         49.0004
   1330301.67249   1046440.36348  19982120.8904   19982125.8304   19982120.877
        54.0004         50.0004
 -10075503.35247  -7845560.23246  23638199.8884   23638205.1024   23638199.156
        44.0004         40.0004
  -3889899.01647  -2986015.89446  23509467.7364   23509473.4054   23509469.341
        44.0004         39.0004
  34328906.35646  26746202.90445  24566321.6254   24566330.1174   24566324.511
        39.0004         35.0004
 14  5  4  1  7  0.0000000  0 12G01G26G20G04G28G17G07G08G09G10G02G13
  32890894.66046  25626841.98246  24529705.7724   24529718.5504   24529705.430
        41.0004         37.0004
  -1622225.89147  -1174944.49846  24041296.9824   24041306.4434   24041296.610
        42.0004         37.0004
  16126075.44546  12565685.09445  23788953.5704   23788959.4264   23788952.449
        39.0004         35.0004
 -22429634.23248 -17428867.39748  20853278.9124   20853284.3864   20853278.130
        52.0004         48.0004
  -7896473.67947  -6152982.74646  23274331.9384   23274340.3554   23274333.095
        45.0004         40.0004
  21181579.03348  16506606.96747  22887416.9364   22887422.8294   22887414.968
        48.0004         44.0004
  15143759.37248  11806071.60548  20828287.0874   20828290.8834   20828286.848
        52.0004         48.0004
    727352.14949    576243.40048  19872491.0894   19872496.6944   19872491.180
        54.0004         49.0004
   1330882.76849   1046893.20648  19982231.3004   19982236.6674   19982231.419
        54.0004         50.0004
 -10138606.00347  -7894730.91446  23626190.3394   23626196.6184   23626191.163
        44.0004         40.0004
  -3977019.97347  -3053902.20846  23492890.0614   23492894.7294   23492889.930
        44.0004         39.0004
  34394334.51946  26797185.87345  24578774.8954   24578781.0774   24578774.701
        39.0004         35.0004
 14  5  4  1  7 30.0000000  0 12G01G26G20G04G28G17G07G08G09G10G02G13
  32996389.62847  25709045.71946  24549780.4834   24549792.8164   24549780.411
        42.0004         37.0004
  -1624280.31647  -1176545.15346  24040907.0164   24040918.3554   24040905.524
        42.0004         38.0004
  16146704.48246  12581759.64945  23792879.4904   23792885.0004   23792879.381
        39.0004         35.0004
 -22485289.92048 -17472235.43448  20842687.7884   20842693.3874   20842687.668
        52.0004         48.0004
  -7951322.87647  -6195722.32146  23263895.5524   23263901.8324   23263894.879
        45.0004         40.0004
  21223701.48448  16539429.62947  22895430.6374   22895439.1134   22895430.911
        48.0004         44.0004
  15208088.97748  11856198.60748  20840528.5244   20840532.6354   20840528.266
        52.0004         48.0004
    727005.93749    575973.66748  19872425.2444   19872430.6474   19872425.518
        54.0004         49.0004
   1332076.52149   1047823.44648  19982458.2744   19982463.4874   19982458.393
        54.0004         50.0004
 -10201880.08347  -7944035.18846  23614149.8704   23614157.1104   23614150.351
        44.0004         40.0004
  -4063903.84347  -3121603.76346  23476355.6864   23476361.3784   23476356.092
        44.0004         39.0004
  34459532.96746  26847989.82945  24591181.9374   24591188.8124   24591181.932
        39.0004         35.0004
 14  5  4  1  8  0.0000000  0 12G01G26G20G04G28G17G07G08G09G10G02G13
  33101980.88546  25791324.48146  24569873.3134   24569885.6124   24569873.886
        41.0004         37.0004
  -1626056.36047  -1177928.89846  24040569.0564   24040578.5144   24040567.764
        42.0004         38.0004
  16167628.41746  12598063.99345  23796858.3084   23796870.4854   23796860.105
        39.0004         35.0004
 -22540467.13148 -17515230.63948  20832188.0674   20832193.4764   20832187.666
        52.0004         48.0004
  -8006308.56547  -6238568.26146  23253430.8854   23253437.9264   23253431.331
        45.0004         40.0004
  21265797.67848  16572231.84247  22903442.8924   22903448.9264   22903441.860
        48.0004         44.0004
  15272901.58348  11906701.97048  20852862.1054   20852865.5004   20852861.480
        52.0004         48.0004
    727324.98749    576222.32248  19872485.7394   19872491.3514   19872486.257
        54.0004         49.0004
   1333881.56849   1049230.01748  19982802.0864   19982807.1974   19982801.969
        54.0004         50.0004
 -10265325.54547  -7993473.00446  23602075.6134   23602082.4414   23602077.207
        44.0004         40.0004
  -4150549.68247  -3189119.85546  23459867.6404   23459872.4574   23459868.183
        44.0004         40.0004
  34524499.37846  26898613.00145  24603545.8084   24603549.8774   24603543.835
        40.0004         35.0004
 14  5  4  1  8 30.0000000  0 12G01G26G20G04G28G17G07G08G09G10G02G13
  33207664.73546  25873675.39546  24589985.6734   24589997.5604   24589984.740
        41.0004         37.0004
  -1627556.81547  -1179097.89446  24040283.2374   24040292.1414   24040281.888
        42.0004         38.0004
  16188847.31946  12614598.17745  23800898.3934   23800906.6744   23800897.642
        39.0004         35.0004
 -22595165.13848 -17557852.42847  20821778.7234   20821784.4904   20821778.214
        52.0004         47.0004
  -8061429.77947  -6281519.80446  23242941.3414   23242949.7824   23242942.332
        45.0004         40.0004
  21307864.34248  16605011.03047  22911447.7214   22911453.6214   22911446.806
        48.0004         44.0004
  15338194.10448  11957579.29148  20865286.7914   20865290.8904   20865286.361
        52.0004         48.0004
    728308.46449    576988.70648  19872672.8164   19872678.1154   19872673.162
        54.0004         49.0004
   1336296.51849   1051111.83948  19983261.5724   19983266.7474   19983261.511
        54.0004         50.0004
 -10328941.93247  -8043044.01646  23589970.7874   23589975.2964   23589971.092
        44.0004         39.0004
  -4236956.09047  -3256449.38146  23443425.4514   23443429.6724   23443426.032
        44.0004         40.0004
  34589231.78546  26949053.82245  24615862.2354   24615867.2244   24615861.726
        39.0004         35.0004
 14  5  4  1  9  0.0000000  0 12G01G26G20G04G28G17G07G08G09G10G02G13
  33313442.90846  25956099.81846  24610113.8114   24610127.0974   24610113.237
        41.0004         37.0004
  -1628779.33647  -1180050.30646  24040049.7844   24040060.7494   24040048.788
        42.0004         38.0004
  16210366.63446  12631366.43645  23804993.9474   23805001.3774   23804993.947
        39.0004         34.0004
 -22649377.52248 -17600095.81148  20811463.2544   20811468.4344   20811463.510
        52.0004         48.0004
  -8116680.59147  -6324572.34246  23232427.4894   23232435.1054   23232428.489
        45.0004         40.0004
  21349903.49448  16637768.78347  22919447.0384   22919454.6674   22919446.447
        48.0004         44.0004
  15403967.97148  12008831.68148  20877803.3744   20877807.0794   20877802.566
        52.0004         48.0004
    729960.70549    578276.20848  19872987.0704   19872992.7744   19872987.619
        54.0004         49.0004
   1339325.28249   1053471.95648  19983837.7804   19983842.8324   19983837.835
        54.0004         50.0004
 -10392723.44047  -8092743.71146  23577833.1154   23577838.5514   23577834.088
        44.0004         39.0004
  -4323116.65247  -3323587.33346  23427029.3284   23427033.4324   23427029.693
        44.0004         40.0004
  34653733.47646  26999314.86645  24628135.8204   24628141.9484   24628135.777
        39.0004         35.0004
 14  5  4  1  9 30.0000000  0 12G01G26G20G04G28G17G07G08G09G10G02G13
  33419308.63046  26038592.45846  24630260.5894   24630273.1634   24630259.129
        41.0004         37.0004
  -1629729.79447  -1180790.74546  24039868.4274   24039878.1364   24039868.485
        42.0004         38.0004
  16232183.28146  12648366.37445  23809145.5164   23809152.0324   23809145.219
        39.0004         34.0004
 -22703107.01448 -17641962.92447  20801238.7934   20801243.7354   20801237.712
        52.0004         47.0004
  -8172063.05847  -6367727.46846  23221889.2874   23221896.6234   23221889.625
        45.0004         40.0004
  21391908.88248  16670500.23947  22927441.3234   22927447.6824   22927439.841
        48.0004         44.0004
  15470216.64348  12060454.05348  20890409.6394   20890414.1124   20890409.527
        52.0004         48.0004
    732277.72649    580081.72248  19873428.2784   19873433.7654   19873428.648
        54.0004         49.0004
   1342963.39449   1056306.88848  19984530.0174   19984535.5544   19984530.167
        54.0004         50.0004
 -10456673.01547  -8142574.35146  23565664.2214   23565669.4814   23565665.053
        44.0004         40.0004
  -4409033.11247  -3390535.08346  23410679.6474   23410684.9534   23410679.969
        44.0004         40.0004
  34717999.59646  27049392.34945  24640365.7444   24640371.3234   24640366.603
        39.0004         35.0004
 14  5  4  1 10  0.0000000  0 12G01G26G20G04G28G17G07G08G09G10G02G13
  33525267.10546  26121157.37146  24650422.2474   24650436.2074   24650422.699
        41.0004         37.0004
  -1630402.40347  -1181314.66546  24039739.3184   24039750.7094   24039739.123
        42.0004         38.0004
  16254306.25146  12665605.04345  23813355.2824   23813362.3134   23813354.074
        39.0004         35.0004
 -22756344.07748 -17683446.31748  20791107.5094   20791113.3084   20791107.144
        52.0004         48.0004
  -8227567.41447  -6410977.58346  23211326.6364   23211334.3744   23211327.240
        45.0004         40.0004
  21433886.26148  16703209.86447  22935428.6764   22935435.4644   22935428.097
        48.0004         44.0004
  15536945.47348  12112450.57948  20903108.1094   20903112.0334   20903107.779
        52.0004         48.0004
    735267.42849    582411.40548  19873997.2164   19874002.6084   19873997.127
        54.0004         49.0004
   1347218.27049   1059622.41648  19985339.7424   19985344.9034   19985339.733
        54.0004         50.0004
 -10520781.36247  -8192528.73346  23553464.5934   23553469.4404   23553465.343
        44.0004         40.0004
  -4494695.75947  -3457285.04946  23394378.8754   23394382.9214   23394379.375
        44.0004         40.0004
  34782036.72246  27099291.39645  24652552.8504   24652557.5494   24652552.400
        39.0004         35.0004
 14  5  4  1 10 30.0000000  0 12G01G26G20G04G28G17G07G08G09G10G02G13
  33631302.12246  26203781.95346  24670601.1624   24670614.1114   24670600.749
        41.0004         36.0004
  -1630812.52047  -1181634.05446  24039661.0864   24039672.7494   24039661.601
        42.0004         38.0004
  16276722.95346  12683072.57145  23817617.6034   23817629.3974   23817620.467
        39.0004         35.0004
 -22809099.93148 -17724554.74848  20781068.6864   20781074.6154   20781068.809
        52.0004         48.0004
  -8283204.94847  -6454331.46846  23200739.9414   23200746.9954   23200739.774
        45.0004         40.0004
  21475819.66048  16735885.20747  22943408.8804   22943416.7894   22943407.804
        48.0004         44.0004
  15604138.64748  12164808.92548  20915894.7624   20915898.4534   20915893.837
        52.0004         48.0004
    738916.40349    585254.80348  19874691.6454   19874696.8504   19874692.063
        54.0004         49.0004
   1352075.79949   1063407.54448  19986263.8714   19986269.2394   19986264.072
        54.0004         50.0004
 -10585060.47647  -8242616.17546  23541232.6324   23541239.0394   23541233.176
        44.0004         40.0004
  -4580115.79347  -3523845.95946  23378122.9424   23378127.4544   23378124.183
        44.0004         40.0004
  34845830.39546  27149000.74745  24664689.7344   24664696.8544   24664692.242
        40.0004         35.0004
 14  5  4  1 11  0.0000000  0 12G01G26G20G04G28G17G07G08G09G10G02G13
  33737418.39346  26286469.83246  24690792.8114   24690807.2344   24690794.349
        41.0004         36.0004
  -1630954.85747  -1181744.77646  24039635.1014   24039644.4564   24039634.214
        42.0004         38.0004
  16299441.66346  12700775.40845  23821944.2624   23821953.1424   23821943.294
        39.0004         35.0004
 -22861366.31848 -17765281.78348  20771122.8044   20771128.6294   20771122.134
        52.0004         48.0004
  -8338966.57847  -6497782.06146  23190127.5284   23190136.6884   23190129.189
        45.0004         41.0004
  21517714.19548  16768530.27947  22951380.3054   22951388.1824   22951379.800
        48.0004         43.0004
  15671800.89548  12217532.78848  20928770.1464   20928774.5264   20928769.517
        52.0004         48.0004
    743231.90349    588617.57448  19875512.6374   19875518.1214   19875512.629
        54.0004         49.0004
   1357542.62749   1067667.45248  19987304.8254   19987309.4124   19987304.482
        54.0004         50.0004
 -10649501.52347  -8292829.80546  23528968.9824   23528975.5134   23528969.950
        45.0004         40.0004
  -4665283.83347  -3590210.53746  23361916.6664   23361920.3444   23361917.063
        44.0004         40.0004
  34909387.01746  27198525.38345  24676786.7284   24676789.2904   24676786.138
        40.0004         35.0004
 14  5  4  1 11 30.0000000  0 12G01G26G20G04G28G17G07G08G09G10G02G13
  33843614.12646  26369219.65345  24711002.0024   24711012.4904   24711002.455
        40.0004         35.0004
  -1630830.37547  -1181647.58846  24039658.1274   24039668.5964   24039657.827
        42.0004         38.0004
  16322464.42046  12718715.18845  23826322.4454   23826333.0084   23826324.375
        39.0004         34.0004
 -22913140.25348 -17805625.08548  20761270.2964   20761275.9524   20761269.916
        52.0004         48.0004
  -8394849.33247  -6541327.02046  23179494.5974   23179501.5004   23179494.919
        45.0004         41.0004
  21559568.70948  16801144.16047  22959344.5514   22959352.0744   22959344.109
        48.0004         43.0004
  15739930.85048  12270621.10248  20941734.5534   20941738.7064   20941734.418
        52.0004         48.0004
    748214.86149    592500.44248  19876460.7604   19876466.0484   19876461.344
        54.0004         49.0004
   1363619.48649   1072402.71148  19988460.3454   19988465.8404   19988460.369
        54.0004         50.0004
 -10714102.44047  -8343168.02046  23516676.3534   23516682.2984   23516676.520
        45.0004         40.0004
  -4750196.65647  -3656376.22646  23345757.8744   23345762.4114   23345758.923
        45.0004         40.0004
  34972706.46446  27247865.20645  24688838.7694   24688841.2944   24688835.956
        40.0004         35.0004
 14  5  4  1 12  0.0000000  0 12G01G26G20G04G28G17G07G08G09G10G02G13
  33949885.73346  26452028.57645  24731225.9354   24731236.3184   24731225.967
        40.0004         35.0004
  -1630442.15147  -1181344.89546  24039732.8244   24039742.4404   24039731.881
        43.0004         38.0004
  16345791.10046  12736891.77845  23830764.2274   23830770.7134   23830763.938
        39.0004         35.0004
 -22964421.26048 -17845584.29048  20751512.1994   20751517.3074   20751511.962
        52.0004         48.0004
  -8450852.23147  -6584965.61346  23168838.2044   23168844.7444   23168837.941
        45.0004         41.0004
  21601379.94048  16833724.31147  22967300.6514   22967308.4114   22967301.179
        48.0004         44.0004
  15808524.55748  12324070.77648  20954787.6944   20954791.5064   20954787.192
        52.0004         48.0004
    753863.96149    596902.38448  19877535.9534   19877540.9694   19877536.098
        54.0004         49.0004
   1370304.46049   1077611.82248  19989733.0354   19989737.9724   19989733.116
        54.0004         50.0004
 -10778862.81447  -8393630.48746  23504352.6604   23504358.1154   23504353.316
        45.0004         40.0004
  -4834853.18047  -3722342.21746  23329647.8284   23329652.5024   23329648.718
        45.0004         40.0004
  35035786.91746  27297018.79245  24700840.7754   24700845.8814   24700840.284
        40.0004         35.0004
 14  5  4  1 12 30.0000000  0 12G01G26G20G04G28G17G07G08G09G10G02G13
  13575770.62546  10576094.62945  24751462.8644   24751477.3054   24751463.038
        40.0004         35.0004
  -1629791.94447  -1180838.05846  24039855.1114   24039866.4474   24039855.906
        43.0004         38.0004
  16369422.92946  12755306.15445  23835259.0924   23835267.8154   23835260.288
        39.0004         35.0004
 -23015207.35348 -17885157.84448  20741847.8034   20741853.4204   20741846.774
        52.0004         48.0004
  -8506973.10847  -6628696.14446  23158157.6864   23158164.3674   23158158.004
        46.0004         41.0004
  21643146.03948  16866269.29747  22975249.0984   22975256.7654   22975248.422
        48.0004         44.0004
  15877579.40648  12377879.78348  20967928.3324   20967932.1514   20967927.809
        52.0004         48.0004
    760179.37149    601823.53048  19878737.6404   19878742.3724   19878737.706
        54.0004         49.0004
   1377597.33849   1083294.63048  19991120.5974   19991125.4214   19991120.694
        54.0004         50.0004
 -10843780.79647  -8444215.79046  23491999.5004   23492004.5464   23491999.892
        45.0004         40.0004
  -4919250.98047  -3788106.60046  23313587.9704   23313592.1154   23313588.311
        45.0004         40.0004
  35098627.72046  27345985.65245  24712796.6844   24712804.1124   24712798.599
        40.0004         35.0004
 14  5  4  1 13  0.0000000  0 12G01G26G20G04G28G17G07G08G09G10G02G13
  13682185.84846  10659015.44445  24771715.9244   24771724.5594   24771713.041
        39.0004         34.0004
  -1628882.09747  -1180128.90846  24040029.2374   24040037.5494   24040028.480
        43.0004         38.0004
  16393360.46746  12773958.73945  23839816.0314   23839823.2154   23839816.246
        39.0004         35.0004
 -23065497.28548 -17924344.77948  20732277.9094   20732283.4124   20732277.825
        52.0004         48.0004
  -8563210.50347  -6672517.45946  23147456.5524   23147463.0764   23147456.516
        46.0004         41.0004
  21684864.09648  16898776.85047  22983188.3724   22983195.0864   22983187.056
        48.0004         43.0004
  15947092.62848  12432045.96547  20981155.7264   20981160.3884   20981155.542
        52.0004         47.0004
    767160.65249    607263.53648  19880066.1664   19880071.5424   19880066.509
        54.0004         49.0004
   1385496.96249   1089450.22448  19992623.9684   19992628.7534   19992623.910
        54.0004         50.0004
 -10908855.40947  -8494923.11746  23479614.9474   23479620.8664   23479616.595
        45.0004         40.0004
  -5003388.61347  -3853668.25346  23297577.4584   23297581.6704   23297578.051
        45.0004         40.0004
  35161227.23446  27394764.45445  24724710.8374   24724715.2384   24724710.153
        40.0004         35.0004
 14  5  4  1 13 30.0000000  0 11G26G20G04G28G17G07G08G09G10G02G13
  -1627707.85647  -1179213.74946  24040251.7994   24040261.2524   24040251.921
        43.0004         38.0004
  -4062848.58446  -3165944.47745  23844432.8954   23844439.4174   23844430.652
        39.0004         34.0004
 -23115282.78348 -17963138.66448  20722803.8704   20722809.5144   20722803.443
        52.0004         48.0004
  -8619555.56147  -6716422.66946  23136734.9294   23136741.2874   23136734.334
        46.0004         41.0004
  21726539.18248  16931250.90247  22991118.4374   22991126.4134   22991117.898
        48.0004         43.0004
  16017068.52548  12486572.67947  20994471.9284   20994475.4554   20994471.754
        52.0004         47.0004
    774814.29149    613227.45648  19881522.2694   19881527.5664   19881522.500
        54.0004         49.0004
   1394009.41849   1096083.34948  19994243.7494   19994248.5174   19994243.844
        54.0004         50.0004
 -10974078.30647  -8545746.01146  23467203.4714   23467209.3214   23467205.208
        45.0004         40.0004
  -5087257.20947  -3919020.27246  23281617.2234   23281622.1614   23281617.890
        45.0004         40.0004
  35223591.38246  27443359.93745  24736577.9204   24736582.5084   24736577.609
        39.0004         35.0004
 14  5  4  1 14  0.0000000  0 12G01G26G20G04G28G17G07G08G09G10G02G13
  13895223.29656  10825018.46055  24812253.9385   24812266.6075   24812251.424
        38.0004         34.0004
  -1626285.03547  -1178104.88546  24040521.9684   24040534.7434   24040521.748
        42.0004         38.0004
  -4038297.14646  -3146813.53945  23849101.9524   23849111.1334   23849102.685
        39.0004         34.0004
 -23164576.31548 -18001549.18948  20713423.6784   20713428.8754   20713423.174
        52.0004         48.0004
  -8676020.02447  -6760420.91947  23125989.5564   23125997.0114   23125989.874
        46.0004         42.0004
  21768155.00248  16963678.78147  22999037.6684   22999044.9004   22999037.128
        48.0004         43.0004
  16087490.79248  12541447.20647  21007873.0544   21007877.0574   21007872.427
        52.0004         47.0004
    783126.61549    619704.63948  19883104.2584   19883109.4014   19883104.358
        54.0004         49.0004
   1403120.29849   1103182.77748  19995977.5504   19995982.3804   19995977.371
        54.0004         50.0004
 -11039461.91947  -8596694.11746  23454761.8514   23454766.6744   23454762.389
        45.0004         40.0004
  -5170868.39347  -3984171.71446  23265707.0314   23265710.3764   23265707.016
        45.0004         40.0004
  35285705.71446  27491760.68945  24748398.3344   24748405.7504   24748397.763
        39.0004         35.0004
 14  5  4  1 14 30.0000000  0 12G01G26G20G04G28G17G07G08G09G10G02G13
  14001834.70056  10908092.16355  24832543.1145   24832553.2755   24832540.206
        38.0004         34.0004
  -1624607.49947  -1176797.53746  24040841.8914   24040851.5434   24040841.591
        42.0004         37.0004
  -4013436.33846  -3127441.52845  23853832.5514   23853842.2244   23853834.234
        39.0004         35.0004
 -23213367.82748 -18039568.53848  20704138.6614   20704143.9484   20704138.938
        52.0004         48.0004
  -8732593.81047  -6804504.36847  23115223.9644   23115230.0864   23115224.082
        46.0004         42.0004
  21809717.60848  16996065.17347  23006946.9354   23006953.9854   23006946.138
        48.0004         43.0004
  16158364.82948  12596673.76347  21021359.4524   21021363.8224   21021359.432
        52.0004         47.0004
    792105.07449    626700.88248  19884812.7854   19884817.9884   19884813.048
        54.0004         49.0004
   1412836.77249   1110754.09748  19997825.9114   19997831.2524   19997826.275
        54.0004         50.0004
 -11104996.53647  -8647759.89046  23442292.3044   23442297.4084   23442291.908
        45.0004         40.0004
  -5254211.82047  -4049114.51846  23249846.5924   23249850.4994   23249847.873
        45.0004         40.0004
  35347577.46846  27539972.44145  24760170.1384   24760179.6434   24760171.093
        40.0004         35.0004
 14  5  4  1 15  0.0000000  0 12G01G26G20G04G28G17G07G08G09G10G02G13
  14108506.02556  10991212.56955  24852838.4045   24852852.9195   24852838.929
        38.0004         34.0004
  -1622678.11747  -1175293.94746  24041208.2694   24041218.8264   24041207.776
        42.0004         38.0004
  -3988265.83246  -3107828.24345  23858625.9734   23858627.2824   23858623.666
        39.0004         34.0004
 -23261656.76048 -18077196.26748  20694950.1904   20694955.1504   20694949.208
        52.0004         48.0004
  -8789275.49047  -6848671.87946  23104437.1034   23104444.0684   23104438.002
        46.0004         41.0004
  21851223.92948  17028407.71347  23014845.9194   23014853.2514   23014844.836
        48.0004         43.0004
  16229686.88348  12652249.42047  21034931.9954   21034935.7974   21034931.642
        52.0004         47.0004
    801748.46649    634215.25848  19886647.7834   19886652.6084   19886648.099
        54.0004         49.0004
   1423157.33549   1118796.13348  19999790.3084   19999795.3694   19999790.180
        54.0004         50.0004
 -11170681.56747  -8698942.85646  23429790.4954   23429796.0754   23429791.839
        45.0004         41.0004
  -5337286.35347  -4113847.80546  23234038.2604   23234041.6004   23234038.119
        45.0004         40.0004
  35409204.86046  27587993.76745  24771902.2404   24771905.0654   24771898.703
        40.0004         35.0004
 14  5  4  1 15 30.0000000  0 11G26G20G04G28G17G07G08G09G10G02G13
  -1620496.31547  -1173593.68646  24041623.7514   24041634.3914   24041623.897
        42.0004         38.0004
  -3962782.35646  -3087971.04445  23863471.3254   23863481.2904   23863473.710
        39.0004         35.0004
 -23309439.03148 -18114429.19348  20685856.6134   20685862.2414   20685857.083
        52.0004         48.0004
  -8846060.37147  -6892919.80546  23093631.1694   23093639.0604   23093631.895
        46.0004         41.0004
  21892674.96948  17060707.18047  23022733.8644   23022740.1974   23022732.711
        48.0004         43.0004
  16301456.97248  12708174.19547  21048589.6654   21048593.3304   21048589.247
        52.0004         47.0004
    812059.08349    642249.54648  19888609.7404   19888614.7914   19888609.901
        54.0004         49.0004
   1434084.02149   1127310.47048  20001869.4104   20001874.3984   20001869.478
        54.0004         50.0004
 -11236512.80847  -8750239.75546  23417262.6044   23417270.2794   23417264.412
        45.0004         40.0004
  -5420087.20847  -4178367.84746  23218281.8734   23218285.2694   23218281.908
        45.0004         40.0004
  35470589.58146  27635826.02645  24783577.5934   24783585.9034   24783579.903
        40.0004         35.0004
 14  5  4  1 16  0.0000000  0 11G26G20G04G28G17G07G08G09G10G02G13
  -1618065.90047  -1171699.68646  24042085.0294   24042097.1414   24042085.495
        42.0004         38.0004
  -3936986.62246  -3067870.51845  23868379.3494   23868389.1744   23868380.658
        39.0004         34.0004
 -23356714.77448 -18151267.43148  20676861.3454   20676866.6814   20676860.520
        53.0004         48.0004
  -8902948.43647  -6937248.14246  23082806.5444   23082814.1824   23082806.426
        46.0004         41.0004
  21934066.36448  17092960.16547  23030609.6374   23030617.2434   23030609.362
        48.0004         43.0004
  16373670.78048  12764444.72647  21062331.1514   21062335.1064   21062330.700
        52.0004         47.0004
    823035.15249    650802.36548  19890698.6104   19890703.4234   19890698.592
        54.0004         49.0004
   1445614.26649   1136295.11248  20004063.5454   20004068.6634   20004063.433
        54.0004         50.0004
 -11302490.61847  -8801650.91246  23404708.3274   23404714.3764   23404708.684
        45.0004         40.0004
  -5502614.00547  -4242674.32246  23202577.5854   23202581.2394   23202577.537
        45.0004         41.0004
  35531728.90846  27683467.03645  24795210.9484   24795223.9524   24795214.271
        39.0004         34.0004
 14  5  4  1 16 30.0000000  0 11G26G20G04G28G17G07G08G09G10G02G13
  -1615389.13847  -1169613.74446  24042596.8904   24042605.2434   24042595.462
        42.0004         38.0004
  -3910878.02946  -3047526.24645  23873348.9274   23873355.0074   23873350.269
        39.0004         35.0004
 -23403482.85548 -18187710.07848  20667961.4524   20667966.8504   20667960.630
        53.0004         48.0004
  -8959937.71247  -6981655.33546  23071961.5144   23071968.7034   23071961.443
        46.0004         41.0004
  21975395.80048  17125164.86247  23038474.2124   23038481.9054   23038474.158
        48.0004         43.0004
  16446325.50748  12821058.83247  21076156.6114   21076161.0524   21076156.362
        52.0004         47.0004
    834675.79749    659873.04148  19892913.6554   19892918.5104   19892913.758
        54.0004         49.0004
   1457746.99849   1145749.22248  20006372.0974   20006377.2744   20006372.419
        54.0004         50.0004
 -11368613.43647  -8853175.06446  23392125.7824   23392130.9354   23392126.329
        45.0004         40.0004
  -5584864.89147  -4306765.80646  23186924.9674   23186929.5854   23186925.943
        45.0004         41.0004
  35592622.01346  27730916.18445  24806800.6914   24806806.9254   24806802.594
        39.0004         35.0004
 14  5  4  1 17  0.0000000  0 11G26G20G04G28G17G07G08G09G10G02G13
  -1612467.21947  -1167336.77046  24043151.5884   24043161.3754   24043150.943
        42.0004         38.0004
  -3884454.77946  -3026936.76345  23878377.4804   23878386.7164   23878378.233
        39.0004         34.0004
 -23449740.74048 -18223755.18148  20659158.9824   20659164.5194   20659158.545
        53.0004         48.0004
  -9017024.97547  -7026138.88246  23061098.1554   23061104.6164   23061098.247
        46.0004         41.0004
  22016661.92048  17157320.21447  23046326.6554   23046335.0084   23046326.705
        48.0004         43.0004
  16519419.21448  12878015.00047  21090065.8964   21090069.9524   21090065.543
        52.0004         47.0004
    846981.65749    669462.06748  19895255.1904   19895260.1674   19895255.419
        54.0004         49.0004
   1470482.12949   1155672.74248  20008795.6824   20008800.7214   20008795.632
        54.0004         50.0004
 -11434878.88947  -8904810.31246  23379515.5574   23379521.4654   23379516.582
        45.0004         41.0004
  -5666837.17647  -4370640.19146  23171326.3864   23171329.6934   23171327.003
        45.0004         41.0004
  35653269.44846  27778173.89445  24818341.8094   24818349.5964   24818342.658
        39.0004         35.0004
 14  5  4  1 17 30.0000000  0 11G26G20G04G28G17G07G08G09G10G02G13
  -1609297.27947  -1164866.53046  24043755.2714   24043764.8004   24043754.103
        42.0004         38.0004
  -3857711.12646  -3006097.64945  23883469.7714   23883476.8664   23883467.864
        39.0004         35.0004
 -23495482.41348 -18259398.03348  20650454.2234   20650459.9334   20650453.824
        53.0004         48.0004
  -9074203.36847  -7070693.45346  23050217.7924   23050224.4944   23050217.807
        46.0004         41.0004
  22057867.86848  17189428.69347  23054169.1634   23054176.5204   23054167.498
        48.0004         43.0004
  16592953.87648  12935314.76847  21104059.3154   21104062.8584   21104058.661
        52.0004         47.0004
    859956.89549    679572.69348  19897724.2814   19897729.4614   19897724.241
        54.0004         49.0004
   1483823.53149   1166068.68048  20011334.7924   20011339.4464   20011334.579
        54.0004         50.0004
 -11501280.36747  -8956551.54346  23366880.1084   23366885.2224   23366880.898
        45.0004         41.0004
  -5748523.66347  -4434291.88846  23155781.6444   23155786.0954   23155781.184
        45.0004         41.0004
  35713674.49046  27825242.74645  24829837.3194   24829843.1214   24829838.175
        39.0004         35.0004
 14  5  4  1 18  0.0000000  0 11G26G20G04G28G17G07G08G09G10G02G13
  -1605894.00847  -1162214.48246  24044402.9664   24044410.7694   24044401.088
        42.0004         38.0004
  -3830659.00746  -2985018.12845  23888613.7304   23888624.9794   23888615.749
        39.0004         34.0004
 -23540718.75648 -18294647.12048  20641846.4984   20641851.5214   20641845.731
        53.0004         48.0004
  -9131483.56747  -7115327.34346  23039317.4914   23039324.7834   23039317.686
        46.0004         41.0004
  22098998.85348  17221478.74847  23061994.8624   23062002.0434   23061995.000
        48.0004         43.0004
  16666914.35948  12992946.34547  21118133.5844   21118137.1314   21118132.876
        52.0004         47.0004
    873588.52049    690194.78748  19900318.2654   19900323.1804   19900318.543
        54.0004         49.0004
   1497757.71349   1176926.53348  20013986.2384   20013990.9894   20013985.996
        54.0004         50.0004
 -11567828.84847  -9008407.32946  23354216.7184   23354221.1964   23354216.721
        45.0004         41.0004
  -5829934.90347  -4497729.10146  23140289.2934   23140294.5784   23140290.046
        45.0004         41.0004
  35773824.01946  27872112.48245  24841283.3134   24841287.5304   24841283.733
        39.0004         34.0004
 14  5  4  1 18 30.0000000  0 11G26G20G04G28G17G07G08G09G10G02G13
  -1602250.93047  -1159375.55046  24045093.9684   24045103.4874   24045095.281
        42.0004         38.0004
  -3803289.01446  -2963690.93745  23893820.7674   23893833.1744   23893823.613
        39.0004         34.0004
 -23585439.93848 -18329494.78748  20633336.3944   20633341.4544   20633335.797
        53.0004         48.0004
  -9188854.59747  -7160032.01246  23028400.7834   23028406.0904   23028400.598
        46.0004         41.0004
  22140061.38848  17253475.47347  23069809.3414   23069817.1454   23069808.870
        48.0004         43.0004
  16741306.54148  13050914.31547  21132290.1484   21132293.6794   21132289.366
        52.0004         47.0004
    887884.62849    701334.66948  19903038.5244   19903043.8254   19903038.726
        54.0004         49.0004
   1512292.47949   1188252.37748  20016751.9994   20016757.0394   20016751.870
        54.0004         50.0004
 -11634514.32547  -9060369.89346  23341525.2654   23341531.3634   23341526.807
        45.0004         41.0004
  -5911060.38347  -4560943.64046  23124852.0654   23124856.1134   23124852.070
        45.0004         41.0004
  35833725.89746  27918789.21345  24852683.7164   24852688.1244   24852682.121
        38.0004         34.0004
 14  5  4  1 19  0.0000000  0 11G26G20G04G28G17G07G08G09G10G02G13
  -1598370.76347  -1156351.86746  24045833.4654   24045842.0934   24045832.945
        42.0004         38.0004
  -3775601.00446  -2942115.94645  23899090.4454   23899099.0274   23899092.789
        39.0004         34.0004
 -23629645.43948 -18363940.61848  20624924.1214   20624929.2404   20624923.789
        53.0004         48.0004
  -9246314.92147  -7204806.26746  23017465.3824   23017472.2214   23017465.880
        46.0004         41.0004
  22181052.88548  17285416.84747  23077609.9254   23077617.3234   23077609.435
        48.0004         43.0004
  16816126.92148  13109215.94047  21146527.7234   21146531.3364   21146527.323
        52.0004         47.0004
    902843.95149    712991.33448  19905885.2114   19905890.4834   19905885.109
        54.0004         49.0004
   1527426.00349   1200044.79048  20019631.6854   20019636.5614   20019631.625
        54.0004         50.0004
 -11701336.01747  -9112438.60846  23328810.3784   23328815.8444   23328811.352
        45.0004         40.0004
  -5991898.28847  -4623934.11846  23109467.6984   23109472.7874   23109468.543
        45.0004         41.0004
  15412918.95146  12006472.11945  24864030.3144   24864040.9434   24864034.322
        38.0004         34.0004
 14  5  4  1 19 30.0000000  0 11G26G20G04G28G17G07G08G09G10G02G13
  -1594257.41047  -1153146.48546  24046616.4134   24046625.6834   24046615.963
        42.0004         38.0004
  -3747595.88746  -2920293.86445  23904420.8714   23904429.0714   23904420.438
        39.0004         34.0004
 -23673335.58148 -18397984.87748  20616610.1584   20616615.4714   20616609.463
        53.0004         48.0004
  -9303864.34447  -7249649.94646  23006514.5084   23006521.4794   23006515.095
        46.0004         41.0004
  22221969.62948  17317299.95947  23085396.1634   23085403.6574   23085395.747
        48.0004         43.0004
  16891370.92048  13167847.66047  21160845.9284   21160849.4534   21160845.302
        52.0004         47.0004
    918464.28949    725163.07848  19908857.5964   19908862.7444   19908857.771
        54.0004         49.0004
   1543155.54649   1212301.63048  20022625.1154   20022630.1004   20022624.920
        54.0004         50.0004
 -11768293.73247  -9164613.26846  23316068.0184   23316074.1064   23316069.044
        45.0004         41.0004
  -6072448.69547  -4686700.56546  23094140.8264   23094144.4454   23094140.725
        46.0004         41.0004
  15472320.45246  12052758.95545  24875336.6654   24875340.1034   24875338.244
        38.0004         34.0004
 14  5  4  1 20  0.0000000  0 11G26G20G04G28G17G07G08G09G10G02G13
  -1589910.29747  -1149758.95646  24047442.4894   24047453.8804   24047443.113
        43.0004         38.0004
  -3719270.35546  -2898222.11145  23909813.0124   23909819.8794   23909812.659
        39.0004         35.0004
 -23716506.23048 -18431624.33848  20608395.0004   20608400.4534   20608394.836
        53.0004         48.0004
  -9361497.89847  -7294559.17046  22995545.5764   22995554.0094   22995547.326
        46.0004         41.0004
  22262811.83648  17349124.99447  23093168.2574   23093176.0464   23093167.777
        48.0004         43.0004
  16967038.54748  13226809.47847  21175244.8964   21175248.9814   21175244.634
        52.0004         47.0004
    934747.64849    737851.45748  19911956.2044   19911961.3424   19911956.517
        54.0004         49.0004
   1559482.72349   1225024.16748  20025731.9634   20025736.6604   20025731.898
        54.0004         50.0004
 -11835383.29447  -9216890.66546  23303301.1724   23303306.5394   23303301.688
        45.0004         40.0004
  -6152707.26047  -4749239.59346  23078868.3604   23078872.0874   23078868.621
        46.0004         41.0004
  15531472.25046  12098851.26145  24886594.1704   24886597.7734   24886593.735
        38.0004         34.0004
 14  5  4  1 20 30.0000000  0 11G26G20G04G28G17G07G08G09G10G02G13
  -1585331.81347  -1146191.12746  24048314.2794   24048323.4354   24048314.297
        43.0004         38.0004
  -3690623.85856  -2875900.25555  23915261.9585   23915271.5385   23915263.476
        39.0004         34.0004
 -23759156.37648 -18464858.21148  20600278.7804   20600284.0114   20600278.115
        53.0004         48.0004
  -9419213.85447  -7339532.62646  22984563.7174   22984571.9224   22984564.250
        46.0004         41.0004
  22303577.08548  17380890.06047  23100926.0624   23100933.6344   23100925.362
        48.0004         43.0004
  17043126.55148  13286098.87047  21189724.4194   21189728.2724   21189723.521
        52.0004         47.0004
    951692.76749    751055.50848  19915180.4664   19915185.4924   19915180.958
        54.0004         49.0004
   1576406.22949   1238211.37048  20028952.3444   20028957.2164   20028952.025
        54.0004         50.0004
 -11902603.16247  -9269269.56546  23290510.6174   23290515.0234   23290510.298
        45.0004         41.0004
  -6232672.10547  -4811549.74746  23063650.4834   23063655.9244   23063651.299
        46.0004         41.0004
  15590373.37746  12144748.20145  24897803.3264   24897809.6914   24897802.037
        39.0004         34.0004
 14  5  4  1 21  0.0000000  0 11G26G20G04G28G17G07G08G09G10G02G13
  -1580528.13447  -1142447.83746  24049228.5654   24049237.8584   24049227.966
        43.0004         38.0004
  -3661659.45846  -2853330.67445  23920774.9694   23920780.9914   23920775.518
        39.0004         34.0004
 -23801288.88948 -18497688.73348  20592261.0184   20592266.1114   20592261.100
        53.0004         48.0004
  -9477013.88247  -7384571.58146  22973565.8664   22973571.2684   22973565.020
        46.0004         41.0004
  22344259.78948  17412590.80047  23108668.0924   23108675.3944   23108667.089
        48.0004         43.0004
  17119628.30748  13345710.67647  21204281.7984   21204285.3954   21204281.349
        51.0004         47.0004
    969294.97849    764771.57448  19918530.2164   19918535.4474   19918530.749
        54.0004         49.0004
   1593920.89249   1251859.21548  20032285.0394   20032289.8894   20032285.389
        54.0004         50.0004
 -11969955.83247  -9321751.99046  23277692.7894   23277697.3514   23277693.335
        45.0004         41.0004
  -6312344.90347  -4873632.34946  23048489.5484   23048493.7454   23048489.271
        46.0004         41.0004
  15649019.07446  12190446.16445  24908963.3504   24908965.1854   24908962.177
        39.0004         34.0004
 14  5  4  1 21 30.0000000  0 11G26G20G04G28G17G07G08G09G10G02G13
  -1575497.37147  -1138527.60746  24050185.7864   24050194.4794   24050185.183
        43.0004         38.0004
  -3632372.88546  -2830510.05545  23926347.1794   23926357.0464   23926348.041
        39.0004         35.0004
 -23842898.57748 -18530111.87148  20584343.0114   20584348.7104   20584342.739
        53.0004         48.0004
  -9534891.37647  -7429670.91246  22962551.3434   22962558.6044   22962551.509
        46.0004         41.0004
  22384861.94348  17444228.77847  23116392.8074   23116401.0584   23116393.427
        48.0004         43.0004
  17196544.72348  13405645.58347  21218918.6624   21218922.3354   21218918.164
        51.0004         47.0004
    987557.49449    779002.17548  19922005.6234   19922010.3744   19922005.804
        54.0004         49.0004
   1612029.52749   1265969.90448  20035730.8634   20035735.4754   20035730.812
        54.0004         50.0004
 -12037435.52947  -9374333.42146  23264852.1394   23264856.2344   23264852.235
        45.0004         41.0004
  -6391719.62647  -4935482.67446  23033384.5494   23033388.5404   23033385.440
        46.0004         41.0004
  15707412.68246  12235947.66145  24920076.3794   24920082.2724   24920074.002
        39.0004         34.0004
 14  5  4  1 22  0.0000000  0 11G26G20G04G28G17G07G08G09G10G02G13
  -1570242.11847  -1134432.44346  24051184.8934   24051196.1524   24051185.180
        43.0004         38.0004
  -3602763.58446  -2807437.96645  23931984.2264   23931989.3504   23931983.157
        39.0004         34.0004
 -23883984.46148 -18562126.84748  20576524.4514   20576530.4154   20576524.250
        53.0004         48.0004
  -9592845.03047  -7474829.57346  22951522.4394   22951530.2144   22951523.269
        46.0004         41.0004
  22425380.85047  17475801.88747  23124104.6224   23124111.4474   23124103.827
        47.0004         43.0004
  17273872.60348  13465901.11247  21233633.2984   21233637.2194   21233632.937
        51.0004         47.0004
   1006479.33949    793746.52848  19925606.0854   19925611.2574   19925606.500
        54.0004         49.0004
   1630730.52049   1280542.15648  20039289.6004   20039294.5894   20039289.549
        54.0004         50.0004
 -12105041.14647  -9427012.94146  23251986.1064   23251992.1134   23251987.238
        46.0004         41.0004
  -6470795.04647  -4997099.77546  23018336.6544   23018340.7144   23018337.601
        46.0004         41.0004
  15765553.41146  12281252.11945  24931140.1364   24931146.4304   24931137.585
        39.0004         34.0004
 14  5  4  1 22 30.0000000  0 11G26G20G04G28G17G07G08G09G10G02G13
  -1564765.00147  -1130164.40346  24052227.1884   24052235.8584   24052226.861
        43.0004         38.0004
  -3572831.79346  -2784114.57745  23937679.7914   23937689.2794   23937679.477
        39.0004         34.0004
 -23924546.13348 -18593733.35348  20568806.2424   20568811.4904   20568806.111
        53.0004         48.0004
  -9650873.22747  -7520046.32646  22940480.1514   22940488.3244   22940480.918
        46.0004         41.0004
  22465814.04047  17507308.21047  23131799.1124   23131806.6394   23131797.904
        47.0004         43.0004
  17351608.68048  13526474.72047  21248426.1004   21248429.9264   21248425.922
        51.0004         47.0004
   1026059.17549    809003.60748  19929331.8834   19929337.0004   19929332.433
        54.0004         49.0004
   1650022.17549   1295574.66648  20042960.8264   20042965.5304   20042960.972
        54.0004         50.0004
 -12172771.99847  -9479790.13346  23239098.1014   23239103.4704   23239098.875
        46.0004         41.0004
  -6549569.68147  -5058482.52246  23003346.8124   23003350.9904   23003346.572
        46.0004         41.0004
  15823439.62046  12326358.25945  24942153.8814   24942158.4894   24942153.405
        39.0004         34.0004
 14  5  4  1 23  0.0000000  0 11G26G20G04G28G17G07G08G09G10G02G13
  -1559066.26947  -1125723.68746  24053312.0854   24053320.3034   24053311.527
        43.0004         38.0004
  -3542574.56946  -2760537.59045  23943435.9144   23943443.0294   23943437.362
        39.0004         35.0004
 -23964580.29248 -18624928.81148  20561187.5844   20561193.5294   20561187.500
        53.0004         48.0004
  -9708971.61847  -7565317.76946  22929424.6364   22929433.0944   22929425.208
        46.0004         41.0004
  22506161.78547  17538747.95247  23139476.7784   23139484.2004   23139476.250
        47.0004         43.0004
  17429752.00448  13587365.66247  21263296.3624   21263299.9344   21263295.942
        51.0004         47.0004
   1046298.15449    824774.31648  19933183.3144   19933188.4994   19933183.777
        54.0004         49.0004
   1669905.33549   1311068.09048  20046744.0464   20046748.9874   20046744.191
        54.0004         50.0004
 -12240623.73547  -9532661.49246  23226186.7074   23226191.4744   23226187.099
        46.0004         41.0004
  -6628039.41647  -5119627.67346  22988415.2584   22988418.4594   22988415.794
        46.0004         41.0004
  15881072.91046  12371267.30745  24953121.2044   24953120.9224   24953120.999
        39.0004         34.0004
 14  5  4  1 23 30.0000000  0 11G26G20G04G28G17G07G08G09G10G02G13
  -1553150.99447  -1121114.21446  24054438.4054   24054447.0024   24054436.732
        43.0004         38.0004
  -3511993.89546  -2736708.59145  23949255.9314   23949265.9674   23949255.944
        39.0004         34.0004
 -24004088.57448 -18655714.49148  20553669.5484   20553675.1284   20553669.383
        53.0004         48.0004
  -9767140.92647  -7610644.48347  22918355.5284   22918361.5754   22918355.647
        46.0004         42.0004
  22546418.95947  17570117.11947  23147136.5774   23147144.3504   23147137.057
        47.0004         42.0004
  17508296.66948  13648569.34247  21278243.1584   21278245.9464   21278242.570
        51.0004         46.0004
   1067192.38049    841055.61148  19937159.2684   19937164.2974   19937159.319
        54.0004         49.0004
   1690375.75149   1327019.11148  20050639.9354   20050644.4044   20050639.710
        54.0004         50.0004
 -12308597.60047  -9585628.00546  23213251.7794   23213255.9724   23213251.457
        45.0004         40.0004
  -6706205.33447  -5180536.08946  22973539.7734   22973543.8944   22973539.769
        46.0004         41.0004
  15938449.73946  12415976.54545  24964042.8224   24964048.0404   24964039.396
        39.0004         35.0004
 14  5  4  1 24  0.0000000  0 11G26G20G04G28G17G07G08G09G10G02G13
  -1547018.76547  -1116335.70746  24055602.9164   24055613.8444   24055604.310
        43.0004         38.0004
  -3481087.02046  -2712625.39545  23955135.2704   23955141.4964   23955137.899
        39.0004         34.0004
 -24043067.31648 -18686087.54648  20546252.0284   20546257.2604   20546251.943
        53.0004         48.0004
  -9825376.50847  -7656022.84447  22907273.9814   22907280.6884   22907274.260
        46.0004         42.0004
  22586585.83147  17601415.92047  23154781.1704   23154787.9914   23154780.147
        47.0004         42.0004
  17587242.55448  13710085.65247  21293265.8944   21293269.0864   21293265.192
        51.0004         46.0004
   1088743.41549    857848.69248  19941260.2314   19941265.1394   19941260.564
        54.0004         49.0004
   1711434.68849   1343428.72748  20054646.9584   20054651.7454   20054646.873
        54.0004         50.0004
 -12376688.90647  -9638685.88746  23200292.9844   23200298.5494   23200294.298
        46.0004         41.0004
  -6784062.76547  -5241204.13747  22958724.1814   22958727.3154   22958723.945
        46.0004         42.0004
  15995571.65846  12460487.10145  24974910.1994   24974915.6754   24974909.516
        39.0004         35.0004
 14  5  4  1 24 30.0000000  0 11G26G20G04G28G17G07G08G09G10G02G13
  -1540674.76447  -1111392.18946  24056810.0094   24056820.7164   24056810.443
        42.0004         38.0004
  -3449856.04346  -2688289.65945  23961081.5434   23961086.9784   23961079.878
        39.0004         34.0004
 -24081518.56748 -18716049.56748  20538935.2474   20538940.4044   20538935.097
        53.0004         48.0004
  -9883678.97147  -7701453.30947  22896178.8064   22896186.1034   22896179.206
        46.0004         42.0004
  22626657.81547  17632640.77847  23162406.6014   23162414.5144   23162405.788
        47.0004         43.0004
  17666583.64948  13771909.91947  21308363.7344   21308368.2224   21308363.469
        51.0004         46.0004
   1110947.24049    875150.43348  19945485.6914   19945490.8014   19945485.884
        54.0004         49.0004
   1733077.74149   1360293.49248  20058765.6324   20058770.1784   20058765.476
        54.0004         50.0004
 -12444899.59547  -9691836.87246  23187312.7354   23187317.4324   23187313.335
        45.0004         40.0004
  -6861613.10947  -5301632.88447  22943966.8954   22943970.1434   22943967.458
        46.0004         42.0004
  16052435.15746  12504796.34345  24985727.8464   24985733.6734   24985730.140
        39.0004         34.0004
 14  5  4  1 25  0.0000000  0 11G26G20G04G28G17G07G08G09G10G02G13
  -1534116.86747  -1106281.98746  24058057.9794   24058068.2954   24058059.403
        43.0004         38.0004
  -3418296.24946  -2663697.68745  23967086.6084   23967094.2744   23967086.855
        39.0004         34.0004
 -24119436.78548 -18745596.23748  20531719.5454   20531724.5064   20531719.356
        53.0004         48.0004
  -9942041.61447  -7746930.67546  22885073.1264   22885081.3514   22885073.450
        46.0004         41.0004
  22666637.61247  17663793.79847  23170013.7354   23170022.1894   23170013.561
        47.0004         43.0004
  17746321.45048  13834043.30747  21323537.0794   21323541.6324   21323536.549
        51.0004         46.0004
   1133807.41949    892963.64548  19949835.9654   19949840.6804   19949836.002
        54.0004         49.0004
   1755307.98249   1377615.80848  20062995.6824   20063000.3584   20062995.443
        54.0004         50.0004
 -12513223.17247  -9745075.73647  23174311.4414   23174316.2124   23174312.489
        45.0004         42.0004
  -6938849.90547  -5361817.31347  22929269.0574   22929272.7844   22929269.911
        46.0004         42.0004
  16109044.29346  12548907.34445  24996502.9744   24996506.3314   24996502.822
        39.0004         34.0004
 14  5  4  1 25 30.0000000  0 11G26G20G04G28G17G07G08G09G10G02G13
  -1527349.80647  -1101008.81246  24059345.3034   24059356.0044   24059345.578
        43.0004         38.0004
  -3386409.63246  -2638851.08245  23973154.0294   23973160.3564   23973154.227
        39.0004         35.0004
 -24156823.44548 -18774728.71048  20524605.4764   20524610.8094   20524605.148
        53.0004         48.0004
 -10000464.69247  -7792455.14246  22873955.7574   22873962.3204   22873955.706
        46.0004         41.0004
  22706520.00447  17694870.93547  23177603.4644   23177611.2234   23177603.064
        47.0004         43.0004
  17826450.33548  13896481.44347  21338785.1064   21338789.0424   21338784.976
        51.0004         46.0004
   1157320.23249    911285.37048  19954310.2564   19954314.2534   19954310.287
        54.0004         49.0004
   1778121.57949   1395392.67548  20067337.0444   20067341.6994   20067336.906
        54.0004         50.0004
 -12581660.72247  -9798403.45646  23161288.2264   23161292.0804   23161288.924
        46.0004         41.0004
  -7015773.99047  -5421758.06447  22914630.2144   22914634.3694   22914631.009
        46.0004         42.0004
  16165395.75546  12592817.58845  25007225.6174   25007232.1174   25007226.402
        39.0004         34.0004
 14  5  4  1 26  0.0000000  0 11G26G20G04G28G17G07G08G09G10G02G13
  -1520376.42747  -1095574.84846  24060673.0544   24060682.7784   24060673.732
        43.0004         38.0004
  -3354196.01246  -2613749.63945  23979282.7264   23979295.9464   23979283.492
        39.0004         34.0004
 -24193678.13248 -18803446.65948  20517592.1714   20517597.4974   20517591.927
        53.0004         48.0004
 -10058946.30747  -7838025.21846  22862827.0654   22862834.0554   22862826.995
        46.0004         41.0004
  22746302.91347  17725870.53847  23185172.9614   23185181.1234   23185173.767
        47.0004         43.0004
  17906966.98848  13959221.73847  21354107.4114   21354110.8814   21354106.546
        51.0004         46.0004
   1181484.30049    930114.58848  19958907.9844   19958912.9294   19958908.207
        54.0004         49.0004
   1801516.40449   1413622.43548  20071788.7084   20071793.6124   20071788.600
        54.0004         49.0004
 -12650210.74347  -9851818.83046  23148242.7884   23148248.2714   23148243.326
        45.0004         41.0004
  -7092383.23147  -5481453.49647  22900051.9324   22900055.9784   22900052.379
        46.0004         42.0004
  16221488.22046  12636525.98845  25017899.9484   25017904.0244   25017899.914
        39.0004         34.0004
 14  5  4  1 26 30.0000000  0 11G26G20G04G28G17G07G08G09G10G02G13
  -1513197.83447  -1089980.99346  24062039.3904   24062049.1014   24062039.230
        43.0004         39.0004
  -3321653.82646  -2588392.20545  23985477.7704   23985484.1314   23985476.912
        39.0004         35.0004
 -24229998.83048 -18831748.51348  20510680.1784   20510685.6724   20510680.394
        53.0004         49.0004
 -10117483.60747  -7883638.67546  22851686.6784   22851694.7544   22851687.082
        46.0004         41.0004
  22785985.27047  17756791.80547  23192725.4754   23192734.2024   23192725.483
        47.0004         43.0004
  17987869.48548  14022262.68947  21369501.6314   21369506.2514   21369501.333
        51.0004         46.0004
   1206299.14249    949450.94948  19963630.1834   19963634.8604   19963630.337
        54.0004         49.0004
   1825492.17749   1432304.88248  20076351.2414   20076355.8254   20076350.973
        54.0004         49.0004
 -12718870.70247  -9905320.00947  23135177.6124   23135181.5394   23135178.196
        46.0004         42.0004
  -7168675.64147  -5540902.03847  22885533.9754   22885537.8734   22885534.694
        46.0004         42.0004
  16277322.32746  12680033.08345  25028527.1644   25028527.6374   25028524.433
        39.0004         34.0004
 14  5  4  1 27  0.0000000  0 11G26G20G04G28G17G07G08G09G10G02G13
  -1505816.48347  -1084229.13246  24063444.0604   24063453.0864   24063443.575
        43.0004         38.0004
  -3288782.78046  -2562778.48945  23991734.1454   23991740.3254   23991732.858
        39.0004         35.0004
 -24265784.70348 -18859633.62448  20503870.8064   20503876.1544   20503870.784
        53.0004         49.0004
 -10176074.44947  -7929293.86446  22840538.2304   22840544.7924   22840537.815
        46.0004         41.0004
  22825565.17747  17787633.23747  23200257.3134   23200266.1234   23200257.151
        47.0004         43.0004
  18069154.72248  14085601.87947  21384969.8354   21384974.3404   21384969.846
        51.0004         46.0004
   1231763.48149    969293.35648  19968475.4484   19968480.6904   19968475.876
        54.0004         49.0004
   1850047.12649   1451438.61948  20081023.7464   20081028.6894   20081023.768
        54.0004         49.0004
 -12787638.92547  -9958905.66646  23122091.3574   23122096.6604   23122091.423
        46.0004         41.0004
  -7244649.24447  -5600102.17747  22871076.7644   22871080.8024   22871077.258
        47.0004         42.0004
  16332897.30846  12723338.28045  25039097.7804   25039106.6124   25039099.715
        39.0004         34.0004
 14  5  4  1 27 30.0000000  0 11G26G20G04G28G17G07G08G09G10G02G13
  -1498233.15547  -1078319.90146  24064888.0934   24064896.2604   24064886.698
        43.0004         38.0004
  -3255580.86246  -2536906.99945  23998051.9304   23998059.4854   23998050.828
        39.0004         35.0004
 -24301033.41448 -18887100.16248  20497163.2584   20497168.4874   20497162.657
        53.0004         49.0004
 -10234714.49447  -7974987.38446  22829379.6874   22829386.0544   22829379.133
        46.0004         41.0004
  22865042.09947  17818394.41447  23207769.8354   23207777.6384   23207769.302
        47.0004         43.0004
  18150821.09148  14149238.05447  21400510.8074   21400515.0994   21400510.344
        51.0004         46.0004
   1257877.85749    989642.28648  19973445.0954   19973450.0664   19973445.413
        54.0004         49.0004
   1875181.28449   1471023.69448  20085806.4464   20085811.4814   20085806.431
        54.0004         49.0004
 -12856512.06947 -10012572.95647  23108986.8884   23108989.7084   23108986.072
        46.0004         42.0004
  -7320300.80047  -5659051.35547  22856681.8224   22856685.5774   22856682.240
        47.0004         42.0004
  16388214.04246  12766442.21545  25049628.3024   25049632.0764   25049626.616
        39.0004         34.0004
 14  5  4  1 28  0.0000000  0 11G26G20G04G28G17G07G08G09G10G02G13
  -1490451.83547  -1072256.37346  24066368.2934   24066376.4184   24066367.355
        43.0004         38.0004
  -3222049.55546  -2510778.80145  24004431.7594   24004439.7854   24004432.022
        39.0004         35.0004
 -24335745.66148 -18914148.67148  20490557.3334   20490562.7504   20490557.311
        53.0004         48.0004
 -10293403.44647  -8020719.02147  22818211.4424   22818216.5934   22818211.263
        46.0004         42.0004
  22904412.43647  17849072.53447  23215261.7734   23215269.5804   23215261.432
        47.0004         43.0004
  18232863.82748  14213167.50247  21416122.6244   21416127.3964   21416122.449
        51.0004         46.0004
   1284639.30549   1010495.39948  19978537.2944   19978542.7054   19978537.961
        54.0004         49.0004
   1900891.30849   1491057.48548  20090698.9254   20090703.7294   20090699.103
        54.0004         50.0004
 -12925489.94347 -10066321.83146  23095859.8214   23095862.9654   23095859.981
        46.0004         41.0004
  -7395630.19447  -5717749.50747  22842345.6224   22842349.0694   22842346.153
        47.0004         42.0004
  16443270.16746  12809343.07345  25060104.9534   25060108.6684   25060103.188
        39.0004         34.0004
 14  5  4  1 28 30.0000000  0 11G26G20G04G28G17G07G08G09G10G02G13
  -1482472.56747  -1066038.61446  24067885.5334   24067894.9514   24067885.326
        43.0004         38.0004
  -3188186.14546  -2484391.83945  24010875.0074   24010882.6104   24010875.885
        40.0004         35.0004
 -24369918.62148 -18940776.96448  20484055.0634   20484059.8374   20484054.318
        53.0004         49.0004
 -10352137.11647  -8066485.50347  22807034.5434   22807041.3074   22807034.576
        46.0004         42.0004
  22943676.18947  17879667.60547  23222733.4414   23222741.1114   23222732.855
        47.0004         42.0004
  18315282.20248  14277389.66847  21431806.7284   21431810.4724   21431806.372
        51.0004         46.0004
   1312048.73549   1031853.36648  19983753.3694   19983758.4184   19983753.628
        54.0004         49.0004
   1927177.81749   1511540.45248  20095701.5034   20095705.8434   20095701.362
        54.0004         50.0004
 -12994568.67647 -10120149.25246  23082714.3764   23082718.1994   23082714.399
        46.0004         40.0004
  -7470633.20647  -5776193.33947  22828074.8224   22828076.7764   22828073.377
        47.0004         42.0004
  16498067.47846  12852042.30045  25070531.9544   25070537.2274   25070531.323
        39.0004         34.0004
 14  5  4  1 29  0.0000000  0 11G26G20G04G28G17G07G08G09G10G02G13
  -1474299.08747  -1059669.50146  24069440.4844   24069448.6864   24069440.285
        43.0004         38.0004
  -3153991.53346  -2457746.78945  24017380.7404   24017391.3134   24017383.026
        39.0004         35.0004
 -24403552.66248 -18966985.31448  20477654.2204   20477659.6584   20477654.001
        53.0004         48.0004
 -10410914.47647  -8112286.01847  22795848.6074   22795856.5634   22795849.310
        46.0004         42.0004
  22982830.19947  17910177.17547  23230183.6284   23230191.7634   23230183.115
        47.0004         42.0004
  18398071.56048  14341900.91347  21447561.5244   21447564.8124   21447560.672
        51.0004         46.0004
   1340103.70749   1053714.37948  19989091.9884   19989097.1124   19989092.316
        54.0004         49.0004
   1954038.10749   1532470.51648  20100812.8094   20100817.3814   20100812.817
        54.0004         50.0004
 -13063747.57547 -10174054.73447  23069549.3424   23069553.9334   23069549.920
        46.0004         42.0004
  -7545309.51647  -5834382.60247  22813863.3904   22813867.0974   22813863.936
        47.0004         42.0004
  16552603.82046  12894538.13045  25080909.0524   25080912.7974   25080908.516
        39.0004         34.0004
 14  5  4  1 29 30.0000000  0 11G26G20G04G28G17G07G08G09G10G02G13
  -1465933.15947  -1053150.43746  24071033.3144   24071041.6434   24071032.727
        42.0004         38.0004
  -3119464.59746  -2430842.79545  24023956.6174   24023963.4674   24023953.814
        40.0004         35.0004
 -24436646.45248 -18992772.69748  20471357.0574   20471362.0084   20471356.637
        53.0004         48.0004
 -10469732.35647  -8158118.12847  22784655.5964   22784664.0294   22784656.973
        47.0004         42.0004
  23021873.46947  17940600.44647  23237613.2984   23237621.7014   23237613.166
        47.0004         43.0004
  18481229.57848  14406699.42847  21463385.2024   21463388.9884   21463384.654
        51.0004         46.0004
   1368802.75148   1076077.17348  19994553.7504   19994558.2714   19994553.813
        53.0004         49.0004
   1981470.89849   1553846.65948  20106032.9284   20106037.9974   20106032.850
        54.0004         49.0004
 -13133024.33547 -10228036.44947  23056367.0144   23056370.7044   23056367.264
        46.0004         42.0004
  -7619656.85047  -5892315.50347  22799715.9844   22799718.9474   22799716.486
        47.0004         42.0004
  16606879.22946  12936830.64645  25091236.6334   25091241.2754   25091237.554
        39.0004         34.0004
 14  5  4  1 30  0.0000000  0 11G26G20G04G28G17G07G08G09G10G02G13
  -1457377.16647  -1046483.26846  24072660.7644   24072669.9484   24072660.507
        43.0004         38.0004
  -3084605.24046  -2403679.73845  24030586.3924   24030595.8384   24030586.525
        40.0004         35.0004
 -24469199.06948 -19018138.38248  20465162.2184   20465167.4714   20465161.656
        53.0004         48.0004
 -10528588.45347  -8203980.00847  22773457.8354   22773463.2244   22773457.359
        47.0004         42.0004
  23060803.89447  17970935.78847  23245021.4314   23245029.5824   23245021.445
        47.0004         42.0004
  18564753.17748  14471782.81847  21479279.4524   21479283.0454   21479278.886
        51.0004         46.0004
   1398144.98548   1098941.26948  20000136.8284   20000142.0754   20000137.401
        53.0004         49.0004
   2009474.45049   1575667.54748  20111361.9014   20111366.6794   20111361.897
        54.0004         49.0004
 -13202397.68347 -10282093.41147  23043166.0414   23043169.6334   23043165.699
        46.0004         42.0004
  -7693673.47547  -5949990.72747  22785630.4074   22785633.2924   22785629.442
        47.0004         42.0004
  16660893.12546  12978919.39745  25101516.6194   25101519.3084   25101516.461
        39.0004         34.0004
 14  5  4  1 30 30.0000000  0 11G26G20G04G28G17G07G08G09G10G02G13
  -1448634.41247  -1039670.57546  24074324.2424   24074333.5324   24074324.087
        43.0004         38.0004
  -3049414.07746  -2376258.17545  24037284.6424   24037291.5334   24037283.951
        39.0004         35.0004
 -24501211.36148 -19043083.04848  20459070.7524   20459076.0884   20459070.577
        53.0004         48.0004
 -10587481.81247  -8249870.92647  22762250.2704   22762255.9594   22762249.882
        46.0004         42.0004
  23099618.20947  18001180.66647  23252407.3884   23252415.2874   23252407.651
        47.0004         42.0004
  18648638.28148  14537147.89447  21495241.8644   21495245.8484   21495241.510
        51.0004         46.0004
   1428127.84948   1122304.53448  20005842.5944   20005847.4664   20005842.976
        53.0004         49.0004
   2038045.95449   1597930.99548  20116798.9714   20116803.7604   20116798.754
        54.0004         49.0004
 -13271866.82747 -10336225.11647  23029945.4294   23029949.3744   23029945.955
        46.0004         42.0004
  -7767358.86547  -6007407.84847  22771609.5394   22771611.5564   22771609.364
        47.0004         42.0004
  16714643.84246  13020803.06345  25111744.1224   25111751.9434   25111744.912
        39.0004         34.0004
 14  5  4  1 31  0.0000000  0 11G26G20G04G28G17G07G08G09G10G02G13
  -1439704.48947  -1032712.04646  24076023.3724   24076033.2084   24076023.451
        43.0004         38.0004
  -3013887.93246  -2348575.53745  24044047.9954   24044054.1364   24044044.957
        40.0004         35.0004
 -24532679.29748 -19067603.53148  20453082.3084   20453087.7504   20453081.874
        53.0004         49.0004
 -10646407.45047  -8295786.98847  22751036.5924   22751042.7554   22751036.730
        47.0004         42.0004
  23138317.44947  18031335.87247  23259772.2754   23259780.6194   23259772.118
        47.0004         42.0004
  18732884.25648  14602794.16547  21511273.5144   21511277.3144   21511273.033
        51.0004         46.0004
   1458753.14748   1146168.67448  20011670.5134   20011675.0794   20011670.468
        53.0004         49.0004
   2067186.61049   1620637.95748  20122344.3284   20122349.2004   20122344.411
        54.0004         49.0004
 -13341426.95447 -10390427.86846  23016708.3124   23016711.7304   23016708.736
        45.0004         41.0004
  -7840708.52647  -6064563.35447  22757650.8754   22757654.2324   22757650.884
        47.0004         42.0004
  16768133.91546  13062483.61445  25121924.5154   25121925.4174   25121923.264
        39.0004         34.0004
 14  5  4  1 31 30.0000000  0 11G26G20G04G28G17G07G08G09G10G02G13
  -1430591.98047  -1025611.24446  24077757.2144   24077766.0064   24077757.814
        43.0004         38.0004
  -2978028.86246  -2320633.49345  24050869.2514   24050878.3624   24050867.771
        39.0004         35.0004
 -24563604.52548 -19091701.12748  20447197.8514   20447203.0634   20447197.409
        53.0004         49.0004
 -10705365.03547  -8341727.94947  22739818.2274   22739825.0074   22739817.825
        47.0004         42.0004
  23176897.53147  18061398.21647  23267114.8314   23267122.5354   23267113.159
        47.0004         43.0004
  18817486.10548  14668717.75747  21527372.1914   21527375.9284   21527372.139
        51.0004         46.0004
   1490016.28348   1170529.65948  20017619.2174   20017624.0314   20017619.508
        53.0004         49.0004
   2096892.32249   1643785.23848  20127997.0714   20128001.8444   20127996.996
        54.0004         49.0004
 -13411078.11447 -10444701.45647  23003454.7184   23003458.1104   23003455.418
        46.0004         42.0004
  -7913722.58347  -6121457.37647  22743756.4294   22743759.5334   22743756.391
        47.0004         42.0004
  16821360.44846  13103958.82745  25132053.1814   25132058.4614   25132052.305
        39.0004         34.0004
 14  5  4  1 32  0.0000000  0 11G26G20G04G28G17G07G08G09G10G02G13
  -1421296.59547  -1018367.93346  24079526.1954   24079535.5444   24079526.029
        43.0004         38.0004
  -2941833.76746  -2292429.62645  24057753.8204   24057762.4744   24057755.791
        40.0004         35.0004
 -24593983.89048 -19115373.38348  20441416.7994   20441421.9454   20441416.192
        53.0004         49.0004
 -10764349.51647  -8387689.86647  22728592.7964   22728599.8674   22728593.169
        47.0004         42.0004
  23215359.05847  18091368.18947  23274432.9974   23274441.0104   23274432.858
        47.0004         43.0004
  18902443.19348  14734918.14647  21543539.2274   21543543.5724   21543538.829
        50.0004         46.0004
   1521918.77748   1195388.91848  20023690.3044   20023694.7294   20023690.347
        53.0004         49.0004
   2127163.94949   1667373.51448  20133757.5274   20133762.3934   20133757.722
        54.0004         50.0004
 -13480816.11247 -10499042.75147  22990183.7964   22990187.0974   22990184.920
        46.0004         42.0004
  -7986397.01047  -6178086.73347  22729926.7704   22729929.9454   22729927.400
        47.0004         43.0004
  16874325.30946  13145230.13045  25142129.5084   25142135.6794   25142130.250
        38.0004         34.0004
 14  5  4  1 32 30.0000000  0 11G26G20G04G28G17G07G08G09G10G02G13
  -1411823.02847  -1010985.75746  24081328.7724   24081337.3064   24081329.559
        43.0004         38.0004
  -2905304.76746  -2263965.56445  24064704.5114   24064714.3054   24064706.531
        39.0004         35.0004
 -24623819.12948 -19138621.62648  20435739.3604   20435744.4274   20435738.966
        53.0004         49.0004
 -10823361.25447  -8433673.01647  22717363.4544   22717371.5184   22717363.316
        47.0004         42.0004
  23253697.99847  18121242.64047  23281728.6064   23281737.7354   23281728.315
        47.0004         43.0004
  18987750.01148  14801391.05947  21559772.6754   21559776.4704   21559772.362
        50.0004         46.0004
   1554456.50448   1220743.09848  20029881.5014   20029886.1374   20029881.830
        53.0004         49.0004
   2157997.53349   1691399.68048  20139625.1284   20139629.8454   20139625.028
        54.0004         50.0004
 -13550641.49547 -10553452.14146  22976896.3834   22976901.4294   22976896.638
        45.0004         40.0004
  -8058732.38247  -6234451.90647  22716162.6804   22716165.0114   22716161.417
        47.0004         42.0004
  16927025.98246  13186295.57245  25152160.1554   25152162.8624   25152159.745
        39.0004         34.0004
 14  5  4  1 33  0.0000000  0 11G26G20G04G28G17G07G08G09G10G02G13
  -1402172.99147  -1003466.08946  24083165.6954   24083172.8814   24083164.717
        43.0004         38.0004
  -2868441.29146  -2235240.88445  24071723.3854   24071731.4644   24071721.656
        39.0004         34.0004
 -24653108.84048 -19161444.79948  20430165.3614   20430170.5304   20430165.356
        53.0004         49.0004
 -10882397.12247  -8479674.98147  22706128.9324   22706136.5904   22706129.328
        47.0004         42.0004
  23291912.93247  18151020.46947  23288999.8834   23289008.9404   23289000.383
        47.0004         43.0004
  19073404.28648  14868134.73747  21576071.7994   21576075.2234   21576071.364
        50.0004         46.0004
   1587629.43448   1246592.56448  20036193.6354   20036198.5204   20036194.183
        53.0004         48.0004
   2189391.86749   1715862.81748  20145599.0314   20145604.1164   20145599.353
        54.0004         49.0004
 -13620551.00147 -10607926.79147  22963592.9994   22963597.6834   22963593.297
        47.0004         44.0004
  -8130726.55747  -6290551.20647  22702460.9314   22702466.1434   22702461.990
        47.0004         42.0004
  16979462.58946  13227155.25345  25162141.1974   25162144.4034   25162137.932
        38.0004         34.0004
 14  5  4  1 33 30.0000000  0 11G26G20G04G28G17G07G08G09G10G02G13
  -1392345.93347   -995808.46846  24085035.2574   24085042.9144   24085035.549
        43.0004         38.0004
  -2831239.53846  -2206252.62345  24078801.5454   24078811.7444   24078801.286
        39.0004         35.0004
 -24681849.58248 -19183840.19648  20424696.4484   20424701.8994   20424695.865
        53.0004         49.0004
 -10941451.48647  -8525691.35047  22694891.7164   22694899.6634   22694891.799
        47.0004         42.0004
  23330005.03147  18180702.56747  23296249.4054   23296258.2684   23296248.682
        47.0004         42.0004
  19159405.63148  14935148.86247  21592436.7954   21592441.2934   21592437.060
        50.0004         46.0004
   1621437.72248   1272936.78548  20042627.2254   20042631.8894   20042627.734
        53.0004         48.0004
   2221347.80949   1740763.53748  20151680.2124   20151685.0354   20151680.453
        54.0004         50.0004
 -13690540.57647 -10662463.97646  22950274.2814   22950278.3684   22950274.562
        46.0004         40.0004
  -8202374.59147  -6346380.79647  22688827.9844   22688831.5344   22688827.652
        47.0004         43.0004
                  13267811.14945                  25172074.0244   25172066.777
                        33.0004
 14  5  4  1 34  0.0000000  0 11G26G20G04G28G17G07G08G09G10G02G13
  -1382347.03347   -988016.95446  24086938.9374   24086946.7854   24086938.019
        43.0004         38.0004
  -2793702.24446  -2177002.86945  24085941.2004   24085953.6174   24085942.935
        39.0004         34.0004
 -24710043.40048 -19205809.41148  20419331.6134   20419336.4434   20419331.227
        53.0004         49.0004
 -11000525.18247  -8571722.78147  22683650.4774   22683657.2714   22683650.418
        47.0004         42.0004
  23367969.69247  18210285.36447  23303474.3174   23303482.1164   23303473.188
        47.0004         42.0004
  19245748.26948  15002428.91547  21608868.0664   21608871.1274   21608867.778
        50.0004         46.0004
   1655877.88248   1299773.63148  20049180.8014   20049185.1454   20049181.212
        53.0004         49.0004
   2253860.47649   1766098.08548  20157867.2484   20157872.1034   20157866.927
        54.0004         50.0004
 -13760611.01647 -10717064.16447  22936940.2034   22936943.8204   22936940.687
        47.0004         43.0004
  -8273678.08647  -6401941.91147  22675258.5574   22675261.2274   22675259.377
        47.0004         43.0004
  17083547.78246  13308260.58845  25181943.3324   25181951.7914   25181945.151
        38.0004         33.0004
 14  5  4  1 34 30.0000000  0 11G26G20G04G28G17G07G08G09G10G02G13
  -1372178.89747   -980093.55846  24088872.5504   24088881.8254   24088872.283
        43.0004         38.0004
  -2755829.71146  -2147491.89945  24093153.7844   24093161.7944   24093152.392
        39.0004         34.0004
 -24737690.27548 -19227352.45048  20414070.3234   20414075.1794   20414069.647
        53.0004         49.0004
 -11059615.97947  -8617767.53747  22672405.6934   22672412.2264   22672406.149
        47.0004         43.0004
  23405804.75947  18239767.17247  23310674.1224   23310682.6714   23310673.657
        47.0004         43.0004
  19332428.55948  15069972.07447  21625362.4894   21625366.0124   21625362.034
        50.0004         45.0004
   1690947.85948   1327101.46348  20055853.9964   20055858.4974   20055854.493
        53.0004         49.0004
   2286927.93149   1791864.91748  20164159.7714   20164164.5694   20164159.854
        54.0004         50.0004
 -13830761.48647 -10771727.10547  22923590.1384   22923595.0974   22923591.693
        46.0004         42.0004
  -8344635.54447  -6457233.38447  22661755.7804   22661758.9934   22661756.366
        47.0004         43.0004
  17135192.10946  13348502.90945  25191773.8404   25191778.1774   25191772.159
        38.0004         33.0004
 14  5  4  1 35  0.0000000  0 11G26G20G04G28G17G07G08G09G10G02G13
  -1361841.15247   -972038.00846  24090839.2734   24090848.2174   24090839.848
        43.0004         38.0004
  -2717618.80146  -2117717.25045  24100422.5764   24100427.9494   24100423.260
        39.0004         34.0004
 -24764786.86248 -19248466.69548  20408914.1324   20408919.2954   20408913.848
        53.0004         48.0004
 -11118718.53647  -8663821.46747  22661158.6864   22661166.2504   22661159.037
        47.0004         42.0004
  23443511.27247  18269148.82547  23317849.5634   23317856.9274   23317848.801
        47.0004         43.0004
  19419446.22748  15137778.08347  21641921.0494   21641925.4174   21641921.177
        50.0004         46.0004
   1726647.73848   1354919.86648  20062647.0874   20062651.5964   20062647.393
        53.0004         48.0004
   2320550.82449   1818064.54748  20170557.8994   20170562.5514   20170558.092
        54.0004         50.0004
 -13900986.07447 -10826447.66547  22910227.6624   22910232.0384   22910227.786
        47.0004         43.0004
  -8415242.41947  -6512251.67647  22648319.1074   22648323.4614   22648319.999
        47.0004         43.0004
                  13388539.96545                  25201553.5984   25201549.622
                        33.0004
 14  5  4  1 35 30.0000000  0 10G26G04G28G17G07G08G09G10G02G13
  -1351324.10647   -963842.72646  24092842.4464   24092850.5104   24092840.419
        43.0004         38.0004
 -24791320.54248 -19269142.30948  20403864.8034   20403870.4174   20403864.135
        53.0004         48.0004
 -11177818.40147  -8709873.29147  22649911.3084   22649919.5234   22649912.548
        47.0004         42.0004
  23481099.62647  18298438.39047  23325001.6924   23325010.5554   23325001.669
        47.0004         43.0004
  19506810.40448  15205854.10847  21658546.4664   21658549.1414   21658546.166
        50.0004         45.0004
   1762988.18748   1383237.31048  20069562.1084   20069566.4944   20069562.702
        53.0004         49.0004
   2354739.38649   1844704.96148  20177063.9134   20177068.7544   20177063.837
        54.0004         49.0004
 -13971271.10647 -10881215.23347  22896853.9344   22896857.3044   22896853.997
        46.0004         42.0004
  -8485485.03347  -6566986.13447  22634953.1594   22634955.7974   22634953.367
        47.0004         43.0004
                  13428381.06745                  25211285.9194   25211278.084
                        32.0004
 14  5  4  1 36  0.0000000  0 10G26G04G28G17G07G08G09G10G02G13
  -1340656.57247   -955530.19746  24094871.8404   24094878.8334   24094871.131
        42.0004         38.0004
 -24817317.37348 -19289399.60548  20398917.8104   20398923.4724   20398917.433
        53.0004         48.0004
 -11236939.89747  -8755941.96447  22638661.3964   22638668.4414   22638662.161
        47.0004         42.0004
  23518541.44847  18327613.79247  23332126.4654   23332134.7004   23332126.515
        47.0004         42.0004
  19594491.16148  15274176.80147  21675231.5554   21675234.4814   21675230.605
        50.0004         45.0004
   1799941.59148   1412032.62448  20076594.1304   20076598.2014   20076594.558
        53.0004         49.0004
   2389465.04649   1871763.89048  20183672.0044   20183676.7704   20183671.917
        54.0004         49.0004
 -14041641.08947 -10936048.98447  22883461.4444   22883465.5264   22883462.628
        47.0004         43.0004
  -8555388.28647  -6621456.15247  22621650.8104   22621654.1734   22621650.909
        47.0004         43.0004
  17288553.42446  13468005.20745  25220955.4714   25220963.8654   25220955.864
        37.0004         33.0004
 14  5  4  1 36 30.0000000  0 10G26G04G28G17G07G08G09G10G02G13
  -1329827.87947   -947092.09246  24096929.7994   24096939.4394   24096930.626
        42.0004         38.0004
 -24842763.92348 -19309228.09348  20394075.5104   20394080.8944   20394075.295
        53.0004         48.0004
 -11296067.44547  -8802015.36147  22627409.3564   22627416.5804   22627410.474
        47.0004         42.0004
  23555847.93247  18356683.72647  23339227.0154   23339235.1454   23339225.752
        47.0004         42.0004
  19682498.56148  15342754.02147  21691978.5214   21691981.8514   21691978.604
        50.0004         46.0004
   1837518.82848   1441313.92848  20083744.4494   20083748.6584   20083744.648
        53.0004         49.0004
   2424739.18249   1899250.18148  20190384.5014   20190389.1344   20190384.459
        54.0004         49.0004
 -14112081.08447 -10990937.22546  22870055.8444   22870062.1404   22870058.325
        47.0004         41.0004
  -8624937.51947  -6675650.31947  22608416.6144   22608419.5534   22608416.247
        47.0004         42.0004
                  13507422.20745                  25230592.1764   25230582.868
                        33.0004
 14  5  4  1 37  0.0000000  0 10G26G04G28G17G07G08G09G10G02G13
  -1318840.65547   -938530.44846  24099022.3404   24099030.2844   24099022.236
        43.0004         38.0004
 -24867659.78248 -19328627.46348  20389338.2014   20389343.5864   20389337.420
        53.0004         49.0004
 -11355198.50247  -8848091.51147  22616157.3494   22616166.0354   22616158.057
        47.0004         42.0004
  23593017.23047  18385646.75447  23346298.6964   23346307.6624   23346299.185
        47.0004         42.0004
  19770828.96448  15411582.87947  21708787.9264   21708790.5284   21708787.146
        50.0004         45.0004
   1875717.77348   1471079.52548  20091013.4554   20091017.4684   20091013.742
        53.0004         49.0004
   2460559.58249   1927162.18148  20197201.0334   20197205.5584   20197200.863
        54.0004         49.0004
 -14182589.70447 -11045879.21147  22856641.4654   22856645.0284   22856641.627
        47.0004         43.0004
  -8694131.49747  -6729567.66347  22595248.8664   22595251.4604   22595248.698
        47.0004         43.0004
  17389457.36246  13546631.66645  25240156.2184   25240165.2484   25240156.569
        37.0004         33.0004
 14  5  4  1 37 30.0000000  0 10G26G04G28G17G07G08G09G10G02G13
  -1307695.54447   -929845.77546  24101141.9374   24101150.2644   24101142.429
        43.0004         38.0004
 -24892002.80348 -19347596.05948  20384706.0614   20384710.7984   20384705.554
        53.0004         49.0004
 -11414328.90147  -8894167.13147  22604905.3184   22604911.8814   22604906.153
        47.0004         43.0004
  23630049.07647  18414502.67347  23353346.1354   23353355.0674   23353345.576
        47.0004         42.0004
  19859481.04048  15480662.45147  21725657.6704   21725659.8684   21725656.963
        50.0004         46.0004
   1914537.76148   1501328.80648  20098400.6944   20098405.0034   20098401.129
        53.0004         50.0004
   2496925.48149   1955499.22848  20204120.9684   20204125.8154   20204120.720
        54.0004         49.0004
 -14253162.30447 -11100870.80747  22843211.2044   22843215.4984   22843211.194
        47.0004         44.0004
  -8762966.71247  -6783205.45747  22582149.4704   22582153.3804   22582150.138
        47.0004         43.0004
  17439510.95146  13585634.44545  25249680.3564   25249692.3544   25249681.521
        37.0004         32.0004
 14  5  4  1 38  0.0000000  0 10G26G04G28G17G07G08G09G10G02G13
  -1296396.17147   -921040.89746  24103292.0044   24103301.0944   24103292.742
        43.0004         38.0004
 -24915793.97348 -19366134.64748  20380178.0574   20380183.4524   20380177.615
        53.0004         49.0004
 -11473457.78447  -8940241.56947  22593654.9904   22593661.9814   22593654.182
        47.0004         43.0004
  23666940.87747  18443249.47147  23360366.6624   23360374.9084   23360366.146
        47.0004         42.0004
  19948450.76448  15549989.48647  21742587.6054   21742591.4304   21742587.615
        50.0004         46.0004
   1953975.76348   1532059.47348  20105905.7934   20105910.1134   20105905.690
        53.0004         48.0004
   2533833.89049   1984258.96848  20211144.2524   20211149.3874   20211144.329
        54.0004         50.0004
 -14323799.00247 -11155912.64846  22829768.8284   22829774.7204   22829770.234
        47.0004         41.0004
  -8831443.05847  -6836563.60747  22569118.7604   22569123.3984   22569118.438
        47.0004         43.0004
                                                                  25259155.192

 14  5  4  1 38 30.0000000  0 10G26G04G28G17G07G08G09G10G02G13
  -1284942.66547   -912115.90446  24105471.3774   24105480.2354   24105471.394
        43.0004         38.0004
 -24939030.79348 -19384241.27648  20375756.3794   20375761.9884   20375756.245
        53.0004         49.0004
 -11532580.15647  -8986310.94247  22582404.1914   22582411.0054   22582403.593
        47.0004         43.0004
  23703693.03647  18471887.46747  23367360.2364   23367368.3884   23367360.059
        47.0004         42.0004
  20037736.91948  15619563.06147  21759578.4064   21759581.9514   21759577.589
        50.0004         45.0004
   1994032.76648   1563272.56548  20113528.3314   20113532.6154   20113528.910
        53.0004         49.0004
   2571284.97649   2013441.56948  20218271.1854   20218276.0734   20218271.167
        54.0004         49.0004
 -14394494.85647 -11211000.47347  22816315.6214   22816320.4054   22816316.604
        47.0004         43.0004
  -8899556.42747  -6889638.91847  22556157.4834   22556161.4034   22556158.307
        47.0004         43.0004
  17538820.33346  13663018.37545  25268581.8144   25268584.3484   25268579.739
        37.0004         33.0004
 14  5  4  1 39  0.0000000  0 10G26G04G28G17G07G08G09G10G02G13
  -1273340.23447   -903074.87146  24107680.2614   24107687.7024   24107679.814
        43.0004         38.0004
 -24961715.61348 -19401917.78648  20371440.0914   20371445.0584   20371439.324
        53.0004         49.0004
 -11591696.59247  -9032375.67647  22571153.3984   22571160.4564   22571153.939
        47.0004         43.0004
  23740301.15347  18500413.21047  23374326.3094   23374334.6774   23374326.504
        47.0004         42.0004
  20127333.60948  15689378.64047  21776627.5224   21776631.4134   21776627.464
        50.0004         45.0004
   2034703.57648   1594963.73848  20121268.2524   20121272.5574   20121267.997
        53.0004         48.0004
   2609273.88049   2043043.26248  20225500.3124   20225505.3174   20225500.317
        54.0004         49.0004
 -14465250.95147 -11266135.24446  22802852.4824   22802856.1244   22802853.109
        47.0004         41.0004
  -8967308.27647  -6942432.52247  22543265.4954   22543268.1014   22543265.223
        47.0004         43.0004
                  13701398.44355                  25277961.1835   25277952.834
                        32.0004
 14  5  4  1 39 30.0000000  0 10G26G04G28G17G07G08G09G10G02G13
  -1261588.40947   -893917.43846  24109915.9574   24109924.1924   24109915.455
        43.0004         38.0004
 -24983845.10048 -19419161.56448  20367228.4444   20367234.1744   20367228.099
        53.0004         49.0004
 -11650801.70147  -9078431.58847  22559905.6594   22559913.8054   22559906.802
        47.0004         43.0004
  23776766.08847  18528827.37647  23381265.3444   23381274.5164   23381265.053
        47.0004         42.0004
  20217240.32048  15759435.78747  21793737.1944   21793740.2834   21793736.354
        50.0004         45.0004
   2075990.15848   1627134.96248  20129124.5154   20129129.0984   20129125.045
        53.0004         49.0004
   2647801.24449   2073064.56248  20232831.8934   20232836.7094   20232831.814
        54.0004         49.0004
 -14536062.22647 -11321312.88147  22789377.3464   22789381.9704   22789378.314
        47.0004         43.0004
  -9034694.07448  -6994940.90647  22530440.9344   22530444.8474   22530441.960
        48.0004         43.0004
                  13739571.82945                  25287278.3624   25287274.097
                        32.0004
 14  5  4  1 40  0.0000000  0 10G26G04G28G17G07G08G09G10G02G13
  -1249692.45947   -884647.68046  24112179.8474   24112187.6864   24112178.723
        43.0004         38.0004
 -25005422.18148 -19435974.90748  20363122.7404   20363127.7914   20363122.492
        53.0004         49.0004
 -11709895.49148  -9124478.67947  22548661.4704   22548667.6314   22548661.558
        48.0004         43.0004
  23813083.26347  18557126.40847  23388177.3944   23388185.1654   23388176.667
        47.0004         42.0004
  20307451.44048  15829730.16047  21810903.0974   21810907.3284   21810902.384
        50.0004         44.0004
   2117887.74548   1659782.64848  20137097.2104   20137101.3844   20137097.752
        53.0004         49.0004
   2686861.89049   2103501.37948  20240265.0694   20240270.0444   20240264.880
        54.0004         50.0004
 -14606929.34647 -11376533.99046  22775891.9444   22775896.0154   22775892.163
        47.0004         41.0004
  -9101715.31748  -7047165.21447  22517687.3444   22517691.1684   22517688.547
        48.0004         43.0004
                  13777536.06645                  25296554.2954   25296545.943
                        32.0004
 14  5  4  1 40 30.0000000  0 10G26G04G28G17G07G08G09G10G02G13
  -1237652.21847   -875265.49646  24114471.4524   24114478.1154   24114470.636
        42.0004         38.0004
 -25026444.11948 -19452355.68648  20359122.0784   20359127.6134   20359121.841
        53.0004         49.0004
 -11768973.17948  -9170513.22847  22537419.7394   22537426.1494   22537419.553
        48.0004         43.0004
  23849253.88647  18585311.24647  23395059.9184   23395068.0834   23395059.613
        47.0004         42.0004
  20397965.94848  15900260.92647  21828127.3854   21828130.7284   21828127.367
        50.0004         45.0004
   2160395.33648   1692905.22147  20145186.3694   20145190.8994   20145186.673
        53.0004         47.0004
   2726456.54849   2134354.34548  20247799.5254   20247804.4614   20247799.713
        54.0004         49.0004
 -14677847.59347 -11431794.78047  22762396.3504   22762400.2564   22762396.988
        47.0004         44.0004
  -9168368.00348  -7099102.33747  22505004.8114   22505006.3884   22505004.875
        48.0004         43.0004
  17734239.37756  13815292.87355  25305768.6135   25305773.1785   25305767.319
        37.0004         32.0004
 14  5  4  1 41  0.0000000  0 10G26G04G28G17G07G08G09G10G02G13
  -1225470.23347   -865772.86446  24116788.6524   24116796.1874   24116788.051
        42.0004         38.0004
 -25046910.73348 -19468303.74848  20355227.9814   20355233.0894   20355227.673
        53.0004         49.0004
 -11828032.52548  -9216533.48947  22526180.5384   22526187.3994   22526181.065
        48.0004         43.0004
  23885275.93547  18613380.32847  23401914.9794   23401923.0054   23401914.342
        47.0004         42.0004
  20488780.49148  15971025.48847  21845409.4254   21845412.1044   21845408.676
        50.0004         45.0004
   2203511.02148   1726501.39748  20153391.3604   20153395.7944   20153391.675
        53.0004         48.0004
   2766582.41049   2165621.23148  20255435.2894   20255440.4764   20255435.162
        54.0004         49.0004
 -14748816.00147 -11487094.90947  22748891.3484   22748895.6764   22748891.708
        47.0004         42.0004
  -9234650.75948  -7150751.20647  22492391.1114   22492393.8074   22492391.967
        48.0004         43.0004
  17782427.20846  13852841.80245  25314936.9844   25314940.1484   25314937.401
        37.0004         33.0004
 14  5  4  1 41 30.0000000  0 10G26G04G28G17G07G08G09G10G02G13
  -1213148.75847   -856171.53646  24119132.0084   24119141.0044   24119132.675
        42.0004         38.0004
 -25066821.38648 -19483818.56748  20351438.9114   20351444.4244   20351438.467
        53.0004         49.0004
 -11887070.62048  -9262537.19247  22514946.4454   22514952.8864   22514946.288
        48.0004         43.0004
  23921147.99947  18641332.54947  23408739.8804   23408749.4484   23408740.681
        47.0004         42.0004
  20579892.16148  16042021.61247  21862747.1194   21862750.2674   21862746.637
        49.0004         45.0004
   2247233.22148   1760570.23648  20161711.6434   20161716.5244   20161712.124
        53.0004         50.0004
   2807237.73649   2197300.67048  20263171.8104   20263176.5594   20263171.736
        54.0004         49.0004
 -14819830.97847 -11542431.00447  22735378.6864   22735382.0034   22735378.761
        47.0004         44.0004
  -9300561.97248  -7202110.55847  22479848.9424   22479852.4604   22479849.071
        48.0004         44.0004
  17830348.27346  13890182.86445  25324058.1664   25324061.1364   25324055.821
        37.0004         33.0004
 14  5  4  1 42  0.0000000  0 10G26G04G28G17G07G08G09G10G02G13
  -1200690.16247   -846463.36646  24121503.4684   24121512.3334   24121502.897
        42.0004         38.0004
 -25086176.26548 -19498900.34948  20347755.7014   20347761.5754   20347755.555
        53.0004         49.0004
 -11946085.17248  -9308522.53847  22503715.4804   22503722.1894   22503716.019
        48.0004         43.0004
  23956868.58947  18669166.73147  23415538.4344   23415547.8434   23415538.657
        47.0004         42.0004
  20671297.84348  16113246.86547  21880141.1614   21880143.6394   21880140.758
        50.0004         44.0004
   2291560.78948   1795111.07748  20170147.1814   20170151.6794   20170147.614
        53.0004         49.0004
   2848420.29449   2229390.95548  20271008.4994   20271013.1114   20271008.588
        54.0004         49.0004
 -14890890.98447 -11597802.21347  22721855.1154   22721859.6704   22721855.569
        47.0004         43.0004
  -9366099.94648  -7253179.07547  22467378.0754   22467381.1324   22467377.971
        48.0004         44.0004
                  13927316.19345                  25333129.0004   25333124.126
                        33.0004
 14  5  4  1 42 30.0000000  0 10G26G04G28G17G07G08G09G10G02G13
  -1188098.59547   -836651.57246  24123900.2804   24123907.1814   24123900.298
        42.0004         38.0004
 -25104976.79648 -19513550.17248  20344178.7854   20344183.6594   20344178.165
        53.0004         49.0004
 -12005075.26648  -9354488.83047  22492490.4064   22492496.3414   22492490.642
        48.0004         43.0004
  23992434.04847  18696880.03947  23422306.8014   23422314.9404   23422305.736
        47.0004         42.0004
  20762992.54948  16184697.28847  21897590.6124   21897593.6754   21897589.128
        49.0004         45.0004
   2336489.10148   1830120.09448  20178696.6204   20178701.5064   20178697.262
        53.0004         48.0004
   2890125.96749   2261888.87148  20278944.8744   20278949.4694   20278944.757
        54.0004         49.0004
 -14961996.21947 -11653208.80247  22708323.9114   22708328.9064   22708324.687
        47.0004         44.0004
  -9431265.24148  -7303957.19747  22454976.8064   22454979.7094   22454977.078
        48.0004         43.0004
  17925388.37446  13964240.05745  25342143.3254   25342146.3654   25342141.887
        38.0004         33.0004
 14  5  4  1 43  0.0000000  0 10G26G04G28G17G07G08G09G10G02G13
  -1175373.54047   -826735.75846  24126321.7924   24126326.3964   24126320.119
        42.0004         38.0004
 -25123219.92548 -19527765.65848  20340706.8854   20340712.4374   20340706.589
        53.0004         49.0004
 -12064034.92648  -9400431.40447  22481271.6154   22481277.1644   22481271.057
        48.0004         43.0004
  24027846.03847  18724473.76347  23429044.5234   23429053.2604   23429044.563
        47.0004         42.0004
  20854975.92848  16256372.69247  21915093.7134   21915097.4744   21915093.229
        50.0004         44.0004
   2382019.44048   1865598.43848  20187360.6164   20187365.8504   20187361.065
        53.0004         48.0004
   2932355.62349   2294795.11648  20286981.0634   20286986.0064   20286980.850
        54.0004         49.0004
 -15033141.52447 -11708646.76847  22694785.1704   22694790.6144   22694786.264
        47.0004         44.0004
  -9496053.37148  -7354441.42747  22442647.5484   22442651.2004   22442647.957
        48.0004         44.0004
  17972507.85346  14000956.54845  25351108.1484   25351116.1054   25351108.480
        38.0004         34.0004
 14  5  4  1 43 30.0000000  0 10G26G04G28G17G07G08G09G10G02G13
  -1162518.05747   -816718.31746  24128768.5164   24128774.2024   24128768.324
        42.0004         38.0004
 -25140906.07348 -19541547.12948  20337341.3074   20337346.7174   20337340.777
        53.0004         49.0004
 -12122962.61848  -9446349.07947  22470058.5124   22470065.0784   22470057.464
        48.0004         43.0004
  24063101.94247  18751945.87047  23435754.5954   23435762.1024   23435753.596
        46.0004         42.0004
  20947244.19448  16328270.03147  21932652.1944   21932656.2444   21932651.015
        49.0004         44.0004
   2428148.65848   1901543.50548  20196138.5624   20196143.4144   20196138.929
        53.0004         48.0004
   2975106.01349   2328107.12348  20295116.0894   20295120.8074   20295116.010
        54.0004         49.0004
 -15104325.04147 -11764114.54647  22681239.1104   22681244.8354   22681240.601
        47.0004         43.0004
  -9560463.57848  -7404631.17447  22430391.3404   22430394.4384   22430391.405
        48.0004         43.0004
  18019360.30546  14037464.93745  25360021.8624   25360026.1294   25360023.599
        38.0004         33.0004
 14  5  4  1 44  0.0000000  0 10G26G04G28G17G07G08G09G10G02G13
  -1149536.28547   -806602.48146  24131237.6554   24131245.2644   24131237.338
        42.0004         38.0004
 -25158037.25548 -19554896.16848  20334081.7024   20334086.6654   20334081.272
        53.0004         49.0004
 -12181857.50148  -9492241.16947  22458850.6714   22458856.7674   22458849.910
        48.0004         43.0004
  24098198.61247  18779293.89447  23442432.5904   23442440.7814   23442432.172
        46.0004         42.0004
  21039792.51748  16400385.59347  21950262.3664   21950267.4514   21950262.449
        49.0004         44.0004
   2474872.64448   1937952.00048  20205029.6244   20205034.2534   20205029.843
        53.0004         49.0004
   3018373.19249   2361821.83448  20303349.5364   20303354.2924   20303349.596
        54.0004         49.0004
 -15175545.76047 -11819610.94747  22667687.3234   22667691.6834   22667687.457
        47.0004         43.0004
  -9624496.48348  -7454526.91347  22418206.6634   22418208.2774   22418206.787
        48.0004         44.0004
  18065943.89446  14073763.79045  25368888.3464   25368895.9384   25368888.634
        38.0004         34.0004
 14  5  4  1 44 30.0000000  0 10G26G04G28G17G07G08G09G10G02G13
  -1136429.70947   -796389.38546  24133731.4974   24133738.4144   24133730.851
        43.0004         38.0004
 -25174612.30948 -19567811.87348  20330927.5954   20330932.9674   20330926.969
        53.0004         49.0004
 -12240716.19948  -9538105.05847  22447648.4864   22447655.9124   22447649.426
        48.0004         43.0004
  24133135.64047  18806517.52647  23449081.5524   23449089.1944   23449080.451
        46.0004         42.0004
  21132618.58548  16472717.58047  21967927.1114   21967930.8564   21967927.522
        49.0004         44.0004
   2522189.70248   1974822.45347  20214034.1964   20214038.2384   20214034.026
        53.0004         47.0004
   3062155.92449   2395938.34348  20311681.0284   20311685.9014   20311681.108
        54.0004         49.0004
 -15246801.72547 -11875135.12146  22654126.6864   22654131.5284   22654128.195
        47.0004         41.0004
  -9688149.26048  -7504126.45247  22406093.2304   22406096.7794   22406093.432
        48.0004         44.0004
  18112259.28946  14109853.70645  25377701.6364   25377707.3074   25377702.070
        38.0004         33.0004
 14  5  4  1 45  0.0000000  0 10G26G04G28G17G07G08G09G10G02G13
  -1123197.71647   -786078.56146  24136250.6564   24136256.9474   24136249.095
        43.0004         38.0004
 -25190628.24748 -19580291.87648  20327879.5184   20327885.1374   20327879.226
        53.0004         49.0004
 -12299532.94047  -9583936.27147  22436457.4424   22436462.8874   22436456.745
        47.0004         43.0004
  24167913.81147  18833617.37647  23455699.4204   23455707.5544   23455699.316
        47.0004         42.0004
  21225722.03948  16545265.75747  21985644.9554   21985647.4144   21985643.790
        49.0004         44.0004
   2570100.78848   2012155.75048  20223151.0594   20223155.6444   20223151.401
        53.0004         48.0004
   3106454.85349   2430457.22848  20320110.7144   20320115.2844   20320110.645
        54.0004         49.0004
 -15318086.74747 -11930681.72147  22640561.7394   22640566.2104   22640562.573
        47.0004         44.0004
  -9751417.78148  -7553426.57247  22394054.0774   22394056.8844   22394053.497
        48.0004         44.0004
  18158309.23446  14145736.72745  25386466.2904   25386470.4014   25386466.199
        38.0004         34.0004
 14  5  4  1 45 30.0000000  0 10G26G04G28G17G07G08G09G10G02G13
  -1109847.01947   -775675.25546  24138789.7194   24138797.2834   24138789.495
        43.0004         38.0004
 -25206089.30748 -19592339.52648  20324937.7484   20324943.1884   20324937.459
        53.0004         49.0004
 -12358309.40447  -9629736.07847  22425271.3664   22425279.1494   22425271.861
        47.0004         43.0004
  24202527.65247  18860589.17847  23462286.2814   23462294.7374   23462285.860
        47.0004         42.0004
  21319095.54148  16618024.35147  22003412.6254   22003415.7704   22003411.825
        49.0004         44.0004
   2618599.52748   2049946.96248  20232380.2504   20232384.6274   20232380.464
        53.0004         50.0004
   3151263.10949   2465372.94148  20328637.1414   20328641.9204   20328637.215
        54.0004         49.0004
 -15389403.35647 -11986252.90847  22626991.0684   22626994.4694   22626991.170
        47.0004         43.0004
  -9814305.02248  -7602429.59047  22382086.1934   22382089.7364   22382087.540
        49.0004         44.0004
  18204089.55446  14181409.72945  25395175.0394   25395180.5114   25395176.224
        39.0004         34.0004
 14  5  4  1 46  0.0000000  0 10G26G04G28G17G07G08G09G10G02G13
  -1096375.51447   -765177.80146  24141353.3974   24141359.8614   24141352.857
        43.0004         38.0004
 -25220990.87848 -19603951.19748  20322101.4714   20322107.4174   20322101.146
        53.0004         49.0004
 -12417038.68047  -9675499.12847  22414096.5144   22414102.9264   22414096.533
        47.0004         43.0004
  24236980.35947  18887435.42847  23468842.5174   23468849.9794   23468841.973
        47.0004         42.0004
  21412740.30848  16690994.35547  22021233.0924   22021236.4164   22021232.091
        49.0004         44.0004
   2667687.44148   2088196.96247  20241721.2544   20241726.0114   20241721.869
        53.0004         46.0004
   3196582.68549   2500686.93448  20337261.2434   20337265.8914   20337261.227
        54.0004         49.0004
 -15460745.04948 -12041843.72647  22613415.3804   22613418.9634   22613415.927
        48.0004         44.0004
  -9876804.89548  -7651130.76647  22370193.2314   22370195.6944   22370193.144
        49.0004         44.0004
  18249604.54056  14216875.90555  25403840.9075   25403843.8455   25403838.085
        39.0004         34.0004
 14  5  4  1 46 30.0000000  0 10G26G04G28G17G07G08G09G10G02G13
  -1082788.47647   -754590.32546  24143937.3324   24143946.3124   24143938.634
        43.0004         38.0004
 -25235336.06848 -19615129.32348  20319372.1304   20319377.6264   20319372.060
        53.0004         49.0004
 -12475721.08747  -9721225.63547  22402929.6994   22402935.7654   22402929.546
        47.0004         43.0004
  24271267.42747  18914152.59047  23475366.7804   23475374.7564   23475366.394
        47.0004         42.0004
  21506650.20048  16764170.90047  22039102.6924   22039106.2114   22039102.842
        49.0004         44.0004
   2717361.39648   2126904.18248  20251174.0944   20251178.3394   20251174.231
        53.0004         49.0004
   3242408.41149   2536395.29948  20345981.3014   20345986.2544   20345981.544
        54.0004         50.0004
 -15532112.35048 -12097454.45247  22599833.7614   22599838.3824   22599834.615
        48.0004         44.0004
  -9938919.26648  -7699531.55647  22358372.4804   22358376.0464   22358373.699
        49.0004         44.0004
  18294851.08246  14252132.91145  25412448.9804   25412455.1284   25412447.853
        38.0004         33.0004
 14  5  4  1 47  0.0000000  0 10G26G04G28G17G07G08G09G10G02G13
  -1069086.39847   -743913.21746  24146544.9594   24146553.1934   24146545.243
        42.0004         38.0004
 -25249123.11248 -19625872.54548  20316748.7844   20316754.1984   20316748.226
        53.0004         49.0004
 -12534351.54947  -9766911.67847  22391772.1824   22391777.5134   22391772.041
        47.0004         43.0004
  24305389.13447  18940740.91147  23481860.1184   23481868.3844   23481859.855
        47.0004         43.0004
  21600824.02848  16837553.13547  22057023.8604   22057027.4984   22057023.027
        49.0004         43.0004
   2767619.14748   2166066.05648  20260737.6954   20260742.3834   20260738.056
        53.0004         48.0004
   3288739.67849   2572497.50648  20354798.2344   20354803.1884   20354798.062
        54.0004         49.0004
 -15603501.21947 -12153081.97747  22586248.0544   22586252.0764   22586249.286
        47.0004         43.0004
 -10000644.71848  -7747629.28647  22346627.5744   22346630.8394   22346627.777
        49.0004         44.0004
  18339831.38846  14287182.46245  25421010.0034   25421012.1904   25421008.237
        38.0004         34.0004
 14  5  4  1 47 30.0000000  0 10G26G04G28G17G07G08G09G10G02G13
  -1055272.72047   -733149.13946  24149174.2014   24149180.7124   24149174.108
        42.0004         38.0004
 -25262353.05548 -19636181.64348  20314230.9304   20314236.6454   20314230.611
        53.0004         49.0004
 -12592928.98247  -9812556.39947  22380625.7144   22380632.5874   22380625.163
        47.0004         43.0004
  24339342.95447  18967198.42147  23488320.7674   23488330.1944   23488321.029
        47.0004         43.0004
  21695257.11948  16911137.38047  22074994.2394   22074998.1364   22074993.535
        49.0004         43.0004
   2818457.84348   2205680.73448  20270411.8464   20270416.2774   20270412.330
        53.0004         49.0004
   3335573.10449   2608991.01348  20363710.3784   20363715.1474   20363710.407
        54.0004         49.0004
 -15674910.60048 -12208725.52647  22572660.1344   22572663.8554   22572660.937
        48.0004         43.0004
 -10061981.19448  -7795423.92247  22334955.6834   22334958.8274   22334955.265
        49.0004         44.0004
  18384543.84946  14322023.28545  25429514.5784   25429521.7454   25429515.865
        40.0004         35.0004
 14  5  4  1 48  0.0000000  0 10G26G04G28G17G07G08G09G10G02G13
  -1041350.82147   -722300.74146  24151823.8054   24151831.1904   24151822.805
        42.0004         38.0004
 -25275027.21648 -19646057.66748  20311819.4174   20311824.6944   20311819.000
        53.0004         49.0004
 -12651451.60148  -9858158.41047  22369489.8154   22369495.9594   22369488.903
        48.0004         43.0004
  24373126.81647  18993523.48847  23494750.1274   23494759.0954   23494749.607
        47.0004         42.0004
  21789946.37548  16984921.26347  22093012.0674   22093015.7854   22093011.662
        49.0004         44.0004
   2869874.34248   2245745.78148  20280195.9254   20280200.3544   20280196.202
        53.0004         48.0004
   3382905.48949   2645873.36048  20372717.3324   20372722.2214   20372717.074
        54.0004         49.0004
 -15746338.71148 -12264383.58747  22559067.7054   22559072.4314   22559068.757
        48.0004         42.0004
 -10122927.98748  -7842914.90447  22323357.6904   22323360.2694   22323357.743
        49.0004         44.0004
  18428987.63046  14356654.75945  25437973.4944   25437980.6014   25437973.025
        39.0004         34.0004
 14  5  4  1 48 30.0000000  0 10G26G04G28G17G07G08G09G10G02G13
  -1027320.65647   -711367.97746  24154493.7424   24154501.4414   24154493.438
        43.0004         38.0004
 -25287143.02848 -19655498.61348  20309513.8964   20309519.6964   20309513.352
        53.0004         49.0004
 -12709914.08948  -9903713.53347  22358364.2464   22358371.3244   22358363.479
        48.0004         43.0004
  24406741.41447  19019716.64747  23501146.6264   23501154.7574   23501146.205
        47.0004         42.0004
  21884890.21348  17058903.48947  22111079.7864   22111083.8634   22111078.949
        49.0004         44.0004
   2921868.28748   2286260.81848  20290089.9934   20290093.7324   20290090.303
        53.0004         48.0004
   3430736.60849   2683144.36648  20381819.5244   20381823.9374   20381819.332
        54.0004         49.0004
 -15817781.75548 -12320053.61447  22545472.7194   22545477.4314   22545472.827
        48.0004         44.0004
 -10183481.56548  -7890099.49947  22311835.4094   22311837.5094   22311834.753
        49.0004         44.0004
  18473164.94246  14391078.55845  25446380.1764   25446385.1284   25446380.626
        39.0004         35.0004
 14  5  4  1 49  0.0000000  0 10G26G04G28G17G07G08G09G10G02G13
  -1013185.72147   -700353.56946  24157182.2834   24157189.4954   24157182.026
        43.0004         38.0004
 -25298701.83148 -19664505.51848  20307314.3964   20307319.7114   20307313.841
        53.0004         49.0004
 -12768314.91148  -9949220.55747  22347250.0404   22347257.2784   22347250.102
        48.0004         43.0004
  24440184.11347  19045775.86447  23507510.3724   23507519.0444   23507510.005
        47.0004         42.0004
  21980084.38648  17133080.79347  22129194.3774   22129197.9444   22129194.043
        49.0004         44.0004
   2974435.64348   2327222.32048  20300093.1574   20300097.1664   20300093.671
        53.0004         49.0004
   3479062.92649   2720801.16248  20391015.7664   20391020.4074   20391015.601
        54.0004         49.0004
 -15889237.77248 -12375733.77047  22531875.1914   22531879.0794   22531875.521
        48.0004         42.0004
 -10243641.60648  -7936977.42747  22300386.7904   22300390.1714   22300387.122
        49.0004         44.0004
  18517074.84646  14425294.01745  25454735.9454   25454741.7134   25454737.019
        40.0004         35.0004
 14  5  4  1 49 30.0000000  0 10G26G04G28G17G07G08G09G10G02G13
   -998947.99847   -689259.05746  24159892.1524   24159899.0114   24159892.489
        43.0004         38.0004
 -25309703.34048 -19673078.17048  20305220.3524   20305226.2464   20305220.049
        53.0004         49.0004
 -12826651.09148  -9994677.16447  22336148.9674   22336155.9924   22336149.436
        48.0004         43.0004
  24473454.02947  19071700.43847  23513841.4784   23513850.3734   23513841.546
        47.0004         42.0004
  22075526.22448  17207451.08247  22147355.8094   22147359.9094   22147356.602
        49.0004         44.0004
   3027575.11348   2368629.63948  20310205.0524   20310209.6824   20310205.480
        53.0004         48.0004
   3527882.29049   2758842.14548  20400305.6804   20400310.5994   20400305.590
        54.0004         49.0004
 -15960704.07847 -12431421.93247  22518275.5214   22518280.6514   22518276.180
        47.0004         43.0004
 -10303406.52348  -7983547.47647  22289013.4154   22289016.2264   22289013.479
        49.0004         44.0004
  18560717.66146  14459301.35745  25463042.3394   25463047.5794   25463040.750
        39.0004         35.0004
 14  5  4  1 50  0.0000000  0 10G26G04G28G17G07G08G09G10G02G13
   -984611.51047   -678087.59946  24162620.6174   24162627.6144   24162620.149
        43.0004         38.0004
 -25320149.70648 -19681218.23948  20303232.8144   20303238.6414   20303232.735
        53.0004         49.0004
 -12884921.60248 -10040082.63647  22325061.0574   22325067.5344   22325061.166
        48.0004         44.0004
  24506547.87047  19097487.82347  23520139.4494   23520147.1504   23520138.966
        47.0004         42.0004
  22171210.76948  17282010.47247  22165563.9424   22165568.9944   22165563.898
        48.0004         44.0004
   3081281.52448   2410478.33347  20320425.8984   20320429.6614   20320426.235
        53.0004         47.0004
   3577190.51949   2797264.19148  20409688.6644   20409693.4464   20409688.747
        54.0004         50.0004
 -16032180.40147 -12487117.95647  22504674.3934   22504678.0274   22504674.996
        47.0004         43.0004
 -10362776.77248  -8029809.99547  22277715.5694   22277717.8184   22277715.968
        49.0004         44.0004
  18604091.63846  14493099.22245  25471293.6214   25471302.6004   25471294.479
        39.0004         34.0004
 14  5  4  1 50 30.0000000  0 10G26G04G28G17G07G08G09G10G02G13
   -970172.97247   -666836.55246  24165367.7534   24165374.0784   24165367.528
        43.0004         38.0004
 -25330035.04448 -19688921.14748  20301351.4774   20301357.3784   20301351.190
        53.0004         49.0004
 -12943118.07548 -10085430.41847  22313985.6514   22313992.0594   22313986.554
        48.0004         44.0004
  24539470.15747  19123141.52446  23526404.3924   23526412.1814   23526403.901
        46.0004         41.0004
  22267140.69448  17356761.08647  22183819.3714   22183823.6994   22183819.335
        49.0004         44.0004
   3135559.68648   2452772.75847  20330754.4654   20330758.9904   20330754.648
        53.0004         47.0004
   3626990.55649   2836069.37448  20419165.1594   20419170.2514   20419165.197
        54.0004         49.0004
 -16103658.44047 -12542815.37047  22491073.2224   22491077.0944   22491073.224
        47.0004         43.0004
 -10421745.35648  -8075759.52447  22266494.0764   22266497.9024   22266494.713
        49.0004         44.0004
  18647202.83246  14526692.29645  25479498.4424   25479503.7554   25479498.946
        39.0004         34.0004
 14  5  4  1 51  0.0000000  0  9G26G04G28G17G07G08G09G10G02
   -955641.04847   -655512.76246  24168132.6814   24168140.0104   24168132.503
        43.0004         38.0004
 -25339366.25748 -19696192.26248  20299576.0604   20299582.0224   20299575.640
        53.0004         49.0004
 -13001243.95048 -10130723.18447  22302925.3424   22302929.7334   22302925.430
        48.0004         43.0004
  24572213.34147  19148655.66446  23532635.2444   23532644.1604   23532634.305
        46.0004         41.0004
  22363306.32848  17431695.38047  22202119.9364   22202123.2344   22202119.491
        48.0004         44.0004
   3190400.49048   2495505.85148  20341190.5794   20341195.1744   20341191.057
        53.0004         49.0004
   3677273.68749   2875250.99448  20428733.9174   20428738.7624   20428733.941
        54.0004         50.0004
 -16175141.56648 -12598516.58247  22477470.0974   22477474.6554   22477470.290
        48.0004         44.0004
 -10480317.56548  -8121400.18947  22255348.8254   22255351.4564   22255348.806
        49.0004         44.0004
 14  5  4  1 51 30.0000000  0  9G26G04G28G17G07G08G09G10G02
   -941015.43047   -644115.97246  24170916.8294   24170922.6374   24170914.891
        43.0004         38.0004
 -25348140.77948 -19703029.59248  20297906.7544   20297912.1274   20297906.269
        53.0004         49.0004
 -13059294.11248 -10175957.02447  22291878.2094   22291884.0034   22291878.726
        48.0004         43.0004
  24604778.36247  19174030.98446  23538831.3544   23538840.7204   23538831.234
        46.0004         41.0004
  22459707.57848  17506813.27547  22220463.6054   22220467.2914   22220463.425
        49.0004         44.0004
   3245803.01548   2538676.32948  20351733.8124   20351738.6464   20351733.838
        53.0004         48.0004
   3728040.42649   2914809.50648  20438394.5744   20438399.5344   20438394.495
        54.0004         49.0004
 -16246625.18748 -12654218.13047  22463867.1554   22463871.9904   22463867.803
        48.0004         44.0004
 -10538489.17148  -8166728.70447  22244278.5014   22244282.1184   22244279.352
        49.0004         44.0004
 14  5  4  1 52  0.0000000  0  9G26G04G28G17G07G08G09G10G02
   -926297.94047   -632647.58746  24173716.7334   24173723.1604   24173716.571
        43.0004         38.0004
 -25356358.36948 -19709432.94548  20296342.6734   20296348.5474   20296342.113
        53.0004         49.0004
 -13117264.95248 -10221129.05447  22280846.4164   22280854.0354   22280846.842
        48.0004         43.0004
  24637164.82247  19199267.15646  23544994.4294   23545003.8594   23544994.021
        46.0004         41.0004
  22556341.62448  17582112.58247  22238851.8234   22238856.3354   22238852.747
        49.0004         44.0004
   3301765.82648   2582283.41647  20362382.8704   20362387.6114   20362383.348
        52.0004         46.0004
   3779288.63049   2954743.16948  20448146.7234   20448151.4524   20448146.501
        54.0004         49.0004
 -16318107.29948 -12709918.95047  22450264.4494   22450269.0334   22450265.371
        48.0004         42.0004
 -10596258.26948  -8211743.56947  22233286.1024   22233290.1344   22233285.940
        49.0004         44.0004
 14  5  4  1 52 30.0000000  0  9G26G04G28G17G07G08G09G10G02
   -911491.98447   -621110.32646  24176533.7304   24176540.7254   24176532.778
        43.0004         39.0004
 -25364020.35948 -19715403.36548  20294884.6804   20294890.2804   20294884.612
        53.0004         49.0004
 -13175154.76648 -10266237.89447  22269830.3074   22269838.2244   22269830.466
        48.0004         43.0004
  24669370.13847  19224362.18046  23551122.8564   23551130.7684   23551123.030
        46.0004         41.0004
  22653204.24148  17657589.97947  22257284.8374   22257286.9984   22257284.630
        48.0004         44.0004
   3358286.09948   2626325.14848  20373138.5714   20373143.0174   20373138.834
        52.0004         48.0004
   3831014.85049   2995049.39348  20457989.9974   20457994.6424   20457989.530
        54.0004         49.0004
 -16389584.99748 -12765616.03047  22436663.5364   22436667.2754   22436663.943
        48.0004         45.0004
 -10653624.98548  -8256444.90247  22222369.6134   22222372.3714   22222369.409
        49.0004         44.0004
 14  5  4  1 53  0.0000000  0  9G26G04G28G17G07G08G09G10G02
   -896600.23247   -609506.18646  24179368.0824   24179373.1644   24179367.368
        43.0004         38.0004
 -25371127.71748 -19720941.60348  20293531.9384   20293537.9004   20293531.892
        53.0004         49.0004
 -13232961.17748 -10311281.69747  22258830.0614   22258835.5764   22258830.461
        48.0004         44.0004
  24701392.69647  19249314.80746  23557217.3734   23557225.4864   23557216.656
        46.0004         41.0004
  22750292.12748  17733242.90647  22275759.8804   22275762.5904   22275760.072
        48.0004         44.0004
   3415360.21148   2670798.41647  20383999.3984   20384004.2624   20383999.600
        52.0004         47.0004
   3883216.00849   3035725.74548  20467923.2294   20467928.2684   20467923.167
        54.0004         49.0004
 -16461057.29948 -12821308.98147  22423063.2734   22423067.2224   22423063.707
        48.0004         43.0004
 -10710588.50248  -8300832.05047  22211529.0004   22211532.7214   22211529.391
        49.0004         44.0004
 14  5  4  1 53 30.0000000  0  9G26G04G28G17G07G08G09G10G02
   -881621.38747   -597834.20046  24182218.8274   24182223.3574   24182217.171
        43.0004         38.0004
 -25377676.66949 -19726044.71348  20292286.0094   20292291.6054   20292285.749
        54.0004         49.0004
 -13290677.26948 -10356254.84247  22247847.0224   22247854.1384   22247847.164
        48.0004         44.0004
  24733234.99147  19274126.96647  23563275.6844   23563285.1984   23563275.949
        46.0004         42.0004
  22847605.50948  17809071.54947  22294278.8184   22294281.7014   22294277.613
        48.0004         44.0004
   3472989.24648   2715704.16147  20394965.7474   20394970.7274   20394966.417
        52.0004         47.0004
   3935892.73149   3076772.54948  20477947.0914   20477952.5404   20477947.090
        54.0004         49.0004
 -16532517.15948 -12876991.92447  22409464.6404   22409468.4794   22409465.233
        48.0004         42.0004
 -10767143.75248  -8344901.07147  22200767.3894   22200771.0424   22200767.524
        49.0004         45.0004
 14  5  4  1 54  0.0000000  0  9G26G04G28G17G07G08G09G10G02
   -866562.33747   -586099.75346  24185082.3794   24185089.6114   24185083.299
        43.0004         39.0004
 -25383672.56948 -19730716.87748  20291145.0834   20291150.6004   20291144.700
        53.0004         49.0004
 -13348305.34048 -10401159.49447  22236879.4874   22236886.0464   22236880.593
        48.0004         43.0004
  24764891.15447  19298794.08647  23569300.8714   23569309.4464   23569300.032
        46.0004         42.0004
  22945136.67048  17885069.89547  22312837.6874   22312841.1874   22312837.384
        48.0004         44.0004
   3531166.25148   2761036.91647  20406036.5364   20406041.1234   20406036.942
        52.0004         47.0004
   3989038.47849   3118184.86148  20488060.3814   20488065.4634   20488060.340
        54.0004         50.0004
 -16603967.35848 -12932667.39347  22395868.0544   22395872.1474   22395868.184
        48.0004         44.0004
 -10823294.46248  -8388654.88247  22190081.2114   22190084.9334   22190082.380
        49.0004         44.0004
 14  5  4  1 54 30.0000000  0  9G26G04G28G17G07G08G09G10G02
   -851422.18147   -574302.03946  24187964.1154   24187970.3294   24187963.748
        43.0004         39.0004
 -25389112.47448 -19734955.79948  20290110.0964   20290115.7824   20290109.563
        53.0004         49.0004
 -13405839.30748 -10445990.74147  22225932.8914   22225938.7224   22225932.044
        48.0004         43.0004
  24796363.09247  19323317.64947  23575289.9614   23575297.9064   23575289.133
        47.0004         42.0004
  23042885.73848  17961238.03547  22331439.3354   22331441.7404   22331438.480
        48.0004         44.0004
   3589891.16748   2806796.42948  20417211.7934   20417216.5774   20417211.856
        52.0004         48.0004
   4042653.49849   3159962.83248  20498263.0204   20498268.0184   20498263.001
        54.0004         48.0004
 -16675402.15348 -12988330.85447  22382273.8104   22382278.4504   22382274.706
        48.0004         44.0004
 -10879035.96148  -8432089.81347  22179474.1584   22179477.6984   22179475.015
        49.0004         45.0004
 14  5  4  1 55  0.0000000  0  9G26G04G28G17G07G08G09G10G02
   -836205.89847   -562445.13246  24190860.1554   24190865.2644   24190859.374
        43.0004         38.0004
 -25393999.12948 -19738763.61848  20289180.0804   20289185.8794   20289179.646
        53.0004         49.0004
 -13463279.15848 -10490748.84747  22215001.9334   22215007.1644   22215001.517
        48.0004         43.0004
  24827647.42247  19347695.02747  23581242.9454   23581251.3954   23581242.345
        47.0004         42.0004
  23140847.29048  18037571.74547  22350079.6214   22350082.8274   22350079.925
        48.0004         43.0004
   3649159.39548   2852979.22448  20428490.9144   20428495.1224   20428490.746
        52.0004         48.0004
   4096732.76449   3202102.55148  20508554.2554   20508558.5794   20508554.063
        54.0004         48.0004
 -16746821.37848 -13043982.07647  22368683.4254   22368688.4954   22368684.167
        48.0004         43.0004
 -10934369.63348  -8475206.95147  22168944.7374   22168948.3044   22168945.344
        49.0004         45.0004
