     2.11           OBSERVATION DATA    G (GPS)             RINEX VERSION / TYPE
teqc  2013Mar15     gpsops              20140502 00:24:06UTCPGM / RUN BY / DATE
Linux 2.4.21-27.ELsmp|Opteron|gcc -static|Linux x86_64|=+   COMMENT
BIT 2 OF LLI FLAGS DATA COLLECTED UNDER A/S CONDITION       COMMENT
GLPS                                                        MARKER NAME
42005M002                                                   MARKER NUMBER
GGN                 JPL                                     OBSERVER / AGENCY
ZR220013847         ASHTECH UZ-12       CQ00                REC # / TYPE / VERS
CR519992104         ASH701945B_M    SCIT                    ANT # / TYPE
   -33801.4662 -6377516.5323   -82154.3508                  APPROX POSITION XYZ
        0.0083        0.0000        0.0000                  ANTENNA: DELTA H/E/N
     1     1                                                WAVELENGTH FACT L1/2
     7    L1    L2    P1    P2    C1    S1    S2            # / TYPES OF OBSERV
    30.0000                                                 INTERVAL
                                                            COMMENT
This data is provided as a public service by NASA/JPL.      COMMENT
No warranty is expressed or implied regarding suitability   COMMENT
for use.  For further information, contact:                 COMMENT
Dave Stowers, NASA/JPL m/s 238-600                          COMMENT
4800 Oak Grove Drive, Pasadena CA 91109 USA                 COMMENT
                                                            COMMENT
Forced Modulo Decimation to 30 seconds                      COMMENT
 SNR is mapped to RINEX snr flag value [0-9]                COMMENT
  L1 & L2: min(max(int(snr_dBHz/6), 0), 9)                  COMMENT
pseudorange smoothing corrections not applied               COMMENT
  2014     5     1     0     0    0.0000000     GPS         TIME OF FIRST OBS
                                                            END OF HEADER
 14  5  1  0  0  0.0000000  0 12G17G10G08G09G23G20G01G28G13G11G04G07
 -16589048.62948 -12882301.60247  21864103.5254   21864111.5034   21864103.209
        51.0004         46.0004
  -3501647.97846  -2724516.93746  25004449.7974   25004467.8914   25004451.292
        40.0004         36.0004
  -7603517.30148  -5919216.99247  21309779.9064   21309786.6784   21309780.172
        51.0004         46.0004
 -14846158.20848 -11522190.02547  21305805.8384   21305812.2664   21305805.793
        50.0004         46.0004
   3209046.39646   2511890.25646  24451172.2654   24451179.6254   24451171.408
        41.0004         36.0004
  -2940569.93047  -2076929.59846  23685649.3714   23685658.1844   23685649.989
        43.0004         38.0004
 -14725847.24348 -11448929.58747  21908417.2454   21908426.7064   21908417.988
        49.0004         45.0004
   1587096.45446   1230076.83246  24413848.9054   24413856.2504   24413849.057
        41.0004         37.0004
 -11680174.81147  -9056536.75547  22240024.3114   22240031.5244   22240023.933
        47.0004         43.0004
 -10241910.38847  -7961436.77046  23248844.6154   23248850.4474   23248844.190
        44.0004         39.0004
 -11080109.93447  -8594166.43546  23374284.1854   23374294.6854   23374283.718
        44.0004         40.0004
 -24295411.97249 -18897955.45848  20237204.0704   20237209.4804   20237203.665
        54.0004         49.0004
 14  5  1  0  0 30.0000000  0 12G17G10G08G09G23G20G01G28G13G11G04G07
 -16573406.94248 -12870113.24147  21867080.2714   21867087.6454   21867079.748
        51.0004         46.0004
  -3528468.78046  -2745416.08746  24999345.0794   24999362.0864   24999346.312
        40.0004         36.0004
  -7686996.91548  -5984265.99147  21293894.3824   21293900.9274   21293894.345
        51.0004         46.0004
 -14926755.55448 -11584993.10447  21290468.5314   21290474.8354   21290468.636
        50.0004         46.0004
   3298380.62846   2581501.43846  24468171.8864   24468179.8154   24468171.181
        41.0004         36.0004
  -2946090.01547  -2081230.89946  23684597.9234   23684607.9964   23684598.747
        43.0004         38.0004
 -14667066.23548 -11403126.17547  21919603.5734   21919612.9984   21919603.322
        49.0004         45.0004
   1570110.93846   1216841.42246  24410615.9574   24410623.9864   24410616.248
        41.0004         37.0004
 -11599162.40547  -8993410.23247  22255440.3964   22255447.4064   22255440.111
        47.0004         43.0004
 -10147097.84147  -7887556.86046  23266887.1484   23266893.1334   23266886.420
        44.0004         39.0004
 -11180489.42847  -8672384.03546  23355182.8444   23355193.3264   23355182.431
        44.0004         40.0004
 -24321537.09749 -18918312.68548  20232232.9194   20232237.8554   20232232.438
        54.0004         49.0004
 14  5  1  0  1  0.0000000  0 12G17G10G08G09G23G20G01G28G13G11G04G07
 -16557415.06948 -12857652.01447  21870123.6334   21870130.1784   21870123.190
        51.0004         47.0004
  -3555528.98646  -2766501.79746  24994196.8744   24994212.3784   24994196.253
        40.0004         36.0004
  -7770188.10448  -6049090.25247  21278063.2374   21278070.1294   21278063.497
        51.0004         46.0004
 -15007025.48848 -11647541.05047  21275193.1724   21275199.8244   21275193.769
        50.0004         46.0004
   3387548.41946   2650982.90446  24485138.7084   24485147.5704   24485139.215
        41.0004         36.0004
  -2951594.93847  -2085520.40446  23683550.8524   23683560.7624   23683551.706
        43.0004         38.0004
 -14607830.94648 -11356968.78347  21930875.8414   21930885.0004   21930875.450
        49.0004         45.0004
   1552836.84946   1203381.15246  24407328.5384   24407336.6524   24407328.020
        41.0004         37.0004
 -11518073.30547  -8930223.94547  22270871.0604   22270878.7084   22270871.165
        47.0004         42.0004
 -10052054.00947  -7813496.72546  23284972.5934   23284978.6154   23284973.078
        44.0004         39.0004
 -11280801.87647  -8750549.38146  23336092.7824   23336104.6284   23336093.922
        45.0004         40.0004
 -24347125.68149 -18938251.83048  20227363.2434   20227368.5554   20227362.868
        54.0004         49.0004
 14  5  1  0  1 30.0000000  0 12G17G10G08G09G23G20G01G28G13G11G04G07
 -16541071.28048 -12844916.56547  21873233.5134   21873240.9244   21873233.242
        51.0004         47.0004
  -3582825.33646  -2787771.51946  24989002.0704   24989017.8524   24989003.005
        40.0004         36.0004
  -7853083.57548  -6113684.07647  21262288.3444   21262295.4254   21262289.078
        51.0004         47.0004
 -15086960.78748 -11709828.24947  21259982.9544   21259988.8784   21259982.492
        51.0004         46.0004
   3476551.96246   2720336.40446  24502075.3534   24502084.9774   24502076.179
        41.0004         36.0004
  -2957078.45447  -2089793.20046  23682508.0524   23682516.8144   23682507.658
        43.0004         38.0004
 -14548138.83848 -11310455.42647  21942235.7044   21942243.4784   21942234.680
        49.0004         45.0004
   1535277.55846   1189698.64846  24403986.3684   24403995.0724   24403987.323
        41.0004         37.0004
 -11436905.90147  -8866976.65447  22286316.9784   22286325.3474   22286317.000
        47.0004         42.0004
  -9956777.58247  -7739255.33146  23303103.3294   23303108.9204   23303103.087
        44.0004         39.0004
 -11381040.71447  -8828657.37446  23317018.9494   23317029.0344   23317018.813
        45.0004         40.0004
 -24372171.93149 -18957768.38148  20222597.3044   20222602.2964   20222596.759
        54.0004         49.0004
 14  5  1  0  2  0.0000000  0 12G17G10G08G09G23G20G01G28G13G11G04G07
 -16524377.73348 -12831908.57747  21876410.1624   21876417.1894   21876409.958
        51.0004         47.0004
  -3610358.34646  -2809225.64946  24983762.5614   24983778.5224   24983763.360
        41.0004         36.0004
  -7935679.46148  -6178044.45847  21246570.9414   21246578.0474   21246571.457
        51.0004         47.0004
 -15166558.27548 -11771852.20447  21244835.7304   21244842.1384   21244835.621
        51.0004         46.0004
   3565389.92946   2789560.89146  24518980.6344   24518990.4124   24518980.889
        41.0004         36.0004
  -2962538.68147  -2094047.86246  23681469.8684   23681478.5414   23681469.056
        43.0004         38.0004
 -14487991.12348 -11263587.05147  21953680.3624   21953688.9154   21953680.073
        49.0004         44.0004
   1517433.52046   1175794.28446  24400590.3874   24400598.8024   24400592.172
        41.0004         37.0004
 -11355663.53247  -8803670.94047  22301777.4314   22301784.9034   22301776.388
        47.0004         42.0004
  -9861271.17347  -7664834.73046  23321277.1534   23321283.8904   23321277.064
        43.0004         39.0004
 -11481203.29247  -8906705.93946  23297959.0984   23297968.3604   23297957.984
        45.0004         40.0004
 -24396674.21249 -18976861.06148  20217934.2634   20217939.5394   20217933.958
        54.0004         49.0004
 14  5  1  0  2 30.0000000  0 12G17G10G08G09G23G20G01G28G13G11G04G07
 -16507338.94648 -12818631.56847  21879652.3224   21879660.0664   21879651.978
        51.0004         47.0004
  -3638131.17746  -2830866.64246  24978477.6764   24978493.3024   24978478.499
        41.0004         36.0004
  -8017974.87048  -6242170.70747  21230910.5134   21230917.5444   21230911.124
        51.0004         47.0004
 -15245817.37448 -11833612.48647  21229752.9004   21229759.5554   21229752.826
        50.0004         46.0004
   3654057.93346   2858652.93746  24535854.4744   24535863.2994   24535853.805
        41.0004         36.0004
  -2967976.40947  -2098284.97946  23680434.0454   23680443.2474   23680434.026
        43.0004         39.0004
 -14427391.86848 -11216366.81947  21965212.5154   21965221.5304   21965211.704
        49.0004         44.0004
   1499301.95546   1161665.87546  24397142.1004   24397149.3854   24397141.786
        41.0004         37.0004
 -11274351.76347  -8740311.15747  22317250.3104   22317257.3244   22317249.493
        47.0004         42.0004
  -9765539.87747  -7590238.91046  23339494.4704   23339500.2994   23339494.519
        43.0004         39.0004
 -11581289.65947  -8984695.12646  23278912.6504   23278923.3094   23278912.380
        45.0004         40.0004
 -24420633.16049 -18995530.36148  20213375.2574   20213380.6254   20213375.018
        54.0004         49.0004
 14  5  1  0  3  0.0000000  0 12G17G10G08G09G23G20G01G28G13G11G04G07
 -16489952.61948 -12805083.75547  21882960.5994   21882968.5404   21882960.816
        51.0004         47.0004
  -3666140.12446  -2852691.63146  24973147.0454   24973162.2224   24973148.398
        41.0004         36.0004
  -8099962.33948  -6306057.00047  21215309.0814   21215316.1164   21215309.508
        51.0004         47.0004
 -15324730.84148 -11895103.45147  21214736.4674   21214742.5824   21214736.171
        50.0004         46.0004
   3742558.42346   2927614.45946  24552694.6594   24552703.3394   24552694.817
        41.0004         36.0004
  -2973385.68447  -2102499.94946  23679404.0124   23679413.2024   23679404.999
        43.0004         39.0004
 -14366338.34448 -11168792.60947  21976830.2134   21976839.2414   21976830.198
        49.0004         44.0004
   1480886.80746   1147316.47046  24393638.0854   24393644.3474   24393637.128
        41.0004         37.0004
 -11192969.00147  -8676896.05647  22332736.2674   22332743.5284   22332736.517
        47.0004         42.0004
  -9669581.92147  -7515466.46546  23357754.7714   23357761.4364   23357755.164
        44.0004         39.0004
 -11681292.80647  -9062619.47646  23259882.4104   23259893.1904   23259882.027
        45.0004         41.0004
 -24444042.96549 -19013771.76148  20208920.7634   20208925.4284   20208920.204
        54.0004         49.0004
 14  5  1  0  3 30.0000000  0 12G17G10G08G09G23G20G01G28G13G11G04G07
 -16472226.01048 -12791270.78347  21886334.4834   21886341.9714   21886333.722
        51.0004         47.0004
  -3694390.51546  -2874704.75546  24967772.4124   24967785.6774   24967771.509
        41.0004         36.0004
  -8181643.51748  -6369704.62947  21199765.7144   21199772.3904   21199765.800
        51.0004         47.0004
 -15403300.56748 -11956326.55847  21199784.3144   21199791.2804   21199784.974
        51.0004         46.0004
   3830884.97646   2996440.43046  24569502.3234   24569512.6824   24569503.098
        41.0004         36.0004
  -2978769.37547  -2106694.96746  23678379.4804   23678389.3084   23678380.020
        43.0004         39.0004
 -14304836.84748 -11120869.34647  21988533.4144   21988542.8294   21988532.874
        49.0004         44.0004
   1462183.26446   1132742.33746  24390078.5964   24390083.6814   24390078.168
        41.0004         37.0004
 -11111522.74347  -8613431.46047  22348235.5864   22348241.8434   22348234.988
        47.0004         42.0004
  -9573404.73747  -7440523.22146  23376056.7224   23376063.5374   23376056.602
        44.0004         39.0004
 -11781215.30347  -9140480.96746  23240867.0724   23240877.9004   23240867.198
        45.0004         41.0004
 -24466906.79249 -19031587.72248  20204569.4494   20204575.0284   20204569.083
        54.0004         49.0004
 14  5  1  0  4  0.0000000  0 12G17G10G08G09G23G20G01G28G13G11G04G07
 -16454156.43748 -12777190.56947  21889772.1714   21889779.5984   21889772.219
        51.0004         47.0004
  -3722878.30246  -2896902.81946  24962350.0534   24962364.7134   24962351.494
        41.0004         36.0004
  -8263010.13448  -6433107.14947  21184282.1514   21184289.0164   21184282.528
        51.0004         47.0004
 -15481519.00348 -12017275.93047  21184900.4764   21184906.4324   21184900.208
        51.0004         46.0004
   3919040.71046   3065133.27546  24586277.2004   24586286.1434   24586278.515
        41.0004         36.0004
  -2984120.76447  -2110864.83646  23677360.7504   23677369.6554   23677362.254
        44.0004         39.0004
 -14242884.04248 -11072594.40847  22000323.4924   22000331.5914   22000322.474
        49.0004         44.0004
   1443196.08346   1117947.22646  24386465.2104   24386471.2114   24386464.381
        41.0004         37.0004
 -11030011.09947  -8549915.91447  22363747.3094   22363753.9934   22363746.077
        47.0004         42.0004
  -9477005.99947  -7365407.27846  23394401.1784   23394407.8724   23394400.490
        44.0004         39.0004
 -11881049.47547  -9218273.65046  23221869.9354   23221880.2314   23221869.060
        45.0004         40.0004
 -24489218.09849 -19048973.15548  20200323.9814   20200329.1354   20200323.406
        54.0004         49.0004
 14  5  1  0  4 30.0000000  0 12G17G10G08G09G23G20G01G28G13G11G04G07
 -16435749.59548 -12762847.55347  21893275.5714   21893282.3964   21893275.256
        51.0004         47.0004
  -3751607.70146  -2919289.19146  24956883.6214   24956899.9364   24956884.069
        41.0004         36.0004
  -8344062.48848  -6496264.78547  21168858.3594   21168865.1304   21168858.652
        51.0004         47.0004
 -15559386.75648 -12077952.05447  21170082.4244   21170089.0144   21170082.632
        51.0004         46.0004
   4007020.44946   3133688.99546  24603018.9404   24603029.5244   24603021.280
        40.0004         36.0004
  -2989441.69447  -2115010.94746  23676348.8674   23676358.6814   23676349.154
        44.0004         39.0004
 -14180485.18648 -11023971.89447  22012196.5964   22012204.5754   22012196.382
        49.0004         44.0004
   1423921.45346   1102928.10946  24382796.8304   24382803.7284   24382796.897
        41.0004         37.0004
 -10948440.65647  -8486354.56247  22379268.4914   22379275.7004   22379268.493
        47.0004         42.0004
  -9380392.30747  -7290123.86746  23412785.9014   23412792.6534   23412786.306
        43.0004         39.0004
 -11980796.54947  -9295998.47246  23202889.3514   23202898.9444   23202888.003
        45.0004         41.0004
 -24510978.98249 -19065929.68548  20196183.2364   20196188.1094   20196182.763
        54.0004         49.0004
 14  5  1  0  5  0.0000000  0 12G17G10G08G09G23G20G01G28G13G11G04G07
 -16417002.43948 -12748239.35247  21896842.9694   21896849.9804   21896842.377
        51.0004         47.0004
  -3780573.85846  -2941860.05246  24951371.0854   24951385.8594   24951372.123
        41.0004         36.0004
  -8424792.15648  -6559170.98047  21153495.5914   21153502.8284   21153496.001
        51.0004         47.0004
 -15636895.53748 -12138348.45747  21155332.9754   21155340.1304   21155333.265
        51.0004         46.0004
   4094827.44646   3202110.12146  24619729.4554   24619737.7644   24619729.705
        40.0004         36.0004
  -2994725.00347  -2119127.74846  23675343.3324   23675352.4464   23675343.784
        43.0004         39.0004
 -14117636.65248 -10974998.97247  22024156.7554   22024165.2354   22024156.498
        49.0004         44.0004
   1404364.54747   1087689.02646  24379074.5954   24379083.6554   24379075.146
        42.0004         37.0004
 -10866809.12547  -8422745.59847  22394803.4674   22394811.7524   22394802.211
        47.0004         42.0004
  -9283561.08247  -7214670.94946  23431211.2264   23431218.5214   23431212.910
        43.0004         39.0004
 -12080448.67747  -9373649.31346  23183924.8134   23183934.8244   23183925.095
        45.0004         41.0004
 -24532182.78249 -19082452.12448  20192148.2254   20192153.1294   20192147.809
        54.0004         49.0004
 14  5  1  0  5 30.0000000  0 12G17G10G08G09G23G20G01G28G13G11G04G07
 -16397924.30848 -12733373.25347  21900473.3864   21900480.7254   21900473.193
        51.0004         47.0004
  -3809784.02846  -2964621.03846  24945813.3634   24945828.6644   24945813.681
        41.0004         36.0004
  -8505202.66148  -6621828.47647  21138194.0544   21138201.3034   21138194.728
        51.0004         47.0004
 -15714049.26948 -12198468.20447  21140650.6164   21140657.3994   21140651.080
        51.0004         46.0004
   4182453.30246   3270390.06146  24636404.9354   24636411.8124   24636404.059
        40.0004         36.0004
  -2999976.04847  -2123219.41046  23674345.1404   23674353.5874   23674344.694
        44.0004         39.0004
 -14054346.80248 -10925682.17947  22036200.3314   22036208.8264   22036199.811
        49.0004         44.0004
   1384518.41947   1072224.58646  24375298.7344   24375306.8094   24375298.649
        42.0004         37.0004
 -10785125.93247  -8359096.38247  22410346.4354   22410354.4884   22410346.923
        47.0004         42.0004
  -9186521.80147  -7139055.94146  23449678.4974   23449684.5044   23449678.324
        43.0004         39.0004
 -12180010.06447  -9451229.44546  23164978.9344   23164989.9044   23164978.107
        45.0004         41.0004
 -24552834.66049 -19098544.48748  20188218.4294   20188223.6654   20188217.831
        54.0004         49.0004
 14  5  1  0  6  0.0000000  0 12G17G10G08G09G23G20G01G28G13G11G04G07
 -16378513.52548 -12718247.94947  21904167.3024   21904174.3814   21904166.750
        51.0004         47.0004
  -3839235.40646  -2987569.98246  24940208.9804   24940222.9524   24940209.436
        41.0004         37.0004
  -8585286.55848  -6684231.48147  21122954.6034   21122961.3414   21122955.197
        52.0004         47.0004
 -15790841.42548 -12258306.19147  21126038.2124   21126044.5394   21126038.009
        51.0004         46.0004
   4269900.17046   3338530.55946  24653043.9144   24653053.2554   24653044.327
        40.0004         36.0004
  -3005188.73147  -2127281.19446  23673352.2244   23673361.9664   23673353.141
        44.0004         39.0004
 -13990613.59848 -10876019.91747  22048328.0944   22048336.9784   22048327.707
        49.0004         44.0004
   1364386.67047   1056537.59946  24371467.6934   24371473.5704   24371467.480
        42.0004         37.0004
 -10703390.40747  -8295406.39247  22425900.9174   22425907.5164   22425900.614
        47.0004         42.0004
  -9089273.52647  -7063278.09746  23468182.4314   23468189.5524   23468183.793
        43.0004         38.0004
 -12279474.56147  -9528734.07846  23146051.5954   23146062.4254   23146051.083
        46.0004         41.0004
 -24572929.32149 -19114202.66048  20184394.4944   20184399.3384   20184394.002
        54.0004         49.0004
 14  5  1  0  6 30.0000000  0 12G17G10G08G09G23G20G01G28G13G11G04G07
 -16358773.15348 -12702865.82147  21907923.7674   21907931.0154   21907923.239
        51.0004         47.0004
  -3868928.62146  -3010707.36446  24934557.8174   24934572.2684   24934558.330
        41.0004         37.0004
  -8665041.17548  -6746377.90047  21107778.3184   21107784.6184   21107778.393
        52.0004         47.0004
 -15867269.30648 -12317860.34147  21111494.1774   21111500.7154   21111494.282
        51.0004         46.0004
   4357165.93146   3406529.92345  24669650.7214   24669661.3304   24669650.294
        40.0004         35.0004
  -3010362.30147  -2131312.46946  23672367.5884   23672376.7904   23672367.774
        44.0004         39.0004
 -13926439.11748 -10826013.79547  22060540.2034   22060550.6394   22060539.931
        49.0004         44.0004
   1343968.65146   1040627.53946  24367581.8134   24367589.4224   24367582.146
        41.0004         36.0004
 -10621606.04847  -8231678.33847  22441463.8504   22441470.1274   22441462.894
        47.0004         42.0004
  -8991818.74547  -6987339.26446  23486728.8434   23486734.2804   23486728.833
        43.0004         38.0004
 -12378839.94847  -9606161.48746  23127143.4084   23127152.8114   23127142.258
        46.0004         41.0004
 -24592465.90049 -19129425.96148  20180676.7324   20180681.5774   20180676.245
        54.0004         49.0004
 14  5  1  0  7  0.0000000  0 12G17G10G08G09G23G20G01G28G13G11G04G07
 -16338704.61148 -12687227.98347  21911742.4684   21911750.2604   21911741.725
        51.0004         46.0004
  -3898863.52146  -3034033.07446  24928861.0814   24928876.2884   24928862.042
        41.0004         36.0004
  -8744462.33148  -6808264.48047  21092664.5364   21092671.1384   21092665.084
        52.0004         47.0004
 -15943329.36548 -12377127.87247  21097020.4444   21097026.5404   21097020.501
        51.0004         46.0004
   4444249.46646   3474387.31246  24686221.9974   24686228.1664   24686221.859
        40.0004         36.0004
  -3015494.04547  -2135311.16846  23671391.3934   23671400.3904   23671392.073
        43.0004         39.0004
 -13861824.29448 -10775664.55847  22072836.0364   22072844.6234   22072835.539
        49.0004         44.0004
   1323265.23446   1024495.07546  24363641.3574   24363647.3424   24363642.110
        41.0004         36.0004
 -10539774.43947  -8167913.46747  22457036.1544   22457043.1374   22457035.108
        47.0004         42.0004
  -8894160.09947  -6911241.59746  23505312.5364   23505317.4474   23505312.348
        43.0004         38.0004
 -12478102.70447  -9683508.93446  23108252.8824   23108263.9984   23108253.094
        46.0004         41.0004
 -24611442.27749 -19144212.74348  20177065.6234   20177070.4784   20177065.241
        54.0004         49.0004
 14  5  1  0  7 30.0000000  0 12G17G10G08G09G23G20G01G28G13G11G04G07
 -16318312.12448 -12671337.71847  21915623.6994   21915630.2314   21915622.564
        51.0004         46.0004
  -3929042.53046  -3057549.00446  24923119.1224   24923132.2064   24923118.384
        41.0004         36.0004
  -8823548.72048  -6869890.20147  21077614.9374   21077621.8054   21077615.208
        52.0004         47.0004
 -16019020.78748 -12436108.15647  21082617.0714   21082623.0734   21082616.806
        51.0004         46.0004
   4531147.63346   3542100.24145  24702759.1644   24702763.8764   24702758.176
        40.0004         35.0004
  -3020584.01647  -2139277.31346  23670422.5964   23670431.3084   23670422.682
        43.0004         39.0004
 -13796772.77948 -10724975.03447  22085215.3984   22085223.7494   22085214.225
        49.0004         44.0004
   1302274.30246   1008138.59346  24359648.1234   24359653.3634   24359648.024
        41.0004         36.0004
 -10457900.52347  -8104115.63347  22472616.9814   22472622.6794   22472615.930
        47.0004         42.0004
  -8796301.90847  -6834988.44446  23523933.6824   23523940.4794   23523934.048
        43.0004         38.0004
 -12577262.38647  -9760776.06846  23089383.5254   23089394.9754   23089383.574
        46.0004         41.0004
 -24629859.11149 -19158563.52048  20173560.9804   20173565.9234   20173560.738
        54.0004         49.0004
 14  5  1  0  8  0.0000000  0 12G17G10G08G09G23G20G01G28G13G11G04G07
 -16297594.85648 -12655194.36447  21919565.2034   21919572.3744   21919564.835
        51.0004         46.0004
  -3959463.77046  -3081253.68846  24917326.8384   24917343.1074   24917328.747
        41.0004         36.0004
  -8902294.43248  -6931250.45147  21062630.0824   21062636.7394   21062630.383
        52.0004         47.0004
 -16094338.01048 -12494796.86547  21068284.4804   21068290.5624   21068284.660
        51.0004         46.0004
   4617861.21046   3609669.33545  24719260.1634   24719267.3394   24719258.489
        40.0004         35.0004
  -3025627.54447  -2143207.27446  23669463.8394   23669471.8234   23669463.814
        44.0004         39.0004
 -13731283.57348 -10673944.44747  22097677.6104   22097685.3774   22097676.851
        49.0004         44.0004
   1280998.60446    991560.20246  24355599.2054   24355605.7934   24355598.695
        41.0004         36.0004
 -10375984.62547  -8040285.09047  22488204.2624   22488212.1004   22488203.899
        47.0004         42.0004
  -8698243.93447  -6758579.60946  23542595.0634   23542600.0764   23542593.878
        43.0004         38.0004
 -12676313.77147  -9837958.81346  23070535.3064   23070545.6874   23070533.835
        46.0004         41.0004
 -24647711.85149 -19172474.74848  20170163.9464   20170168.8714   20170163.437
        54.0004         49.0004
 14  5  1  0  8 30.0000000  0 12G17G10G08G09G23G20G01G28G13G11G04G07
 -16276555.62348 -12638800.13447  21923569.3544   21923576.0784   21923568.464
        51.0004         46.0004
  -3990127.66046  -3105147.44046  24911493.8384   24911509.1864   24911493.334
        41.0004         36.0004
  -8980696.20648  -6992342.70547  21047710.7564   21047717.1934   21047711.073
        52.0004         47.0004
 -16169278.18248 -12553191.76047  21054023.7634   21054030.0484   21054023.455
        51.0004         46.0004
   4704388.52246   3677093.32745  24735724.4464   24735732.9954   24735724.403
        40.0004         35.0004
  -3030623.30447  -2147100.01746  23668512.2544   23668520.9124   23668512.291
        43.0004         39.0004
 -13665358.43948 -10622574.18647  22110221.9254   22110231.6374   22110221.501
        49.0004         44.0004
   1259438.10246    974759.90546  24351497.0224   24351503.9964   24351495.922
        41.0004         36.0004
 -10294029.47147  -7976423.93747  22503799.3994   22503807.6624   22503798.978
        46.0004         42.0004
  -8599989.15247  -6682017.43446  23561290.9644   23561297.3064   23561291.020
        43.0004         38.0004
 -12775254.25847  -9915055.14246  23051707.0554   23051717.5464   23051706.712
        46.0004         41.0004
 -24664999.47849 -19185945.62148  20166874.2414   20166878.7524   20166873.661
        54.0004         49.0004
 14  5  1  0  9  0.0000000  0 12G17G10G08G09G23G20G01G28G13G11G04G07
 -16255197.82248 -12622157.67147  21927633.1404   21927640.0644   21927633.007
        51.0004         46.0004
  -4021035.75446  -3129231.50646  24905611.5444   24905625.8514   24905611.945
        41.0004         36.0004
  -9058751.73448  -7053165.16247  21032857.3254   21032863.6374   21032857.623
        52.0004         47.0004
 -16243839.29648 -12611291.29147  21039835.5504   21039841.7184   21039835.175
        51.0004         46.0004
   4790727.12246   3744370.24145  24752154.2154   24752162.8344   24752153.745
        40.0004         35.0004
  -3035570.44747  -2150954.87046  23667570.5914   23667579.7244   23667571.291
        43.0004         38.0004
 -13599000.27848 -10570866.49747  22122850.8154   22122858.1904   22122849.554
        49.0004         44.0004
   1237591.69946    957736.83046  24347338.5544   24347346.9554   24347338.681
        41.0004         36.0004
 -10212038.94147  -7912535.22747  22519400.7174   22519408.9974   22519401.297
        46.0004         42.0004
  -8501541.41347  -6605304.91146  23580025.4884   23580030.3664   23580025.408
        43.0004         38.0004
 -12874082.33147  -9992063.87946  23032900.3604   23032912.0534   23032899.928
        46.0004         41.0004
 -24681721.94249 -19198976.10748  20163691.6524   20163697.0044   20163691.354
        54.0004         49.0004
 14  5  1  0  9 30.0000000  0 12G17G10G08G09G23G20G01G28G13G11G04G07
 -16233523.80548 -12605268.80547  21931757.3244   21931764.6284   21931757.276
        51.0004         46.0004
  -4052188.15346  -3153505.92346  24899683.3674   24899698.0794   24899683.949
        41.0004         36.0004
  -9136457.71848  -7113715.24747  21018070.0054   21018076.7884   21018070.570
        52.0004         47.0004
 -16318018.52748 -12669093.25647  21025719.4784   21025725.8214   21025719.447
        51.0004         46.0004
   4876875.27146   3811498.75246  24768547.8574   24768557.8564   24768547.118
        40.0004         36.0004
  -3040466.67447  -2154770.06146  23666638.3764   23666648.0274   23666639.021
        43.0004         39.0004
 -13532210.68048 -10518822.62247  22135559.4034   22135567.1634   22135559.004
        49.0004         44.0004
   1215459.18046    940490.80046  24343126.7574   24343133.4004   24343126.828
        41.0004         37.0004
 -10130015.93647  -7848621.21047  22535010.5814   22535018.7054   22535009.624
        46.0004         42.0004
  -8402903.09847  -6528443.89246  23598796.3624   23598801.2104   23598795.532
        43.0004         38.0004
 -12972795.35047 -10068982.96646  23014115.3934   23014126.0464   23014115.742
        46.0004         41.0004
 -24697877.54349 -19211564.88348  20160617.7324   20160622.3554   20160617.338
        54.0004         49.0004
 14  5  1  0 10  0.0000000  0 12G17G10G08G09G23G20G01G28G13G11G04G07
 -16211534.88748 -12588134.56847  21935941.7214   21935948.8784   21935941.317
        51.0004         46.0004
  -4083584.72546  -3177970.60246  24893708.2814   24893724.0034   24893708.966
        41.0004         37.0004
  -9213810.17548  -7173989.86247  21003350.4434   21003356.9574   21003350.737
        52.0004         47.0004
 -16391812.41148 -12726594.94947  21011676.7534   21011682.9894   21011676.531
        51.0004         46.0004
   4962831.96846   3878478.07846  24784907.3324   24784912.2514   24784904.808
        40.0004         36.0004
  -3045309.84647  -2158543.91146  23665716.6264   23665725.7044   23665717.540
        43.0004         39.0004
 -13464990.76948 -10466443.43947  22148349.9524   22148359.3614   22148350.447
        49.0004         44.0004
   1193041.61446    923022.66446  24338861.6374   24338868.5954   24338861.012
        41.0004         37.0004
 -10047962.54847  -7784683.51146  22550624.9634   22550632.3394   22550624.173
        46.0004         41.0004
  -8304076.39747  -6451436.05346  23617601.8374   23617607.3704   23617601.672
        43.0004         38.0004
 -13071390.07847 -10145809.87146  22995354.2854   22995364.6294   22995353.476
        45.0004         41.0004
 -24713464.55349 -19223710.59948  20157651.4914   20157656.5764   20157650.818
        54.0004         49.0004
 14  5  1  0 10 30.0000000  0 12G17G10G08G09G23G20G01G28G13G11G04G07
 -16189234.36348 -12570757.51847  21940185.4894   21940192.6164   21940184.869
        51.0004         46.0004
  -4115226.91046  -3202626.67346  24887687.4064   24887702.7314   24887687.928
        41.0004         37.0004
  -9290806.79748  -7233987.20147  20988698.0374   20988704.8794   20988698.979
        52.0004         47.0004
 -16465218.88348 -12783794.75347  20997707.7304   20997714.2354   20997707.934
        51.0004         46.0004
   5048595.33746   3945306.75046  24801223.5824   24801232.3614   24801224.889
        40.0004         36.0004
  -3050098.83047  -2162275.53746  23664805.9384   23664815.1554   23664806.286
        43.0004         39.0004
 -13397343.13148 -10413730.96447  22161223.6654   22161231.6424   22161223.438
        49.0004         44.0004
   1170338.25146    905331.81946  24334539.4124   24334548.2964   24334540.172
        41.0004         37.0004
  -9965882.16647  -7720724.79646  22566243.1744   22566252.5514   22566243.569
        46.0004         41.0004
  -8205064.65547  -6374284.02046  23636443.5224   23636449.8354   23636442.975
        43.0004         38.0004
 -13169864.65347 -10222543.16346  22976615.0214   22976624.1074   22976614.455
        46.0004         41.0004
 -24728482.44149 -19235412.84848  20154793.6584   20154798.4294   20154793.299
        54.0004         49.0004
 14  5  1  0 11  0.0000000  0 12G17G10G08G09G23G20G01G28G13G11G04G07
 -16166621.82748 -12553137.35047  21944488.4834   21944496.0534   21944488.052
        51.0004         46.0004
  -4147112.50546  -3227472.40246  24881620.1744   24881632.9274   24881619.904
        41.0004         36.0004
  -9367441.18348  -7293702.28047  20974115.5904   20974121.7704   20974115.863
        52.0004         47.0004
 -16538232.31248 -12840688.30647  20983813.8504   20983819.7824   20983814.204
        51.0004         47.0004
   5134166.30446   4011985.51645  24817507.0594   24817516.3434   24817508.056
        40.0004         35.0004
  -3054828.77347  -2165961.14346  23663906.1004   23663914.9434   23663906.203
        44.0004         39.0004
 -13329266.87148 -10360684.50147  22174178.6244   22174186.7864   22174178.029
        49.0004         44.0004
   1147351.63647    887420.27346  24330166.1804   24330171.7174   24330166.148
        42.0004         37.0004
  -9883774.90747  -7656745.12846  22581869.3844   22581876.8764   22581867.604
        46.0004         41.0004
  -8105868.08447  -6296987.98846  23655320.3434   23655324.9224   23655319.405
        43.0004         38.0004
 -13268213.61747 -10299178.56346  22957899.7544   22957908.5894   22957899.411
        46.0004         41.0004
 -24742927.18049 -19246668.48148  20152044.9904   20152049.7904   20152044.442
        54.0004         49.0004
 14  5  1  0 11 30.0000000  0 12G17G10G08G09G23G20G01G28G13G11G04G07
 -16143702.67548 -12535278.24947  21948850.1444   21948857.3674   21948849.606
        51.0004         46.0004
  -4179244.44346  -3252510.09646  24875504.0894   24875519.9894   24875506.229
        41.0004         36.0004
  -9443712.84848  -7353134.72347  20959601.6194   20959607.8664   20959601.597
        52.0004         47.0004
 -16610852.57748 -12897275.49747  20969994.6514   20970001.1934   20969994.693
        51.0004         47.0004
   5219540.65046   4078511.06745  24833752.3824   24833760.5714   24833754.097
        40.0004         35.0004
  -3059500.99447  -2169601.78246  23663016.4804   23663025.5814   23663017.281
        44.0004         39.0004
 -13260766.43048 -10307307.50247  22187213.3994   22187223.3094   22187212.980
        49.0004         44.0004
   1124079.34746    869286.13846  24325737.8314   24325744.4154   24325737.460
        41.0004         37.0004
  -9801646.17547  -7592748.71146  22597496.7754   22597504.3634   22597495.852
        46.0004         41.0004
  -8006491.57547  -6219551.76346  23674229.9934   23674235.8364   23674230.119
        42.0004         38.0004
 -13366437.15147 -10375716.24546  22939207.1384   22939217.2444   22939207.344
        46.0004         41.0004
 -24756800.19849 -19257478.62048  20149404.7334   20149410.0064   20149404.339
        54.0004         49.0004
 14  5  1  0 12  0.0000000  0 12G17G10G08G09G23G20G01G28G13G11G04G07
 -16120478.69448 -12517181.63147  21953269.4914   21953276.2814   21953268.727
        51.0004         46.0004
  -4211623.17046  -3277740.10446  24869342.5384   24869357.8814   24869343.633
        41.0004         36.0004
  -9519618.43048  -7412281.90347  20945157.3404   20945163.7694   20945157.665
        52.0004         47.0004
 -16683076.81148 -12953554.08947  20956250.9904   20956257.1884   20956250.842
        51.0004         47.0004
   5304716.82046   4144882.18745  24849963.3304   24849970.9754   24849961.774
        40.0004         35.0004
  -3064113.61747  -2173195.97446  23662139.0874   23662147.8064   23662139.121
        43.0004         39.0004
 -13191843.66048 -10253601.41847  22200329.4634   22200337.5634   22200328.525
        49.0004         44.0004
   1100520.86147    850928.96846  24321253.8024   24321262.1084   24321254.441
        42.0004         37.0004
  -9719498.57347  -7528737.60446  22613128.7274   22613136.2134   22613128.507
        46.0004         41.0004
  -7906938.00247  -6141977.51646  23693175.2884   23693180.3444   23693174.749
        42.0004         38.0004
 -13464532.47547 -10452154.00446  22920541.4084   22920551.1104   22920541.149
        46.0004         41.0004
 -24770100.29549 -19267842.33348  20146873.8364   20146879.2074   20146873.558
        54.0004         49.0004
 14  5  1  0 12 30.0000000  0 12G17G10G08G09G23G20G01G28G13G11G04G07
 -16096948.45548 -12498846.35747  21957746.8464   21957753.7054   21957746.512
        51.0004         46.0004
  -4244244.77446  -3303159.35746  24863133.4984   24863148.5014   24863135.358
        41.0004         36.0004
  -9595150.47648  -7471138.02247  20930783.7914   20930790.2544   20930784.018
        52.0004         47.0004
 -16754897.93648 -13009518.57247  20942583.9654   20942589.8844   20942583.930
        51.0004         47.0004
   5389697.75946   4211101.15045  24866133.9574   24866142.9804   24866133.511
        40.0004         35.0004
  -3068660.57947  -2176739.01046  23661274.0364   23661282.2534   23661273.724
        43.0004         39.0004
 -13122496.13948 -10199564.35647  22213525.0454   22213534.0364   22213525.373
        49.0004         44.0004
   1076681.28947    832352.77746  24316718.0394   24316727.1614   24316718.381
        42.0004         37.0004
  -9637330.72047  -7464710.71746  22628766.6284   22628771.5574   22628764.875
        46.0004         41.0004
  -7807205.85547  -6064264.16046  23712153.5794   23712159.6294   23712153.116
        42.0004         38.0004
 -13562492.95147 -10528486.68946  22901900.0604   22901909.5944   22901899.143
        46.0004         41.0004
 -24782822.24049 -19277755.54148  20144452.9734   20144458.4004   20144452.740
        54.0004         49.0004
 14  5  1  0 13  0.0000000  0 12G17G10G08G09G23G20G01G28G13G11G04G07
 -16073120.70948 -12480279.25947  21962281.6454   21962288.3734   21962280.849
        51.0004         46.0004
  -4277116.03046  -3328773.14446  24856879.7654   24856894.1444   24856880.693
        41.0004         37.0004
  -9670312.07448  -7529705.47048  20916481.1524   20916487.4714   20916481.446
        52.0004         48.0004
 -16826319.69848 -13065171.87147  20928992.7804   20928998.9764   20928992.713
        51.0004         47.0004
   5474475.27646   4277161.60745  24882266.6024   24882274.7414   24882265.753
        40.0004         35.0004
  -3073146.23147  -2180234.26046  23660418.2524   23660428.5574   23660419.767
        43.0004         39.0004
 -13052732.18048 -10145202.80447  22226801.1724   22226809.6864   22226800.814
        48.0004         44.0004
   1052554.16047    813552.51846  24312127.5114   24312133.3784   24312126.825
        42.0004         37.0004
  -9555151.79247  -7400675.18546  22644402.8444   22644411.3484   22644402.797
        46.0004         41.0004
  -7707304.23247  -5986418.74546  23731164.0054   23731169.2914   23731163.996
        43.0004         38.0004
 -13660322.08847 -10604717.03346  22883282.8464   22883293.0274   22883283.182
        46.0004         41.0004
 -24794971.27249 -19287222.32748  20142141.2604   20142146.1244   20142140.985
        54.0004         49.0004
 14  5  1  0 13 30.0000000  0 12G17G10G08G09G23G20G01G28G13G11G04G07
 -16048993.05948 -12461478.47247  21966872.7584   21966879.2934   21966871.852
        51.0004         46.0004
  -4310232.45746  -3354577.96846  24850578.3844   24850591.4814   24850578.230
        41.0004         37.0004
  -9745095.41848  -7587978.17648  20902250.2614   20902256.7474   20902250.530
        52.0004         48.0004
 -16897334.46448 -13120508.02447  20915479.2164   20915484.5674   20915478.782
        51.0004         47.0004
   5559052.79946   4343066.25245  24898359.0794   24898368.8094   24898360.305
        39.0004         35.0004
  -3077564.30247  -2183676.86346  23659579.4214   23659588.5204   23659579.547
        43.0004         39.0004
 -12982548.97148 -10090514.55447  22240156.6484   22240165.0084   22240156.180
        48.0004         44.0004
   1028144.04847    794531.76146  24307481.6364   24307490.1184   24307481.690
        42.0004         37.0004
  -9472959.84247  -7336629.52946  22660045.4654   22660052.6964   22660043.813
        46.0004         41.0004
  -7607231.00847  -5908439.58546  23750208.0124   23750212.5234   23750207.437
        43.0004         38.0004
 -13758012.76847 -10680839.48046  22864693.0764   22864701.8024   22864692.606
        46.0004         41.0004
 -24806541.34549 -19296237.97148  20139939.5414   20139944.3134   20139939.136
        54.0004         49.0004
 14  5  1  0 14  0.0000000  0 12G17G10G08G09G23G20G01G28G13G11G04G07
 -16024568.00848 -12442445.94347  21971519.8144   21971527.5684   21971520.063
        51.0004         46.0004
  -4343594.78146  -3380574.39146  24844229.3064   24844243.0604   24844229.246
        41.0004         37.0004
  -9819497.12848  -7645953.51247  20888091.5064   20888098.5164   20888092.214
        52.0004         47.0004
 -16967939.59348 -13175524.97647  20902043.4394   20902049.1164   20902043.336
        51.0004         47.0004
   5643428.82846   4408813.87445  24914414.4584   24914424.8554   24914417.146
        39.0004         34.0004
  -3081912.79247  -2187065.24746  23658751.6844   23658760.5924   23658751.721
        43.0004         39.0004
 -12911948.66748 -10035501.30447  22253591.2544   22253599.9264   22253590.439
        48.0004         44.0004
   1003450.68847    775290.27946  24302783.9304   24302788.2644   24302782.935
        42.0004         37.0004
  -9390757.59147  -7272575.82746  22675687.5154   22675694.1854   22675685.853
        46.0004         41.0004
  -7506989.18347  -5830329.05446  23769282.3804   23769288.0414   23769282.677
        43.0004         38.0004
 -13855562.35747 -10756851.98746  22846130.3354   22846138.8664   22846130.427
        46.0004         41.0004
 -24817531.71049 -19304801.89548  20137848.1264   20137852.8714   20137847.726
        54.0004         49.0004
 14  5  1  0 14 30.0000000  0 12G17G10G08G09G23G20G01G28G13G11G04G07
 -15999849.32348 -12423184.60647  21976224.2274   21976231.2354   21976223.792
        51.0004         46.0004
  -4377204.38946  -3406763.50946  24837832.4104   24837847.2854   24837833.960
        41.0004         37.0004
  -9893515.48748  -7703630.13548  20874006.9924   20874013.0694   20874007.407
        52.0004         48.0004
 -17038133.69348 -13230221.65147  20888685.5354   20888691.5124   20888685.768
        51.0004         47.0004
   5727600.53346   4474402.25045  24930434.0724   24930440.8654   24930434.136
        39.0004         34.0004
  -3086190.95947  -2190398.82746  23657937.9814   23657946.7324   23657938.417
        43.0004         39.0004
 -12840934.33148  -9980165.43347  22267105.2664   22267112.4084   22267104.584
        48.0004         44.0004
    978473.39447    755827.54946  24298030.0354   24298036.9454   24298030.151
        42.0004         37.0004
  -9308548.98047  -7208517.17746  22691329.7624   22691337.1814   22691329.725
        46.0004         41.0004
  -7406582.40347  -5752090.00046  23788389.9414   23788394.7314   23788389.459
        42.0004         38.0004
 -13952969.61847 -10832753.60346  22827593.9234   22827602.5764   22827593.671
        46.0004         41.0004
 -24827942.75149 -19312914.39748  20135866.9054   20135872.0234   20135866.587
        54.0004         49.0004
 14  5  1  0 15  0.0000000  0 12G17G10G08G09G23G20G01G28G13G11G04G07
 -15974838.50348 -12403695.63547  21980983.8994   21980990.9294   21980983.025
        51.0004         46.0004
  -4411060.81947  -3433144.97646  24831391.9994   24831405.1794   24831391.343
        42.0004         37.0004
  -9967146.46248  -7761004.90048  20859995.3134   20860001.2464   20859995.678
        52.0004         48.0004
 -17107913.15148 -13284595.23347  20875407.2144   20875413.6174   20875407.158
        51.0004         47.0004
   5811567.40146   4539831.02545  24946413.4674   24946420.6484   24946412.833
        39.0004         34.0004
  -3090396.29147  -2193675.66046  23657135.9734   23657146.5104   23657137.196
        44.0004         39.0004
 -12769507.10448  -9924507.82847  22280697.0354   22280705.6924   22280696.571
        48.0004         44.0004
    953213.07047    736144.26746  24293222.2774   24293229.0824   24293222.884
        42.0004         37.0004
  -9226336.01047  -7144455.13446  22706974.5904   22706983.1034   22706974.352
        45.0004         41.0004
  -7306012.84047  -5673724.11546  23807527.6034   23807532.5654   23807527.343
        43.0004         38.0004
 -14050230.95147 -10908541.48847  22809086.3614   22809095.1254   22809085.324
        46.0004         42.0004
 -24837772.47149 -19320573.92248  20133996.2754   20134001.3204   20133996.064
        54.0004         50.0004
 14  5  1  0 15 30.0000000  0 12G17G10G08G09G23G20G01G28G13G11G04G07
 -15949538.98548 -12383981.70147  21985797.8754   21985805.0934   21985797.316
        51.0004         46.0004
  -4445165.49246  -3459719.85946  24824901.8604   24824914.8394   24824900.973
        41.0004         37.0004
 -10040387.78348  -7818076.04448  20846057.7844   20846064.0524   20846058.382
        52.0004         48.0004
 -17177276.24248 -13338644.37147  20862208.0914   20862213.9914   20862207.763
        52.0004         47.0004
   5895326.87246   4605098.19645  24962350.3864   24962357.2574   24962352.031
        39.0004         34.0004
  -3094528.34347  -2196895.38146  23656350.9144   23656359.8604   23656351.063
        43.0004         39.0004
 -12697669.82248  -9868530.69847  22294367.2344   22294375.2314   22294366.518
        48.0004         44.0004
    927668.84347    716239.76246  24288361.4064   24288367.2244   24288362.051
        42.0004         37.0004
  -9144122.36747  -7080392.55546  22722619.1654   22722628.0834   22722619.063
        45.0004         41.0004
  -7205283.91047  -5595234.02346  23826694.2034   23826699.5944   23826695.377
        42.0004         38.0004
 -14147344.61647 -10984214.32047  22790605.0014   22790613.7724   22790604.834
        46.0004         42.0004
 -24847020.82249 -19327780.43448  20132236.5594   20132241.4394   20132236.059
        54.0004         50.0004
 14  5  1  0 16  0.0000000  0 12G17G10G08G09G23G20G01G28G13G11G04G07
 -15923951.67248 -12364043.50747  21990667.1834   21990674.8634   21990666.301
        51.0004         46.0004
  -4479517.08946  -3486487.14546  24818363.1954   24818377.7324   24818364.223
        41.0004         37.0004
 -10113234.71648  -7874839.86248  20832195.5684   20832201.9834   20832195.945
        52.0004         48.0004
 -17246218.42648 -13392365.52547  20849088.3454   20849094.4324   20849088.323
        52.0004         47.0004
   5978879.10346   4670203.87145  24978254.0384   24978258.4884   24978251.107
        39.0004         35.0004
  -3098583.72347  -2200055.35946  23655578.3584   23655588.0764   23655579.137
        43.0004         39.0004
 -12625423.05448  -9812234.48747  22308114.8544   22308123.7554   22308115.039
        48.0004         44.0004
    901842.47247    696115.40546  24283446.9574   24283452.8384   24283446.905
        42.0004         37.0004
  -9061909.03547  -7016330.21346  22738265.4304   22738271.3714   22738263.343
        45.0004         41.0004
  -7104396.69547  -5516620.61146  23845893.6174   23845898.7994   23845893.893
        42.0004         38.0004
 -14244306.63447 -11059768.96947  22772153.8004   22772163.1394   22772153.279
        46.0004         42.0004
 -24855685.39649 -19334532.04748  20130587.7104   20130592.5694   20130587.414
        54.0004         50.0004
 14  5  1  0 16 30.0000000  0 12G17G10G08G09G23G20G01G28G13G11G04G07
 -15898080.96548 -12343884.49447  21995589.5944   21995596.8884   21995589.462
        51.0004         46.0004
  -4514117.92346  -3513448.63746  24811780.0344   24811793.5044   24811779.132
        41.0004         37.0004
 -10185685.75148  -7931295.18148  20818408.6424   20818415.3624   20818408.995
        52.0004         48.0004
 -17314739.35648 -13445758.43547  20836049.4704   20836055.2054   20836049.262
        52.0004         47.0004
   6062220.99946   4735145.64945  24994113.3124   24994116.9814   24994110.872
        39.0004         35.0004
  -3102561.77147  -2203155.09746  23654822.7064   23654830.5514   23654823.156
        44.0004         39.0004
 -12552770.56748  -9755622.13547  22321940.2274   22321949.6364   22321939.898
        48.0004         44.0004
    875732.32447    675769.93146  24278478.1594   24278484.6404   24278478.397
        42.0004         37.0004
  -8979700.64647  -6952271.73746  22753907.9454   22753914.0964   22753907.388
        45.0004         41.0004
  -7003355.73047  -5437887.40946  23865120.2404   23865125.1934   23865121.155
        42.0004         37.0004
 -14341116.12947 -11135204.76647  22753731.3494   22753740.3424   22753730.913
        46.0004         42.0004
 -24863767.28549 -19340829.61748  20129049.9534   20129055.0584   20129049.280
        54.0004         50.0004
 14  5  1  0 17  0.0000000  0 12G17G10G08G09G23G20G01G28G13G11G04G07
 -15871926.81648 -12323504.61047  22000567.0944   22000573.8504   22000566.811
        51.0004         46.0004
  -4548966.19146  -3540602.94446  24805147.0884   24805161.7884   24805147.864
        41.0004         36.0004
 -10257735.03648  -7987437.45948  20804698.1804   20804704.2024   20804698.377
        53.0004         48.0004
 -17382833.57548 -13498818.84847  20823091.1364   20823097.8334   20823091.414
        52.0004         47.0004
   6145353.44846   4799924.22645  25009931.1814   25009935.0764   25009930.528
        39.0004         34.0004
  -3106458.33347  -2206191.33246  23654080.6404   23654089.3994   23654080.800
        44.0004         39.0004
 -12479711.93348  -9698693.30147  22335845.0004   22335850.6074   22335843.075
        48.0004         44.0004
    849341.06747    655205.40046  24273456.8744   24273462.2334   24273456.290
        42.0004         37.0004
  -8897497.20647  -6888217.11746  22769550.7954   22769556.7744   22769550.741
        45.0004         41.0004
  -6902161.45347  -5359034.70646  23884377.3084   23884383.3814   23884377.449
        42.0004         37.0004
 -14437767.72547 -11210517.52847  22735338.9244   22735349.2184   22735338.649
        46.0004         42.0004
 -24871262.99849 -19346670.43348  20127623.1334   20127628.3754   20127622.849
        54.0004         50.0004
 14  5  1  0 17 30.0000000  0 12G17G10G08G09G23G20G01G28G13G11G04G07
 -15845491.17648 -12302905.39347  22005597.2614   22005604.5264   22005596.821
        51.0004         46.0004
  -4584060.94346  -3567949.30546  24798467.3374   24798484.0504   24798468.714
        41.0004         37.0004
 -10329378.97848  -8043263.88948  20791065.2214   20791070.8534   20791065.141
        53.0004         48.0004
 -17450497.68248 -13551544.09647  20810215.4384   20810221.8034   20810215.488
        52.0004         47.0004
   6228275.90046   4864539.14345  25025710.8334   25025717.3694   25025711.037
        39.0004         35.0004
  -3110271.38747  -2209162.50446  23653354.8634   23653363.8684   23653355.630
        44.0004         39.0004
 -12406248.61248  -9641449.13947  22349823.7344   22349830.9834   22349822.531
        48.0004         43.0004
    822669.26847    634422.26146  24268380.2864   24268387.2604   24268380.275
        42.0004         37.0004
  -8815301.02247  -6824168.14446  22785192.7494   22785198.6794   22785192.566
        45.0004         40.0004
  -6800815.83447  -5280064.09846  23903662.4214   23903669.6194   23903662.666
        42.0004         38.0004
 -14534258.54247 -11285705.00247  22716976.7804   22716987.6864   22716976.596
        46.0004         42.0004
 -24878171.00349 -19352053.30048  20126308.9004   20126313.8374   20126308.368
        54.0004         50.0004
 14  5  1  0 18  0.0000000  0 12G17G10G08G09G23G20G01G28G13G11G04G07
 -15818780.23548 -12282091.65247  22010680.5374   22010687.0204   22010680.183
        51.0004         46.0004
  -4619406.03346  -3595490.75546  24791743.6284   24791757.7494   24791743.598
        41.0004         36.0004
 -10400618.06348  -8098774.84848  20777508.3824   20777514.4104   20777508.781
        53.0004         48.0004
 -17517732.85248 -13603935.11647  20797420.8334   20797426.9374   20797421.047
        52.0004         47.0004
   6310983.01346   4928986.25245  25041450.5004   25041457.4554   25041448.747
        39.0004         34.0004
  -3114002.82347  -2212070.06946  23652644.6714   23652654.7064   23652644.845
        44.0004         39.0004
 -12332386.23148  -9583894.02647  22363877.9644   22363886.1544   22363877.652
        48.0004         43.0004
    795713.66147    613417.97246  24263251.8994   24263256.5784   24263250.844
        42.0004         37.0004
  -8733118.12247  -6760129.53846  22800831.1004   22800837.3674   22800830.754
        45.0004         41.0004
  -6699325.45147  -5200980.69746  23922977.0724   23922981.8904   23922975.924
        42.0004         38.0004
 -14630589.32447 -11360767.78347  22698646.4874   22698655.7714   22698646.074
        47.0004         42.0004
 -24884494.02349 -19356980.34048  20125105.5954   20125110.3224   20125105.222
        54.0004         50.0004
 14  5  1  0 18 30.0000000  0 12G17G10G08G09G23G20G01G28G13G11G04G07
 -15791792.09848 -12261061.91347  22015816.1084   22015822.7334   22015815.337
        51.0004         46.0004
  -4654997.98246  -3623224.52446  24784968.5334   24784983.4534   24784969.479
        41.0004         36.0004
 -10471444.86048  -8153964.54348  20764030.4714   20764037.0274   20764030.945
        53.0004         48.0004
 -17584532.09848 -13655986.45547  20784709.3914   20784716.2024   20784709.386
        52.0004         47.0004
   6393478.01346   4993268.08245  25057145.6674   25057154.9964   25057146.990
        39.0004         34.0004
  -3117645.96647  -2214908.85146  23651951.6384   23651959.3204   23651952.321
        44.0004         39.0004
 -12258122.48948  -9526026.15447  22378010.6324   22378018.6504   22378009.478
        48.0004         43.0004
    768478.74147    592196.04146  24258068.4394   24258075.1034   24258068.167
        42.0004         37.0004
  -8650946.83647  -6696099.95546  22816467.6644   22816475.1054   22816467.283
        45.0004         40.0004
  -6597688.30747  -5121782.93146  23942316.3274   23942322.4824   23942317.107
        42.0004         38.0004
 -14726753.34347 -11435700.61147  22680347.0724   22680356.0644   22680345.994
        47.0004         42.0004
 -24890226.46049 -19361447.17448  20124014.7154   20124019.8834   20124014.451
        54.0004         50.0004
 14  5  1  0 19  0.0000000  0 12G17G10G08G09G23G20G01G28G13G11G04G07
 -15764531.26248 -12239819.67947  22021003.4624   22021010.5794   22021003.436
        51.0004         46.0004
  -4690839.04546  -3651152.42846  24778148.7894   24778162.8904   24778149.349
        41.0004         36.0004
 -10541858.49048  -8208832.28748  20750631.5384   20750637.4914   20750631.627
        53.0004         48.0004
 -17650894.89248 -13707697.70147  20772081.0734   20772087.5574   20772081.031
        52.0004         47.0004
   6475757.41146   5057381.93245  25072803.2254   25072809.6204   25072804.844
        39.0004         35.0004
  -3121201.53947  -2217679.38146  23651274.7624   23651284.1264   23651274.933
        44.0004         39.0004
 -12183461.72848  -9467848.91747  22392218.3214   22392225.8134   22392216.755
        48.0004         43.0004
    740962.79647    570755.15046  24252832.8094   24252839.3094   24252832.419
        42.0004         37.0004
  -8568792.16647  -6632083.33046  22832101.1464   22832109.1924   22832101.007
        45.0004         41.0004
  -6495909.37047  -5042474.66146  23961684.3824   23961689.8544   23961685.118
        42.0004         38.0004
 -14822750.01447 -11510503.04647  22662079.2314   22662088.0304   22662079.022
        47.0004         42.0004
 -24895370.76049 -19365455.71648  20123035.7924   20123040.9464   20123035.320
        54.0004         50.0004
 14  5  1  0 19 30.0000000  0 12G17G10G08G09G23G20G01G28G13G11G04G07
 -15737000.31248 -12218366.97547  22026242.8024   22026249.8434   22026242.322
        51.0004         46.0004
  -4726929.49546  -3679274.64546  24771281.8494   24771294.9224   24771281.781
        41.0004         36.0004
 -10611855.56248  -8263375.43548  20737310.8844   20737317.5394   20737311.282
        53.0004         48.0004
 -17716818.69848 -13759066.87847  20759535.9284   20759542.3144   20759536.055
        52.0004         47.0004
   6557819.75146   5121326.62845  25088417.6054   25088428.2804   25088419.874
        38.0004         34.0004
  -3124667.25547  -2220379.90646  23650615.2244   23650623.7764   23650615.794
        44.0004         39.0004
 -12108406.10848  -9409364.00847  22406500.3744   22406508.6414   22406499.521
        48.0004         43.0004
    713165.82547    549095.25346  24247542.2524   24247548.9784   24247542.283
        42.0004         37.0004
  -8486656.79447  -6568081.74246  22847729.7824   22847738.4074   22847731.170
        45.0004         40.0004
  -6393991.67147  -4963058.26046  23981078.9924   23981083.8284   23981079.631
        42.0004         38.0004
 -14918576.67347 -11585172.99847  22643843.3474   22643853.2414   22643843.387
        47.0004         42.0004
 -24899926.01249 -19369005.26248  20122168.8974   20122173.8424   20122168.363
        54.0004         50.0004
 14  5  1  0 20  0.0000000  0 12G17G10G08G09G23G20G01G28G13G11G04G07
 -15709201.45848 -12196705.51647  22031532.3164   22031539.3154   22031531.704
        51.0004         46.0004
  -4763268.80446  -3707590.80046  24764365.9144   24764378.9414   24764366.146
        41.0004         36.0004
 -10681432.37448  -8317591.11348  20724071.0024   20724077.5104   20724071.233
        53.0004         48.0004
 -17782300.20348 -13810091.41247  20747075.3604   20747081.6254   20747075.365
        52.0004         47.0004
   6639664.43446   5185101.69745  25103994.4284   25104002.5974   25103994.449
        39.0004         34.0004
  -3128041.24947  -2223008.94846  23649973.0834   23649982.0144   23649973.372
        44.0004         39.0004
 -12032956.95848  -9350572.43847  22420857.4954   22420865.8284   22420857.478
        48.0004         43.0004
    685088.89747    527217.20246  24242199.5254   24242205.0664   24242199.539
        42.0004         37.0004
  -8404542.38847  -6504096.49646  22863358.3394   22863364.7494   22863356.933
        45.0004         40.0004
  -6291936.76347  -4883534.94546  24000500.3194   24000505.4884   24000499.726
        42.0004         38.0004
 -15014229.99947 -11659707.89947  22625641.5244   22625650.2154   22625641.397
        47.0004         42.0004
 -24903890.39249 -19372094.38348  20121414.7194   20121419.5424   20121414.248
        54.0004         50.0004
 14  5  1  0 20 30.0000000  0 12G17G10G08G09G23G20G01G28G13G11G04G07
 -15681136.99448 -12174837.08747  22036872.7774   22036879.8774   22036872.363
        51.0004         46.0004
  -4799856.92046  -3736100.83146  24757403.2684   24757416.4284   24757403.746
        41.0004         36.0004
 -10750585.72848  -8371476.82648  20710911.5924   20710918.1014   20710911.787
        52.0004         48.0004
 -17847336.64348 -13860769.13747  20734699.5774   20734705.6924   20734699.489
        52.0004         47.0004
   6721289.91446   5248705.96645  25119527.6014   25119532.9214   25119526.304
        39.0004         34.0004
  -3131321.36847  -2225564.84846  23649349.2304   23649358.0674   23649349.379
        44.0004         39.0004
 -11957116.34248  -9291475.82747  22435290.4384   22435297.6584   22435288.893
        48.0004         43.0004
    656732.30847    505121.22046  24236800.9574   24236808.4844   24236803.828
        42.0004         37.0004
  -8322451.66347  -6440129.69346  22878979.2214   22878986.0944   22878978.052
        45.0004         40.0004
  -6189747.43547  -4803906.90146  24019946.0304   24019951.3374   24019945.525
        42.0004         38.0004
 -15109707.33547 -11734105.65747  22607472.4214   22607482.5344   22607471.805
        47.0004         42.0004
 -24907263.17149 -19374722.51948  20120772.4574   20120778.1774   20120772.034
        54.0004         49.0004
 14  5  1  0 21  0.0000000  0 12G17G10G08G09G23G20G01G28G13G11G04G07
 -15652807.95448 -12152762.49247  22042262.8954   22042270.5734   22042263.027
        51.0004         46.0004
  -4836693.00246  -3764804.05446  24750392.4524   24750408.9844   24750394.104
        41.0004         37.0004
 -10819311.27848  -8425029.17548  20697833.5134   20697839.6544   20697833.600
        53.0004         48.0004
 -17911924.29148 -13911097.15148  20722408.7404   20722415.2434   20722408.886
        52.0004         48.0004
   6802696.45346   5312139.62645  25135014.8744   25135028.9104   25135017.895
        39.0004         34.0004
  -3134504.61947  -2228045.27546  23648742.9324   23648752.3244   23648743.569
        44.0004         39.0004
 -11880885.19947  -9232074.92947  22449795.7664   22449804.3484   22449795.138
        47.0004         43.0004
    628097.23447    482808.25246  24231354.6384   24231360.5844   24231354.614
        42.0004         37.0004
  -8240386.01247  -6376182.42846  22894595.2014   22894602.9914   22894594.416
        45.0004         40.0004
  -6087424.98347  -4724175.11646  24039417.0284   24039422.2674   24039416.755
        42.0004         37.0004
 -15205004.70247 -11808363.20147  22589338.1184   22589346.4464   22589337.755
        47.0004         43.0004
 -24910042.83949 -19376888.49548  20120243.8844   20120248.5134   20120243.248
        54.0004         49.0004
 14  5  1  0 21 30.0000000  0 12G17G10G08G09G23G20G01G28G13G11G04G07
 -15624219.20148 -12130485.53047  22047704.6174   22047711.4064   22047703.943
        51.0004         46.0004
  -4873779.23446  -3793702.20246  24743336.2054   24743349.0314   24743335.984
        41.0004         37.0004
 -10887607.93848  -8478247.33848  20684836.7534   20684843.2684   20684837.073
        53.0004         48.0004
 -17976062.68548 -13961075.09447  20710203.8994   20710209.6574   20710203.384
        52.0004         47.0004
   6883880.51046   5375399.89645  25150467.2274   25150474.1384   25150466.811
        39.0004         35.0004
  -3137591.55647  -2230450.64146  23648155.5964   23648164.3544   23648155.964
        44.0004         39.0004
 -11804267.69247  -9172372.96447  22464376.3864   22464383.7584   22464375.657
        47.0004         43.0004
    599182.24847    460277.18046  24225851.2994   24225858.1284   24225851.692
        42.0004         37.0004
  -8158350.00847  -6312258.26346  22910204.5604   22910213.9994   22910205.997
        45.0004         40.0004
  -5984974.23447  -4644343.35346  24058912.5894   24058917.9104   24058912.553
        42.0004         37.0004
 -15300121.46147 -11882480.00247  22571237.0274   22571246.1994   22571237.134
        47.0004         42.0004
 -24912230.62949 -19378593.26848  20119827.6604   20119832.2584   20119826.965
        54.0004         49.0004
 14  5  1  0 22  0.0000000  0 12G17G10G08G09G23G20G01G28G13G11G04G07
 -15595371.23648 -12108006.58947  22053193.9384   22053200.6124   22053192.940
        51.0004         46.0004
  -4911113.95646  -3822794.00446  24736231.5434   24736243.5344   24736231.862
        41.0004         37.0004
 -10955470.83548  -8531127.49948  20671923.0674   20671929.2674   20671923.306
        53.0004         48.0004
 -18039747.37748 -14010699.50348  20698084.7744   20698090.6954   20698084.718
        52.0004         48.0004
   6964843.23246   5438487.73945  25165873.2964   25165883.7494   25165873.464
        39.0004         34.0004
  -3140577.36947  -2232777.22346  23647587.0114   23647596.1054   23647587.449
        43.0004         39.0004
 -11727264.06247  -9112370.11847  22479028.2344   22479036.7924   22479028.090
        47.0004         43.0004
    569989.75647    437529.85846  24220295.7164   24220302.4544   24220296.453
        42.0004         37.0004
  -8076344.17647  -6248357.63046  22925810.2314   22925818.8854   22925811.107
        45.0004         40.0004
  -5882396.06247  -4564412.29046  24078431.3604   24078438.4794   24078432.605
        42.0004         37.0004
 -15395053.31347 -11956452.72147  22553172.7534   22553182.1264   22553172.470
        47.0004         42.0004
 -24913824.02149 -19379834.87348  20119524.3304   20119529.0714   20119523.769
        54.0004         49.0004
 14  5  1  0 22 30.0000000  0 12G17G10G08G09G23G20G01G28G13G11G04G07
 -15566266.54948 -12085327.60047  22058732.4424   22058739.0244   22058731.892
        51.0004         46.0004
  -4948697.49746  -3852079.65146  24729079.4364   24729093.4004   24729079.891
        41.0004         36.0004
 -11022896.66148  -8583667.09248  20659092.3274   20659098.9454   20659092.622
        53.0004         48.0004
 -18102975.47048 -14059968.12848  20686053.0144   20686058.9194   20686052.973
        52.0004         48.0004
   7045583.42546   5501402.12245  25181241.6654   25181247.2694   25181238.247
        40.0004         35.0004
  -3143460.66747  -2235023.93246  23647037.9234   23647047.4224   23647039.602
        43.0004         39.0004
 -11649876.29847  -9052067.95147  22493754.3424   22493764.5784   22493754.044
        47.0004         42.0004
    540520.18247    414566.63746  24214688.9144   24214695.3454   24214688.966
        42.0004         37.0004
  -7994370.84047  -6184482.28646  22941409.4334   22941417.2494   22941410.226
        45.0004         40.0004
  -5779692.76946  -4484383.76346  24097974.8454   24097982.6004   24097975.907
        41.0004         37.0004
 -15489797.03347 -12030278.85447  22535143.3824   22535152.2854   22535142.923
        47.0004         42.0004
 -24914821.92149 -19380612.45948  20119334.4374   20119339.4384   20119333.971
        54.0004         49.0004
 14  5  1  0 23  0.0000000  0 12G17G10G08G09G23G20G01G28G13G11G04G07
 -15536909.51348 -12062451.97847  22064318.4234   22064325.4164   22064318.148
        51.0004         46.0004
  -4986531.65446  -3881560.60946  24721880.3974   24721894.4514   24721880.440
        41.0004         37.0004
 -11089884.37848  -8635865.29848  20646344.9614   20646351.5804   20646345.340
        53.0004         48.0004
 -18165746.42148 -14108880.52948  20674107.8094   20674113.8344   20674107.896
        52.0004         48.0004
   7126097.35046   5564140.24145  25196558.4774   25196569.2664   25196560.030
        39.0004         34.0004
  -3146242.03947  -2237191.22646  23646510.1594   23646517.7444   23646509.916
        43.0004         39.0004
 -11572108.56247  -8991469.70147  22508554.2564   22508561.5994   22508553.361
        47.0004         43.0004
    510771.83847    391386.19446  24209027.2314   24209034.6274   24209028.277
        42.0004         38.0004
  -7912434.67047  -6120635.91446  22957000.8544   22957010.3674   22957001.330
        45.0004         40.0004
  -5676869.09646  -4404261.40446  24117543.4534   24117548.4214   24117542.723
        41.0004         36.0004
 -15584352.15647 -12103958.02647  22517151.5634   22517159.2144   22517149.733
        47.0004         43.0004
 -24915226.13749 -19380927.42748  20119257.4244   20119261.9924   20119256.953
        54.0004         49.0004
 14  5  1  0 23 30.0000000  0 12G17G10G08G09G23G20G01G28G13G11G04G07
 -15507300.06848 -12039379.66547  22069952.8864   22069960.0684   22069952.663
        51.0004         46.0004
  -5024613.85746  -3911234.81246  24714634.1164   24714647.5074   24714633.150
        41.0004         37.0004
 -11156428.06948  -8687717.51048  20633681.9244   20633688.7634   20633682.606
        53.0004         48.0004
 -18228055.05048 -14157432.68348  20662251.0874   20662257.1904   20662250.877
        52.0004         48.0004
   7206386.85646   5626703.46745  25211838.6664   25211846.6184   25211838.926
        39.0004         35.0004
  -3148916.34047  -2239275.08046  23646000.2964   23646009.3084   23646000.775
        43.0004         39.0004
 -11493960.34847  -8930574.98347  22523425.1894   22523433.7384   22523424.235
        47.0004         43.0004
    480747.88947    367990.98946  24203313.5074   24203319.9264   24203314.591
        42.0004         37.0004
  -7830535.13647  -6056818.11746  22972587.5714   22972593.9264   22972586.018
        45.0004         40.0004
  -5573925.04546  -4324045.24546  24137132.9044   24137138.0224   24137132.700
        41.0004         36.0004
 -15678713.19447 -12177485.96647  22499192.1864   22499202.2044   22499193.356
        47.0004         43.0004
 -24915033.51049 -19380777.32248  20119293.7344   20119299.0714   20119293.617
        54.0004         49.0004
 14  5  1  0 24  0.0000000  0 12G17G10G08G09G23G20G01G28G13G11G04G07
 -15477443.09548 -12016114.47547  22075634.2794   22075641.5384   22075634.243
        50.0004         46.0004
  -5062946.91046  -3941104.51146  24707337.4434   24707352.1184   24707338.403
        41.0004         36.0004
 -11222527.22948  -8739223.33248  20621103.9914   20621110.0514   20621104.261
        53.0004         48.0004
 -18289901.51848 -14205624.70848  20650482.5094   20650488.2864   20650482.198
        52.0004         48.0004
   7286448.16246   5689088.87045  25227073.1244   25227082.1204   25227074.118
        39.0004         35.0004
  -3151484.76047  -2241276.43746  23645511.9724   23645521.0504   23645512.716
        43.0004         39.0004
 -11415436.48547  -8869387.55547  22538367.6354   22538376.2354   22538367.243
        47.0004         43.0004
    450445.90447    344379.14546  24197547.4634   24197553.7774   24197547.949
        42.0004         37.0004
  -7748677.76647  -5993033.13946  22988162.5814   22988170.7744   22988163.491
        45.0004         40.0004
  -5470865.90646  -4243739.43046  24156743.6704   24156748.9994   24156743.910
        41.0004         36.0004
 -15772880.23547 -12250862.74747  22481274.4164   22481282.5164   22481273.386
        47.0004         43.0004
 -24914246.13649 -19380163.78148  20119444.0664   20119448.7904   20119443.532
        54.0004         49.0004
 14  5  1  0 24 30.0000000  0 12G17G10G08G09G23G20G01G28G13G11G04G07
 -15447337.62148 -11992655.64747  22081363.5584   22081369.9924   22081363.118
        50.0004         46.0004
  -5101526.95346  -3971166.66446  24699996.6374   24700010.2364   24699996.312
        41.0004         36.0004
 -11288174.84448  -8790377.30048  20608611.5564   20608618.0204   20608611.738
        53.0004         48.0004
 -18351279.41948 -14253451.62048  20638802.1234   20638808.2274   20638802.168
        52.0004         48.0004
   7366283.93546   5751298.55545  25242264.5944   25242273.9394   25242266.317
        40.0004         35.0004
  -3153941.19547  -2243190.51946  23645044.4234   23645053.7414   23645044.838
        43.0004         38.0004
 -11336535.13647  -8807905.96047  22553382.1824   22553389.6994   22553381.687
        47.0004         43.0004
    419870.40647    320554.16346  24191729.5204   24191736.4544   24191730.215
        42.0004         37.0004
  -7666861.22147  -5929279.98146  23003732.4004   23003740.7544   23003732.794
        44.0004         40.0004
  -5367690.14246  -4163342.72546  24176378.4034   24176383.0834   24176377.640
        41.0004         36.0004
 -15866846.39947 -12324082.99947  22463392.1984   22463401.5884   22463391.948
        47.0004         43.0004
 -24912859.46549 -19379083.26248  20119707.9464   20119712.8314   20119707.483
        54.0004         49.0004
 14  5  1  0 25  0.0000000  0 12G17G10G08G09G23G20G01G28G13G11G04G07
 -15416989.04548 -11969007.39147  22087138.5124   22087145.2754   22087138.183
        50.0004         46.0004
  -5140357.01046  -4001423.63046  24692606.6324   24692619.4024   24692607.297
        41.0004         36.0004
 -11353370.96648  -8841179.46448  20596205.3794   20596211.4024   20596205.642
        53.0004         48.0004
 -18412189.46848 -14300913.97248  20627211.0624   20627217.3204   20627211.120
        52.0004         48.0004
   7445889.73446   5813328.99045  25257414.1344   25257419.3364   25257414.577
        39.0004         35.0004
  -3156286.92147  -2245018.36646  23644598.4584   23644606.8104   23644598.385
        43.0004         38.0004
 -11257261.73347  -8746134.46747  22568467.6834   22568477.0694   22568466.491
        47.0004         43.0004
    389018.56547    296513.85746  24185858.0814   24185865.4854   24185859.239
        42.0004         38.0004
  -7585090.74347  -5865562.72146  23019294.0594   23019300.6234   23019292.962
        44.0004         40.0004
  -5264403.53946  -4082859.64946  24196033.0294   24196037.8764   24196032.908
        41.0004         36.0004
 -15960612.09947 -12397147.04447  22445549.2654   22445558.3964   22445549.329
        47.0004         43.0004
 -24910876.21749 -19377537.88748  20120085.2664   20120090.1694   20120084.841
        54.0004         50.0004
 14  5  1  0 25 30.0000000  0 12G17G10G08G09G23G20G01G28G13G11G04G07
 -15386399.62848 -11945171.46847  22092959.2874   22092966.4764   22092959.084
        50.0004         46.0004
  -5179436.91046  -4031875.28646  24685169.7634   24685183.9294   24685170.387
        41.0004         36.0004
 -11418112.07048  -8891627.06448  20583885.6884   20583891.9274   20583885.848
        53.0004         48.0004
 -18472628.47148 -14348009.27548  20615709.9364   20615716.4734   20615710.008
        52.0004         48.0004
   7525265.19146   5875179.95146  25272518.1034   25272525.0134   25272519.448
        40.0004         36.0004
  -3158519.60347  -2246758.10846  23644172.8794   23644182.3424   23644173.833
        43.0004         38.0004
 -11177618.00647  -8684074.40547  22583622.3744   22583632.0934   22583622.359
        47.0004         42.0004
    357891.20147    272258.85446  24179935.4634   24179941.5674   24179935.418
        42.0004         38.0004
  -7503368.47647  -5801883.03446  23034844.7164   23034852.4404   23034844.307
        44.0004         40.0004
  -5161008.46846  -4002292.06446  24215707.1844   24215716.1434   24215708.594
        40.0004         36.0004
 -16054174.31147 -12470052.53747  22427745.1674   22427753.3714   22427744.970
        47.0004         43.0004
 -24908295.53449 -19375526.97448  20120576.3594   20120581.4674   20120576.151
        54.0004         50.0004
 14  5  1  0 26  0.0000000  0 12G17G10G08G09G23G20G01G28G13G11G04G07
 -15355570.89548 -11921149.06147  22098826.1824   22098833.0874   22098825.851
        50.0004         46.0004
  -5218765.93946  -4062521.07246  24677685.8194   24677699.3934   24677686.948
        41.0004         37.0004
 -11482394.54348  -8941717.29048  20571653.0964   20571659.0284   20571653.325
        53.0004         48.0004
 -18532593.37248 -14394735.15148  20604299.4334   20604305.1894   20604299.210
        52.0004         48.0004
   7604409.89546   5936851.11546  25287582.9324   25287586.8454   25287580.261
        41.0004         36.0004
  -3160636.82247  -2248407.88346  23643770.4794   23643778.2334   23643771.138
        43.0004         38.0004
 -11097605.42347  -8621726.91647  22598848.7914   22598857.8124   22598848.791
        47.0004         42.0004
    326489.63647    247790.17846  24173959.3754   24173966.2764   24173959.748
        42.0004         38.0004
  -7421695.98147  -5738242.10846  23050387.0804   23050393.5184   23050385.862
        44.0004         40.0004
  -5057506.70546  -3921641.33945  24235403.6304   24235408.9004   24235404.174
        40.0004         35.0004
 -16147529.76047 -12542796.91647  22409979.7744   22409989.0984   22409979.802
        47.0004         43.0004
 -24905116.24349 -19373049.61348  20121181.3254   20121186.3774   20121180.986
        54.0004         50.0004
 14  5  1  0 26 30.0000000  0 12G17G10G08G09G23G20G01G28G13G11G04G07
 -15324505.12648 -11896941.95247  22104737.5854   22104744.4654   22104736.979
        50.0004         46.0004
  -5258343.65746  -4093360.62746  24670154.7134   24670167.7024   24670155.052
        41.0004         36.0004
 -11546214.73148  -8991447.29348  20559508.2774   20559514.4154   20559508.699
        53.0004         48.0004
 -18592081.29348 -14441089.35848  20592978.8914   20592984.9694   20592978.937
        52.0004         48.0004
   7683323.13546   5998341.94145  25302596.1894   25302604.7724   25302596.724
        40.0004         35.0004
  -3162636.58647  -2249966.12146  23643389.4214   23643397.6354   23643390.537
        43.0004         38.0004
 -11017225.66247  -8559093.32247  22614145.2724   22614153.3234   22614144.645
        47.0004         43.0004
    294815.02047    223108.74546  24167933.3044   24167937.7204   24167931.899
        42.0004         38.0004
  -7340074.96647  -5674641.32746  23065919.1334   23065926.3194   23065917.678
        44.0004         40.0004
  -4953900.24846  -3840909.03145  24255120.2674   24255125.2804   24255119.870
        40.0004         35.0004
 -16240674.89647 -12615377.41447  22392255.9494   22392263.4674   22392254.750
        47.0004         43.0004
 -24901337.15849 -19370104.87148  20121900.4464   20121905.3304   20121899.765
        54.0004         49.0004
 14  5  1  0 27  0.0000000  0 11G17G10G08G09G20G01G28G13G11G04G07
 -15293206.29648 -11872553.23147  22110692.8684   22110700.6134   22110693.098
        50.0004         46.0004
  -5298171.61446  -4124395.16846  24662576.0844   24662589.1644   24662576.339
        41.0004         36.0004
 -11609571.40548  -9040816.11948  20547451.8494   20547457.9684   20547452.021
        53.0004         48.0004
 -18651091.18248 -14487071.06748  20581750.0174   20581755.7134   20581749.882
        52.0004         48.0004
  -3164517.17347  -2251431.51946  23643032.1024   23643039.7884   23643032.539
        43.0004         38.0004
 -10936482.55347  -8496176.60547  22629509.8754   22629518.2864   22629509.342
        47.0004         43.0004
    262866.13547    198213.60846  24161852.6094   24161859.3584   24161852.625
        42.0004         38.0004
  -7258509.88047  -5611084.11246  23081438.9204   23081447.1494   23081439.293
        44.0004         40.0004
  -4850193.18346  -3760098.33046  24274855.6884   24274860.6324   24274854.680
        40.0004         36.0004
 -16333608.49947 -12687793.08647  22374569.6164   22374580.3114   22374569.778
        47.0004         43.0004
 -24896959.60649 -19366693.79948  20122733.6044   20122738.4524   20122733.045
        54.0004         49.0004
 14  5  1  0 27 30.0000000  0 11G17G10G08G09G20G01G28G13G11G04G07
 -15261674.17548 -11847982.72947  22116694.2204   22116701.4344   22116693.197
        50.0004         46.0004
  -5338247.08446  -4155622.58746  24654948.8104   24654961.5534   24654949.985
        41.0004         37.0004
 -11672458.65748  -9089819.15448  20535484.8474   20535490.9494   20535484.871
        53.0004         48.0004
 -18709617.78648 -14532676.19648  20570612.3504   20570618.4694   20570612.508
        52.0004         48.0004
  -3166275.02547  -2252801.25146  23642697.7104   23642705.8254   23642697.450
        43.0004         38.0004
 -10855375.51247  -8432976.29547  22644943.2674   22644953.1684   22644943.516
        47.0004         42.0004
    230646.35147    173107.37146  24155720.6194   24155726.4524   24155721.283
        42.0004         38.0004
  -7176999.89347  -5547569.83746  23096951.1034   23096958.2714   23096950.177
        44.0004         40.0004
  -4746385.40046  -3679209.15245  24294608.8054   24294614.5034   24294608.576
        40.0004         35.0004
 -16426325.23148 -12760039.76447  22356926.8484   22356935.3584   22356926.529
        48.0004         43.0004
 -24891980.64949 -19362814.09348  20123680.9334   20123685.9234   20123680.566
        54.0004         49.0004
 14  5  1  0 28  0.0000000  0 11G17G10G08G09G20G01G28G13G11G04G07
 -15229912.96448 -11823233.73147  22122737.9504   22122744.8244   22122737.378
        50.0004         46.0004
  -5378571.46346  -4187043.95746  24647275.6174   24647288.8724   24647276.083
        41.0004         37.0004
 -11734875.00848  -9138455.25948  20523607.2294   20523613.3764   20523607.692
        53.0004         48.0004
 -18767660.43548 -14577904.21548  20559567.3244   20559573.3794   20559567.282
        53.0004         48.0004
  -3167909.84847  -2254075.12546  23642387.3074   23642394.9434   23642386.946
        43.0004         38.0004
 -10773908.61147  -8369495.59047  22660446.2764   22660454.2954   22660445.867
        47.0004         42.0004
    198154.30347    147788.97846  24149538.7124   24149543.7514   24149538.046
        42.0004         38.0004
  -7095549.46247  -5484101.96346  23112449.6634   23112457.6044   23112449.896
        44.0004         40.0004
  -4642481.24546  -3598244.89146  24314380.3544   24314384.5584   24314381.059
        40.0004         36.0004
 -16518824.07248 -12832116.65147  22339324.4994   22339333.5734   22339325.055
        48.0004         43.0004
 -24886401.75049 -19358466.90148  20124742.7804   20124747.2254   20124742.124
        54.0004         49.0004
 14  5  1  0 28 30.0000000  0 11G17G10G08G09G20G01G28G13G11G04G07
 -15197925.29348 -11798308.25747  22128825.1194   22128832.1164   22128824.458
        50.0004         46.0004
  -5419144.90046  -4218659.38746  24639553.8864   24639566.7554   24639554.946
        41.0004         37.0004
 -11796817.38448  -9186722.03348  20511820.1024   20511826.3254   20511820.476
        53.0004         48.0004
 -18825216.50148 -14622753.07948  20548614.7714   20548620.9064   20548614.608
        53.0004         48.0004
  -3169419.54647  -2255251.50146  23642099.6324   23642107.8344   23642099.364
        43.0004         38.0004
 -10692083.90547  -8305736.07447  22676017.2814   22676026.1314   22676016.265
        47.0004         42.0004
    165390.79647    122259.04446  24143302.1174   24143309.4504   24143303.527
        43.0004         38.0004
  -7014160.61947  -5420682.06946  23127939.2464   23127944.8304   23127937.880
        44.0004         40.0004
  -4538483.13646  -3517207.37546  24334170.5174   24334176.7154   24334171.002
        40.0004         36.0004
 -16611102.33448 -12904021.66647  22321763.8304   22321773.5914   22321764.248
        48.0004         43.0004
 -24880222.47549 -19353651.88348  20125918.5364   20125923.4174   20125917.907
        54.0004         49.0004
 14  5  1  0 29  0.0000000  0 11G17G10G08G09G20G01G28G13G11G04G07
 -15165713.70648 -11773208.31047  22134954.0564   22134962.0704   22134953.851
        50.0004         46.0004
  -5459967.12847  -4250468.68746  24631786.8184   24631801.0674   24631787.154
        42.0004         37.0004
 -11858282.91948  -9234617.24748  20500123.6094   20500130.0174   20500123.974
        53.0004         49.0004
 -18882283.62648 -14667220.95548  20537755.2564   20537761.1854   20537754.971
        53.0004         48.0004
  -3170802.38147  -2256329.00946  23641835.6094   23641844.3654   23641835.506
        43.0004         38.0004
 -10609903.71147  -8241699.55347  22691655.7434   22691663.9734   22691655.113
        47.0004         42.0004
    132356.46947     96518.07846  24137016.3194   24137023.2364   24137016.685
        43.0004         38.0004
  -6932835.47547  -5357311.83146  23143414.0234   23143421.4404   23143413.524
        44.0004         40.0004
  -4434393.80746  -3436098.80246  24353978.9844   24353984.4734   24353978.466
        40.0004         36.0004
 -16703156.97848 -12975752.42647  22304248.3714   22304255.5594   22304246.897
        48.0004         43.0004
 -24873442.48649 -19348368.78548  20127208.6294   20127213.8414   20127208.035
        54.0004         49.0004
 14  5  1  0 29 30.0000000  0 11G17G10G08G09G20G01G28G13G11G04G07
 -15133281.70348 -11747936.60347  22141126.1274   22141133.2314   22141125.691
        50.0004         46.0004
  -5501039.34747  -4282472.80146  24623971.0684   24623983.6924   24623970.942
        42.0004         37.0004
 -11919269.75148  -9282139.44648  20488518.3464   20488524.4024   20488518.624
        53.0004         48.0004
 -18938860.50948 -14711306.83648  20526989.1194   20526994.6794   20526989.230
        53.0004         48.0004
  -3172057.27947  -2257306.85446  23641596.3584   23641604.1894   23641597.284
        43.0004         38.0004
 -10527371.23247  -8177388.51947  22707360.4274   22707368.9684   22707360.415
        47.0004         42.0004
     99051.07447     70565.90446  24130679.2894   24130685.2614   24130679.375
        43.0004         38.0004
  -6851577.98647  -5293994.30746  23158876.4164   23158884.3764   23158876.087
        44.0004         39.0004
  -4330216.51746  -3354921.70546  24373801.4544   24373806.3324   24373802.432
        40.0004         36.0004
 -16794986.40848 -13047307.70947  22286773.6804   22286780.9734   22286772.589
        48.0004         43.0004
 -24866062.49649 -19342618.15948  20128612.8774   20128618.1924   20128612.703
        54.0004         49.0004
 14  5  1  0 30  0.0000000  0 11G17G10G08G09G20G01G28G13G11G04G07
 -15100629.26548 -11722493.13347  22147339.5214   22147347.0334   22147339.572
        50.0004         46.0004
  -5542358.74747  -4314669.50446  24616105.4264   24616119.3884   24616107.649
        42.0004         37.0004
 -11979772.35748  -9329284.32648  20477005.0144   20477011.5354   20477005.122
        53.0004         49.0004
 -18994942.40548 -14755007.00748  20516317.3304   20516323.2714   20516316.812
        53.0004         48.0004
  -3173179.84647  -2258181.58446  23641383.5344   23641391.7304   23641384.192
        43.0004         38.0004
 -10444486.37247  -8112802.90447  22723132.5894   22723141.4994   22723132.482
        47.0004         42.0004
     65477.40247     44404.68646  24124289.7934   24124296.1604   24124290.330
        43.0004         38.0004
  -6770387.38547  -5230728.89746  23174327.4594   23174334.7404   23174326.286
        44.0004         39.0004
  -4225951.46446  -3273676.20446  24393642.8154   24393648.1574   24393643.089
        40.0004         36.0004
 -16886585.54048 -13118683.53347  22269341.5624   22269351.0364   22269341.354
        48.0004         43.0004
 -24858080.09949 -19336398.12048  20130132.0054   20130136.8364   20130131.459
        54.0004         49.0004
 14  5  1  0 30 30.0000000  0 11G17G10G08G09G20G01G28G13G11G04G07
 -15067761.27048 -11696881.70147  22153594.7044   22153601.5494   22153593.721
        50.0004         46.0004
  -5583927.81947  -4347060.74746  24608195.8334   24608209.2344   24608196.682
        42.0004         37.0004
 -12039790.16748  -9376051.44448  20465583.7424   20465590.3074   20465584.191
        53.0004         49.0004
 -19050529.44348 -14798321.57848  20505739.3454   20505745.2574   20505739.099
        53.0004         48.0004
  -3174171.18047  -2258954.04046  23641194.0344   23641204.1964   23641195.074
        43.0004         38.0004
 -10361253.87947  -8047946.41747  22738971.3374   22738979.1754   22738971.088
        46.0004         42.0004
     31633.56647     18032.92546  24117849.6314   24117855.8274   24117849.837
        43.0004         38.0004
  -6689268.81447  -5167519.60946  23189762.0934   23189769.7614   23189762.259
        44.0004         39.0004
  -4121603.60646  -3192366.18246  24413497.8284   24413507.7394   24413499.426
        40.0004         36.0004
 -16977953.81348 -13189879.47847  22251955.1824   22251963.6864   22251954.570
        48.0004         43.0004
 -24849497.54649 -19329710.41848  20131765.1954   20131770.2174   20131764.566
        54.0004         49.0004
 14  5  1  0 31  0.0000000  0 11G17G10G08G09G20G01G28G13G11G04G07
 -15034676.96448 -11671101.71147  22159890.3774   22159896.7924   22159889.525
        50.0004         46.0004
  -5625742.61147  -4379643.47646  24600239.4144   24600252.5754   24600239.872
        42.0004         37.0004
 -12099316.34448  -9422435.46748  20454256.2794   20454262.6944   20454256.684
        53.0004         49.0004
 -19105615.49548 -14841245.76948  20495256.6794   20495262.7204   20495256.532
        53.0004         48.0004
  -3175025.25247  -2259619.55046  23641032.1954   23641039.5054   23641033.658
        43.0004         38.0004
 -10277672.26647  -7982817.89247  22754876.9784   22754885.7544   22754876.075
        46.0004         42.0004
     -2475.89247     -8545.80146  24111359.0194   24111365.3674   24111358.954
        43.0004         38.0004
  -6608220.67847  -5104365.22646  23205186.9314   23205193.5974   23205185.354
        44.0004         40.0004
  -4017171.90846  -3110990.84645  24433372.5884   24433378.0674   24433372.373
        40.0004         35.0004
 -17069084.88148 -13260890.56347  22234613.8854   22234620.8954   22234612.809
        48.0004         43.0004
 -24840310.79449 -19322551.92248  20133513.0714   20133518.4724   20133512.787
        54.0004         49.0004
 14  5  1  0 31 30.0000000  0 11G17G10G08G09G20G01G28G13G11G04G07
 -15001378.14348 -11645154.56547  22166225.9844   22166233.5714   22166226.140
        50.0004         46.0004
  -5667802.76547  -4412417.39346  24592235.5094   24592247.7854   24592235.942
        42.0004         38.0004
 -12158347.79248  -9468433.98648  20443023.1854   20443029.2894   20443023.614
        53.0004         49.0004
 -19160197.73848 -14883777.38048  20484869.8074   20484875.9404   20484870.158
        53.0004         48.0004
  -3175739.81047  -2260176.32646  23640896.2964   23640905.1214   23640895.977
        43.0004         38.0004
 -10193743.49247  -7917418.83347  22770847.4954   22770856.9694   22770847.597
        46.0004         42.0004
    -36850.05347    -35330.79546  24104816.4964   24104823.6274   24104818.501
        43.0004         38.0004
  -6527245.08647  -5041267.36846  23220594.3774   23220602.3914   23220594.056
        44.0004         39.0004
  -3912658.51646  -3029551.83745  24453262.0534   24453267.4184   24453260.786
        40.0004         35.0004
 -17159975.50148 -13331714.31247  22217316.9134   22217325.4034   22217316.477
        48.0004         43.0004
 -24830519.49849 -19314922.34548  20135376.8794   20135381.3524   20135376.229
        54.0004         49.0004
 14  5  1  0 32  0.0000000  0 11G17G10G08G09G20G01G28G13G11G04G07
 -14967873.98548 -11619047.42247  22172601.9464   22172608.9714   22172601.850
        50.0004         46.0004
  -5710114.66647  -4445387.47946  24584183.6854   24584196.6824   24584183.796
        42.0004         37.0004
 -12216887.89648  -9514049.64148  20431883.4934   20431889.8424   20431883.810
        53.0004         49.0004
 -19214280.38148 -14925919.69148  20474578.2504   20474584.6264   20474578.128
        53.0004         48.0004
  -3176319.32047  -2260627.89246  23640786.2134   23640795.1314   23640787.064
        43.0004         38.0004
 -10109476.25947  -7851756.04447  22786884.1884   22786892.8884   22786883.043
        46.0004         42.0004
    -71494.42147    -62326.34346  24098224.7944   24098231.5244   24098225.059
        43.0004         38.0004
  -6446350.06147  -4978232.27446  23235986.7354   23235996.2544   23235988.017
        44.0004         39.0004
  -3808072.45146  -2948056.24745  24473165.5114   24473168.9964   24473163.069
        40.0004         35.0004
 -17250629.44748 -13402353.62747  22200066.7034   22200074.4804   22200065.735
        48.0004         43.0004
 -24820129.61049 -19306826.34048  20137353.6024   20137358.7994   20137352.956
        54.0004         49.0004
 14  5  1  0 32 30.0000000  0 11G17G10G08G09G20G01G28G13G11G04G07
 -14934163.67948 -11592779.63447  22179016.5244   22179023.3814   22179016.496
        50.0004         46.0004
  -5752674.91947  -4478551.07746  24576084.2684   24576096.9374   24576085.515
        42.0004         37.0004
 -12274930.65048  -9559277.75148  20420838.2984   20420844.6464   20420838.515
        53.0004         49.0004
 -19267857.90448 -14967668.39948  20464382.7114   20464388.9894   20464382.880
        53.0004         48.0004
  -3176758.53647  -2260970.12446  23640702.5934   23640710.8764   23640701.983
        43.0004         38.0004
 -10024869.68547  -7785828.83647  22802983.9834   22802992.6764   22802983.029
        46.0004         42.0004
   -106405.51647    -89529.71846  24091581.7244   24091587.5204   24091581.601
        43.0004         38.0004
  -6365534.84947  -4915259.39446  23251366.4154   23251374.7384   23251366.812
        44.0004         40.0004
  -3703412.79846  -2866503.26845  24493081.0994   24493085.7854   24493078.706
        39.0004         35.0004
 -17341040.79248 -13472803.91047  22182862.0094   22182869.0594   22182860.775
        48.0004         44.0004
 -24809138.10949 -19298261.54748  20139444.9874   20139450.4204   20139444.684
        54.0004         49.0004
 14  5  1  0 33  0.0000000  0 11G17G10G08G09G20G01G28G13G11G04G07
 -14900248.05048 -11566351.85547  22185471.0524   22185477.9194   22185470.550
        50.0004         46.0004
  -5795481.72347  -4511906.81946  24567939.3774   24567951.5884   24567939.945
        42.0004         38.0004
 -12332471.55748  -9604114.80848  20409888.3034   20409894.2364   20409888.538
        53.0004         49.0004
 -19320926.46848 -15009020.52148  20454284.2734   20454290.3554   20454284.121
        53.0004         48.0004
  -3177054.45547  -2261200.68846  23640645.9214   23640655.3894   23640647.139
        43.0004         38.0004
  -9939924.58747  -7719637.84947  22819148.5024   22819156.1044   22819147.703
        46.0004         42.0004
   -141580.78347   -116938.94046  24084887.0734   24084894.3814   24084887.654
        43.0004         38.0004
  -6284800.57147  -4852349.56846  23266731.0004   23266737.1384   23266730.559
        44.0004         40.0004
  -3598680.54246  -2784893.70445  24513011.4244   24513017.6314   24513009.231
        39.0004         34.0004
 -17431205.11048 -13543061.69947  22165703.8254   22165711.3494   22165703.012
        48.0004         43.0004
 -24797543.64249 -19289226.90648  20141651.5084   20141656.8474   20141651.027
        54.0004         49.0004
 14  5  1  0 33 30.0000000  0 11G17G10G08G09G20G01G28G13G11G04G07
 -14866130.50048 -11539766.73347  22191963.3124   22191970.5534   22191962.974
        50.0004         46.0004
  -5838535.54647  -4545455.02946  24559745.9704   24559758.3484   24559746.883
        42.0004         37.0004
 -12389508.18448  -9648558.92348  20399034.7824   20399040.9634   20399035.152
        53.0004         49.0004
 -19373484.44548 -15049974.78348  20444283.0154   20444288.9264   20444282.717
        53.0004         48.0004
  -3177205.38247  -2261318.27546  23640617.3694   23640625.9674   23640617.955
        43.0004         38.0004
  -9854643.74047  -7653185.24447  22835376.0894   22835385.5384   22835376.480
        46.0004         42.0004
   -177020.18847   -144553.98546  24078142.9684   24078149.0104   24078144.219
        43.0004         38.0004
  -6204149.70447  -4789504.73646  23282078.0984   23282086.0124   23282077.970
        44.0004         39.0004
  -3493878.67046  -2703229.92145  24532954.4624   24532956.8384   24532951.996
        38.0004         34.0004
 -17521120.46648 -13613125.49247  22148592.7894   22148601.7954   22148593.288
        48.0004         44.0004
 -24785346.54449 -19279722.68048  20143972.4604   20143977.8594   20143972.320
        54.0004         49.0004
 14  5  1  0 34  0.0000000  0 11G17G10G08G09G20G01G28G13G11G04G07
 -14831814.13348 -11513026.68247  22198493.7294   22198499.6694   22198492.934
        50.0004         46.0004
  -5881836.61347  -4579195.90946  24551504.7054   24551518.1814   24551505.401
        42.0004         37.0004
 -12446038.56948  -9692608.55848  20388277.2484   20388283.5074   20388277.545
        53.0004         49.0004
 -19425530.44248 -15090530.10048  20434378.6294   20434384.8164   20434378.668
        53.0004         48.0004
  -3177210.29347  -2261322.07746  23640616.0164   23640625.8904   23640616.883
        43.0004         38.0004
  -9769030.24547  -7586473.43047  22851668.5004   22851676.9464   22851667.928
        46.0004         42.0004
   -212723.71147   -172374.83446  24071349.7424   24071355.4824   24071349.985
        43.0004         38.0004
  -6123585.13247  -4726727.12946  23297408.1984   23297416.6124   23297408.674
        44.0004         39.0004
                  -2621514.37045                  24552908.6344   24552907.868
                        33.0004
 -17610784.37348 -13682993.35047  22131531.2644   22131538.7364   22131529.970
        48.0004         44.0004
 -24772547.37949 -19269749.31448  20146408.2504   20146413.5264   20146407.966
        54.0004         49.0004
 14  5  1  0 34 30.0000000  0 11G17G10G08G09G20G01G28G13G11G04G07
 -14797300.13048 -11486132.62347  22205061.4184   22205068.4004   22205060.950
        50.0004         46.0004
  -5925383.61447  -4613128.42146  24543219.5774   24543228.9874   24543219.053
        42.0004         37.0004
 -12502058.78348  -9736260.66248  20377617.4134   20377623.1604   20377617.671
        53.0004         49.0004
 -19477060.95948 -15130683.73448  20424572.6754   20424578.9874   20424572.773
        53.0004         48.0004
  -3177065.97847  -2261209.60546  23640643.3904   23640652.8364   23640644.285
        43.0004         38.0004
  -9683085.22347  -7519503.29147  22868022.6274   22868031.3694   22868022.471
        46.0004         42.0004
   -248689.05247   -200399.70046  24064505.8114   24064511.4184   24064506.113
        43.0004         39.0004
  -6043107.65447  -4664017.41546  23312722.6854   23312732.2944   23312722.927
        44.0004         39.0004
  -3284077.15846  -2539748.22945  24572873.4324   24572881.2744   24572875.908
        37.0004         33.0004
 -17700193.02348 -13752662.31747  22114516.2004   22114524.3934   22114516.448
        48.0004         44.0004
 -24759144.99849 -19259305.90648  20148958.7584   20148963.5054   20148958.438
        54.0004         49.0004
 14  5  1  0 35  0.0000000  0 11G17G10G08G09G20G01G28G13G11G04G07
 -14762593.65448 -11459088.59847  22211665.6644   22211672.4304   22211665.144
        50.0004         46.0004
  -5969179.34747  -4647254.76546  24534883.2494   24534896.5244   24534884.558
        42.0004         37.0004
 -12557568.97348  -9779515.34448  20367053.7604   20367060.1784   20367054.043
        53.0004         49.0004
 -19528076.66448 -15170436.21948  20414864.9634   20414870.6234   20414864.952
        53.0004         48.0004
  -3176773.80647  -2260981.92646  23640700.1754   23640707.9224   23640699.540
        43.0004         38.0004
  -9596814.09647  -7452279.03546  22884438.9334   22884448.5844   22884439.458
        46.0004         41.0004
   -284918.81147   -228630.61746  24057611.1494   24057618.1044   24057611.851
        43.0004         38.0004
  -5962722.77247  -4601379.82646  23328020.0474   23328028.1944   23328018.912
        44.0004         39.0004
  -3179084.06046  -2457935.35745  24592854.1274   24592862.9124   24592855.639
        37.0004         33.0004
 -17789346.88548 -13822132.74347  22097551.7624   22097559.4814   22097550.985
        49.0004         44.0004
 -24745142.71449 -19248395.05048  20151623.2364   20151628.5174   20151622.856
        54.0004         49.0004
 14  5  1  0 35 30.0000000  0 11G17G10G08G09G20G01G28G13G11G04G07
 -14727695.72248 -11431895.37547  22218306.3134   22218313.3774   22218306.302
        50.0004         46.0004
  -6013221.07447  -4681572.77746  24526502.2174   24526514.4334   24526503.307
        42.0004         37.0004
 -12612563.58848  -9822368.28048  20356588.6904   20356594.7504   20356589.069
        53.0004         49.0004
 -19578572.80548 -15209783.84848  20405255.7954   20405261.3894   20405255.725
        53.0004         48.0004
  -3176328.92347  -2260635.25946  23640783.8094   23640792.5414   23640785.030
        43.0004         38.0004
  -9510216.60447  -7384800.45846  22900918.7484   22900927.1744   22900918.641
        46.0004         41.0004
   -321409.44647   -257064.79846  24050667.7484   24050673.7394   24050667.797
        43.0004         38.0004
  -5882429.76247  -4538813.83146  23343299.3544   23343308.0134   23343297.903
        44.0004         39.0004
                                                                  24612846.255

 -17878240.42848 -13891400.32847  22080635.3084   22080643.4134   22080634.804
        49.0004         44.0004
 -24730538.06149 -19237014.80848  20154402.6194   20154407.5834   20154402.131
        54.0004         49.0004
 14  5  1  0 36  0.0000000  0 11G17G10G08G09G20G01G28G13G11G04G07
 -14692607.19748 -11404553.64947  22224983.8234   22224989.8474   22224983.263
        50.0004         46.0004
  -6057507.26446  -4716081.30746  24518075.9594   24518089.4824   24518076.364
        41.0004         37.0004
 -12667038.77548  -9864816.47048  20346222.2744   20346228.8584   20346222.322
        53.0004         49.0004
 -19628546.07048 -15248724.03848  20395746.0144   20395752.1044   20395746.193
        53.0004         48.0004
  -3175728.38747  -2260167.29746  23640898.3694   23640906.8124   23640898.405
        43.0004         38.0004
  -9423293.89447  -7317068.47246  22917459.8774   22917468.3734   22917459.344
        46.0004         41.0004
   -358159.16647   -285700.87546  24043674.2484   24043679.9704   24043674.073
        43.0004         38.0004
  -5802229.82747  -4476320.38346  23358562.0454   23358567.2974   23358559.818
        44.0004         39.0004
                                                                  24632848.531

 -17966869.55248 -13960461.86347  22063769.6074   22063778.0604   22063769.456
        49.0004         44.0004
 -24715329.79249 -19225164.22048  20157296.2904   20157301.4604   20157296.034
        54.0004         49.0004
 14  5  1  0 36 30.0000000  0 11G17G10G08G09G20G01G28G13G11G04G07
 -14657333.23148 -11377067.41747  22231696.3004   22231702.7264   22231695.573
        50.0004         46.0004
  -6102040.17846  -4750782.06946  24509600.6644   24509611.8784   24509601.339
        41.0004         37.0004
 -12720994.37348  -9906859.77748  20335955.2494   20335961.2064   20335955.555
        53.0004         49.0004
 -19677996.91148 -15287257.14048  20386335.9424   20386342.0164   20386336.011
        53.0004         48.0004
  -3174973.00447  -2259578.66446  23641041.3684   23641050.2734   23641042.810
        43.0004         38.0004
  -9336050.88947  -7249086.91546  22934061.3814   22934070.6954   22934061.083
        46.0004         41.0004
   -395169.62547   -314540.11146  24036630.9814   24036637.1114   24036631.109
        42.0004         38.0004
  -5722127.33747  -4413902.84946  23373803.2464   23373811.8134   23373803.088
        44.0004         39.0004
                                                                  24652861.058

 -18055234.23348 -14029317.34447  22046954.6774   22046962.4094   22046953.936
        49.0004         44.0004
 -24699520.72949 -19212845.46748  20160304.8424   20160310.1164   20160304.404
        54.0004         49.0004
 14  5  1  0 37  0.0000000  0 11G17G10G08G09G20G01G28G13G11G04G07
 -14621874.16748 -11349436.95247  22238443.2864   22238451.2704   22238443.325
        50.0004         46.0004
  -6146817.40847  -4785673.24046  24501081.6844   24501091.8274   24501081.237
        42.0004         37.0004
 -12774425.37749  -9948494.31448  20325787.3214   20325793.7824   20325787.575
        54.0004         49.0004
 -19726921.11848 -15325379.88248  20377025.5014   20377032.0634   20377025.813
        53.0004         49.0004
  -3174058.93547  -2258866.38546  23641215.9524   23641225.0724   23641216.568
        43.0004         38.0004
  -9248487.99647  -7180856.08746  22950724.3154   22950732.5994   22950723.478
        46.0004         41.0004
   -432437.94247   -343580.28546  24029540.0434   24029545.1034   24029539.647
        43.0004         38.0004
  -5642122.39747  -4351561.31946  23389028.1424   23389034.8814   23389027.556
        44.0004         39.0004
                                                                  24672882.879

 -18143329.59248 -14097962.97047  22030190.4774   22030199.2964   22030189.914
        49.0004         44.0004
 -24683108.86149 -19200057.00348  20163428.0254   20163432.7804   20163427.773
        54.0004         49.0004
 14  5  1  0 37 30.0000000  0 11G17G10G08G09G20G01G28G13G11G04G07
 -14586234.86748 -11321666.03947  22245225.7814   22245232.4414   22245224.986
        50.0004         46.0004
  -6191841.09347  -4820756.42846  24492512.6564   24492524.8174   24492513.348
        42.0004         37.0004
 -12827331.46449  -9989719.82948  20315720.0774   20315725.7834   20315720.101
        54.0004         49.0004
 -19775319.01748 -15363092.51948  20367815.9364   20367822.4794   20367816.154
        53.0004         49.0004
  -3172986.69647  -2258030.86946  23641419.6244   23641428.5224   23641421.049
        43.0004         38.0004
  -9160610.04947  -7112379.75546  22967446.3414   22967455.3664   22967446.162
        46.0004         41.0004
   -469965.47747   -372822.43646  24022397.6354   24022404.9104   24022397.838
        43.0004         38.0004
  -5562219.82347  -4289299.56146  23404232.1794   23404240.2914   23404232.806
        44.0004         39.0004
                                                                  24692914.976

 -18231155.42148 -14166398.56447  22013478.6004   22013485.2074   22013477.081
        49.0004         44.0004
 -24666096.87049 -19186800.91548  20166665.4194   20166670.3734   20166664.999
        54.0004         49.0004
 14  5  1  0 38  0.0000000  0 10G17G10G08G09G20G01G28G13G04G07
 -14550414.71148 -11293754.20947  22252042.4744   22252048.7604   22252041.648
        50.0004         46.0004
  -6237107.72647  -4856028.93746  24483900.1194   24483908.9134   24483899.304
        42.0004         37.0004
 -12879706.85249 -10030531.81348  20305752.8444   20305759.3934   20305753.259
        54.0004         49.0004
 -19823185.39948 -15400390.98648  20358707.5694   20358713.4824   20358707.565
        53.0004         49.0004
  -3171751.23047  -2257068.16146  23641656.0514   23641664.5774   23641655.346
        43.0004         38.0004
  -9072416.35947  -7043657.39346  22984229.8914   22984237.6864   22984228.957
        45.0004         41.0004
   -507748.68147   -402263.82246  24015208.1274   24015213.4614   24015207.606
        42.0004         38.0004
  -5482418.57547  -4227116.77446  23419419.7654   23419426.3244   23419418.341
        44.0004         39.0004
 -18318705.76448 -14234619.49847  21996817.5694   21996824.5684   21996816.662
        49.0004         44.0004
 -24648481.74649 -19173074.85848  20170017.4964   20170022.3374   20170016.888
        54.0004         49.0004
 14  5  1  0 38 30.0000000  0 10G17G10G08G09G20G01G28G13G04G07
 -14514419.40948 -11265705.90347  22258891.8124   22258898.9714   22258890.966
        50.0004         46.0004
  -6282619.76447  -4891492.68546  24475237.3014   24475248.8444   24475238.389
        42.0004         37.0004
 -12931551.49649 -10070930.23248  20295887.3614   20295893.2114   20295887.832
        54.0004         49.0004
 -19870520.86048 -15437275.74748  20349699.8534   20349705.9264   20349699.721
        53.0004         49.0004
  -3170353.07347  -2255978.67446  23641920.8904   23641930.4214   23641922.044
        43.0004         38.0004
  -8983911.80247  -6974692.80746  23001071.4534   23001080.1594   23001070.755
        45.0004         41.0004
   -545788.96047   -431905.53346  24007968.8174   24007974.4274   24007968.765
        42.0004         38.0004
  -5402722.85047  -4165016.19346  23434584.7014   23434592.0584   23434584.398
        44.0004         39.0004
 -18405980.34748 -14302625.56147  21980208.9484   21980217.4794   21980208.755
        49.0004         44.0004
 -24630266.64949 -19158881.29648  20173484.0014   20173488.3274   20173483.643
        54.0004         49.0004
 14  5  1  0 39  0.0000000  0 10G17G10G08G09G20G01G28G13G04G07
 -14478249.23148 -11237521.33047  22265773.8414   22265782.1934   22265774.067
        50.0004         46.0004
  -6328374.98747  -4927145.91746  24466529.2474   24466542.4484   24466531.141
        42.0004         37.0004
 -12982860.60549 -10110911.35448  20286123.3224   20286129.9254   20286123.508
        54.0004         49.0004
 -19917321.33248 -15473743.63848  20340794.0814   20340799.8954   20340794.019
        53.0004         49.0004
  -3168788.52447  -2254759.53146  23642218.3944   23642227.4594   23642219.708
        43.0004         38.0004
  -8895096.86847  -6905486.37646  23017972.0464   23017979.9454   23017971.745
        45.0004         40.0004
   -584083.55847   -461745.40146  24000681.3564   24000687.1244   24000681.424
        43.0004         38.0004
  -5323133.05647  -4102998.16046  23449729.5074   23449738.0794   23449729.580
        43.0004         39.0004
 -18492974.54048 -14370413.14247  21963654.0544   21963662.2334   21963654.282
        49.0004         44.0004
 -24611449.87249 -19144218.88548  20177064.5204   20177068.9874   20177063.995
        54.0004         49.0004
 14  5  1  0 39 30.0000000  0 10G17G10G08G09G20G01G28G13G04G07
 -14441909.01148 -11209204.25347  22272689.6374   22272697.0084   22272689.165
        50.0004         45.0004
  -6374375.30747  -4962990.13046  24457775.2164   24457788.9304   24457776.800
        42.0004         37.0004
 -13033633.89649 -10150474.95148  20276461.6494   20276467.8044   20276461.959
        54.0004         49.0004
 -19963587.36148 -15509795.07848  20331990.0284   20331995.7794   20331989.711
        53.0004         49.0004
  -3167058.24547  -2253411.25146  23642549.2014   23642557.0434   23642548.713
        43.0004         38.0004
  -8805976.44947  -6836041.89546  23034931.5404   23034939.1024   23034930.879
        45.0004         40.0004
   -622634.07647   -491784.70646  23993344.9594   23993352.6034   23993346.242
        43.0004         38.0004
  -5243653.72147  -4041066.20246  23464854.5294   23464862.2074   23464853.742
        43.0004         38.0004
 -18579688.15948 -14437982.09547  21947153.4344   21947161.3254   21947152.905
        49.0004         44.0004
 -24592034.05849 -19129089.69248  20180759.4004   20180764.1524   20180758.802
        54.0004         49.0004
 14  5  1  0 40  0.0000000  0 10G17G10G08G09G20G01G28G13G04G07
 -14405399.35548 -11180755.15247  22279636.5664   22279644.1234   22279636.810
        50.0004         45.0004
  -6420618.45047  -4999023.58746  24448976.4754   24448988.9244   24448977.259
        42.0004         38.0004
 -13083866.85748 -10189617.51148  20266902.1164   20266908.8134   20266902.485
        53.0004         49.0004
 -20009314.97748 -15545426.97448  20323288.3814   20323293.9024   20323288.059
        53.0004         49.0004
  -3165158.32647  -2251930.76446  23642910.2774   23642918.0144   23642909.658
        43.0004         38.0004
  -8716551.06447  -6766359.77346  23051948.7564   23051957.2474   23051948.493
        45.0004         41.0004
   -661437.52047   -522021.06346  23985960.1754   23985967.6964   23985961.574
        43.0004         38.0004
  -5164284.90747  -3979220.35346  23479957.3024   23479964.5824   23479956.799
        43.0004         38.0004
 -18666116.36448 -14505328.64947  21930706.3024   21930715.0204   21930706.395
        49.0004         45.0004
 -24572017.38849 -19113492.29648  20184568.1394   20184573.1574   20184567.841
        54.0004         49.0004
 14  5  1  0 40 30.0000000  0 10G17G10G08G09G20G01G28G13G04G07
 -14368721.58248 -11152175.04847  22286616.7084   22286623.5444   22286616.354
        50.0004         45.0004
  -6467102.80047  -5035244.98846  24440130.5764   24440142.1584   24440131.517
        42.0004         38.0004
 -13133555.78748 -10228336.14248  20257447.1584   20257453.0814   20257447.524
        53.0004         49.0004
 -20054500.84448 -15580636.73348  20314689.4574   20314695.4934   20314689.524
        53.0004         49.0004
  -3163085.73047  -2250315.74646  23643304.4984   23643312.7814   23643304.873
        43.0004         38.0004
  -8626821.83847  -6696440.89646  23069023.4354   23069031.2334   23069022.925
        45.0004         41.0004
   -700491.97847   -552453.03646  23978528.1734   23978535.1834   23978529.361
        43.0004         38.0004
  -5085027.29747  -3917461.15646  23495038.9214   23495047.2884   23495039.076
        43.0004         38.0004
 -18752255.31448 -14572449.81547  21914314.0324   21914322.8854   21914314.387
        49.0004         45.0004
 -24551399.54249 -19097426.45548  20188491.5794   20188496.7524   20188491.100
        54.0004         49.0004
 14  5  1  0 41  0.0000000  0 10G17G10G08G09G20G01G28G13G04G07
 -14331882.81048 -11123469.48747  22293627.3214   22293633.3014   22293626.426
        50.0004         45.0004
  -6513832.57147  -5071657.61646  24431238.8884   24431250.1524   24431239.102
        42.0004         37.0004
 -13182702.58048 -10266632.33348  20248094.8214   20248100.6624   20248094.906
        53.0004         49.0004
 -20099147.45948 -15615426.28748  20306193.5274   20306199.7414   20306193.668
        53.0004         49.0004
  -3160843.01547  -2248568.13246  23643731.0694   23643739.5444   23643730.572
        42.0004         38.0004
  -8536795.74047  -6626290.69446  23086154.8414   23086162.7894   23086154.280
        45.0004         41.0004
   -739800.71547   -583083.17346  23971049.4034   23971055.3294   23971049.753
        43.0004         38.0004
  -5005887.35847  -3855793.66146  23510099.9824   23510107.6134   23510098.870
        43.0004         38.0004
 -18838106.65748 -14639346.86947  21897977.7254   21897986.0784   21897977.012
        49.0004         45.0004
 -24530185.40249 -19080895.96548  20192528.8784   20192533.6344   20192528.059
        54.0004         49.0004
 14  5  1  0 41 30.0000000  0 10G17G10G08G09G20G01G28G13G04G07
 -14294879.98848 -11094636.10447  22300668.4504   22300675.5084   22300667.883
        50.0004         45.0004
  -6560801.64647  -5108256.70846  24422299.3224   24422311.7264   24422300.134
        42.0004         37.0004
 -13231299.00848 -10304499.67748  20238847.5154   20238853.1984   20238847.550
        53.0004         49.0004
 -20143247.36748 -15649789.84048  20297801.6234   20297807.4814   20297801.503
        53.0004         49.0004
  -3158422.96547  -2246682.35646  23644190.8214   23644199.6264   23644192.021
        43.0004         38.0004
  -8446469.69947  -6555906.77146  23103342.9884   23103351.1544   23103342.612
        45.0004         40.0004
   -779357.50247   -613906.57346  23963521.7234   23963527.5934   23963522.266
        43.0004         38.0004
  -4926861.79147  -3794215.28146  23525138.0414   23525146.5974   23525136.891
        43.0004         38.0004
 -18923662.14548 -14706013.39347  21881696.4104   21881704.7924   21881697.182
        49.0004         45.0004
 -24508369.61549 -19063896.66848  20196679.6054   20196685.0554   20196679.504
        54.0004         49.0004
 14  5  1  0 42  0.0000000  0 10G17G10G08G09G20G01G28G13G04G07
 -14257719.68648 -11065680.01147  22307739.1684   22307746.4754   22307739.094
        50.0004         45.0004
  -6608013.56447  -5145045.03146  24413314.9794   24413327.3794   24413316.128
        42.0004         37.0004
 -13279346.30649 -10341939.12348  20229704.0074   20229710.3084   20229704.457
        54.0004         49.0004
 -20186802.84848 -15683729.16748  20289513.4874   20289519.0614   20289513.414
        53.0004         49.0004
  -3155827.51947  -2244659.89846  23644684.5564   23644693.2874   23644685.002
        42.0004         38.0004
  -8355850.12447  -6485294.11546  23120587.0204   23120595.1424   23120587.307
        45.0004         40.0004
   -819165.20747   -644925.49646  23955947.0664   23955952.9544   23955947.414
        43.0004         38.0004
  -4847956.10747  -3732730.30446  23540152.7034   23540160.1734   23540152.752
        43.0004         38.0004
 -19008922.89948 -14772450.25447  21865472.4314   21865480.1964   21865471.747
        49.0004         45.0004
 -24485956.55649 -19046431.96948  20200945.0674   20200950.1374   20200944.540
        54.0004         49.0004
 14  5  1  0 42 30.0000000  0 10G17G10G08G09G20G01G28G13G04G07
 -14220402.25948 -11036601.47747  22314840.5954   22314847.5664   22314840.341
        50.0004         45.0004
  -6655465.87447  -5182020.67746  24404284.2624   24404298.9834   24404285.905
        42.0004         37.0004
 -13326840.18049 -10378947.33348  20220666.4874   20220672.4964   20220666.858
        54.0004         49.0004
 -20229810.00448 -15717241.22948  20281329.3114   20281334.9954   20281329.253
        53.0004         49.0004
  -3153052.95447  -2242497.85046  23645212.4184   23645222.1954   23645214.093
        42.0004         38.0004
  -8264937.44847  -6414453.06946  23137887.4424   23137896.2704   23137887.717
        45.0004         41.0004
   -859220.85647   -676137.62246  23948324.8104   23948330.6924   23948324.819
        43.0004         39.0004
  -4769170.47247  -3671338.89346  23555145.3454   23555153.3144   23555144.872
        43.0004         38.0004
 -19093884.27448 -14838653.82947  21849304.6934   21849313.9764   21849304.518
        49.0004         45.0004
 -24462944.86749 -19028500.80348  20205323.9514   20205328.9214   20205323.608
        54.0004         49.0004
 14  5  1  0 43  0.0000000  0 10G17G10G08G09G20G01G28G13G04G07
 -14182931.26348 -11007403.27847  22321972.0434   22321977.4754   22321971.016
        50.0004         45.0004
  -6703159.05847  -5219184.03446  24395210.1714   24395222.6224   24395210.607
        42.0004         38.0004
 -13373778.84849 -10415522.90648  20211734.2674   20211740.2004   20211734.478
        54.0004         49.0004
 -20272267.65048 -15750325.09848  20273249.6204   20273255.8944   20273249.899
        53.0004         49.0004
  -3150098.13547  -2240195.36646  23645775.5924   23645785.1004   23645775.288
        42.0004         38.0004
  -8173735.06447  -6343386.27046  23155243.1674   23155250.9124   23155242.121
        45.0004         40.0004
   -899524.16447   -707542.73546  23940656.2114   23940662.0624   23940655.527
        43.0004         38.0004
  -4690507.90147  -3610043.35546  23570112.7444   23570121.7384   23570113.477
        43.0004         38.0004
 -19178544.62948 -14904622.85247  21833194.2904   21833202.5084   21833193.851
        49.0004         45.0004
 -24439335.69949 -19010104.06848  20209816.6324   20209821.7034   20209816.315
        54.0004         49.0004
 14  5  1  0 43 30.0000000  0 10G17G10G08G09G20G01G28G13G04G07
 -14145310.48748 -10978088.37747  22329130.7114   22329137.0034   22329129.849
        50.0004         45.0004
  -6751093.95247  -5256535.71646  24386088.9164   24386101.4814   24386088.639
        42.0004         38.0004
 -13420160.84349 -10451664.70548  20202908.3024   20202914.1164   20202908.303
        54.0004         49.0004
 -20314174.96748 -15782980.14148  20265274.6944   20265281.3064   20265275.025
        53.0004         49.0004
  -3146962.33447  -2237751.86246  23646370.6594   23646380.0824   23646372.577
        42.0004         38.0004
  -8082246.49547  -6272096.47046  23172652.3644   23172660.8224   23172651.846
        45.0004         40.0004
   -940075.42647   -739141.07046  23932937.4084   23932944.4624   23932938.508
        43.0004         38.0004
  -4611971.20447  -3548845.91046  23585059.0484   23585067.7044   23585058.507
        43.0004         38.0004
 -19262901.97348 -14970355.76447  21817141.3864   21817149.3654   21817141.348
        49.0004         45.0004
 -24415131.16649 -18991243.41548  20214422.7374   20214427.3864   20214422.423
        54.0004         49.0004
 14  5  1  0 44  0.0000000  0 10G17G10G08G09G20G01G28G13G04G07
 -14107540.40048 -10948657.12347  22336317.8644   22336324.1844   22336317.790
        50.0004         45.0004
  -6799268.05347  -5294073.81746  24376921.4494   24376932.4494   24376921.885
        42.0004         38.0004
 -13465981.89949 -10487369.41548  20194188.5154   20194194.6494   20194188.666
        54.0004         49.0004
 -20355528.59948 -15815203.74248  20257405.6564   20257412.0244   20257405.736
        53.0004         49.0004
  -3143642.06147  -2235164.61146  23647004.2254   23647012.5884   23647004.035
        42.0004         38.0004
  -7990472.45847  -6200584.23346  23190117.2744   23190125.1154   23190116.089
        45.0004         40.0004
   -980871.73647   -770930.35246  23925175.4584   23925181.1254   23925175.169
        43.0004         39.0004
  -4533560.43547  -3487746.59046  23599981.4614   23599987.7594   23599979.768
        43.0004         38.0004
 -19346952.16148 -15035849.34247  21801147.4164   21801155.9714   21801147.417
        49.0004         45.0004
 -24390329.71549 -18971917.63148  20219142.6274   20219147.1764   20219141.880
        54.0004         49.0004
 14  5  1  0 44 30.0000000  0 10G17G10G08G09G20G01G28G13G04G07
 -14069623.23748 -10919111.27047  22343532.3974   22343540.1054   22343532.857
        50.0004         45.0004
  -6847680.34447  -5331797.50746  24367708.6444   24367720.2774   24367709.192
        42.0004         38.0004
 -13511239.44749 -10522635.02248  20185576.3904   20185582.3484   20185576.688
        54.0004         49.0004
 -20396326.31748 -15846994.15948  20249642.4364   20249647.8184   20249641.990
        53.0004         49.0004
  -3140135.37447  -2232432.09346  23647671.4734   23647681.4154   23647672.019
        42.0004         38.0004
  -7898415.06747  -6128851.19446  23207634.4424   23207643.0234   23207634.157
        45.0004         40.0004
  -1021911.70347   -802909.47746  23917365.2214   23917371.5374   23917365.307
        43.0004         39.0004
  -4455277.30647  -3426746.72846  23614876.0794   23614883.7174   23614876.557
        43.0004         38.0004
 -19430691.83748 -15101100.95647  21785212.3054   21785219.6324   21785211.535
        49.0004         45.0004
 -24364931.76649 -18952127.03948  20223975.0964   20223980.5584   20223974.851
        54.0004         49.0004
 14  5  1  0 45  0.0000000  0 10G17G10G08G09G20G01G28G13G04G07
 -14031562.55948 -10889453.58147  22350776.1734   22350782.3494   22350775.697
        50.0004         45.0004
  -6896331.53447  -5369707.35446  24358450.7744   24358461.7414   24358450.659
        42.0004         38.0004
 -13555931.94949 -10557460.34348  20177071.5444   20177077.4764   20177071.818
        54.0004         49.0004
 -20436567.39848 -15878350.83448  20241984.5254   20241990.5244   20241984.555
        53.0004         49.0004
  -3136441.25747  -2229553.51746  23648373.6434   23648382.0944   23648374.172
        42.0004         38.0004
  -7806077.77947  -6056900.05346  23225205.6304   23225214.3834   23225204.993
        45.0004         40.0004
  -1063195.34447   -835078.49146  23909508.6534   23909515.3204   23909509.477
        44.0004         39.0004
  -4377124.76647  -3365848.62046  23629748.4734   23629756.9254   23629748.046
        42.0004         38.0004
 -19514119.43848 -15166109.39247  21769336.3774   21769343.6464   21769336.117
        49.0004         45.0004
 -24338938.87849 -18931872.85348  20228921.6904   20228926.7854   20228921.267
        54.0004         49.0004
 14  5  1  0 45 30.0000000  0 10G17G10G08G09G20G01G28G13G04G07
 -13993361.52548 -10859686.51747  22358045.4034   22358051.9924   22358044.922
        50.0004         45.0004
  -6945221.95047  -5407803.61246  24349146.7964   24349157.3044   24349146.598
        42.0004         38.0004
 -13600057.62449 -10591843.96948  20168674.8294   20168680.9094   20168675.022
        54.0004         49.0004
 -20476250.91148 -15909273.04248  20234432.9084   20234438.7694   20234432.945
        53.0004         49.0004
  -3132558.31647  -2226527.83646  23649112.2614   23649122.6494   23649114.037
        42.0004         38.0004
  -7713463.85047  -5984733.36646  23242828.9684   23242836.9294   23242828.258
        45.0004         40.0004
  -1104722.18747   -867437.00646  23901606.9064   23901612.5274   23901606.778
        44.0004         39.0004
  -4299105.26447  -3305054.19646  23644594.9114   23644602.7484   23644595.413
        42.0004         38.0004
 -19597232.74148 -15230872.92547  21753520.3604   21753528.7334   21753519.881
        50.0004         45.0004
 -24312352.21749 -18911155.98748  20233980.9704   20233986.0894   20233980.682
        54.0004         49.0004
 14  5  1  0 46  0.0000000  0 10G17G10G08G09G20G01G28G13G04G07
 -13955020.84748 -10829810.64747  22365341.4354   22365347.5894   22365341.063
        50.0004         45.0004
  -6994348.89447  -5446084.17546  24339796.9594   24339807.9364   24339798.140
        42.0004         37.0004
 -13643612.06049 -10625782.48348  20160386.4494   20160392.4424   20160386.809
        54.0004         49.0004
 -20515373.05548 -15939757.82148  20226988.2314   20226994.6614   20226988.356
        53.0004         49.0004
  -3128482.91047  -2223352.15846  23649887.2974   23649896.4394   23649887.921
        42.0004         38.0004
  -7620573.71347  -5912351.45946  23260505.6994   23260513.9304   23260505.118
        45.0004         40.0004
  -1146489.21147   -899982.68746  23893659.0354   23893664.0464   23893659.448
        43.0004         39.0004
  -4221218.70347  -3244363.35546  23659417.5954   23659423.7234   23659416.185
        42.0004         38.0004
 -19680027.34848 -15295388.12947  21737764.8884   21737772.8904   21737764.746
        50.0004         45.0004
 -24285170.88149 -18889975.73848  20239153.3704   20239158.8224   20239152.951
        54.0004         49.0004
 14  5  1  0 46 30.0000000  0 10G17G10G08G09G20G01G28G13G04G07
 -13916545.91348 -10799830.14447  22372662.7234   22372669.4944   22372662.363
        50.0004         45.0004
  -7043714.96947  -5484551.08046  24330402.5754   24330413.5774   24330404.323
        42.0004         37.0004
 -13686596.11749 -10659276.54548  20152206.9334   20152213.0064   20152207.251
        54.0004         49.0004
 -20553935.24649 -15969806.26748  20219650.1274   20219656.3084   20219650.132
        54.0004         49.0004
  -3124216.38847  -2220027.57346  23650700.7264   23650708.4234   23650701.187
        42.0004         38.0004
  -7527413.04347  -5839758.73246  23278234.7034   23278242.1414   23278233.306
        45.0004         40.0004
  -1188498.48447   -932717.13346  23885664.6014   23885670.4454   23885664.982
        43.0004         38.0004
  -4143470.04247  -3183779.95846  23674210.6094   23674219.4344   23674210.796
        42.0004         38.0004
 -19762503.36148 -15359655.07547  21722070.1064   21722077.3374   21722069.704
        50.0004         45.0004
 -24257398.61449 -18868335.02448  20244438.1164   20244443.3044   20244437.936
        54.0004         49.0004
 14  5  1  0 47  0.0000000  0 10G17G10G08G09G20G01G28G13G04G07
 -13877935.29648 -10769743.93747  22380010.1234   22380017.0674   22380009.829
        50.0004         45.0004
  -7093315.51147  -5523200.66346  24320963.1604   24320975.8594   24320966.135
        42.0004         37.0004
 -13729003.49849 -10692321.25348  20144137.2594   20144143.3034   20144137.379
        54.0004         49.0004
 -20591931.72249 -15999413.90248  20212419.5394   20212425.3944   20212419.692
        54.0004         49.0004
  -3119753.14547  -2216549.68446  23651549.3954   23651559.4574   23651549.463
        42.0004         37.0004
  -7433980.42647  -5766954.08046  23296013.5024   23296021.8054   23296013.020
        45.0004         40.0004
  -1230744.53447   -965636.09946  23877624.7914   23877631.0804   23877625.335
        43.0004         39.0004
  -4065857.08847  -3123302.29246  23688981.9014   23688989.7644   23688980.855
        42.0004         38.0004
 -19844654.38148 -15423668.77747  21706437.5164   21706445.2414   21706437.208
        50.0004         45.0004
 -24229031.97849 -18846231.16748  20249836.2254   20249841.3494   20249835.696
        54.0004         49.0004
 14  5  1  0 47 30.0000000  0 10G17G10G08G09G20G01G28G13G04G07
 -13839194.99648 -10739556.66647  22387382.3774   22387389.2504   22387381.747
        50.0004         45.0004
  -7143153.44047  -5562035.23946  24311480.8704   24311491.5024   24311481.404
        42.0004         37.0004
 -13770835.48049 -10724917.58948  20136177.0324   20136182.6944   20136177.262
        54.0004         49.0004
 -20629364.28348 -16028582.11448  20205296.1854   20205302.5084   20205296.396
        53.0004         49.0004
  -3115094.77747  -2212919.76146  23652436.2624   23652443.2764   23652437.044
        42.0004         37.0004
  -7340281.74647  -5693942.11346  23313843.5404   23313851.9024   23313842.731
        45.0004         40.0004
  -1273230.09447   -998741.67346  23869539.9384   23869545.8184   23869540.690
        43.0004         38.0004
  -3988385.20047  -3062934.57446  23703722.3984   23703730.2964   23703722.810
        42.0004         37.0004
 -19926480.92948 -15487429.64547  21690866.2224   21690873.4034   21690866.174
        50.0004         45.0004
 -24200075.52449 -18823667.70748  20255346.3144   20255351.1744   20255346.029
        54.0004         49.0004
 14  5  1  0 48  0.0000000  0 10G17G10G08G09G20G01G28G13G04G07
 -13800325.74448 -10709268.91747  22394778.8154   22394785.7484   22394778.053
        50.0004         45.0004
  -7193226.65447  -5601053.15846  24301952.5794   24301962.9554   24301952.260
        42.0004         37.0004
 -13812088.00249 -10757062.39848  20128326.8594   20128332.8094   20128326.854
        54.0004         49.0004
 -20666229.78849 -16057308.46848  20198281.2174   20198287.3714   20198281.184
        54.0004         49.0004
  -3110237.60847  -2209134.92846  23653360.0354   23653368.7514   23653359.698
        42.0004         37.0004
  -7246317.95047  -5620723.58146  23331723.7554   23331732.7794   23331723.652
        45.0004         40.0004
  -1315952.40647  -1032031.73846  23861411.2654   23861415.5544   23861411.480
        43.0004         38.0004
  -3911054.61947  -3002676.94546  23718438.7794   23718446.3454   23718438.419
        42.0004         37.0004
 -20007979.00848 -15550934.55447  21675357.6934   21675365.1354   21675356.972
        50.0004         45.0004
 -24170528.17049 -18800643.81248  20260969.2004   20260974.0994   20260968.862
        54.0004         49.0004
 14  5  1  0 48 30.0000000  0 10G17G10G08G09G20G01G28G13G04G07
 -13761330.64148 -10678883.10847  22402198.9704   22402206.4164   22402198.777
        49.0004         45.0004
  -7243534.41047  -5640253.82946  24292379.8064   24292391.1034   24292378.255
        42.0004         37.0004
 -13852758.67749 -10788753.82248  20120587.5804   20120593.2924   20120587.712
        54.0004         49.0004
 -20702526.55449 -16085591.64648  20191374.4214   20191380.1664   20191374.077
        54.0004         49.0004
  -3105180.21847  -2205194.08946  23654321.9684   23654329.6664   23654323.609
        42.0004         37.0004
  -7152091.57847  -5547300.43446  23349654.5664   23349662.7054   23349653.967
        45.0004         40.0004
  -1358910.38747  -1065505.46046  23853237.0764   23853241.3544   23853236.971
        43.0004         39.0004
  -3833867.27347  -2942530.91746  23733127.1484   23733134.6994   23733126.710
        42.0004         37.0004
 -20089145.81648 -15614181.34547  21659911.8654   21659919.4084   21659912.138
        50.0004         45.0004
 -24140390.74649 -18777160.12648  20266704.4814   20266709.1824   20266703.769
        54.0004         49.0004
 14  5  1  0 49  0.0000000  0 10G17G10G08G09G20G01G28G13G04G07
 -13722212.26248 -10648401.24147  22409642.6714   22409650.5714   22409643.012
        49.0004         45.0004
  -7294076.52047  -5679637.11646  24282760.7494   24282770.9074   24282760.300
        42.0004         38.0004
 -13892845.46449 -10819990.27548  20112958.8744   20112965.2294   20112959.130
        54.0004         49.0004
 -20738253.40949 -16113430.74548  20184575.6474   20184581.4494   20184575.538
        54.0004         49.0004
  -3099920.98147  -2201095.95546  23655323.4354   23655333.8094   23655322.750
        42.0004         37.0004
  -7057605.37747  -5473674.82946  23367634.8954   23367643.3304   23367634.118
        45.0004         40.0004
  -1402102.96847  -1099161.97346  23845016.3174   23845022.4684   23845016.929
        43.0004         39.0004
  -3756825.03847  -2882497.99146  23747786.6174   23747794.7884   23747787.165
        42.0004         37.0004
 -20169978.85248 -15677168.04047  21644529.7824   21644537.3704   21644529.551
        50.0004         45.0004
 -24109664.59949 -18753217.69748  20272551.2934   20272556.2154   20272550.964
        54.0004         49.0004
 14  5  1  0 49 30.0000000  0 11G17G10G08G09G26G20G01G28G13G04G07
 -13682973.11848 -10617825.27847  22417109.5614   22417116.7694   22417109.687
        49.0004         45.0004
  -7344853.05547  -5719203.06646  24273097.5514   24273109.1834   24273098.615
        42.0004         37.0004
 -13932346.77349 -10850770.51248  20105442.3404   20105448.3254   20105442.565
        54.0004         49.0004
 -20773409.10849 -16140824.78948  20177885.6194   20177891.7264   20177885.484
        54.0004         49.0004
                                                                  24168832.194

  -3094458.38547  -2196839.37346  23656363.3014   23656371.1884   23656363.928
        42.0004         37.0004
  -6962862.49347  -5399849.21346  23385663.4894   23385672.1004   23385663.378
        44.0004         40.0004
  -1445529.49547  -1133000.79646  23836753.2274   23836759.0884   23836753.119
        43.0004         39.0004
  -3679930.12147  -2822579.84246  23762419.0474   23762427.2574   23762419.843
        42.0004         37.0004
 -20250475.92248 -15739892.95547  21629212.3084   21629218.9714   21629211.655
        50.0004         45.0004
 -24078351.08149 -18728817.57748  20278510.1024   20278515.1344   20278509.734
        54.0004         49.0004
 14  5  1  0 50  0.0000000  0 11G17G10G08G09G26G20G01G28G13G04G07
 -13643619.10548 -10587159.80247  22424598.7274   22424605.7574   22424598.487
        49.0004         45.0004
  -7395866.06547  -5758953.28846  24263390.2364   24263402.3664   24263391.585
        42.0004         37.0004
 -13971263.12149 -10881094.93448  20098036.3904   20098042.4214   20098036.684
        54.0004         49.0004
 -20807994.87749 -16167774.73348  20171304.2314   20171310.1184   20171304.105
        54.0004         49.0004
                                                                  24164755.570

  -3088793.66947  -2192425.27346  23657441.1164   23657449.2234   23657440.866
        42.0004         37.0004
  -6867868.19447  -5325827.69246  23403740.9654   23403749.3534   23403740.314
        45.0004         40.0004
  -1489191.60147  -1167023.18446  23828445.0194   23828450.1744   23828444.925
        43.0004         39.0004
  -3603187.14347  -2762780.08346  23777024.4764   23777031.7784   23777022.823
        42.0004         37.0004
 -20330637.37448 -15802356.33947  21613957.9274   21613964.9344   21613957.032
        50.0004         45.0004
 -24046453.99249 -18703962.72248  20284579.8404   20284584.8964   20284579.518
        54.0004         49.0004
 14  5  1  0 50 30.0000000  0 11G17G10G08G09G26G20G01G28G13G04G07
 -13604149.14948 -10556403.98747  22432110.0254   22432116.5004   22432109.368
        49.0004         45.0004
  -7447111.48347  -5798884.61046  24253637.2054   24253648.5174   24253639.524
        42.0004         37.0004
 -14009589.18449 -10910959.39448  20090743.3424   20090749.5064   20090743.793
        54.0004         49.0004
 -20842006.29349 -16194277.12648  20164832.3224   20164838.1114   20164832.170
        54.0004         49.0004
  -1595779.34948  -1173439.33146  24160750.2024   24160763.4354   24160749.150
        49.0004         36.0004
  -3082921.68047  -2187849.71146  23658558.9794   23658567.5704   23658558.865
        42.0004         37.0004
  -6772621.72647  -5251609.67246  23421865.4224   23421874.0684   23421864.880
        45.0004         40.0004
  -1533084.78847  -1201225.63746  23820091.1754   23820097.1314   23820091.961
        43.0004         39.0004
  -3526594.56447  -2703097.54246  23791598.1834   23791605.4344   23791598.251
        42.0004         37.0004
 -20410457.18748 -15864553.51847  21598768.1304   21598776.0904   21598768.011
        50.0004         45.0004
 -24013970.70848 -18678651.09048  20290761.0654   20290766.5274   20290760.692
        53.0004         49.0004
 14  5  1  0 51  0.0000000  0 11G17G10G08G09G26G20G01G28G13G04G07
 -13564563.47748 -10525558.01547  22439642.6654   22439649.9444   22439642.441
        49.0004         45.0004
  -7498586.20447  -5838994.59846  24243844.0034   24243853.3154   24243843.556
        42.0004         37.0004
 -14047320.44549 -10940360.36648  20083563.3974   20083569.3484   20083563.639
        54.0004         49.0004
 -20875439.46049 -16220328.94448  20158469.8964   20158475.9084   20158469.900
        54.0004         49.0004
  -1616471.94547  -1189563.42246  24156810.2394   24156825.6414   24156810.811
        44.0004         36.0004
  -3076838.46147  -2183109.52846  23659714.8974   23659724.8934   23659716.210
        42.0004         37.0004
  -6677123.36447  -5177195.38446  23440038.7084   23440046.8654   23440038.002
        44.0004         40.0004
  -1577205.68047  -1235605.50346  23811696.5254   23811700.9844   23811696.424
        43.0004         39.0004
  -3450151.90047  -2643531.78446  23806145.9474   23806152.4184   23806145.692
        42.0004         37.0004
 -20489930.40548 -15926480.62347  21583645.3644   21583652.1264   21583644.693
        50.0004         46.0004
 -23980900.10748 -18652881.80748  20297054.6304   20297059.9164   20297053.896
        53.0004         49.0004
 14  5  1  0 51 30.0000000  0 11G17G10G08G09G26G20G01G28G13G04G07
 -13524863.53048 -10494622.98447  22447197.8674   22447203.2544   22447197.082
        49.0004         45.0004
  -7550288.63847  -5879282.02346  24234004.9714   24234014.6584   24234005.241
        42.0004         38.0004
 -14084453.59949 -10969295.29248  20076496.9444   20076503.2454   20076497.440
        54.0004         49.0004
 -20908291.68049 -16245928.07548  20152218.7404   20152224.2764   20152218.426
        54.0004         49.0004
  -1636800.01047  -1205403.46846  24152944.6644   24152956.3454   24152943.566
        42.0004         36.0004
  -3070541.05447  -2178202.41446  23660914.7874   23660922.6164   23660915.306
        42.0004         38.0004
  -6581374.62347  -5102585.98646  23458258.5644   23458268.0304   23458257.898
        44.0004         40.0004
  -1621551.72047  -1270160.81946  23803255.1924   23803262.9534   23803257.456
        43.0004         39.0004
  -3373859.78747  -2584083.38746  23820664.1904   23820672.0804   23820663.122
        42.0004         37.0004
 -20569053.40748 -15988134.83847  21568588.4494   21568596.4114   21568588.130
        50.0004         46.0004
 -23947242.27748 -18626654.94048  20303459.2814   20303464.3834   20303458.860
        53.0004         49.0004
 14  5  1  0 52  0.0000000  0 11G17G10G08G09G26G20G01G28G13G04G07
 -13485057.99748 -10463605.68447  22454772.1324   22454779.1584   22454771.729
        49.0004         45.0004
  -7602224.41747  -5919751.28346  24224119.9374   24224131.7864   24224122.067
        42.0004         37.0004
 -14120993.11149 -10997767.63448  20069544.0154   20069550.1074   20069544.409
        54.0004         49.0004
 -20940567.91349 -16271078.39048  20146076.0994   20146081.9474   20146076.102
        54.0004         49.0004
  -1656770.86446  -1220965.17646  24149143.0874   24149153.2834   24149142.284
        41.0004         36.0004
  -3064034.38847  -2173132.26746  23662152.4884   23662161.5034   23662152.124
        42.0004         37.0004
  -6485384.26547  -5027788.31446  23476525.4774   23476533.9274   23476523.968
        44.0004         39.0004
  -1666127.91247  -1304895.47146  23794774.3134   23794780.1864   23794774.404
        44.0004         39.0004
  -3297725.57547  -2524757.98246  23835150.7344   23835158.1674   23835151.024
        42.0004         37.0004
 -20647829.82048 -16049518.97947  21553597.9744   21553605.0814   21553597.410
        50.0004         46.0004
 -23913004.18048 -18599975.92248  20309974.4634   20309979.6224   20309974.215
        53.0004         49.0004
 14  5  1  0 52 30.0000000  0 11G17G10G08G09G26G20G01G28G13G04G07
 -13445145.59448 -10432505.11247  22462366.8124   22462373.6104   22462366.731
        49.0004         45.0004
  -7654388.81947  -5960398.70046  24214194.0174   24214204.0494   24214195.061
        42.0004         37.0004
 -14156932.62249 -11025772.45048  20062704.8834   20062711.0304   20062705.048
        54.0004         49.0004
 -20972262.80249 -16295775.70848  20140044.9144   20140051.3524   20140045.150
        54.0004         49.0004
  -1676381.36746  -1236246.06946  24145412.5574   24145424.7484   24145410.914
        41.0004         36.0004
  -3057312.18847  -2167894.16646  23663430.7874   23663440.0034   23663432.376
        42.0004         37.0004
  -6389150.80347  -4952801.21846  23494837.9484   23494846.2904   23494837.007
        44.0004         39.0004
  -1710928.89147  -1339805.30746  23786249.8564   23786254.7974   23786249.653
        44.0004         39.0004
  -3221747.90647  -2465554.57446  23849608.6384   23849618.3184   23849609.128
        42.0004         37.0004
 -20726252.73548 -16110627.67647  21538674.3924   21538681.4504   21538673.858
        50.0004         46.0004
 -23878182.89348 -18572842.47048  20316600.8574   20316606.0644   20316600.313
        53.0004         49.0004
 14  5  1  0 53  0.0000000  0 11G17G10G08G09G26G20G01G28G13G04G07
 -13405128.62348 -10401323.06447  22469982.4774   22469988.8924   22469981.948
        49.0004         45.0004
  -7706780.99847  -6001223.59646  24204225.0124   24204234.7184   24204225.622
        42.0004         37.0004
 -14192270.06249 -11053308.11648  20055980.6934   20055986.4604   20055981.068
        54.0004         49.0004
 -21003374.86849 -16320018.88148  20134124.7564   20134130.6874   20134124.857
        54.0004         49.0004
  -1695632.66146  -1251247.08746  24141749.0844   24141761.8974   24141747.042
        41.0004         36.0004
  -3050372.85947  -2162486.87946  23664752.0334   23664761.1464   23664752.205
        42.0004         37.0004
  -6292676.80647  -4877626.69046  23513196.6344   23513204.3194   23513195.906
        44.0004         39.0004
  -1755953.94547  -1374889.71946  23777681.5114   23777686.9434   23777681.670
        44.0004         39.0004
  -3145928.09947  -2406474.18346  23864036.6084   23864045.1894   23864036.895
        42.0004         37.0004
 -20804319.71248 -16171459.01547  21523818.4404   21523826.1214   21523817.911
        50.0004         46.0004
 -23842779.46148 -18545255.40348  20323338.1284   20323343.3534   20323337.497
        53.0004         49.0004
 14  5  1  0 53 30.0000000  0 11G17G10G08G09G26G20G01G28G13G04G07
 -13365011.63648 -10370063.06947  22477616.7554   22477623.3054   22477615.957
        49.0004         45.0004
  -7759402.70747  -6042227.34246  24194209.9824   24194220.9514   24194211.795
        42.0004         38.0004
 -14227006.09349 -11080375.16248  20049370.1244   20049376.2024   20049370.391
        54.0004         49.0004
 -21033905.08649 -16343808.66448  20128315.0674   20128321.2364   20128314.814
        54.0004         49.0004
  -1714528.16546  -1265970.85346  24138149.7494   24138165.6404   24138151.279
        41.0004         36.0004
  -3043217.21747  -2156911.04746  23666113.6174   23666122.4004   23666113.590
        42.0004         37.0004
  -6195967.26947  -4802268.63546  23531599.6334   23531607.3794   23531598.934
        44.0004         39.0004
  -1801203.38247  -1410148.99746  23769070.3054   23769075.7924   23769071.073
        44.0004         39.0004
  -3070269.99247  -2347519.77846  23878433.1964   23878441.7354   23878434.305
        42.0004         37.0004
 -20882030.59348 -16232012.88847  21509030.8754   21509038.7414   21509030.359
        50.0004         46.0004
 -23806797.68348 -18517217.67048  20330184.7814   20330190.1704   20330184.547
        53.0004         49.0004
 14  5  1  0 54  0.0000000  0 11G17G10G08G09G26G20G01G28G13G04G07
 -13324796.77648 -10338726.81747  22485268.9614   22485276.0664   22485268.612
        49.0004         44.0004
  -7812252.65447  -6083408.93746  24184153.5114   24184163.6914   24184154.889
        42.0004         38.0004
 -14261138.10749 -11106971.54548  20042875.4914   20042881.1304   20042875.803
        54.0004         49.0004
 -21063851.56449 -16367143.58748  20122616.4234   20122622.4744   20122616.545
        54.0004         49.0004
  -1733068.26946  -1280417.67846  24134622.6744   24134638.2724   24134623.341
        41.0004         36.0004
  -3035842.98747  -2151164.86046  23667516.5154   23667525.6374   23667517.068
        42.0004         37.0004
  -6099024.10247  -4726728.52646  23550046.4984   23550055.9974   23550047.261
        44.0004         39.0004
  -1846675.66047  -1445581.90146  23760416.6284   23760423.6364   23760417.488
        44.0004         39.0004
  -2994774.87047  -2288692.37446  23892799.0624   23892808.4184   23892800.527
        42.0004         37.0004
 -20959382.17148 -16292286.78447  21494310.7354   21494317.6294   21494310.363
        50.0004         46.0004
 -23770237.86748 -18488729.52448  20337141.7864   20337147.1704   20337141.491
        53.0004         49.0004
 14  5  1  0 54 30.0000000  0 11G17G10G08G09G26G20G01G28G13G04G07
 -13284484.18948 -10307314.41647  22492939.6084   22492946.9134   22492939.409
        49.0004         44.0004
  -7865327.25547  -6124765.59346  24174054.5534   24174064.0974   24174054.781
        42.0004         38.0004
 -14294661.27349 -11133093.49148  20036496.0454   20036502.0464   20036496.171
        54.0004         49.0004
 -21093210.59949 -16390020.76048  20117029.6584   20117035.1084   20117029.679
        54.0004         49.0004
  -1751251.48846  -1294586.41246  24131163.3894   24131176.5054   24131162.572
        41.0004         36.0004
  -3028245.69747  -2145244.89046  23668963.7814   23668972.3564   23668962.802
        42.0004         37.0004
  -6001847.30047  -4651006.36046  23568538.8214   23568547.4574   23568538.937
        44.0004         39.0004
  -1892366.98247  -1481185.48846  23751723.0874   23751728.4054   23751722.771
        44.0004         40.0004
  -2919441.73447  -2229991.20846  23907135.5064   23907143.5304   23907135.800
        42.0004         37.0004
 -21036369.18548 -16352276.61047  21479660.5234   21479668.5624   21479660.261
        50.0004         46.0004
 -23733098.67848 -18459789.91948  20344209.4354   20344214.5524   20344209.171
        53.0004         49.0004
 14  5  1  0 55  0.0000000  0 11G17G10G08G09G26G20G01G28G13G04G07
 -13244078.78348 -10275829.67247  22500628.4474   22500635.4264   22500628.751
        49.0004         44.0004
  -7918628.41747  -6166298.79046  24163911.1404   24163920.9084   24163911.880
        42.0004         38.0004
 -14327576.45249 -11158741.69148  20030232.3794   20030238.4424   20030232.859
        54.0004         49.0004
 -21121983.70949 -16412441.37348  20111554.2104   20111560.1454   20111554.196
        54.0004         49.0004
  -1769081.72146  -1308480.10946  24127770.5444   24127783.6564   24127770.943
        41.0004         37.0004
  -3020426.30346  -2139151.87346  23670449.6304   23670459.6114   23670451.480
        41.0004         37.0004
  -5904442.24947  -4575106.34546  23587074.7204   23587082.8534   23587073.884
        44.0004         39.0004
  -1938278.86447  -1516960.93246  23742985.4714   23742990.3564   23742986.187
        44.0004         39.0004
  -2844274.79046  -2171419.54046  23921442.0034   23921447.3144   23921439.815
        41.0004         37.0004
 -21112991.87948 -16411982.54447  21465079.6134   21465087.4244   21465079.942
        51.0004         46.0004
 -23695383.87648 -18430401.78248  20351386.5624   20351391.3874   20351385.718
        53.0004         49.0004
 14  5  1  0 55 30.0000000  0 11G17G10G08G09G26G20G01G28G13G04G07
 -13203582.70248 -10244274.28747  22508334.7004   22508341.4684   22508334.897
        49.0004         44.0004
  -7972155.15747  -6208007.75846  24153725.0964   24153735.3044   24153725.811
        43.0004         38.0004
 -14359881.38549 -11183914.37048  20024084.7034   20024091.3754   20024085.205
        54.0004         49.0004
 -21150169.31849 -16434404.19148  20106190.7324   20106196.6144   20106190.789
        54.0004         49.0004
  -1786559.69946  -1322099.30646  24124444.2404   24124458.4524   24124443.758
        41.0004         36.0004
  -3012382.88147  -2132884.22046  23671981.4214   23671989.4564   23671981.686
        42.0004         37.0004
  -5806811.15847  -4499030.19946  23605653.0114   23605662.1624   23605653.038
        44.0004         39.0004
  -1984409.48447  -1552906.84546  23734206.4844   23734212.1904   23734207.464
        44.0004         39.0004
  -2769275.47746  -2112978.50246  23935711.5074   23935720.4424   23935712.102
        41.0004         37.0004
 -21189247.38148 -16471402.36047  21450568.6944   21450576.0964   21450568.431
        51.0004         46.0004
 -23657094.44448 -18400565.88848  20358672.5164   20358677.7854   20358672.169
        53.0004         49.0004
 14  5  1  0 56  0.0000000  0 11G17G10G08G09G26G20G01G28G13G04G07
 -13162998.14548 -10212649.95947  22516057.9784   22516064.4184   22516057.629
        49.0004         44.0004
  -8025906.48547  -6249891.74046  24143497.0884   24143506.4954   24143497.361
        43.0004         38.0004
 -14391573.94849 -11208609.88648  20018054.1864   20018060.1024   20018054.506
        54.0004         49.0004
 -21177765.81849 -16455907.96348  20100939.1494   20100945.4054   20100939.340
        54.0004         49.0004
  -1803686.11546  -1335444.55846  24121187.2564   24121198.8804   24121186.189
        41.0004         37.0004
  -3004113.49446  -2126440.52746  23673554.7724   23673563.6234   23673555.243
        41.0004         37.0004
  -5708956.25647  -4422779.65146  23624274.5164   23624282.6644   23624273.891
        44.0004         40.0004
  -2030757.05147  -1589021.81046  23725386.8914   23725393.2344   23725388.314
        44.0004         39.0004
  -2694444.97247  -2054669.00546  23949951.3564   23949959.0204   23949951.562
        42.0004         37.0004
 -21265132.68948 -16530533.71547  21436128.7294   21436135.8834   21436128.843
        51.0004         46.0004
 -23618231.55148 -18370283.13748  20366067.8564   20366073.0324   20366067.622
        53.0004         49.0004
 14  5  1  0 56 30.0000000  0 11G17G10G08G09G26G20G01G28G13G04G07
 -13122326.62348 -10180957.85747  22523797.8654   22523804.3954   22523797.277
        49.0004         44.0004
  -8079880.43147  -6291949.19046  24133225.0784   24133235.9924   24133226.223
        43.0004         38.0004
 -14422651.37749 -11232826.06948  20012140.2694   20012146.6524   20012140.482
        54.0004         49.0004
 -21204771.17649 -16476951.10648  20095800.3354   20095806.2774   20095800.379
        54.0004         49.0004
  -1820461.22946  -1348516.05446  24117992.2394   24118007.3444   24117992.986
        41.0004         37.0004
  -2995615.67846  -2119818.81546  23675170.0914   23675181.3464   23675172.013
        41.0004         36.0004
  -5610879.10747  -4346355.93246  23642938.2324   23642946.8474   23642937.745
        44.0004         40.0004
  -2077319.35847  -1625304.11146  23716527.4734   23716532.2344   23716527.319
        44.0004         40.0004
  -2619783.75347  -1996491.40746  23964160.2194   23964167.6294   23964158.786
        42.0004         37.0004
 -21340644.20648 -16589373.80247  21421759.5214   21421766.3104   21421758.566
        51.0004         46.0004
 -23578795.34748 -18339553.65348  20373572.5194   20373577.5834   20373571.961
        53.0004         48.0004
 14  5  1  0 57  0.0000000  0 11G17G10G08G09G26G20G01G28G13G04G07
 -13081572.07148 -10149201.06647  22531552.6174   22531559.9744   22531552.343
        49.0004         44.0004
  -8134078.10947  -6334180.98346  24122911.1554   24122921.7424   24122912.509
        43.0004         38.0004
 -14453113.42049 -11256562.73548  20006343.4354   20006349.5324   20006343.929
        54.0004         49.0004
 -21231185.98349 -16497534.08348  20090773.6924   20090779.5794   20090773.750
        54.0004         49.0004
  -1836888.01046  -1361316.13746  24114866.9294   24114879.3614   24114867.201
        41.0004         37.0004
  -2986888.92646  -2113018.71146  23676831.3854   23676842.2104   23676832.120
        41.0004         36.0004
  -5512584.18847  -4269762.52346  23661643.3664   23661651.5394   23661642.733
        44.0004         40.0004
  -2124096.65847  -1661753.92346  23707625.6904   23707630.9324   23707625.858
        44.0004         40.0004
  -2545295.66747  -1938448.72346  23978332.9804   23978340.5274   23978333.777
        42.0004         37.0004
 -21415781.36648 -16647922.18747  21407461.3944   21407468.1194   21407460.725
        51.0004         46.0004
 -23538788.86348 -18308379.79648  20381185.5534   20381190.6874   20381185.173
        53.0004         49.0004
 14  5  1  0 57 30.0000000  0 11G17G10G08G09G26G20G01G28G13G04G07
 -13040735.82448 -10117380.61147  22539323.7194   22539330.0514   22539323.197
        49.0004         45.0004
  -8188497.35247  -6376585.41446  24112555.7744   24112566.1704   24112556.570
        43.0004         38.0004
 -14482956.92749 -11279817.42048  20000664.5984   20000670.6714   20000664.795
        54.0004         49.0004
 -21257007.44049 -16517654.71148  20085859.9584   20085866.0434   20085860.015
        54.0004         49.0004
  -1852966.26747  -1373844.63646  24111808.5804   24111822.8704   24111807.652
        42.0004         37.0004
  -2977930.83546  -2106038.35846  23678536.3724   23678543.2804   23678537.427
        41.0004         36.0004
  -5414072.62047  -4193000.28846  23680388.9864   23680396.9214   23680388.951
        44.0004         40.0004
  -2171086.22147  -1698369.13646  23698684.5764   23698690.1984   23698684.268
        44.0004         40.0004
  -2470980.65747  -1880540.89246  23992474.3204   23992483.4044   23992475.014
        42.0004         37.0004
 -21490540.16148 -16706175.73947  21393235.0984   21393242.6054   21393234.619
        51.0004         46.0004
 -23498212.00648 -18276761.49648  20388906.6824   20388912.1434   20388906.331
        53.0004         48.0004
 14  5  1  0 58  0.0000000  0 11G17G10G08G09G26G20G01G28G13G04G07
 -12999820.64948 -10085498.66347  22547110.0844   22547116.8694   22547109.558
        49.0004         45.0004
  -8243137.44547  -6419161.94246  24102157.7864   24102168.5424   24102158.654
        43.0004         38.0004
 -14512180.47449 -11302589.01948  19995103.4394   19995109.8274   19995103.898
        54.0004         49.0004
 -21282234.68049 -16537312.30948  20081059.2864   20081065.3304   20081059.378
        54.0004         49.0004
  -1868697.10047  -1386102.40146  24108814.7064   24108828.7324   24108815.058
        42.0004         37.0004
  -2968739.64246  -2098876.32946  23680284.9204   23680294.0504   23680286.008
        41.0004         36.0004
  -5315347.06947  -4116071.30546  23699177.0384   23699185.1854   23699176.014
        44.0004         40.0004
  -2218286.74147  -1735148.73546  23689701.9754   23689707.7724   23689702.255
        44.0004         39.0004
  -2396840.10347  -1822769.01446  24006584.2074   24006591.5914   24006584.152
        42.0004         37.0004
 -21564918.09748 -16764132.52347  21379080.9084   21379088.8954   21379080.855
        51.0004         46.0004
 -23457066.05248 -18244699.73448  20396736.7824   20396741.8384   20396736.206
        53.0004         48.0004
 14  5  1  0 58 30.0000000  0 11G17G10G08G09G26G20G01G28G13G04G07
 -12958831.11748 -10053558.76947  22554909.5334   22554917.2594   22554909.650
        49.0004         45.0004
  -8297999.62347  -6461911.52946  24091719.0784   24091727.8304   24091718.322
        43.0004         38.0004
 -14540784.56149 -11324877.92348  19989660.3304   19989666.2174   19989660.603
        54.0004         49.0004
 -21306869.19349 -16556508.04748  20076371.7044   20076377.3704   20076371.708
        54.0004         49.0004
  -1884084.15547  -1398092.30646  24105886.3024   24105900.2604   24105885.692
        42.0004         37.0004
  -2959315.85946  -2091533.08446  23682079.7014   23682087.7354   23682079.841
        41.0004         36.0004
  -5216412.48347  -4038979.44746  23718003.1914   23718011.3354   23718002.474
        44.0004         40.0004
  -2265699.19947  -1772093.48746  23680677.9534   23680685.1484   23680679.936
        44.0004         39.0004
  -2322877.94047  -1765136.14446  24020658.9064   24020666.3854   24020658.446
        42.0004         37.0004
 -21638914.91948 -16821792.32847  21365000.4664   21365007.1004   21364999.509
        51.0004         46.0004
 -23415354.93448 -18212197.58748  20404674.0304   20404679.2014   20404673.700
        53.0004         48.0004
 14  5  1  0 59  0.0000000  0 11G17G10G08G09G26G20G01G28G13G04G07
 -12917766.70148 -10021560.52747  22562723.5684   22562730.8864   22562723.549
        49.0004         45.0004
  -8353080.09547  -6504831.22146  24081236.0064   24081246.4564   24081237.294
        43.0004         38.0004
 -14568764.76949 -11346680.69048  19984335.5164   19984342.2354   19984336.009
        54.0004         49.0004
 -21330906.89949 -16575238.73048  20071797.4094   20071803.5674   20071797.577
        54.0004         49.0004
  -1899125.89247  -1409813.11046  24103025.2354   24103037.6444   24103024.726
        42.0004         38.0004
  -2949655.23946  -2084005.27546  23683916.2604   23683923.6254   23683918.049
        41.0004         36.0004
  -5117268.71947  -3961724.58046  23736869.0254   23736877.3644   23736868.782
        44.0004         40.0004
  -2313319.21147  -1809199.94646  23671618.1224   23671622.3594   23671618.225
        44.0004         39.0004
  -2249092.93247  -1707641.32046  24034698.7614   24034707.0734   24034699.505
        42.0004         37.0004
 -21712525.45848 -16879151.13747  21350991.2994   21350999.1894   21350991.756
        51.0004         46.0004
 -23373077.19848 -18179253.91848  20412719.2654   20412724.5644   20412718.780
        53.0004         49.0004
 14  5  1  0 59 30.0000000  0 11G17G10G08G09G26G20G01G28G13G04G07
 -12876630.70148  -9989506.49747  22570551.0314   22570558.4314   22570551.260
        49.0004         45.0004
  -8408378.77747  -6547920.92646  24070713.6664   24070723.4854   24070714.447
        43.0004         39.0004
 -14596120.08949 -11367996.52648  19979130.2364   19979136.2254   19979130.658
        54.0004         49.0004
 -21354347.61149 -16593504.22548  20067336.8664   20067342.9274   20067336.938
        54.0004         49.0004
  -1913824.12147  -1421266.25146  24100226.4554   24100240.6854   24100226.994
        42.0004         37.0004
  -2939756.86746  -2076292.18246  23685800.6104   23685809.1124   23685802.249
        41.0004         36.0004
  -5017918.97347  -3884309.22446  23755775.1914   23755782.9784   23755774.548
        45.0004         40.0004
  -2361146.04647  -1846467.58446  23662516.5004   23662521.0554   23662516.647
        44.0004         39.0004
  -2175487.43347  -1650286.37846  24048706.6644   24048712.9744   24048705.754
        42.0004         37.0004
 -21785747.97348 -16936207.58947  21337058.5844   21337065.7644   21337057.695
        51.0004         46.0004
 -23330234.79448 -18145870.25148  20420872.1134   20420877.3664   20420871.508
        53.0004         49.0004
 14  5  1  1  0  0.0000000  0 11G17G10G08G09G26G20G01G28G13G04G07
 -12835427.12848  -9957399.81647  22578392.3824   22578399.1564   22578392.091
        49.0004         45.0004
  -8463896.49847  -6591181.32746  24060149.6784   24060158.1554   24060150.232
        43.0004         39.0004
 -14622850.35249 -11388825.31048  19974043.7774   19974050.1604   19974043.976
        54.0004         49.0004
 -21377192.13549 -16611305.16248  20062989.7894   20062995.6154   20062989.689
        54.0004         49.0004
  -1928181.98647  -1432454.16746  24097494.8834   24097509.1654   24097494.578
        42.0004         37.0004
  -2929620.64346  -2068393.77546  23687730.7494   23687737.9664   23687730.504
        41.0004         36.0004
  -4918367.64247  -3806736.78946  23774718.8284   23774727.2854   23774718.256
        45.0004         40.0004
  -2409180.04447  -1883896.63446  23653376.3864   23653381.4054   23653375.908
        43.0004         39.0004
  -2102064.56247  -1593073.73446  24062677.9114   24062685.6444   24062677.774
        42.0004         37.0004
 -21858581.55648 -16992960.98247  21323198.6554   21323205.3044   21323198.268
        51.0004         46.0004
 -23286830.96948 -18112049.11148  20429131.3684   20429136.8024   20429131.230
        53.0004         49.0004
 14  5  1  1  0 30.0000000  0 11G17G10G08G09G26G20G01G28G13G04G07
 -12794154.97548  -9925239.69347  22586246.4634   22586253.5034   22586245.976
        49.0004         45.0004
  -8519629.04947  -6634609.12046  24049543.5244   24049553.1004   24049544.294
        43.0004         39.0004
 -14648950.74849 -11409163.28948  19969077.2124   19969083.0524   19969077.659
        54.0004         49.0004
 -21399436.12949 -16628638.15248  20058756.3104   20058762.6674   20058756.646
        54.0004         49.0004
  -1942197.20047  -1443375.07946  24094828.5884   24094842.7484   24094827.824
        42.0004         37.0004
  -2919241.62246  -2060306.18046  23689704.8844   23689714.4154   23689705.050
        40.0004         36.0004
  -4818613.93247  -3729006.64246  23793702.5224   23793709.8904   23793700.788
        45.0004         40.0004
  -2457416.26347  -1921483.27246  23644196.4174   23644202.9024   23644196.761
        43.0004         39.0004
  -2028822.27347  -1536001.81246  24076614.2984   24076622.0374   24076615.002
        42.0004         37.0004
 -21931020.32048 -17049406.71847  21309413.9194   21309420.5324   21309413.346
        51.0004         46.0004
 -23242864.10948 -18077789.24048  20437498.0674   20437503.5654   20437497.540
        53.0004         49.0004
 14  5  1  1  1  0.0000000  0 11G17G10G08G09G26G20G01G28G13G04G07
 -12752819.42848  -9893030.16747  22594112.0334   22594118.8074   22594112.013
        49.0004         45.0004
  -8575578.03947  -6678205.58546  24038897.0084   24038907.0924   24038897.285
        43.0004         38.0004
 -14674422.22849 -11429011.20448  19964229.9354   19964236.0184   19964230.330
        54.0004         49.0004
 -21421080.99049 -16645504.28248  20054637.9784   20054644.0374   20054637.755
        54.0004         49.0004
  -1955873.58547  -1454031.95946  24092224.8984   24092239.0634   24092224.889
        42.0004         37.0004
  -2908620.61246  -2052030.03246  23691724.9874   23691735.7864   23691726.677
        40.0004         36.0004
  -4718662.84047  -3651122.71246  23812721.9874   23812730.1724   23812721.129
        45.0004         40.0004
  -2505855.62347  -1959228.19646  23634979.0024   23634983.1524   23634979.533
        43.0004         39.0004
  -1955764.65847  -1479073.79046  24090516.6794   24090525.2084   24090517.098
        42.0004         37.0004
 -22003064.38648 -17105544.89247  21295704.5124   21295711.5464   21295704.041
        51.0004         46.0004
 -23198337.87048 -18043093.49148  20445971.4094   20445976.7424   20445970.893
        53.0004         49.0004
 14  5  1  1  1 30.0000000  0 12G17G10G08G09G26G20G01G28G13G02G04G07
 -12711422.65548  -9860772.93847  22601989.5934   22601996.7564   22601989.818
        49.0004         45.0004
  -8631742.20447  -6721969.72146  24028207.9164   24028217.7744   24028208.873
        43.0004         38.0004
 -14699262.88849 -11448367.56748  19959503.0314   19959509.4994   19959503.418
        54.0004         49.0004
 -21442125.85049 -16661902.88448  20050633.0084   20050639.1954   20050633.069
        54.0004         49.0004
  -1969212.25547  -1464425.69546  24089687.9414   24089702.5054   24089687.887
        42.0004         37.0004
  -2897755.83346  -2043563.94546  23693794.6554   23693802.6024   23693794.205
        40.0004         36.0004
  -4618516.80447  -3573086.87246  23831778.4264   23831786.9184   23831778.295
        44.0004         40.0004
  -2554496.44747  -1997130.10146  23625722.8444   23625728.6554   23625722.923
        44.0004         39.0004
  -1882893.12346  -1422290.76846  24104384.9004   24104392.4634   24104384.404
        41.0004         37.0004
  -1581230.06848  -1187385.19946  24118646.1404   24118656.6774   24118647.444
        48.0004         38.0004
 -22074711.13848 -17161373.47947  21282071.0634   21282077.4014   21282069.837
        51.0004         46.0004
 -23153253.86648 -18007963.11948  20454550.4324   20454555.5564   20454550.087
        53.0004         48.0004
 14  5  1  1  2  0.0000000  0 12G17G10G08G09G26G20G01G28G13G02G04G07
 -12669967.08848  -9828469.88947  22609879.3714   22609885.1844   22609878.507
        49.0004         45.0004
  -8688120.69547  -6765900.87246  24017479.7074   24017489.1374   24017480.672
        43.0004         39.0004
 -14723471.44549 -11467231.38248  19954896.1354   19954902.1454   19954896.484
        54.0004         49.0004
 -21462569.99449 -16677833.39148  20046742.8614   20046748.7454   20046742.845
        54.0004         49.0004
  -1982214.63247  -1474557.37846  24087213.6104   24087227.2614   24087211.409
        42.0004         37.0004
  -2886646.26546  -2034907.07846  23695906.6754   23695916.4554   23695908.526
        41.0004         36.0004
  -4518178.70847  -3494901.37246  23850872.1434   23850880.9794   23850871.888
        44.0004         39.0004
  -2603337.46247  -2035187.99946  23616429.3714   23616434.3064   23616429.002
        44.0004         39.0004
  -1810209.15746  -1365653.91146  24118215.7734   24118222.5484   24118215.623
        41.0004         37.0004
  -1675151.88047  -1260570.75646  24100774.3344   24100783.2244   24100775.127
        44.0004         38.0004
 -22145958.11448 -17216890.55547  21268512.5494   21268519.8904   21268512.089
        51.0004         46.0004
 -23107613.60048 -17972399.29648  20463235.2514   20463240.7114   20463234.900
        53.0004         48.0004
 14  5  1  1  2 30.0000000  0 12G17G10G08G09G26G20G01G28G13G02G04G07
 -12628456.00748  -9796123.58447  22617778.3374   22617785.0604   22617777.600
        49.0004         45.0004
  -8744713.72247  -6809999.20146  24006710.5114   24006719.8344   24006711.436
        43.0004         39.0004
 -14747047.22049 -11485602.12848  19950410.0254   19950415.8034   19950410.075
        54.0004         49.0004
 -21482413.38149 -16693295.78048  20042966.9084   20042972.6574   20042966.925
        54.0004         49.0004
  -1994883.07046  -1484428.83046  24084803.5784   24084815.2004   24084802.590
        41.0004         37.0004
  -2875290.95746  -2026058.75846  23698069.8104   23698078.5544   23698069.575
        41.0004         37.0004
  -4417651.91047  -3416568.82546  23870002.9254   23870010.4924   23870001.595
        44.0004         40.0004
  -2652378.18347  -2073401.51446  23607096.9574   23607102.1574   23607097.110
        44.0004         39.0004
  -1737714.92746  -1309164.89846  24132011.7794   24132020.5904   24132010.799
        41.0004         36.0004
  -1768919.80547  -1333636.43046  24082930.2944   24082940.6114   24082930.831
        43.0004         38.0004
 -22216803.90748 -17272095.01047  21255030.8424   21255037.7624   21255030.410
        51.0004         46.0004
 -23061419.64548 -17936404.03048  20472026.0374   20472031.0564   20472025.530
        53.0004         48.0004
 14  5  1  1  3  0.0000000  0 12G17G10G08G09G26G20G01G28G13G02G04G07
 -12586888.05248  -9763732.95047  22625687.6604   22625694.5034   22625687.849
        49.0004         45.0004
  -8801516.03447  -6854260.60546  23995900.7954   23995911.2164   23995902.575
        43.0004         39.0004
 -14769984.91249 -11503475.66848  19946045.0824   19946051.0064   19946045.430
        54.0004         49.0004
 -21501651.25049 -16708286.33448  20039305.8354   20039312.0594   20039305.914
        54.0004         49.0004
  -2007214.83046  -1494037.93646  24082455.8284   24082469.3374   24082453.092
        41.0004         36.0004
  -2863684.27946  -2017014.54546  23700279.3534   23700285.3624   23700277.730
        41.0004         36.0004
  -4316935.18347  -3338088.29146  23889167.8234   23889176.2284   23889167.232
        44.0004         39.0004
  -2701612.83547  -2111766.14546  23597727.2954   23597733.1024   23597727.708
        44.0004         39.0004
  -1665408.03046  -1252821.85946  24145770.5264   24145779.9734   24145769.837
        41.0004         36.0004
  -1862527.62347  -1406577.33546  24065117.6264   24065125.9744   24065116.855
        43.0004         38.0004
 -22287242.41048 -17326982.10147  21241627.1014   21241634.5554   21241626.579
        51.0004         47.0004
 -23014669.60048 -17899975.45348  20480922.3794   20480927.5774   20480921.819
        53.0004         48.0004
 14  5  1  1  3 30.0000000  0 12G17G10G08G09G26G20G01G28G13G02G04G07
 -12545269.03548  -9731302.53447  22633608.0724   22633615.2614   22633607.062
        49.0004         45.0004
  -8858530.31547  -6898687.17246  23985051.9484   23985061.6074   23985052.232
        43.0004         39.0004
 -14792286.66249 -11520853.66948  19941801.1934   19941807.3774   19941801.521
        54.0004         49.0004
 -21520286.51949 -16722807.32748  20035759.3524   20035765.5414   20035759.718
        54.0004         49.0004
  -2019214.82446  -1503388.53646  24080171.8084   24080185.0704   24080171.806
        41.0004         36.0004
  -2851828.36746  -2007776.11846  23702535.7004   23702542.4414   23702535.089
        41.0004         36.0004
  -4216034.70247  -3259464.57046  23908368.2354   23908376.7344   23908368.360
        44.0004         39.0004
  -2751043.37147  -2150283.40946  23588321.5344   23588327.3724   23588321.641
        44.0004         39.0004
  -1593293.38346  -1196628.62546  24159493.7104   24159500.8954   24159493.527
        41.0004         36.0004
  -1955976.46647  -1479394.38046  24047334.5234   24047343.2484   24047334.343
        42.0004         38.0004
 -22357274.25748 -17381552.32047  21228300.5714   21228307.5694   21228299.717
        51.0004         47.0004
 -22967368.60548 -17863117.56648  20489923.5624   20489928.5824   20489923.052
        53.0004         48.0004
 14  5  1  1  4  0.0000000  0 12G17G10G08G09G26G20G01G28G13G02G04G07
 -12503599.33248  -9698832.62347  22641537.7414   22641544.7394   22641537.018
        49.0004         44.0004
  -8915753.33147  -6943276.40346  23974162.3444   23974172.1824   23974163.065
        43.0004         39.0004
 -14813948.90349 -11537733.34748  19937678.9084   19937685.1344   19937679.259
        54.0004         49.0004
 -21538316.24949 -16736856.47448  20032329.0804   20032334.7084   20032328.875
        54.0004         49.0004
  -2030882.49246  -1512480.15546  24077949.9884   24077966.1544   24077950.131
        41.0004         36.0004
  -2839719.70446  -1998340.73046  23704837.5684   23704846.3144   23704837.945
        41.0004         36.0004
  -4114950.93547  -3180698.03846  23927603.9754   23927612.7584   23927603.964
        44.0004         39.0004
  -2800666.34347  -2188950.63246  23578878.4804   23578883.9244   23578878.370
        43.0004         39.0004
  -1521370.30546  -1140584.67946  24173180.4244   24173188.1724   24173180.162
        41.0004         36.0004
  -2049261.84747  -1552084.05146  24029582.8274   24029590.9344   24029583.631
        42.0004         38.0004
 -22426895.17748 -17435802.33847  21215051.9334   21215058.9564   21215051.448
        51.0004         47.0004
 -22919516.17948 -17825829.99248  20499029.8184   20499034.2584   20499029.041
        53.0004         48.0004
 14  5  1  1  4 30.0000000  0 12G17G10G08G09G26G20G01G28G13G02G04G07
 -12461884.25748  -9666327.35947  22649475.5874   22649482.3214   22649475.114
        49.0004         44.0004
  -8973187.54647  -6988030.20746  23963233.0434   23963242.9724   23963233.300
        43.0004         39.0004
 -14834973.44949 -11554116.12048  19933678.1454   19933684.1914   19933678.564
        54.0004         49.0004
 -21555742.66049 -16750435.49948  20029012.6284   20029018.6384   20029012.793
        54.0004         49.0004
  -2042222.20246  -1521316.21346  24075791.8114   24075806.0934   24075792.654
        41.0004         36.0004
  -2827359.69846  -1988709.52746  23707189.9964   23707197.8744   23707190.069
        41.0004         36.0004
  -4013689.57447  -3101793.10446  23946873.9734   23946883.3864   23946873.504
        44.0004         39.0004
  -2850483.38747  -2227769.05846  23569399.4114   23569404.3424   23569398.649
        43.0004         39.0004
  -1449643.33546  -1084693.52346  24186830.3754   24186836.6454   24186829.147
        41.0004         36.0004
  -2142384.52347  -1624646.93846  24011861.9474   24011870.9034   24011863.236
        43.0004         38.0004
 -22496106.03148 -17489732.82647  21201881.3944   21201888.7614   21201880.935
        51.0004         47.0004
 -22871117.28048 -17788116.60048  20508239.4074   20508244.6934   20508239.080
        53.0004         48.0004
 14  5  1  1  5  0.0000000  0 12G17G10G08G09G26G20G01G28G13G02G04G07
 -12420124.68448  -9633787.41847  22657422.5664   22657428.2724   22657421.811
        49.0004         44.0004
  -9030829.88747  -7032946.18246  23952263.8114   23952273.4084   23952264.267
        43.0004         39.0004
 -14855357.23749 -11569999.59848  19929799.2204   19929805.5634   19929799.518
        54.0004         49.0004
 -21572563.46549 -16763542.62348  20025811.6214   20025817.5384   20025811.748
        54.0004         49.0004
  -2053233.65846  -1529896.51246  24073696.7274   24073711.7194   24073697.189
        41.0004         37.0004
  -2814744.99046  -1978879.81946  23709590.7824   23709600.0494   23709591.104
        41.0004         36.0004
  -3912251.55947  -3022750.52346  23966176.7234   23966185.4784   23966175.679
        44.0004         39.0004
  -2900491.29847  -2266736.22946  23559882.5054   23559886.6484   23559882.556
        43.0004         39.0004
  -1378111.96946  -1028954.80346  24200441.7014   24200447.6944   24200440.677
        41.0004         36.0004
  -2235340.28147  -1697079.75746  23994173.0474   23994180.7764   23994174.018
        43.0004         38.0004
 -22564902.66648 -17543340.53947  21188789.8754   21188796.9704   21188789.590
        51.0004         47.0004
 -22822171.79748 -17749977.29048  20517553.8134   20517558.7874   20517552.932
        53.0004         48.0004
 14  5  1  1  5 30.0000000  0 12G17G10G08G09G26G20G01G28G13G02G04G07
 -12378321.39448  -9601213.40247  22665376.3124   22665383.1234   22665376.348
        49.0004         44.0004
  -9088678.00347  -7078022.50746  23941254.9704   23941264.6504   23941255.646
        43.0004         39.0004
 -14875097.66049 -11585381.75948  19926042.8534   19926048.4934   19926043.186
        54.0004         49.0004
 -21588776.61249 -16776176.25448  20022726.6704   20022732.7204   20022726.488
        54.0004         49.0004
  -2063916.81746  -1538220.96846  24071664.6724   24071679.8004   24071664.364
        41.0004         37.0004
  -2801872.82246  -1968849.51946  23712040.3894   23712047.2674   23712040.361
        41.0004         36.0004
  -3810638.16147  -2943571.28046  23985512.9334   23985521.6384   23985512.487
        44.0004         39.0004
  -2950686.62247  -2305849.42946  23550330.5234   23550335.3954   23550330.471
        43.0004         39.0004
  -1306776.12146   -973368.43046  24214014.1124   24214022.0664   24214015.378
        41.0004         36.0004
  -2328125.57447  -1769379.76746  23976516.7974   23976524.3904   23976516.526
        43.0004         38.0004
 -22633281.45448 -17596622.66747  21175777.4944   21175785.0734   21175777.057
        51.0004         47.0004
 -22772680.37848 -17711412.57548  20526970.9914   20526976.3694   20526971.095
        53.0004         48.0004
 14  5  1  1  6  0.0000000  0 12G17G10G08G09G26G20G01G28G13G02G04G07
 -12336479.74248  -9568609.51447  22673339.3214   22673344.9394   22673338.794
        49.0004         44.0004
  -9146733.70047  -7123260.59046  23930207.6594   23930216.8294   23930207.714
        43.0004         39.0004
 -14894195.91949 -11600263.53148  19922408.4474   19922414.8274   19922408.614
        54.0004         49.0004
 -21604384.40249 -16788338.17448  20019756.4504   20019762.5174   20019756.315
        54.0004         49.0004
  -2074276.05947  -1546293.00746  24069695.0414   24069707.1344   24069692.696
        42.0004         37.0004
  -2788744.61246  -1958619.66346  23714537.1764   23714544.8324   23714537.961
        40.0004         36.0004
  -3708854.66447  -2864259.48146  24004881.1534   24004890.8874   24004880.538
        44.0004         39.0004
  -3001070.65247  -2345109.66946  23540743.1484   23540748.9554   23540743.140
        44.0004         39.0004
  -1235639.97246   -917937.65546  24227553.4254   24227561.9464   24227552.307
        40.0004         36.0004
  -2420740.57647  -1841547.07846  23958892.8154   23958899.6804   23958892.606
        43.0004         38.0004
 -22701242.64148 -17649579.37947  21162844.8724   21162852.3474   21162844.830
        51.0004         47.0004
 -22722646.84048 -17672425.43048  20536492.2814   20536497.5944   20536491.853
        53.0004         48.0004
 14  5  1  1  6 30.0000000  0 12G17G10G08G09G26G20G01G28G13G02G04G07
 -12294598.67748  -9535974.89647  22681308.1894   22681316.3294   22681308.655
        49.0004         44.0004
  -9204992.22847  -7168656.71646  23919120.6924   23919130.3914   23919121.619
        43.0004         39.0004
 -14912647.39349 -11614641.31648  19918897.3064   19918903.3794   19918897.634
        54.0004         49.0004
 -21619382.90349 -16800025.32548  20016902.3754   20016908.1694   20016902.286
        54.0004         49.0004
  -2084309.18947  -1554110.95246  24067784.6004   24067798.0834   24067783.518
        42.0004         37.0004
  -2775355.21846  -1948186.30045  23717084.0214   23717093.6464   23717085.277
        40.0004         35.0004
  -3606900.31047  -2784814.56346  24024283.5264   24024291.7134   24024282.066
        44.0004         39.0004
  -3051638.34447  -2384513.03146  23531119.6974   23531124.7044   23531119.927
        44.0004         39.0004
  -1164701.14846   -862660.66045  24241050.8374   24241060.2124   24241051.583
        40.0004         35.0004
  -2513179.84347  -1913577.45346  23941302.0724   23941309.6464   23941302.524
        43.0004         38.0004
 -22768780.46048 -17702206.20547  21149992.9584   21150000.1814   21149992.881
        51.0004         47.0004
 -22672070.05048 -17633014.97748  20546116.7654   20546122.3094   20546116.074
        53.0004         48.0004
 14  5  1  1  7  0.0000000  0 12G17G10G08G09G26G20G01G28G13G02G04G07
 -12252683.88948  -9503314.01047  22689285.4504   22689291.8584   22689284.324
        49.0004         44.0004
  -9263456.10947  -7214212.86146  23907995.1994   23908005.1864   23907996.037
        43.0004         39.0004
 -14930454.45949 -11628516.95948  19915508.5884   19915514.5054   19915508.932
        54.0004         49.0004
 -21633774.97749 -16811239.93848  20014163.5334   20014169.6234   20014163.545
        54.0004         49.0004
  -2094021.36646  -1561678.78946  24065936.8464   24065949.9554   24065935.193
        41.0004         37.0004
  -2761706.85146  -1937551.14045  23719683.1264   23719689.3364   23719683.787
        40.0004         35.0004
  -3504781.24947  -2705241.30246  24043715.2874   24043723.5954   24043715.675
        44.0004         39.0004
  -3102391.72347  -2424061.07846  23521462.0484   23521467.2144   23521461.904
        44.0004         40.0004
  -1093965.56146   -807541.99345  24254512.3064   24254521.6354   24254511.778
        40.0004         35.0004
  -2605444.37947  -1985471.68546  23923744.2054   23923752.5994   23923744.649
        43.0004         38.0004
 -22835896.14848 -17754504.09347  21137221.0984   21137228.7714   21137221.046
        51.0004         47.0004
 -22620955.26548 -17593185.30548  20555844.0544   20555848.8894   20555843.292
        53.0004         48.0004
 14  5  1  1  7 30.0000000  0 12G17G10G08G09G26G20G01G28G13G02G04G07
 -12210735.99148  -9470627.32647  22697267.5584   22697274.1764   22697266.857
        49.0004         44.0004
  -9322122.49247  -7259926.79746  23896831.5874   23896841.3324   23896832.330
        43.0004         39.0004
 -14947614.03849 -11641888.06548  19912243.3404   19912249.4974   19912243.533
        54.0004         49.0004
 -21647558.30149 -16821980.20348  20011540.5874   20011546.6444   20011540.827
        54.0004         49.0004
  -2103412.08146  -1568996.12346  24064148.3534   24064162.2084   24064148.366
        41.0004         37.0004
  -2747795.88646  -1926711.32645  23722330.2044   23722338.6014   23722329.061
        40.0004         35.0004
  -3402498.17647  -2625540.23146  24063179.9054   24063188.4764   24063179.390
        43.0004         39.0004
  -3153327.12347  -2463750.97146  23511769.0754   23511774.4124   23511769.565
        44.0004         40.0004
  -1023431.68546   -752580.54846  24267934.4534   24267944.1234   24267934.697
        40.0004         36.0004
  -2697529.84747  -2057226.38846  23906221.4164   23906228.2434   23906220.890
        43.0004         38.0004
 -22902585.60748 -17806469.86147  21124530.8964   21124537.4154   21124530.293
        51.0004         47.0004
 -22569302.24948 -17552936.23648  20565673.5014   20565678.3324   20565672.748
        53.0004         48.0004
 14  5  1  1  8  0.0000000  0 12G17G10G08G09G26G20G01G28G13G02G04G07
 -12168757.01548  -9437916.43147  22705255.8084   22705262.9154   22705255.543
        49.0004         44.0004
  -9380990.17847  -7305797.58846  23885629.4924   23885637.8564   23885630.015
        43.0004         39.0004
 -14964124.73249 -11654753.55248  19909101.6294   19909107.4704   19909101.905
        54.0004         49.0004
 -21660731.90249 -16832245.35248  20009033.9044   20009040.0924   20009033.808
        54.0004         49.0004
  -2112482.57846  -1576063.93246  24062421.3924   24062434.9114   24062422.815
        41.0004         37.0004
  -2733620.92746  -1915665.81945  23725026.8744   23725034.5194   23725026.714
        40.0004         35.0004
  -3300053.55647  -2545713.26446  24082674.5404   24082683.6064   24082674.349
        44.0004         39.0004
  -3204442.74847  -2503581.30146  23502042.1174   23502047.0604   23502042.258
        45.0004         40.0004
   -953100.66746   -697777.14646  24281316.5434   24281325.8864   24281318.228
        40.0004         36.0004
  -2789433.76447  -2128839.62446  23888732.0504   23888739.6814   23888732.314
        43.0004         38.0004
 -22968846.42648 -17858101.61947  21111922.2154   21111928.9494   21111921.603
        51.0004         47.0004
 -22517112.67248 -17512269.06348  20575604.4564   20575609.6884   20575603.966
        53.0004         48.0004
 14  5  1  1  8 30.0000000  0 12G17G10G08G09G26G20G01G28G13G02G04G07
 -12126750.02148  -9405183.69747  22713249.2094   22713257.2214   22713248.819
        49.0004         44.0004
  -9440058.51047  -7351824.74246  23874389.3964   23874397.9774   23874390.170
        43.0004         39.0004
 -14979986.53149 -11667113.41248  19906083.1564   19906089.4024   19906083.433
        54.0004         49.0004
 -21673296.08049 -16842035.62948  20006643.0624   20006648.9204   20006643.116
        54.0004         49.0004
  -2121235.31446  -1582884.14346  24060756.4754   24060771.1394   24060756.774
        41.0004         37.0004
  -2719181.11546  -1904413.93845  23727774.1994   23727782.5994   23727774.191
        40.0004         35.0004
  -3197450.79247  -2465763.06246  24102199.8014   24102208.0324   24102198.637
        44.0004         39.0004
  -3255737.68247  -2543551.35246  23492280.4994   23492285.8714   23492280.986
        45.0004         40.0004
   -882974.71046   -643133.53046  24294663.5144   24294670.9454   24294662.501
        40.0004         36.0004
  -2881154.48747  -2200310.11646  23871277.5884   23871285.5984   23871278.106
        43.0004         38.0004
 -23034676.81148 -17909397.98047  21099394.3894   21099401.2514   21099393.883
        51.0004         47.0004
 -22464389.37648 -17471186.00348  20585637.2404   20585642.5884   20585636.641
        53.0004         48.0004
 14  5  1  1  9  0.0000000  0 12G17G10G08G09G26G20G01G28G13G02G04G07
 -12084716.84848  -9372430.56847  22721247.3464   22721255.0244   22721247.113
        48.0004         44.0004
  -9499325.95247  -7398007.03346  23863111.0194   23863119.1744   23863111.709
        43.0004         39.0004
 -14995197.72249 -11678966.30048  19903188.4764   19903194.7154   19903188.947
        54.0004         49.0004
 -21685249.97949 -16851350.36148  20004368.4774   20004374.2214   20004368.356
        54.0004         49.0004
  -2129670.87446  -1589457.19146  24059151.0954   24059166.1044   24059150.901
        41.0004         37.0004
  -2704474.21046  -1892953.91645  23730573.4924   23730583.1134   23730573.876
        40.0004         35.0004
  -3094691.77247  -2385691.13046  24121754.4504   24121762.7384   24121752.809
        44.0004         39.0004
  -3307209.53447  -2583659.26046  23482486.5014   23482491.6014   23482486.472
        45.0004         40.0004
   -813054.35846   -588650.09946  24307965.0634   24307976.2824   24307967.571
        40.0004         36.0004
  -2972689.00347  -2271635.51046  23853859.6414   23853867.0034   23853859.509
        43.0004         38.0004
 -23100074.23948 -17960356.96647  21086950.0314   21086956.6594   21086949.501
        51.0004         47.0004
 -22411133.48448 -17429687.93448  20595771.4774   20595776.9734   20595771.148
        53.0004         48.0004
 14  5  1  1  9 30.0000000  0 12G17G10G08G09G26G20G01G28G13G02G04G07
 -12042661.03648  -9339659.79247  22729250.4544   22729257.4924   22729250.463
        49.0004         44.0004
  -9558792.50147  -7444344.48046  23851795.3304   23851803.6614   23851795.659
        43.0004         39.0004
 -15009758.41049 -11690312.30248  19900417.7434   19900423.7344   19900417.980
        54.0004         49.0004
 -21696594.55249 -16860190.30248  20002209.3734   20002215.3114   20002209.506
        54.0004         49.0004
  -2137792.40147  -1595785.53846  24057605.0074   24057619.4514   24057605.584
        42.0004         37.0004
  -2689500.71046  -1881286.17645  23733421.9284   23733430.3654   23733422.492
        40.0004         35.0004
  -2991780.46747  -2305500.52046  24141336.5644   24141345.9714   24141335.963
        43.0004         39.0004
  -3358857.88947  -2623904.69846  23472658.4084   23472663.7654   23472657.789
        45.0004         40.0004
   -743342.19546   -534328.91745  24321234.9404   24321239.5034   24321233.307
        40.0004         35.0004
  -3064036.25347  -2342815.00146  23836476.8934   23836484.2334   23836477.204
        43.0004         39.0004
 -23165037.49648 -18010977.64347  21074587.5644   21074594.9994   21074587.141
        51.0004         47.0004
 -22357348.15548 -17387777.31448  20606006.9274   20606011.4954   20606005.963
        53.0004         48.0004
 14  5  1  1 10  0.0000000  0 12G17G10G08G09G26G20G01G28G13G02G04G07
 -12000583.70248  -9306872.24647  22737257.9674   22737264.8314   22737256.931
        49.0004         44.0004
  -9618456.02847  -7490835.42046  23840441.8484   23840449.7904   23840441.963
        43.0004         39.0004
 -15023666.37549 -11701149.69248  19897771.0054   19897777.4114   19897771.465
        54.0004         49.0004
 -21707328.35349 -16868554.31248  20000166.7374   20000172.9624   20000166.749
        54.0004         49.0004
  -2145600.34047  -1601869.53746  24056120.0484   24056133.7684   24056118.793
        42.0004         37.0004
  -2674258.12446  -1869408.76645  23736323.3144   23736330.9934   23736323.922
        40.0004         35.0004
  -2888718.62647  -2225192.62346  24160948.8804   24160957.1974   24160947.764
        43.0004         39.0004
  -3410680.07947  -2664285.61046  23462796.3114   23462802.3384   23462796.730
        45.0004         40.0004
   -673838.56946   -480170.24145  24334459.5824   24334464.0634   24334459.094
        40.0004         35.0004
  -3155193.11947  -2413846.13646  23819130.0854   23819136.7374   23819130.847
        43.0004         39.0004
 -23229563.49848 -18061257.60347  21062308.7234   21062315.5064   21062308.544
        51.0004         47.0004
 -22303034.38748 -17345454.92648  20616341.9184   20616347.6434   20616341.633
        53.0004         48.0004
 14  5  1  1 10 30.0000000  0 12G17G10G08G09G26G20G01G28G13G02G04G07
 -11958487.12348  -9274069.71947  22745268.8194   22745275.1234   22745268.420
        49.0004         44.0004
  -9678314.60847  -7537478.34046  23829049.9644   23829059.2554   23829051.246
        43.0004         38.0004
 -15036920.04249 -11711477.23148  19895249.1644   19895255.2734   19895249.384
        54.0004         49.0004
 -21717450.25349 -16876441.51948  19998240.7254   19998246.5354   19998240.597
        54.0004         49.0004
  -2153095.58547  -1607709.85946  24054693.8254   24054708.5124   24054693.534
        42.0004         37.0004
  -2658743.72046  -1857319.51145  23739276.8464   23739280.7354   23739275.239
        40.0004         35.0004
  -2785508.03747  -2144768.80446  24180589.1844   24180597.3934   24180588.384
        43.0004         38.0004
  -3462673.91247  -2704800.26346  23452902.3694   23452907.6744   23452902.492
        45.0004         40.0004
   -604543.77046   -426174.25045  24347645.7324   24347652.9354   24347646.010
        40.0004         35.0004
  -3246156.45747  -2484726.47246  23801819.1524   23801826.4504   23801819.958
        43.0004         39.0004
 -23293649.11648 -18111194.40247  21050113.4594   21050120.5964   21050113.083
        51.0004         47.0004
 -22248193.46148 -17302721.76848  20626777.9354   20626783.5724   20626777.678
        53.0004         48.0004
 14  5  1  1 11  0.0000000  0 12G17G10G08G09G26G20G01G28G13G02G04G07
 -11916375.32448  -9241255.32047  22753282.5544   22753289.1674   22753281.849
        49.0004         44.0004
  -9738369.19747  -7584274.01346  23817622.9654   23817631.3714   23817622.634
        43.0004         39.0004
 -15049520.68549 -11721295.91648  19892851.1174   19892857.3714   19892851.496
        54.0004         49.0004
 -21726962.20449 -16883853.43848  19996431.1344   19996436.8034   19996431.137
        54.0004         49.0004
  -2160281.83447  -1613309.43046  24053326.3024   24053340.9304   24053326.106
        42.0004         37.0004
  -2642958.55146  -1845019.28045  23742278.5944   23742287.0824   23742279.560
        40.0004         35.0004
  -2682153.47947  -2064232.80346  24200256.3414   24200265.5014   24200255.876
        43.0004         38.0004
  -3514839.39047  -2745448.66046  23442975.7014   23442980.4424   23442975.756
        45.0004         41.0004
   -535461.34446   -372343.76045  24360791.1354   24360797.2884   24360792.437
        40.0004         35.0004
  -3336926.16647  -2555455.95346  23784546.6984   23784553.9884   23784546.785
        44.0004         39.0004
 -23357294.61348 -18160788.24547  21038001.9854   21038009.1854   21038001.848
        52.0004         47.0004
 -22192829.57648 -17259581.11448  20637313.5254   20637318.9834   20637313.009
        53.0004         48.0004
 14  5  1  1 11 30.0000000  0 12G17G10G08G09G26G20G01G28G13G02G04G07
 -11874249.68448  -9208430.13447  22761298.4354   22761304.8984   22761297.632
        48.0004         44.0004
  -9798618.00147  -7631221.02646  23806156.3624   23806166.5264   23806157.563
        43.0004         39.0004
 -15061466.52149 -11730604.36648  19890578.1734   19890584.0224   19890578.339
        54.0004         49.0004
 -21735863.10949 -16890789.21548  19994737.1214   19994742.9524   19994736.960
        54.0004         49.0004
  -2167159.85047  -1618668.80246  24052016.9384   24052030.9694   24052017.069
        42.0004         37.0004
  -2626900.61246  -1832506.49545  23745335.4994   23745342.5904   23745335.055
        40.0004         35.0004
  -2578656.74647  -1983586.02146  24219952.3124   24219959.7494   24219950.891
        42.0004         38.0004
  -3567173.99147  -2786228.85946  23433016.4454   23433022.2284   23433016.841
        45.0004         41.0004
   -466591.68246   -318679.06445  24373896.7034   24373905.0854   24373898.367
        40.0004         35.0004
  -3427498.71147  -2626031.79346  23767311.7134   23767319.0154   23767312.164
        44.0004         39.0004
 -23420496.65748 -18210036.55047  21025975.2134   21025982.3074   21025974.736
        52.0004         47.0004
 -22136943.79048 -17216033.78048  20647948.1734   20647953.7834   20647947.602
        53.0004         48.0004
 14  5  1  1 12  0.0000000  0 12G17G10G08G09G26G20G01G28G13G02G04G07
 -11832109.51648  -9175593.65047  22769317.6004   22769324.5644   22769317.205
        49.0004         44.0004
  -9859056.56647  -7678315.88746  23794655.8324   23794664.7004   23794656.901
        43.0004         38.0004
 -15072753.32749 -11739399.29648  19888430.4624   19888436.4544   19888430.488
        54.0004         49.0004
 -21744149.44449 -16897246.11148  19993160.2884   19993166.3924   19993160.144
        54.0004         49.0004
  -2173727.91147  -1623786.65446  24050767.4084   24050782.2294   24050767.322
        42.0004         37.0004
  -2610565.10246  -1819777.46445  23748440.4994   23748450.0874   23748443.263
        40.0004         35.0004
  -2475017.24547  -1902827.98246  24239674.3094   24239682.4664   24239672.935
        42.0004         38.0004
  -3619673.03247  -2827137.18646  23423026.5264   23423031.5104   23423026.822
        45.0004         41.0004
   -397932.49246   -265178.37745  24386962.3964   24386971.7214   24386963.318
        40.0004         35.0004
  -3517868.87747  -2696449.93646  23750114.4244   23750120.5554   23750114.296
        44.0004         39.0004
 -23483250.02848 -18258935.23747  21014033.6434   21014040.2524   21014033.284
        52.0004         47.0004
 -22080534.80448 -17172078.75748  20658682.6154   20658688.5984   20658682.128
        53.0004         48.0004
 14  5  1  1 12 30.0000000  0 12G17G10G08G09G26G20G01G28G13G02G04G07
 -11789961.43248  -9142750.98547  22777338.5354   22777345.6654   22777337.787
        49.0004         44.0004
  -9919688.40547  -7725561.36746  23783117.8604   23783127.8744   23783118.719
        43.0004         39.0004
 -15083385.45949 -11747684.08648  19886406.9574   19886413.0964   19886407.578
        54.0004         49.0004
 -21751825.62549 -16903227.55748  19991699.6654   19991705.1224   19991699.638
        54.0004         49.0004
  -2179992.37747  -1628667.93846  24049575.9654   24049588.6074   24049574.424
        42.0004         38.0004
  -2593955.61746  -1806834.89745  23751601.6764   23751610.9454   23751604.402
        40.0004         35.0004
  -2371242.29747  -1821964.40346  24259420.3094   24259430.5454   24259420.831
        42.0004         37.0004
  -3672339.21947  -2868175.75446  23413004.2504   23413009.5144   23413004.360
        45.0004         41.0004
   -329489.80346   -211846.38645  24399987.1434   24399995.4324   24399987.610
        40.0004         35.0004
  -3608038.80547  -2766712.05846  23732954.2404   23732962.3654   23732955.017
        43.0004         39.0004
 -23545557.29648 -18307486.31747  21002176.8964   21002183.3804   21002176.583
        52.0004         47.0004
 -22023609.39648 -17127721.32048  20669515.0884   20669520.5514   20669514.627
        52.0004         48.0004
 14  5  1  1 13  0.0000000  0 12G17G10G08G09G26G20G01G28G13G02G04G07
 -11747806.00848  -9109902.59847  22785359.0344   22785366.7804   22785359.527
        49.0004         44.0004
  -9980509.60247  -7772954.39446  23771543.2984   23771552.4754   23771544.606
        43.0004         39.0004
 -15093359.45749 -11755456.04448  19884508.8964   19884515.2884   19884509.322
        54.0004         49.0004
 -21758889.09749 -16908731.57148  19990355.3284   19990361.5524   19990355.250
        54.0004         49.0004
  -2185952.68347  -1633312.20246  24048441.0574   24048452.5944   24048440.824
        42.0004         38.0004
  -2577068.17746  -1793675.76445  23754816.1144   23754824.9434   23754817.291
        39.0004         35.0004
  -2267332.19847  -1740995.52146  24279195.1244   24279202.7064   24279194.055
        42.0004         37.0004
  -3725168.48647  -2909341.40746  23402951.8004   23402957.3944   23402951.738
        45.0004         40.0004
   -261262.49746   -158682.24345  24412970.4924   24412978.3534   24412970.403
        40.0004         35.0004
  -3698004.33847  -2836814.92546  23715835.1814   23715842.5614   23715835.584
        43.0004         39.0004
 -23607414.13048 -18355686.40447  20990406.0924   20990412.8124   20990405.446
        52.0004         47.0004
 -21966167.36048 -17082961.32048  20680446.1724   20680451.2854   20680445.555
        52.0004         48.0004
 14  5  1  1 13 30.0000000  0 12G17G10G08G09G26G20G01G28G13G02G04G07
 -11705647.32648  -9077051.66747  22793382.3154   22793389.1114   22793381.792
        49.0004         44.0004
 -10041521.53747  -7820496.06746  23759933.8044   23759943.4384   23759934.302
        43.0004         39.0004
 -15102676.90849 -11762716.40948  19882735.9464   19882742.2154   19882736.229
        54.0004         49.0004
 -21765342.15449 -16913759.93548  19989127.2644   19989133.2884   19989127.367
        54.0004         49.0004
  -2191612.73247  -1637722.51246  24047362.0934   24047377.2444   24047363.049
        42.0004         37.0004
  -2559903.94246  -1780300.96145  23758083.6744   23758090.8744   23758083.487
        39.0004         35.0004
  -2163291.89746  -1659925.13746  24298994.4864   24299002.2384   24298992.640
        41.0004         37.0004
  -3778161.33347  -2950634.52746  23392867.8524   23392872.3854   23392866.907
        45.0004         40.0004
   -193254.14446   -105688.70345  24425912.4414   24425917.8594   24425911.493
        40.0004         35.0004
  -3787765.04647  -2906758.18446  23698754.0454   23698760.9014   23698754.514
        43.0004         39.0004
 -23668820.53248 -18403535.50847  20978720.7904   20978727.7324   20978720.102
        52.0004         47.0004
 -21908213.07548 -17037802.16148  20691474.0484   20691479.9804   20691474.095
        52.0004         48.0004
 14  5  1  1 14  0.0000000  0 12G17G10G08G09G26G20G01G28G13G02G04G07
 -11663484.30148  -9044197.35547  22801405.5474   22801412.5584   22801405.393
        49.0004         44.0004
 -10102718.58347  -7868181.97246  23748288.0084   23748297.9104   23748288.437
        43.0004         39.0004
 -15111333.26049 -11769461.63048  19881088.4984   19881094.8544   19881088.745
        54.0004         49.0004
 -21771180.78449 -16918309.52648  19988016.2194   19988022.5984   19988016.181
        54.0004         49.0004
  -2196970.29247  -1641897.11046  24046344.7694   24046357.7184   24046343.701
        42.0004         38.0004
  -2542457.56446  -1766706.28345  23761403.9044   23761411.4534   23761403.861
        39.0004         35.0004
  -2059120.04646  -1578752.26546  24318815.7914   24318823.6834   24318815.998
        41.0004         36.0004
  -3831311.71347  -2992050.40846  23382752.7984   23382757.3554   23382752.791
        45.0004         40.0004
   -125461.76446    -52863.45845  24438809.9304   24438820.0684   24438811.704
        40.0004         35.0004
  -3877314.72847  -2976537.00746  23681713.3384   23681719.8624   23681712.985
        43.0004         39.0004
 -23729770.54948 -18451028.98347  20967122.3444   20967129.2544   20967121.943
        52.0004         47.0004
 -21849744.84948 -16992242.53548  20702600.8224   20702605.9594   20702599.739
        52.0004         48.0004
 14  5  1  1 14 30.0000000  0 12G17G10G08G09G26G20G01G28G13G02G04G07
 -11621320.81748  -9011342.69747  22809429.5194   22809436.5654   22809428.498
        48.0004         44.0004
 -10164102.13247  -7916013.19746  23736606.6604   23736615.7044   23736607.974
        43.0004         39.0004
 -15119329.95149 -11775692.83048  19879566.9924   19879573.2774   19879567.274
        54.0004         49.0004
 -21776407.10149 -16922381.98548  19987021.5534   19987027.6944   19987021.636
        54.0004         49.0004
  -2202029.24447  -1645839.04546  24045381.0784   24045394.1804   24045381.256
        43.0004         38.0004
  -2524730.15246  -1752892.62945  23764774.3214   23764782.9284   23764776.945
        39.0004         35.0004
  -1954821.59646  -1497480.75146  24338663.9794   24338672.3784   24338663.044
        41.0004         36.0004
  -3884620.44647  -3033589.66546  23372609.9994   23372612.2394   23372608.486
        44.0004         40.0004
    -57888.83246      -209.22345  24451668.1424   24451680.4824   24451670.515
        40.0004         35.0004
  -3966653.39847  -3046151.41146  23664712.0904   23664719.4784   23664712.983
        43.0004         39.0004
 -23790264.49648 -18498167.08347  20955610.3844   20955617.6144   20955610.231
        52.0004         47.0004
 -21790767.02348 -16946285.82248  20713823.7464   20713829.3474   20713823.479
        52.0004         48.0004
 14  5  1  1 15  0.0000000  0 12G17G10G08G09G26G20G01G28G13G02G04G07
 -11579158.77848  -8978489.14347  22817452.3934   22817458.8924   22817451.897
        48.0004         44.0004
 -10225670.55547  -7963988.48846  23724891.1674   23724900.1954   23724891.338
        44.0004         39.0004
 -15126665.81649 -11781409.10148  19878170.9214   19878177.2824   19878171.284
        54.0004         49.0004
 -21781020.55249 -16925976.88948  19986144.1834   19986149.7004   19986144.008
        54.0004         50.0004
  -2206790.72447  -1649549.16046  24044474.6464   24044489.4194   24044475.113
        43.0004         38.0004
  -2506719.95146  -1738858.60945  23768204.5564   23768209.0774   23768203.507
        39.0004         34.0004
  -1850398.62746  -1416112.20946  24358534.9174   24358542.3714   24358534.240
        41.0004         36.0004
  -3938085.32147  -3075250.59446  23362434.4044   23362438.2374   23362434.421
        44.0004         40.0004
      9463.96446     52273.49245  24464488.2734   24464494.5414   24464487.178
        40.0004         35.0004
  -4055778.10847  -3115599.09046  23647753.1944   23647759.0034   23647753.459
        43.0004         39.0004
 -23850299.65148 -18544947.67747  20944186.3684   20944193.4224   20944185.830
        52.0004         47.0004
 -21731281.21248 -16899933.27048  20725143.2974   20725148.8484   20725142.782
        52.0004         48.0004
 14  5  1  1 15 30.0000000  0 12G17G10G08G09G26G20G01G28G13G02G04G07
 -11537002.80048  -8945640.32347  22825474.3334   22825481.5154   22825474.187
        48.0004         44.0004
 -10287424.71747  -8012108.51446  23713140.1294   23713148.7844   23713140.011
        44.0004         39.0004
 -15133342.35149 -11786611.60948  19876900.5344   19876906.7914   19876900.945
        54.0004         49.0004
 -21785023.20449 -16929095.84448  19985382.0714   19985388.3044   19985382.154
        54.0004         49.0004
  -2211258.65847  -1653030.54546  24043625.2544   24043638.8904   24043624.472
        43.0004         38.0004
  -2488427.52946  -1724604.70045  23771684.6244   23771693.5604   23771684.964
        39.0004         35.0004
  -1745855.85646  -1334650.30746  24378430.4034   24378438.8564   24378428.052
        41.0004         36.0004
  -3991706.43647  -3117033.27546  23352229.6404   23352236.2594   23352231.051
        44.0004         40.0004
     76593.50046    104582.19845  24477260.9874   24477270.2864   24477261.871
        39.0004         35.0004
  -4144688.66947  -3184879.91446  23630833.5924   23630840.0324   23630833.912
        43.0004         39.0004
 -23909876.17048 -18591370.89647  20932848.9604   20932855.8814   20932848.744
        52.0004         47.0004
 -21671291.66048 -16853188.19748  20736558.8324   20736564.3094   20736558.799
        52.0004         48.0004
 14  5  1  1 16  0.0000000  0 12G17G10G08G09G26G20G01G28G13G02G04G07
 -11494851.14648  -8912794.87647  22833495.2684   22833502.4954   22833495.146
        48.0004         44.0004
 -10349359.01247  -8060368.90246  23701352.9024   23701362.6724   23701354.623
        44.0004         39.0004
 -15139355.08549 -11791296.86948  19875756.3014   19875762.3654   19875756.763
        54.0004         49.0004
 -21788411.03949 -16931735.73048  19984737.4764   19984743.4914   19984737.514
        54.0004         49.0004
  -2215430.65647  -1656281.33746  24042830.4134   24042842.7684   24042831.280
        42.0004         38.0004
  -2469847.79246  -1710126.90645  23775219.9084   23775228.6664   23775220.389
        40.0004         35.0004
  -1641191.96146  -1253094.03046  24398344.4654   24398353.3194   24398345.585
        41.0004         36.0004
  -4045477.85347  -3158933.08946  23341998.7884   23342002.4574   23341998.007
        44.0004         40.0004
    143502.89546    156719.41245  24489994.6234   24490005.8044   24489994.637
        39.0004         35.0004
  -4233379.14247  -3253989.23646  23613956.2144   23613962.6674   23613956.384
        44.0004         39.0004
 -23968987.82048 -18637431.88247  20921600.3214   20921607.4384   20921600.238
        52.0004         47.0004
 -21610796.57648 -16806049.19248  20748071.0054   20748076.5214   20748070.307
        52.0004         48.0004
 14  5  1  1 16 30.0000000  0 12G17G10G08G09G26G20G01G28G13G02G04G07
 -11452709.24548  -8879957.02447  22841515.2914   22841521.6204   22841514.241
        48.0004         44.0004
 -10411475.43647  -8108771.20946  23689533.5634   23689541.8484   23689534.741
        44.0004         39.0004
 -15144706.63049 -11795466.91848  19874738.0634   19874744.4324   19874738.274
        54.0004         49.0004
 -21791187.33549 -16933899.08748  19984209.1734   19984214.8934   19984209.019
        54.0004         49.0004
  -2219311.85847  -1659305.54246  24042091.7754   24042105.1604   24042092.364
        42.0004         38.0004
  -2450982.68946  -1695426.72845  23778808.9014   23778819.1664   23778810.019
        40.0004         35.0004
  -1536412.79546  -1171447.93446  24418284.0664   24418292.3404   24418284.019
        40.0004         36.0004
  -4099400.92447  -3200951.04746  23331738.4944   23331743.4334   23331737.179
        44.0004         40.0004
    210187.45546    208681.39545  24502684.6674   24502687.7134   24502684.480
        39.0004         35.0004
  -4321850.20547  -3322927.58946  23597120.8104   23597128.0934   23597121.103
        44.0004         39.0004
 -24027636.06248 -18683131.76447  20910439.5064   20910446.8754   20910439.487
        52.0004         47.0004
 -21549801.42448 -16758520.53148  20759678.0214   20759683.5464   20759677.732
        52.0004         48.0004
 14  5  1  1 17  0.0000000  0 12G17G10G08G09G26G20G01G28G13G02G04G07
 -11410578.12348  -8847127.56647  22849531.0614   22849539.2214   22849531.731
        48.0004         44.0004
 -10473772.13747  -8157313.99846  23677679.8054   23677687.3744   23677679.760
        44.0004         40.0004
 -15149395.88249 -11799120.89648  19873845.8884   19873851.9364   19873846.227
        54.0004         49.0004
 -21793351.30849 -16935585.31848  19983797.2334   19983803.5774   19983797.166
        54.0004         49.0004
  -2222903.02347  -1662103.72946  24041409.9614   24041422.4974   24041409.032
        42.0004         38.0004
  -2431830.34346  -1680502.74245  23782457.3214   23782460.0474   23782455.484
        40.0004         35.0004
  -1431520.24046  -1089713.49546  24438245.6214   24438254.1184   24438244.868
        41.0004         36.0004
  -4153473.18947  -3243085.28346  23321447.9394   23321451.9744   23321447.602
        45.0004         40.0004
    276646.89546    260467.95345  24515329.3454   24515336.8234   24515331.103
        40.0004         35.0004
  -4410098.85047  -3391692.64646  23580328.3044   23580334.2474   23580328.392
        44.0004         39.0004
 -24085818.28648 -18728468.52047  20899367.9144   20899375.3754   20899367.901
        52.0004         47.0004
 -21488307.89648 -16710603.52148  20771379.9764   20771384.8744   20771379.390
        52.0004         48.0004
 14  5  1  1 17 30.0000000  0 12G17G10G08G09G26G20G01G28G13G02G04G07
 -11368459.84348  -8814308.11947  22857547.0524   22857552.9274   22857546.578
        48.0004         44.0004
 -10536246.47047  -8205995.20446  23665790.6124   23665799.4064   23665791.187
        44.0004         40.0004
 -15153421.27649 -11802257.58248  19873079.5484   19873086.0484   19873080.002
        54.0004         49.0004
 -21794902.20149 -16936793.81748  19983502.2174   19983508.2674   19983502.161
        54.0004         49.0004
  -2226204.94647  -1664676.53946  24040781.0744   24040794.2554   24040780.450
        42.0004         38.0004
  -2412388.46146  -1665353.14245  23786152.7644   23786161.8464   23786154.426
        40.0004         35.0004
  -1326515.79346  -1007891.86446  24458226.3274   24458234.0464   24458226.493
        41.0004         36.0004
  -4207691.44647  -3285333.25346  23311129.8384   23311134.2444   23311130.079
        45.0004         40.0004
    342881.44246    312079.27245  24527936.4444   24527943.4144   24527935.496
        40.0004         35.0004
  -4498121.79847  -3460281.82546  23563576.7844   23563584.0044   23563577.381
        44.0004         39.0004
 -24143531.14948 -18773439.53947  20888385.7804   20888392.8714   20888385.799
        52.0004         47.0004
 -21426316.89148 -16662298.86948  20783175.8114   20783181.7424   20783175.788
        52.0004         48.0004
 14  5  1  1 18  0.0000000  0 12G17G10G08G09G26G20G01G28G13G02G04G07
 -11326356.30048  -8781500.16647  22865559.8244   22865566.0874   22865558.755
        48.0004         44.0004
 -10598897.61747  -8254814.17746  23653868.2254   23653877.1184   23653869.472
        44.0004         40.0004
 -15156782.30249 -11804876.58448  19872440.0704   19872446.5654   19872440.409
        54.0004         49.0004
 -21795840.45549 -16937524.94048  19983323.7684   19983329.8254   19983323.728
        54.0004         49.0004
  -2229219.85547  -1667025.69546  24040207.6274   24040218.3754   24040206.091
        43.0004         38.0004
  -2392656.00946  -1649977.12245  23789909.0694   23789917.2504   23789909.634
        39.0004         35.0004
  -1221402.49146   -925985.40346  24478229.8004   24478238.6494   24478228.466
        41.0004         36.0004
  -4262054.41947  -3327693.99846  23300784.8254   23300789.9144   23300785.388
        45.0004         40.0004
    408889.64546    363514.21845  24540493.7444   24540504.1394   24540495.869
        40.0004         35.0004
  -4585917.17747  -3528693.67146  23546869.7084   23546876.7984   23546869.466
        44.0004         39.0004
 -24200773.31048 -18818043.77947  20877493.5764   20877499.9624   20877492.386
        52.0004         47.0004
 -21363831.34448 -16613608.85948  20795066.9114   20795072.3304   20795066.302
        52.0004         48.0004
 14  5  1  1 18 30.0000000  0 12G17G10G08G09G26G20G01G28G13G02G04G07
 -11284270.11148  -8748705.73247  22873568.1964   22873574.7884   22873567.821
        48.0004         44.0004
 -10661724.19447  -8303769.87246  23641912.3304   23641919.9244   23641913.267
        44.0004         40.0004
 -15159479.02549 -11806977.93748  19871926.7074   19871933.4574   19871927.214
        54.0004         49.0004
 -21796166.32749 -16937778.87748  19983261.6154   19983267.5924   19983261.611
        54.0004         49.0004
  -2231949.48347  -1669152.57246  24039687.2324   24039699.3234   24039686.570
        42.0004         38.0004
  -2372632.03046  -1634373.91645  23793721.5734   23793724.7704   23793719.621
        39.0004         35.0004
  -1116183.00346   -843996.20146  24498251.3984   24498259.4334   24498250.963
        41.0004         36.0004
  -4316560.18647  -3370166.01446  23290412.8304   23290418.2534   23290413.593
        45.0004         41.0004
    474670.37046    414771.90745  24553014.5224   24553022.5944   24553014.008
        40.0004         35.0004
  -4673482.65247  -3596926.37746  23530206.5804   23530213.6764   23530207.079
        44.0004         39.0004
 -24257542.57648 -18862279.52948  20866690.0534   20866697.0584   20866690.000
        52.0004         48.0004
 -21300853.31448 -16564535.09548  20807051.3774   20807056.2644   20807051.001
        52.0004         48.0004
 14  5  1  1 19  0.0000000  0 12G17G10G08G09G26G20G01G28G13G02G04G07
 -11242205.50848  -8715928.11247  22881572.7944   22881580.3574   22881572.145
        48.0004         44.0004
 -10724726.72847  -8352862.66346  23629923.3254   23629931.0994   23629923.314
        44.0004         40.0004
 -15161513.11749 -11808562.95948  19871540.0894   19871546.0874   19871540.304
        54.0004         49.0004
 -21795882.03649 -16937557.36948  19983316.2664   19983321.8304   19983315.832
        54.0004         49.0004
  -2234397.72647  -1671060.15346  24039221.5704   24039234.8534   24039220.649
        42.0004         38.0004
  -2352317.54346  -1618544.36945  23797586.0584   23797594.5964   23797585.121
        39.0004         35.0004
  -1010861.97746   -761927.88446  24518292.2544   24518302.5034   24518292.404
        41.0004         36.0004
  -4371209.04947  -3412749.53646  23280013.6324   23280019.0694   23280014.040
        45.0004         41.0004
    540220.31346    465849.76345  24565485.7494   24565494.0604   24565487.307
        39.0004         35.0004
  -4760818.23247  -3664979.93746  23513586.7104   23513593.8404   23513587.880
        44.0004         39.0004
 -24313839.52748 -18906147.24447  20855976.9444   20855983.8224   20855976.747
        52.0004         47.0004
 -21237387.29248 -16515081.07548  20819128.4674   20819134.2194   20819128.129
        52.0004         48.0004
 14  5  1  1 19 30.0000000  0 12G17G10G08G09G26G20G01G28G13G02G04G07
 -11200160.31348  -8683165.62447  22889573.4004   22889581.0394   22889572.729
        48.0004         44.0004
 -10787899.55747  -8402088.16346  23617901.8384   23617910.2014   23617902.498
        44.0004         40.0004
 -15162879.52949 -11809627.71148  19871280.0074   19871285.9004   19871280.175
        54.0004         49.0004
 -21794983.25849 -16936857.03448  19983487.0034   19983492.8504   19983487.190
        54.0004         49.0004
  -2236561.91547  -1672746.40846  24038809.0714   24038822.9564   24038808.819
        42.0004         38.0004
  -2331706.57346  -1602483.78045  23801508.9694   23801514.7594   23801507.905
        39.0004         35.0004
   -905437.58646   -679779.04046  24538354.4484   24538363.0194   24538354.573
        41.0004         36.0004
  -4425994.28247  -3455439.30146  23269588.3594   23269594.7274   23269588.319
        45.0004         40.0004
    605543.27946    516750.75545  24577918.8394   24577924.9644   24577918.176
        39.0004         35.0004
  -4847917.23747  -3732849.16146  23497012.7194   23497018.9254   23497013.111
        44.0004         39.0004
 -24369657.42148 -18949641.66848  20845355.3534   20845362.3204   20845355.424
        52.0004         48.0004
 -21173431.29048 -16465245.25748  20831298.8004   20831304.2374   20831298.634
        52.0004         48.0004
 14  5  1  1 20  0.0000000  0 12G17G10G08G09G26G20G01G28G13G02G04G07
 -11158141.47248  -8650423.66647  22897570.7364   22897576.0444   22897568.850
        48.0004         44.0004
 -10851246.15647  -8451449.06346  23605847.6864   23605856.8164   23605848.134
        44.0004         40.0004
 -15163582.88749 -11810175.80148  19871145.9674   19871152.1704   19871146.551
        54.0004         49.0004
 -21793475.33149 -16935682.04148  19983773.8104   19983779.6914   19983773.818
        54.0004         49.0004
  -2238448.78847  -1674216.56446  24038450.1444   24038463.0634   24038449.615
        42.0004         38.0004
  -2310802.89446  -1586195.13045  23805484.1744   23805492.1024   23805485.595
        39.0004         34.0004
   -799917.38946   -597555.51146  24558435.4794   24558443.5884   24558434.147
        41.0004         37.0004
  -4480919.04347  -3498237.80746  23259136.4454   23259142.2854   23259136.191
        45.0004         40.0004
    670633.25146    567470.15145  24590305.5854   24590311.1594   24590304.952
        40.0004         35.0004
  -4934782.10647  -3800535.95646  23480483.2144   23480490.2384   23480483.144
        44.0004         39.0004
 -24424999.56648 -18992765.38448  20834823.9984   20834830.5084   20834823.354
        52.0004         48.0004
 -21108992.38348 -16415033.14448  20843561.3174   20843566.6874   20843561.046
        52.0004         48.0004
 14  5  1  1 20 30.0000000  0 12G17G10G08G09G26G20G01G28G13G02G04G07
 -11116147.73948  -8617701.27547  22905560.0164   22905567.0724   22905560.510
        48.0004         44.0004
 -10914761.78647  -8500941.67946  23593760.0534   23593769.8784   23593760.950
        44.0004         39.0004
 -15163619.68849 -11810204.49348  19871139.1304   19871145.3314   19871139.414
        54.0004         49.0004
 -21791355.11649 -16934029.94248  19984177.1394   19984183.5584   19984177.355
        54.0004         49.0004
  -2240056.81847  -1675469.44446  24038143.8854   24038156.6164   24038143.529
        42.0004         38.0004
  -2289602.28646  -1569675.08845  23809516.9814   23809526.8494   23809519.736
        39.0004         35.0004
   -694300.56046   -515256.70746  24578533.1174   24578540.5784   24578532.307
        41.0004         37.0004
  -4535978.10347  -3541140.96246  23248658.3724   23248664.2404   23248658.699
        45.0004         40.0004
    735492.66246    618009.91145  24602645.9984   24602653.6274   24602646.542
        40.0004         35.0004
  -5021407.41747  -3868036.07546  23463998.9154   23464005.4944   23463998.537
        44.0004         39.0004
 -24479860.49748 -19035514.11647  20824384.2524   20824391.2864   20824384.172
        52.0004         47.0004
 -21044069.77748 -16364444.12347  20855915.7334   20855921.3294   20855915.217
        52.0004         47.0004
 14  5  1  1 21  0.0000000  0 12G17G10G08G09G26G20G01G28G13G02G04G07
 -11074183.10248  -8585001.55647  22913546.1854   22913552.3684   22913545.873
        48.0004         44.0004
 -10978446.87447  -8550566.34246  23581641.6974   23581650.5674   23581642.543
        44.0004         40.0004
 -15162991.65249 -11809715.13348  19871258.6354   19871265.1344   19871259.259
        54.0004         49.0004
 -21788624.89849 -16931902.50948  19984697.0944   19984703.1464   19984696.966
        54.0004         49.0004
  -2241389.65547  -1676507.89946  24037889.6794   24037903.4544   24037889.229
        42.0004         38.0004
  -2268105.55146  -1552924.29745  23813610.5874   23813617.6584   23813611.276
        39.0004         35.0004
   -588591.58546   -432886.08246  24598647.6404   24598658.2174   24598647.707
        41.0004         36.0004
  -4591171.42347  -3584148.73746  23238155.6054   23238160.8514   23238156.012
        45.0004         40.0004
    800118.44446    668367.62745  24614943.1334   24614952.7584   24614944.142
        39.0004         35.0004
  -5107792.52847  -3935349.03346  23447559.8064   23447567.4824   23447560.466
        44.0004         39.0004
 -24534240.49248 -19077888.10648  20814036.3984   20814043.2604   20814036.117
        52.0004         48.0004
 -20978667.41748 -16313481.26947  20868361.4664   20868366.6624   20868361.044
        52.0004         47.0004
 14  5  1  1 21 30.0000000  0 12G17G10G08G09G26G20G01G28G13G02G04G07
 -11032247.41448  -8552324.39447  22921526.3444   22921532.3904   22921525.715
        48.0004         43.0004
 -11042297.20947  -8600319.77046  23569491.2784   23569500.2764   23569492.494
        44.0004         40.0004
 -15161695.70449 -11808705.31948  19871505.5524   19871511.6774   19871505.429
        54.0004         49.0004
 -21785282.05549 -16929297.70748  19985333.1224   19985339.0484   19985333.010
        54.0004         49.0004
  -2242446.51647  -1677331.28246  24037689.8154   24037701.0714   24037688.905
        42.0004         38.0004
  -2246308.68946  -1535939.67945  23817759.7784   23817765.5324   23817758.213
        39.0004         35.0004
   -482790.35046   -350443.55346  24618783.8894   24618788.4464   24618781.109
        41.0004         36.0004
  -4646493.72247  -3627257.01246  23227628.6974   23227634.5554   23227628.571
        45.0004         40.0004
    864512.51346    718544.78345  24627196.9614   24627205.9844   24627197.039
        39.0004         35.0004
  -5193932.76247  -4002471.17446  23431168.2214   23431174.9364   23431167.934
        44.0004         40.0004
 -24588134.71648 -19119883.56848  20803780.1244   20803787.1624   20803779.498
        52.0004         48.0004
 -20912785.36448 -16262144.63347  20880898.5844   20880903.9344   20880897.857
        52.0004         47.0004
 14  5  1  1 22  0.0000000  0 12G17G10G08G09G26G20G01G28G13G02G04G07
 -10990345.61048  -8519673.62947  22929501.2044   22929506.6584   22929499.391
        48.0004         44.0004
 -11106314.27547  -8650203.11346  23557309.0144   23557317.3274   23557309.668
        44.0004         40.0004
 -15159734.94149 -11807177.46048  19871878.3294   19871884.5884   19871878.986
        54.0004         49.0004
 -21781330.21249 -16926218.36748  19986084.9724   19986091.3234   19986084.949
        54.0004         50.0004
  -2243232.23247  -1677943.40646  24037538.0374   24037551.4294   24037537.506
        42.0004         38.0004
  -2224213.75746  -1518722.77745  23821960.9144   23821969.1074   23821962.873
        39.0004         35.0004
   -376902.51946   -267933.56846  24638931.9144   24638939.4384   24638931.194
        41.0004         36.0004
  -4701946.62547  -3670467.05446  23217075.5304   23217082.0514   23217076.359
        45.0004         40.0004
    928670.95246    768538.31645  24639407.5794   24639413.3164   24639406.426
        39.0004         34.0004
  -5279828.64847  -4069402.93546  23414822.7964   23414827.9034   23414822.117
        44.0004         40.0004
 -24641544.66548 -19161501.67548  20793617.1504   20793623.9674   20793616.905
        52.0004         48.0004
 -20846428.97848 -16210438.38947  20893525.7764   20893531.1564   20893524.945
        52.0004         47.0004
 14  5  1  1 22 30.0000000  0 12G17G10G08G09G26G20G01G28G13G02G04G07
 -10948478.03048  -8487049.52547  22937467.7234   22937473.8754   22937466.793
        48.0004         43.0004
 -11170494.96947  -8700213.97446  23545095.7684   23545105.2134   23545096.821
        44.0004         40.0004
 -15157107.06449 -11805129.77848  19872378.6494   19872384.5704   19872378.487
        54.0004         49.0004
 -21776767.83149 -16922663.28148  19986953.2974   19986959.4634   19986953.584
        54.0004         50.0004
  -2243746.66447  -1678344.14046  24037441.5754   24037453.7144   24037441.418
        42.0004         38.0004
  -2201817.40146  -1501270.98945  23826223.9714   23826228.9564   23826224.826
        39.0004         35.0004
   -270928.67646   -185356.54946  24659098.7204   24659107.0064   24659097.621
        41.0004         36.0004
  -4757526.00647  -3713775.65246  23206500.1554   23206506.2524   23206499.606
        45.0004         40.0004
    992594.89146    818349.15645  24651572.1894   24651580.7034   24651571.370
        39.0004         34.0004
  -5365476.27747  -4136141.24046  23398523.1724   23398530.0094   23398524.445
        44.0004         40.0004
 -24694466.47448 -19202739.41848  20783546.1114   20783552.7164   20783545.473
        52.0004         48.0004
 -20779598.33848 -16158362.60447  20906243.3764   20906248.4504   20906242.678
        52.0004         47.0004
 14  5  1  1 23  0.0000000  0 12G17G10G08G09G26G20G01G28G13G02G04G07
 -10906646.02548  -8454453.14747  22945427.5904   22945432.7694   22945427.052
        48.0004         43.0004
 -11234836.79647  -8750350.38146  23532853.4394   23532862.2004   23532852.948
        45.0004         40.0004
 -15153811.39849 -11802561.74248  19873005.7994   19873011.5024   19873006.307
        54.0004         49.0004
 -21771594.70649 -16918632.29148  19987937.5424   19987943.3604   19987937.284
        54.0004         49.0004
  -2243991.05947  -1678534.44246  24037393.6444   24037407.8184   24037393.521
        42.0004         38.0004
  -2179117.85846  -1483582.94545  23830544.1004   23830548.2504   23830543.874
        39.0004         35.0004
   -164870.70446   -102713.96446  24679281.7574   24679290.7324   24679279.484
        41.0004         36.0004
  -4813229.11147  -3757180.67246  23195900.3744   23195904.3304   23195900.168
        45.0004         40.0004
   1056283.93546    867976.92845  24663693.3634   24663698.1734   24663691.309
        39.0004         34.0004
  -5450872.73847  -4202683.81846  23382273.4834   23382279.8424   23382274.093
        44.0004         40.0004
 -24746897.81148 -19243594.97748  20773568.7694   20773575.0834   20773568.130
        52.0004         48.0004
 -20712295.62848 -16105918.96747  20919050.3414   20919055.5914   20919049.883
        52.0004         47.0004
 14  5  1  1 23 30.0000000  0 12G17G10G08G09G26G20G01G28G13G02G04G07
 -10864856.86148  -8421890.15247  22953379.8234   22953385.9454   22953379.334
        48.0004         43.0004
 -11299343.91847  -8800615.58846  23520577.1104   23520586.0984   23520577.038
        45.0004         40.0004
 -15149853.13649 -11799477.39848  19873759.0404   19873765.2144   19873759.200
        54.0004         49.0004
 -21765816.41849 -16914129.74848  19989037.4134   19989043.3294   19989037.220
        54.0004         49.0004
  -2243972.64647  -1678519.96246  24037396.9234   24037410.7014   24037397.791
        42.0004         38.0004
  -2156119.43746  -1465662.05145  23834920.2634   23834927.2424   23834919.902
        39.0004         34.0004
    -58736.56346    -20012.04345  24699475.3714   24699485.0484   24699476.135
        40.0004         35.0004
  -4869059.31747  -3800684.70546  23185275.5304   23185280.7494   23185276.289
        45.0004         41.0004
   1119731.74246    917416.75045  24675764.7414   24675774.2804   24675764.482
        39.0004         34.0004
  -5536020.80347  -4269032.87546  23366070.0624   23366076.6914   23366070.614
        44.0004         40.0004
 -24798842.20748 -19284071.10348  20763684.2334   20763690.7614   20763683.685
        52.0004         48.0004
 -20644528.60248 -16053113.52047  20931945.9474   20931951.7014   20931945.416
        52.0004         47.0004
 14  5  1  1 24  0.0000000  0 12G17G10G08G09G26G20G01G28G13G02G04G07
 -10823108.94648  -8389359.29247  22961323.4564   22961329.9244   22961323.454
        48.0004         43.0004
 -11364010.59647  -8851005.12846  23508271.2454   23508280.4684   23508270.930
        45.0004         40.0004
 -15145228.11249 -11795873.49948  19874638.8214   19874645.4284   19874639.250
        54.0004         49.0004
 -21759429.66549 -16909153.06048  19990252.8514   19990258.8394   19990253.011
        54.0004         49.0004
  -2243689.24947  -1678299.01346  24037451.4644   24037465.1394   24037451.651
        42.0004         38.0004
  -2132817.33546  -1447504.47845  23839354.5014   23839360.7434   23839355.512
        39.0004         35.0004
     47475.18846     62750.36045  24719688.8904   24719697.9324   24719686.991
        40.0004         35.0004
  -4925010.53347  -3844283.05046  23174628.6074   23174633.3024   23174628.825
        45.0004         41.0004
   1182941.82446    966671.31445  24687794.4784   24687800.7584   24687794.158
        39.0004         35.0004
  -5620914.51847  -4335183.72046  23349915.1764   23349922.4604   23349915.576
        45.0004         40.0004
 -24850293.75648 -19324163.20048  20753892.8684   20753899.8654   20753892.590
        52.0004         48.0004
 -20576295.42448 -15999944.83547  20944930.4324   20944936.2374   20944929.868
        52.0004         47.0004
 14  5  1  1 24 30.0000000  0 12G17G10G08G09G26G20G01G28G13G02G04G07
 -10781400.90648  -8356859.50647  22969260.4524   22969267.0434   22969260.402
        48.0004         43.0004
 -11428832.00247  -8901515.24746  23495936.3554   23495945.2724   23495936.626
        45.0004         40.0004
 -15139933.03349 -11791747.48348  19875646.5474   19875652.7774   19875647.043
        54.0004         49.0004
 -21752431.31049 -16903699.80948  19991584.5904   19991590.3734   19991584.286
        54.0004         49.0004
  -2243139.46547  -1677870.47346  24037556.3584   24037568.5484   24037556.068
        42.0004         38.0004
  -2109207.09646  -1429106.80945  23843846.8494   23843854.5934   23843847.266
        39.0004         35.0004
  -7723334.61946  -5992426.09745  24739914.7494   24739921.9804   24739914.023
        39.0004         35.0004
  -4981077.19347  -3887971.35546  23163959.2664   23163964.2364   23163960.128
        46.0004         41.0004
   1245916.42846   1015742.39845  24699779.1024   24699784.9834   24699777.198
        39.0004         35.0004
  -5705548.44147  -4401132.13546  23333810.4154   23333817.0794   23333809.962
        45.0004         40.0004
 -24901247.50048 -19363867.38948  20744196.8544   20744203.5544   20744196.162
        52.0004         48.0004
 -20507595.48748 -15946412.44347  20958003.5634   20958008.7844   20958003.000
        52.0004         47.0004
 14  5  1  1 25  0.0000000  0 12G17G10G08G09G26G20G01G28G13G02G04G07
 -10739740.38148  -8324396.74647  22977188.4454   22977195.5294   22977187.876
        48.0004         43.0004
 -11493812.10547  -8952149.01246  23483570.1744   23483579.5894   23483571.824
        45.0004         40.0004
 -15133973.56749 -11787103.75948  19876780.8764   19876786.9324   19876780.796
        54.0004         49.0004
 -21744827.60949 -16897774.86048  19993031.3454   19993037.2584   19993031.595
        54.0004         50.0004
  -2242330.70747  -1677240.15246  24037710.4104   24037723.4504   24037709.743
        42.0004         38.0004
  -2085293.22246  -1410472.52545  23848398.6864   23848405.1664   23848398.314
        39.0004         35.0004
  -7616974.14446  -5909547.79545  24760152.9044   24760160.9224   24760153.449
        39.0004         34.0004
  -5037262.84747  -3931752.37146  23153268.0764   23153272.3774   23153267.670
        46.0004         41.0004
   1308649.19546   1064625.02145  24711713.7874   24711720.1474   24711714.965
        39.0004         35.0004
  -5789925.68347  -4466880.54846  23317753.7144   23317760.0074   23317754.113
        45.0004         40.0004
 -24951707.44048 -19403186.80848  20734594.7484   20734601.6564   20734594.709
        52.0004         48.0004
 -20438437.21048 -15892522.90347  20971164.1984   20971169.7664   20971163.558
        52.0004         47.0004
 14  5  1  1 25 30.0000000  0 12G17G10G08G09G26G20G01G28G13G02G04G07
 -10698128.09248  -8291971.55647  22985107.1824   22985113.9134   22985106.802
        48.0004         43.0004
 -11558948.15047  -9002904.29746  23471174.7064   23471183.4284   23471176.439
        45.0004         40.0004
 -15127348.66449 -11781941.50848  19878041.4434   19878047.6534   19878041.648
        54.0004         49.0004
 -21736617.99849 -16891377.77448  19994593.4074   19994599.4764   19994593.437
        54.0004         49.0004
  -2241263.56147  -1676408.48646  24037913.2154   24037925.4284   24037912.969
        43.0004         38.0004
  -2061073.13246  -1391599.64645  23853003.8454   23853013.8914   23853005.977
        39.0004         34.0004
  -7510544.55646  -5826615.67345  24780406.2364   24780416.0784   24780405.804
        39.0004         35.0004
  -5093564.09747  -3975623.48446  23142554.4724   23142559.5544   23142554.248
        46.0004         41.0004
   1371140.65746   1113319.61645  24723607.3714   24723613.5504   24723607.120
        39.0004         35.0004
  -5874042.78547  -4532426.24046  23301747.2504   23301753.3074   23301747.012
        45.0004         40.0004
 -25001670.41048 -19442118.97748  20725087.0354   20725093.9684   20725086.023
        52.0004         48.0004
 -20368821.04448 -15838276.56847  20984411.3614   20984417.0964   20984410.830
        52.0004         47.0004
 14  5  1  1 26  0.0000000  0 12G17G10G08G09G26G20G01G28G13G02G04G07
 -10656565.08148  -8259584.77347  22993016.0584   22993022.0704   22993016.045
        48.0004         43.0004
 -11624237.48947  -9053779.02646  23458751.3614   23458759.5114   23458752.552
        45.0004         40.0004
 -15120057.22249 -11776259.87348  19879428.9114   19879434.9874   19879429.171
        54.0004         49.0004
 -21727801.78649 -16884508.01548  19996271.4464   19996277.4884   19996271.368
        54.0004         49.0004
  -2239938.92447  -1675376.17946  24038164.7324   24038178.2524   24038165.463
        43.0004         38.0004
  -2036545.09646  -1372486.80245  23857674.0944   23857683.8454   23857674.363
        39.0004         34.0004
  -7404047.38856  -5743630.86655  24800669.9575   24800680.7615   24800672.281
        38.0004         34.0004
  -5149977.77747  -4019582.19246  23131818.9814   23131822.7764   23131818.844
        46.0004         41.0004
   1433390.83746   1161826.20245  24735455.4304   24735462.3704   24735452.938
        39.0004         34.0004
  -5957896.55847  -4597766.76046  23285789.2724   23285796.3904   23285789.563
        45.0004         40.0004
 -25051133.69648 -19480661.77748  20715674.9014   20715681.0314   20715674.579
        52.0004         48.0004
 -20298748.51448 -15783674.62147  20997745.8634   20997750.7844   20997745.401
        52.0004         47.0004
 14  5  1  1 26 30.0000000  0 12G17G10G08G09G26G20G01G28G13G02G04G07
 -10615053.84548  -8227238.33447  23000915.1084   23000922.1774   23000914.637
        48.0004         43.0004
 -11689678.77147  -9104772.15146  23446297.7204   23446306.1894   23446299.730
        45.0004         40.0004
 -15112099.42549 -11770059.00648  19880943.3214   19880949.1794   19880943.527
        54.0004         49.0004
 -21718379.94849 -16877166.33548  19998064.2964   19998070.5284   19998064.167
        54.0004         49.0004
  -2238358.90847  -1674144.85646  24038465.7414   24038478.5034   24038466.171
        43.0004         38.0004
  -2011707.82446  -1353133.00345  23862399.4954   23862407.5934   23862399.851
        39.0004         34.0004
  -7297485.41246  -5660595.55845  24820947.1604   24820960.0634   24820950.388
        38.0004         33.0004
  -5206501.97947  -4063627.02946  23121062.9484   23121067.4974   23121062.759
        46.0004         41.0004
   1495398.85646   1210144.06845  24747254.5334   24747260.0324   24747253.039
        39.0004         35.0004
  -6041484.84347  -4662900.40546  23269883.8404   23269890.0224   23269884.263
        45.0004         40.0004
 -25100095.94948 -19518814.17148  20706357.3164   20706364.3914   20706356.766
        52.0004         48.0004
 -20228222.92348 -15728719.64647  21011166.1004   21011172.2764   21011166.059
        52.0004         47.0004
 14  5  1  1 27  0.0000000  0 12G17G10G08G09G26G20G01G28G13G02G04G07
 -10573596.38548  -8194933.80947  23008804.7194   23008812.1034   23008804.086
        48.0004         43.0004
 -11755270.16147  -9155882.25646  23433817.4604   23433824.8404   23433817.613
        45.0004         40.0004
 -15103475.70849 -11763339.24048  19882584.3504   19882590.7174   19882584.433
        54.0004         49.0004
 -21708353.11149 -16869353.23148  19999972.0764   19999978.6094   19999972.094
        54.0004         49.0004
  -2236525.58247  -1672716.18346  24038814.3394   24038827.9394   24038812.915
        42.0004         38.0004
  -1986560.69146  -1333537.78745  23867185.7574   23867195.4894   23867185.754
        39.0004         35.0004
  -7190861.26756  -5577511.82555  24841239.5135   24841250.5135   24841240.819
        38.0004         33.0004
  -5263134.72947  -4107756.44846  23110285.8294   23110291.1954   23110285.839
        46.0004         41.0004
   1557164.02146   1258272.70945  24759006.7324   24759016.6644   24759005.915
        39.0004         35.0004
  -6124805.72347  -4727825.67846  23254026.6964   23254034.7064   23254028.465
        45.0004         40.0004
 -25148555.47448 -19556574.82048  20697135.5454   20697142.6004   20697135.160
        53.0004         48.0004
 -20157246.78648 -15673413.59547  21024672.8004   21024678.6694   21024672.497
        52.0004         47.0004
 14  5  1  1 27 30.0000000  0 11G17G10G08G09G26G20G28G13G02G04G07
 -10532193.73948  -8162671.98547  23016683.2974   23016689.8714   23016682.859
        48.0004         43.0004
 -11821009.42847  -9207107.58746  23421307.0294   23421316.0124   23421307.149
        45.0004         40.0004
 -15094185.28949 -11756099.96448  19884352.1624   19884358.1384   19884352.499
        54.0004         49.0004
 -21697721.08649 -16861068.54748  20001995.6134   20002001.5904   20001995.489
        54.0004         49.0004
  -2234440.01347  -1671090.93746  24039210.6874   24039223.2654   24039211.476
        43.0004         38.0004
  -1961102.02646  -1313699.76245  23872029.1494   23872036.9054   23872030.065
        39.0004         34.0004
  -5319872.94347  -4151968.03546  23099488.8534   23099493.7334   23099489.014
        46.0004         41.0004
   1618686.10146   1306211.94645  24770714.2174   24770720.9624   24770713.250
        39.0004         35.0004
  -6207856.12447  -4792540.20346  23238224.1984   23238230.4544   23238223.922
        45.0004         40.0004
 -25196509.90548 -19593941.89748  20688010.4644   20688016.6094   20688010.081
        52.0004         48.0004
 -20085821.48648 -15617757.54447  21038264.6914   21038269.9354   21038264.079
        52.0004         47.0004
 14  5  1  1 28  0.0000000  0 11G17G10G08G09G26G20G28G13G02G04G07
 -10490850.27147  -8130456.27047  23024550.7944   23024557.4404   23024549.754
        47.0004         43.0004
 -11886897.08047  -9258448.53446  23408768.9854   23408777.3644   23408769.396
        45.0004         40.0004
 -15084230.41249 -11748342.93348  19886246.4984   19886252.8114   19886246.678
        54.0004         49.0004
 -21686486.78449 -16852314.55848  20004133.0614   20004139.5034   20004133.309
        54.0004         49.0004
  -2232106.22047  -1669272.27046  24039655.5364   24039668.2824   24039654.451
        42.0004         38.0004
  -1935332.98846  -1293619.91345  23876934.0184   23876940.4254   23876933.049
        39.0004         35.0004
  -5376716.50047  -4196261.70546  23088671.4424   23088676.7914   23088671.816
        46.0004         41.0004
   1679962.47246   1353959.68645  24782372.4234   24782381.5854   24782373.722
        39.0004         35.0004
  -6290635.93447  -4857043.87446  23222470.7504   23222477.0104   23222471.421
        45.0004         41.0004
 -25243959.65048 -19630915.71048  20678980.6494   20678987.4174   20678980.260
        53.0004         48.0004
 -20013951.74648 -15561755.18247  21051940.6184   21051946.9364   21051940.774
        52.0004         47.0004
 14  5  1  1 28 30.0000000  0 12G17G10G08G09G26G20G01G28G13G02G04G07
 -10449566.49747  -8098287.07947  23032406.2914   23032413.1524   23032406.323
        47.0004         43.0004
 -11952930.00647  -9309902.69446  23396202.6454   23396211.5974   23396203.539
        45.0004         40.0004
 -15073610.00949 -11740067.30948  19888267.4614   19888273.7394   19888267.849
        54.0004         49.0004
 -21674649.67649 -16843090.85048  20006385.9784   20006391.9904   20006385.703
        54.0004         50.0004
  -2229524.78347  -1667260.62546  24040146.6854   24040157.8904   24040146.654
        42.0004         38.0004
  -1909251.06146  -1273296.24345  23881896.5664   23881906.1654   23881897.520
        40.0004         35.0004
  -6870640.75356  -5327989.25055  24902175.9515   24902184.0845   24902176.039
        37.0004         33.0004
  -5433662.02447  -4240634.84446  23077833.8334   23077841.1564   23077834.965
        45.0004         41.0004
   1740993.61546   1401516.34645  24793990.8934   24793995.7944   24793987.580
        39.0004         34.0004
  -6373141.74447  -4921334.04446  23206770.8774   23206776.4014   23206771.280
        45.0004         41.0004
 -25290901.89548 -19667494.06948  20670048.3194   20670054.8344   20670048.055
        53.0004         48.0004
 -19941639.31148 -15505407.85947  21065701.6014   21065707.4854   21065700.828
        52.0004         47.0004
 14  5  1  1 29  0.0000000  0 11G17G10G08G09G26G20G28G13G02G04G07
 -10408345.62147  -8066166.90947  23040249.8354   23040256.8504   23040250.482
        47.0004         43.0004
 -12019107.61347  -9361469.59346  23383609.2864   23383618.7914   23383610.278
        45.0004         40.0004
 -15062325.34049 -11731274.07548  19890415.0134   19890421.2444   19890415.121
        54.0004         49.0004
 -21662211.42349 -16833398.71548  20008752.5744   20008758.7014   20008752.716
        54.0004         49.0004
  -2226698.83247  -1665058.46846  24040683.6574   24040695.7464   24040683.536
        42.0004         38.0004
  -1882856.46446  -1252728.94945  23886919.3744   23886925.2534   23886919.603
        40.0004         35.0004
  -5490708.30247  -4285086.49446  23066979.4934   23066985.0274   23066979.511
        45.0004         41.0004
   1801778.06246   1448880.76745  24805553.0174   24805561.1974   24805554.823
        39.0004         35.0004
  -6455372.29747  -4985409.72246  23191123.3004   23191128.8834   23191124.023
        45.0004         41.0004
 -25337336.07448 -19703676.53348  20661211.9294   20661218.5664   20661211.498
        53.0004         48.0004
 -19868887.54748 -15448718.20847  21079545.9224   21079551.9604   21079545.436
        52.0004         47.0004
 14  5  1  1 29 30.0000000  0 11G17G10G08G09G26G20G28G13G02G04G07
 -10367187.85447  -8034095.90747  23048081.9004   23048090.2204   23048082.182
        47.0004         43.0004
 -12085426.59347  -9413146.63746  23370990.0464   23370998.2424   23370990.445
        45.0004         41.0004
 -15050375.18649 -11721962.28548  19892688.8134   19892695.3374   19892689.345
        54.0004         49.0004
 -21649171.11049 -16823237.44748  20011234.3044   20011240.3864   20011234.263
        54.0004         50.0004
  -2223628.49647  -1662665.87546  24041267.6844   24041280.3864   24041268.202
        42.0004         38.0004
  -1856146.51346  -1231915.91545  23892002.3764   23892010.9784   23892003.323
        40.0004         35.0004
  -5547851.32147  -4329613.51546  23056106.4814   23056111.8724   23056105.624
        45.0004         41.0004
   1862316.42946   1496053.43745  24817074.3694   24817079.3644   24817075.447
        39.0004         34.0004
  -6537323.86047  -5049268.00346  23175527.7634   23175534.7424   23175528.526
        45.0004         41.0004
 -25383259.29048 -19739460.84148  20652473.0764   20652479.5634   20652472.605
        53.0004         48.0004
 -19795697.27448 -15391686.85747  21093473.5574   21093479.1374   21093472.819
        52.0004         47.0004
 14  5  1  1 30  0.0000000  0 11G17G10G08G09G26G20G28G13G02G04G07
 -10326091.14247  -8002072.46847  23055902.6734   23055909.2964   23055902.102
        47.0004         43.0004
 -12151880.94347  -9464929.17246  23358343.6334   23358352.1374   23358344.622
        45.0004         41.0004
 -15037755.64048 -11712128.88948  19895090.4244   19895096.8474   19895090.710
        53.0004         49.0004
 -21635525.32449 -16812604.38148  20013830.5294   20013837.2054   20013830.762
        54.0004         50.0004
  -2220311.50647  -1660081.09446  24041898.9864   24041912.3234   24041899.652
        42.0004         38.0004
  -1829115.85146  -1210852.98045  23897144.3794   23897153.1404   23897146.735
        40.0004         35.0004
  -5605084.68247  -4374210.93846  23045215.8084   23045219.8024   23045214.661
        45.0004         41.0004
   1922612.50446   1543037.30045  24828550.4194   24828557.6644   24828548.929
        39.0004         34.0004
  -6618989.69847  -5112903.64846  23159986.5094   23159993.0734   23159987.519
        45.0004         41.0004
 -25428665.28248 -19774842.11248  20643832.9604   20643839.6504   20643832.112
        53.0004         48.0004
 -19722066.65648 -15334312.37647  21107484.9654   21107490.5264   21107484.467
        52.0004         47.0004
 14  5  1  1 30 30.0000000  0 11G17G10G08G09G26G20G28G13G02G04G07
 -10285068.39847  -7970106.66447  23063709.9374   23063716.1744   23063708.830
        47.0004         43.0004
 -12218480.33147  -9516824.72646  23345670.8124   23345678.4454   23345670.704
        45.0004         41.0004
 -15024478.56948 -11701783.13948  19897616.9584   19897622.9954   19897617.225
        53.0004         49.0004
 -21621286.32849 -16801509.07648  20016540.6734   20016546.9174   20016540.304
        54.0004         49.0004
  -2216761.18347  -1657314.49546  24042573.5354   24042587.1594   24042574.206
        42.0004         37.0004
  -1801775.19646  -1189548.48745  23902349.9114   23902352.9724   23902348.468
        40.0004         35.0004
  -5662417.56547  -4418885.92146  23034304.6624   23034310.1384   23034304.584
        45.0004         41.0004
   1982654.29546   1589823.03945  24839974.2394   24839983.9424   24839974.498
        39.0004         34.0004
  -6700379.08347  -5176323.86346  23144500.2474   23144505.7134   23144500.046
        45.0004         41.0004
 -25473563.90348 -19809828.03748  20635288.5264   20635295.5954   20635288.215
        53.0004         48.0004
 -19648009.99048 -15276605.91547  21121577.0474   21121583.3484   21121576.973
        52.0004         47.0004
 14  5  1  1 31  0.0000000  0 11G17G10G08G09G26G20G28G13G02G04G07
 -10244115.39147  -7938195.20947  23071503.2034   23071507.9234   23071502.116
        47.0004         43.0004
 -12285217.06347  -9568827.30346  23332970.5254   23332978.7384   23332971.868
        45.0004         41.0004
 -15010538.03848 -11690920.39948  19900269.8754   19900276.1284   19900269.988
        53.0004         49.0004
 -21606448.67749 -16789947.28948  20019364.0904   20019370.4124   20019363.888
        54.0004         50.0004
  -2212973.39247  -1654362.84946  24043294.9724   24043308.1734   24043295.455
        42.0004         37.0004
  -1774117.08146  -1167996.61445  23907610.7084   23907618.7074   23907612.461
        40.0004         35.0004
  -5719841.42647  -4463631.78146  23023376.0184   23023382.3904   23023377.249
        45.0004         41.0004
   2042446.96346   1636414.62045  24851352.1914   24851359.8454   24851352.990
        39.0004         34.0004
  -6781484.03347  -5239522.44546  23129065.1464   23129072.4294   23129065.737
        45.0004         41.0004
 -25517947.64948 -19844412.75548  20626842.9194   20626849.2944   20626842.398
        53.0004         48.0004
 -19573523.59448 -15218564.60547  21135751.9834   21135757.3514   21135751.357
        52.0004         47.0004
 14  5  1  1 31 30.0000000  0 11G17G10G08G09G26G20G28G13G02G04G07
 -10203234.53647  -7906339.97947  23079281.8464   23079288.6704   23079281.423
        47.0004         43.0004
 -12352089.19647  -9620935.38046  23320245.3454   23320253.8634   23320245.784
        45.0004         41.0004
 -14995934.62548 -11679541.13148  19903048.6924   19903055.0414   19903049.143
        53.0004         49.0004
 -21591013.40849 -16777919.82748  20022301.4524   20022307.6494   20022301.461
        54.0004         50.0004
  -2208950.25947  -1651227.80846  24044060.5834   24044072.6674   24044060.943
        42.0004         38.0004
  -1746141.09546  -1146197.06745  23912934.0214   23912943.5344   23912935.066
        40.0004         35.0004
  -5777353.99147  -4508446.77946  23012433.3754   23012438.3544   23012433.469
        45.0004         41.0004
   2101990.25046   1682811.93745  24862685.5944   24862692.2034   24862683.665
        38.0004         34.0004
  -6862302.28847  -5302497.63946  23113686.2234   23113692.7084   23113686.413
        45.0004         41.0004
 -25561815.36748 -19878595.37448  20618494.8554   20618501.5034   20618494.653
        53.0004         48.0004
 -19498610.40548 -15160190.73147  21150007.1634   21150013.0824   21150006.880
        51.0004         47.0004
 14  5  1  1 32  0.0000000  0 11G17G10G08G09G26G20G28G13G02G04G07
 -10162426.35447  -7874541.39047  23087046.3974   23087053.9784   23087046.956
        47.0004         42.0004
 -12419094.18247  -9673147.00446  23307494.0654   23307502.1664   23307494.164
        45.0004         41.0004
 -14980667.73148 -11667644.86648  19905953.9524   19905960.0964   19905954.108
        53.0004         49.0004
 -21574980.59649 -16765426.74148  20025352.3294   20025358.4774   20025352.145
        54.0004         50.0004
  -2204692.70047  -1647910.10446  24044871.9354   24044883.9604   24044870.937
        43.0004         38.0004
  -1717845.30546  -1124148.31545  23918319.9654   23918328.2944   23918320.762
        40.0004         35.0004
  -5834952.11347  -4553328.42346  23001471.6464   23001477.0394   23001473.014
        46.0004         41.0004
   2161284.18446   1729014.93245  24873965.0824   24873976.3794   24873967.444
        39.0004         34.0004
  -6942830.89547  -5365247.13746  23098363.3424   23098367.8974   23098362.902
        46.0004         41.0004
 -25605164.30248 -19912373.75648  20610245.9314   20610252.3944   20610245.349
        53.0004         48.0004
 -19423272.10948 -15101485.60347  21164343.9034   21164349.0984   21164343.642
        51.0004         47.0004
 14  5  1  1 32 30.0000000  0 11G17G10G08G09G26G20G28G13G02G04G07
 -10121694.54247  -7842802.29447  23094797.9714   23094805.2914   23094797.986
        47.0004         43.0004
 -12486231.55347  -9725461.77646  23294718.2024   23294727.0674   23294718.960
        45.0004         41.0004
 -14964739.23048 -11655233.06648  19908985.1964   19908991.1244   19908985.476
        53.0004         49.0004
 -21558352.42549 -16752469.74248  20028516.4714   20028522.6394   20028516.577
        54.0004         50.0004
  -2200204.11647  -1644412.36446  24045725.5074   24045737.5224   24045725.288
        43.0004         38.0004
  -1689230.20146  -1101850.74645  23923765.1174   23923773.3834   23923765.306
        40.0004         35.0004
  -5892635.21847  -4598276.28946  22990497.0704   22990501.2814   22990496.057
        46.0004         41.0004
   2220326.88246   1775022.16345  24885202.6214   24885208.5724   24885201.684
        38.0004         34.0004
  -7023068.70747  -5427770.03246  23083092.5184   23083100.1214   23083094.508
        46.0004         41.0004
 -25647994.63148 -19945748.02248  20602095.3174   20602102.1814   20602094.930
        53.0004         48.0004
 -19347512.44548 -15042452.13447  21178760.5464   21178766.2084   21178760.060
        51.0004         47.0004
 14  5  1  1 33  0.0000000  0 11G17G10G08G09G26G20G28G13G02G04G07
 -10081041.34947  -7811124.45247  23102533.8144   23102541.9564   23102534.348
        47.0004         43.0004
 -12553499.85447  -9777878.56046  23281918.6384   23281926.5154   23281918.410
        45.0004         41.0004
 -14948150.18848 -11642306.55448  19912141.8614   19912148.2654   19912142.276
        53.0004         49.0004
 -21541130.37449 -16739049.96948  20031793.8694   20031799.7734   20031793.792
        54.0004         50.0004
  -2195486.89647  -1640736.47346  24046623.5714   24046636.7244   24046623.025
        43.0004         38.0004
  -1660295.79846  -1079304.36245  23929269.2264   23929279.7524   23929271.343
        40.0004         35.0004
  -5950401.05747  -4643288.63046  22979503.0304   22979508.8374   22979503.616
        46.0004         41.0004
  -2447142.65946  -1861967.14445  24896387.7224   24896398.7574   24896389.460
        38.0004         34.0004
  -7103014.22347  -5490065.16146  23067880.9434   23067885.8924   23067880.857
        46.0004         41.0004
 -25690305.32048 -19978717.37748  20594044.5164   20594050.6844   20594043.982
        53.0004         48.0004
 -19271334.77448 -14983092.93447  21193256.5844   21193261.9514   21193256.141
        51.0004         47.0004
 14  5  1  1 33 30.0000000  0 11G17G10G08G09G26G20G28G13G02G04G07
 -10040468.11147  -7779508.92047  23110255.0424   23110260.8874   23110254.767
        47.0004         43.0004
 -12620896.77147  -9830395.58146  23269093.1604   23269100.5404   23269092.994
        45.0004         41.0004
 -14930900.53449 -11628865.28048  19915424.3724   19915430.5384   19915424.686
        54.0004         49.0004
 -21523314.69649 -16725167.63348  20035184.0474   20035189.9994   20035183.801
        54.0004         49.0004
  -2190542.47647  -1636883.55446  24047562.9684   24047574.0724   24047562.760
        43.0004         38.0004
  -1631039.89846  -1056507.49345  23934837.2804   23934847.4584   23934837.876
        40.0004         35.0004
  -6008246.40847  -4688362.92746  22968495.3684   22968501.1104   22968496.092
        46.0004         41.0004
  -2388604.23246  -1816352.86745  24907528.1674   24907538.9644   24907529.118
        38.0004         34.0004
  -7182664.70447  -5552130.40446  23052722.9624   23052729.4384   23052722.753
        46.0004         41.0004
 -25732094.14048 -20011280.07948  20586091.7624   20586098.8134   20586091.125
        53.0004         48.0004
 -19194740.92748 -14923409.44747  21207831.5874   21207837.3744   21207831.584
        51.0004         47.0004
 14  5  1  1 34  0.0000000  0 11G17G10G08G09G26G20G28G13G02G04G07
  -9999976.03247  -7747956.62447  23117961.1634   23117967.3344   23117960.387
        47.0004         43.0004
 -12688420.03047  -9883011.04846  23256244.1814   23256251.4984   23256243.984
        45.0004         40.0004
 -14912990.29449 -11614909.26548  19918832.7014   19918839.2174   19918833.078
        54.0004         49.0004
 -21504906.07849 -16710823.27148  20038686.9074   20038693.2444   20038687.023
        54.0004         50.0004
  -2185372.33047  -1632854.74846  24048546.8874   24048559.8614   24048547.877
        43.0004         38.0004
  -1601461.45946  -1033459.29545  23940466.7214   23940469.7074   23940466.893
        39.0004         35.0004
  -6066168.91147  -4733497.34646  22957474.1314   22957478.7184   22957473.549
        46.0004         41.0004
  -2330318.07746  -1770935.10845  24918619.9734   24918628.6084   24918619.885
        39.0004         34.0004
  -7262017.55447  -5613963.70646  23037622.2354   23037627.9874   23037623.711
        46.0004         41.0004
 -25773359.40848 -20043434.81148  20578239.4394   20578246.1164   20578239.406
        53.0004         48.0004
 -19117733.26148 -14863403.50247  21222486.1514   21222491.7384   21222485.420
        51.0004         47.0004
 14  5  1  1 34 30.0000000  0 11G17G10G08G09G26G20G28G13G02G04G07
  -9959562.28947  -7716465.37047  23125650.0964   23125657.2814   23125650.637
        47.0004         43.0004
 -12756062.85247  -9935719.67246  23243371.1474   23243379.9164   23243371.553
        45.0004         40.0004
 -14894414.99549 -11600435.02148  19922367.4444   19922373.5554   19922367.837
        54.0004         49.0004
 -21485900.74049 -16696013.93048  20042303.9194   20042309.8914   20042303.659
        54.0004         50.0004
  -2179973.70547  -1628647.89646  24049574.3294   24049586.3274   24049573.617
        43.0004         38.0004
  -7873234.92246  -5920555.40345  23946158.8724   23946161.3564   23946157.845
        39.0004         35.0004
  -6124161.41947  -4778686.30646  22946438.2144   22946442.5244   22946437.813
        46.0004         41.0004
  -2272279.97046  -1725710.68545  24929665.3804   24929671.9804   24929664.188
        39.0004         34.0004
  -7341065.80447  -5675559.66746  23022580.0014   23022586.4584   23022580.146
        46.0004         41.0004
 -25814095.14048 -20075176.93348  20570487.8284   20570493.8664   20570487.061
        53.0004         48.0004
 -19040309.67648 -14803073.46947  21237219.2664   21237224.9574   21237218.839
        51.0004         47.0004
 14  5  1  1 35  0.0000000  0 11G17G10G08G09G26G20G28G13G02G04G07
  -9919241.61547  -7685046.63747  23133323.9664   23133330.9164   23133323.352
        47.0004         43.0004
 -12823836.38947  -9988530.15146  23230474.0414   23230482.1724   23230475.027
        45.0004         41.0004
 -14875188.76449 -11585453.55248  19926026.0594   19926032.3094   19926026.317
        54.0004         49.0004
 -21466312.65849 -16680750.50648  20046030.9454   20046037.3774   20046031.265
        54.0004         50.0004
  -2174361.64347  -1624274.74046  24050643.1394   24050655.3794   24050642.730
        43.0004         38.0004
  -7843012.46046  -5897005.34345  23951909.0134   23951916.3744   23951909.095
        40.0004         35.0004
  -6182234.20647  -4823937.82046  22935386.8624   22935392.2754   22935387.174
        46.0004         41.0004
  -2214503.48646  -1680690.10545  24940661.6614   24940669.0134   24940659.595
        39.0004         34.0004
  -7419820.38747  -5736926.82346  23007594.2254   23007598.6424   23007593.762
        46.0004         41.0004
 -25854312.82348 -20106515.37248  20562834.2894   20562840.6424   20562834.075
        53.0004         48.0004
 -18962485.73248 -14742431.46547  21252028.7484   21252034.0834   21252028.344
        51.0004         47.0004
 14  5  1  1 35 30.0000000  0 11G17G10G08G09G26G20G28G13G02G04G07
  -9879008.50447  -7653696.14247  23140979.7864   23140986.1314   23140979.752
        47.0004         43.0004
 -12891731.20147 -10041435.12846  23217553.7104   23217562.9454   23217555.444
        45.0004         41.0004
 -14855304.88549 -11569959.63648  19929809.7714   19929816.3504   19929810.131
        54.0004         49.0004
 -21446135.57849 -16665028.12248  20049870.4784   20049876.7194   20049870.678
        54.0004         49.0004
  -2168530.67847  -1619730.99446  24051751.4364   24051764.0024   24051751.753
        43.0004         38.0004
  -7812465.92046  -5873202.78045  23957718.1764   23957729.0274   23957719.830
        40.0004         35.0004
  -6240377.84747  -4869244.54446  22924322.1834   22924328.1994   22924322.562
        46.0004         41.0004
  -2156981.54246  -1635867.86745  24951603.6604   24951615.6994   24951605.773
        39.0004         34.0004
  -7498271.84047  -5798057.74946  22992664.8114   22992671.2024   22992666.250
        46.0004         41.0004
 -25894003.72448 -20137443.33748  20555281.6734   20555288.0204   20555281.249
        53.0004         48.0004
 -18884257.27648 -14681474.25947  21266915.4224   21266920.5244   21266914.544
        51.0004         47.0004
 14  5  1  1 36  0.0000000  0 11G17G10G08G09G26G20G28G13G02G04G07
  -9838864.20747  -7622414.85847  23148619.3644   23148625.0674   23148618.843
        47.0004         43.0004
 -12959745.11547 -10094432.93646  23204611.0484   23204619.7564   23204612.092
        45.0004         41.0004
 -14834763.56749 -11553953.42948  19933718.7914   19933725.2614   19933718.839
        54.0004         49.0004
 -21425369.96949 -16648847.14648  20053822.4084   20053828.6664   20053822.340
        54.0004         49.0004
  -2162482.34647  -1615017.86946  24052902.4894   24052914.4264   24052902.496
        43.0004         38.0004
  -7781593.75646  -5849146.48745  23963598.2024   23963602.1144   23963596.096
        40.0004         35.0004
  -6298589.21847  -4914604.05147  22913245.1384   22913251.0794   22913245.586
        46.0004         42.0004
  -2099714.25446  -1591244.04545  24962505.6164   24962511.7664   24962502.952
        39.0004         35.0004
  -7576417.34647  -5858950.28746  22977794.0744   22977799.9824   22977794.228
        46.0004         41.0004
 -25933166.18248 -20167959.52648  20547829.2714   20547835.3604   20547828.753
        53.0004         48.0004
 -18805626.17848 -14620203.30747  21281878.5364   21281883.7684   21281877.993
        51.0004         47.0004
 14  5  1  1 36 30.0000000  0 11G17G10G08G09G26G20G28G13G02G04G07
  -9798810.83247  -7591204.41647  23156240.9574   23156246.8354   23156240.346
        47.0004         43.0004
 -13027876.50447 -10147522.26346  23191646.4574   23191653.6884   23191646.651
        45.0004         41.0004
 -14813565.81649 -11537435.71548  19937752.4164   19937758.9684   19937752.947
        54.0004         49.0004
 -21404017.30549 -16632208.71848  20057885.6554   20057892.0084   20057885.608
        54.0004         50.0004
  -2156218.88047  -1610137.12446  24054094.9864   24054106.0824   24054094.920
        43.0004         38.0004
  -7750395.87046  -5824836.37745  23969532.7364   23969541.4134   23969532.943
        39.0004         35.0004
  -6356866.29547  -4960014.77247  22902155.2794   22902161.1534   22902156.151
        46.0004         42.0004
  -2042702.29946  -1546819.20945  24973354.7504   24973361.1164   24973352.088
        39.0004         34.0004
  -7654255.31247  -5919603.19146  22962981.9404   22962987.9074   22962982.242
        46.0004         41.0004
 -25971799.05448 -20198063.04748  20540477.4044   20540483.6624   20540477.535
        53.0004         48.0004
 -18726595.33648 -14558620.86647  21296916.8704   21296923.1654   21296916.454
        51.0004         46.0004
 14  5  1  1 37  0.0000000  0 11G17G10G08G09G26G20G28G13G02G04G07
  -9758849.74147  -7560065.88647  23163845.1364   23163852.2354   23163844.879
        47.0004         43.0004
 -13096123.12947 -10200701.39146  23178659.8694   23178667.9984   23178660.177
        45.0004         41.0004
 -14791711.82549 -11520406.64948  19941911.0304   19941917.1944   19941911.268
        54.0004         49.0004
 -21382078.43849 -16615113.50948  20062060.5554   20062066.5574   20062060.521
        54.0004         50.0004
  -2149742.07747  -1605090.12346  24055326.7804   24055338.9784   24055326.547
        43.0004         38.0004
  -7718870.78646  -5800271.32745  23975532.0524   23975537.6604   23975532.604
        40.0004         35.0004
  -6415206.09047  -5005474.35047  22891052.8644   22891059.3934   22891054.137
        46.0004         42.0004
  -1985945.50546  -1502593.15645  24984152.5994   24984161.5884   24984153.258
        39.0004         34.0004
  -7731783.13647  -5980014.42447  22948228.9844   22948233.7684   22948229.762
        46.0004         42.0004
 -26009900.51448 -20227752.48748  20533227.3174   20533233.4444   20533227.011
        53.0004         48.0004
 -18647167.00248 -14496728.69347  21312031.8594   21312037.3184   21312031.858
        51.0004         46.0004
 14  5  1  1 37 30.0000000  0 11G17G10G08G09G26G20G28G13G02G04G07
  -9718983.23047  -7529001.05447  23171431.6274   23171437.8304   23171430.890
        47.0004         43.0004
 -13164483.42447 -10253969.09246  23165650.7914   23165658.3584   23165651.649
        45.0004         41.0004
 -14769203.00349 -11502867.32648  19946194.3344   19946200.8964   19946194.711
        54.0004         49.0004
 -21359555.05149 -16597562.82848  20066346.6484   20066352.8134   20066346.637
        54.0004         50.0004
  -2143054.28647  -1599878.73046  24056599.7194   24056611.1174   24056599.532
        42.0004         38.0004
  -7687018.12446  -5775451.01445  23981593.7644   23981599.5384   23981593.100
        40.0004         35.0004
  -6473606.77847  -5050981.36947  22879939.3664   22879946.2954   22879940.825
        46.0004         42.0004
  -1929445.05446  -1458566.86345  24994906.1564   24994908.6064   24994905.152
        39.0004         34.0004
  -7808999.41947  -6040182.89747  22933535.4654   22933541.0534   22933536.363
        46.0004         42.0004
 -26047470.16148 -20257027.52548  20526077.6464   20526084.1444   20526077.294
        53.0004         48.0004
 -18567344.71248 -14434529.53847  21327221.3334   21327227.5214   21327220.996
        51.0004         46.0004
 14  5  1  1 38  0.0000000  0 11G17G10G08G09G26G20G28G13G02G04G07
  -9679215.59848  -7498013.26947  23178999.1084   23179005.5714   23178998.561
        48.0004         43.0004
 -13232958.16747 -10307325.97946  23152621.3694   23152628.8824   23152621.055
        45.0004         41.0004
 -14746042.87448 -11484820.48848  19950601.6214   19950607.7474   19950601.950
        53.0004         49.0004
 -21336451.03849 -16579559.71548  20070742.9984   20070749.0854   20070742.878
        54.0004         50.0004
  -2136160.25547  -1594506.61846  24057911.3264   24057923.5054   24057910.931
        42.0004         38.0004
  -7654840.02846  -5750377.11745  23987716.0334   23987722.5204   23987715.924
        40.0004         35.0004
  -6532068.39047  -5096535.88247  22868816.2904   22868821.8814   22868815.639
        46.0004         42.0004
  -1873204.18146  -1414742.84845  25005607.2894   25005615.8204   25005607.446
        39.0004         34.0004
  -7885904.21747  -6100108.65647  22918900.8714   22918906.4544   22918900.879
        46.0004         42.0004
 -26084509.12148 -20285889.04048  20519029.5124   20519035.7884   20519029.337
        53.0004         48.0004
 -18487133.51148 -14372027.33147  21342485.2004   21342490.2264   21342484.815
        51.0004         46.0004
 14  5  1  1 38 30.0000000  0 11G17G10G08G09G26G20G28G13G02G04G07
  -9639544.80948  -7467100.94447  23186547.7154   23186554.5964   23186547.915
        48.0004         43.0004
 -13301541.40147 -10360767.41646  23139569.8984   23139577.5784   23139570.157
        45.0004         41.0004
 -14722228.04348 -11466263.49148  19955133.6674   19955139.6914   19955133.889
        53.0004         49.0004
 -21312763.58349 -16561101.97248  20075250.9094   20075256.9274   20075250.779
        54.0004         49.0004
  -2129058.01047  -1588972.25346  24059262.9964   24059273.9164   24059262.632
        43.0004         38.0004
  -7622331.24046  -5725045.53045  23993902.5914   23993909.4454   23993902.615
        39.0004         35.0004
  -6590584.64147  -5142132.97146  22857680.6914   22857685.7104   22857680.628
        46.0004         41.0004
  -1817218.90446  -1371117.99245  25016260.7054   25016270.4204   25016260.970
        39.0004         34.0004
  -7962491.75347  -6159787.19947  22904326.7534   22904332.7824   22904327.071
        46.0004         42.0004
 -26121012.44648 -20314333.17348  20512083.2334   20512089.5974   20512082.773
        53.0004         48.0004
 -18406532.55248 -14309221.42447  21357822.9654   21357828.6774   21357822.832
        51.0004         46.0004
 14  5  1  1 39  0.0000000  0 11G17G10G08G09G26G20G28G13G02G04G07
  -9599974.83547  -7436267.18047  23194078.5384   23194084.9654   23194077.912
        47.0004         43.0004
 -13370233.44647 -10414293.63746  23126497.8304   23126506.2074   23126498.008
        45.0004         41.0004
 -14697761.83248 -11447198.93148  19959789.4434   19959795.5974   19959789.841
        53.0004         49.0004
 -21288496.19849 -16542192.32948  20079868.3904   20079874.9124   20079868.461
        54.0004         50.0004
  -2121751.95747  -1583279.09346  24060653.2584   24060663.7214   24060652.199
        43.0004         38.0004
  -7589494.05846  -5699458.05245  24000150.2514   24000160.2584   24000151.031
        39.0004         35.0004
  -6649155.28447  -5187772.43246  22846534.9384   22846539.5244   22846534.689
        46.0004         41.0004
  -1761492.40246  -1327694.74345  25026866.6694   25026873.3744   25026865.612
        39.0004         34.0004
  -8038762.15747  -6219218.62347  22889812.9884   22889819.1414   22889813.214
        47.0004         42.0004
 -26156981.28148 -20342360.82748  20505238.3394   20505245.1624   20505238.203
        53.0004         48.0004
 -18325546.68648 -14246115.58447  21373233.5424   21373239.7784   21373233.576
        51.0004         46.0004
 14  5  1  1 39 30.0000000  0 11G17G10G08G09G26G20G28G13G02G04G07
  -9560508.05047  -7405513.80947  23201588.3764   23201595.0604   23201588.133
        47.0004         42.0004
 -13439033.13347 -10467903.72046  23113406.4094   23113413.7364   23113406.890
        46.0004         41.0004
 -14672646.26448 -11427628.38048  19964568.6584   19964575.0284   19964569.176
        53.0004         49.0004
 -21263650.95849 -16522832.40848  20084596.3054   20084602.5104   20084596.583
        54.0004         49.0004
  -2114244.94547  -1577429.34946  24062082.0604   24062092.5324   24062081.913
        43.0004         38.0004
  -7556328.71646  -5673614.86345  24006460.3824   24006469.4674   24006462.828
        40.0004         35.0004
  -6707778.72847  -5233453.03646  22835377.9644   22835383.3784   22835378.599
        46.0004         41.0004
  -1706025.59046  -1284473.89945  25037420.6174   25037429.5504   25037420.429
        39.0004         34.0004
  -8114715.00947  -6278402.62347  22875360.5454   22875365.2634   22875359.829
        47.0004         42.0004
 -26192415.30148 -20369971.73448  20498495.6714   20498502.2064   20498495.401
        53.0004         48.0004
 -18244179.55648 -14182712.66547  21388717.6114   21388723.6564   21388717.576
        51.0004         46.0004
 14  5  1  1 40  0.0000000  0 11G17G10G08G09G26G20G28G13G02G04G07
  -9521146.13447  -7374842.16647  23209078.8244   23209085.5204   23209078.583
        47.0004         43.0004
 -13507937.83747 -10521595.63946  23100293.5034   23100301.0124   23100294.463
        46.0004         41.0004
 -14646881.82648 -11407552.21748  19969471.5974   19969477.7664   19969471.925
        53.0004         49.0004
 -21238228.75649 -16503022.90848  20089434.1974   20089440.3854   20089434.194
        54.0004         49.0004
  -2106538.39147  -1571424.11046  24063547.4084   24063559.1874   24063547.401
        43.0004         38.0004
  -7522833.59946  -5647514.71145  24012837.7974   24012843.2074   24012835.896
        40.0004         35.0004
  -6766451.88547  -5279172.38547  22824213.7674   22824218.7754   22824214.079
        46.0004         42.0004
  -1650818.24146  -1241455.18945  25047924.9114   25047932.6204   25047925.389
        39.0004         34.0004
  -8190346.72947  -6337336.37847  22860967.3554   22860972.5224   22860968.405
        47.0004         42.0004
 -26227312.54548 -20397164.37848  20491854.8774   20491861.3614   20491854.478
        53.0004         48.0004
 -18162433.40648 -14119014.40147  21404274.2564   21404279.2904   21404273.391
        51.0004         46.0004
 14  5  1  1 40 30.0000000  0 11G17G10G08G09G26G20G28G13G02G04G07
  -9481889.25447  -7344252.36747  23216549.4594   23216555.6164   23216548.622
        47.0004         42.0004
 -13576944.39647 -10575366.94246  23087162.1674   23087170.5804   23087162.743
        46.0004         41.0004
 -14620468.25848 -11386970.23548  19974498.1154   19974504.0974   19974498.067
        53.0004         49.0004
 -21212229.68049 -16482763.89648  20094381.8554   20094387.8564   20094381.761
        54.0004         49.0004
  -2098633.34647  -1565264.20346  24065051.9594   24065063.0454   24065051.652
        43.0004         38.0004
  -7489006.76446  -5621156.04845  24019272.3954   24019277.9324   24019273.564
        40.0004         35.0004
  -6825171.10547  -5324927.63047  22813039.8194   22813045.2614   22813040.085
        46.0004         42.0004
  -1595869.68046  -1198638.14545  25058381.6624   25058390.1694   25058382.372
        39.0004         34.0004
  -8265654.14147  -6396017.42547  22846636.4324   22846642.5214   22846636.664
        47.0004         42.0004
 -26261671.11448 -20423937.26948  20485316.3394   20485323.0264   20485316.029
        53.0004         48.0004
 -18080310.19648 -14055022.32047  21419901.5254   21419906.9774   21419900.676
        51.0004         46.0004
 14  5  1  1 41  0.0000000  0 11G17G10G08G09G26G20G28G13G02G04G07
  -9442739.97247  -7313746.42547  23223998.4384   23224005.6954   23223997.951
        47.0004         42.0004
 -13646051.35547 -10629216.47846  23074011.6904   23074019.5704   23074012.193
        46.0004         41.0004
 -14593406.96048 -11365883.52848  19979647.4964   19979653.6544   19979647.676
        53.0004         49.0004
 -21185655.68949 -16462056.89848  20099438.4224   20099444.6754   20099438.561
        54.0004         49.0004
  -2090532.44847  -1558951.68246  24066592.5874   24066606.7094   24066592.866
        43.0004         38.0004
  -7454848.37446  -5594539.03745  24025773.9594   24025778.6004   24025773.832
        40.0004         35.0004
  -6883934.36747  -5370717.19047  22801857.4044   22801863.5044   22801858.037
        46.0004         42.0004
  -1541180.68946  -1156023.35745  25068788.9464   25068796.3674   25068788.739
        38.0004         33.0004
  -8340636.22547  -6454444.98847  22832368.5264   22832373.3414   22832368.177
        47.0004         42.0004
 -26295490.42048 -20450289.96748  20478881.0644   20478887.4704   20478880.836
        53.0004         48.0004
 -17997812.81748 -13990738.68647  21435600.1334   21435605.1814   21435599.672
        51.0004         46.0004
 14  5  1  1 41 30.0000000  0 11G17G10G08G09G26G20G28G13G02G04G07
  -9403701.16847  -7283326.55947  23231427.5824   23231434.0764   23231426.793
        47.0004         42.0004
 -13715258.08247 -10683143.75246  23060842.0684   23060850.7794   23060841.914
        46.0004         41.0004
 -14565700.71748 -11344294.26648  19984919.9104   19984926.0154   19984920.215
        53.0004         49.0004
 -21158509.56349 -16440904.08148  20104604.3464   20104610.7044   20104604.129
        54.0004         49.0004
  -2082239.20947  -1552489.28446  24068172.8034   24068182.4444   24068172.323
        43.0004         38.0004
  -7420359.35746  -5567664.41645  24032334.3634   24032342.8884   24032336.426
        40.0004         35.0004
  -6942740.59347  -5416540.22847  22790667.6974   22790672.5554   22790667.639
        46.0004         42.0004
  -1486753.25646  -1113612.37745  25079147.4594   25079154.5514   25079146.064
        38.0004         33.0004
  -8415292.35547  -6512618.55547  22818161.8424   22818166.5604   22818161.968
        47.0004         42.0004
 -26328770.83848 -20476222.75148  20472547.8084   20472554.5454   20472547.323
        53.0004         48.0004
 -17914945.73148 -13926166.97347  21451368.9264   21451375.1234   21451368.773
        51.0004         46.0004
 14  5  1  1 42  0.0000000  0 11G17G10G08G09G26G20G28G13G02G04G07
  -9364773.72247  -7252993.45947  23238835.5654   23238841.6494   23238834.785
        47.0004         42.0004
 -13784561.67647 -10737146.49846  23047653.3234   23047662.4904   23047654.911
        46.0004         41.0004
 -14537349.76248 -11322202.63148  19990314.7684   19990321.1814   19990314.963
        53.0004         49.0004
 -21130792.05749 -16419306.03348  20109878.8614   20109884.6004   20109878.807
        54.0004         49.0004
  -2073754.77347  -1545877.92746  24069786.3704   24069798.4124   24069785.535
        43.0004         38.0004
  -7385537.78546  -5540530.66845  24038964.6374   24038969.1754   24038962.388
        40.0004         35.0004
  -7001586.69047  -5462394.35147  22779469.5334   22779474.6334   22779469.875
        46.0004         42.0004
  -1432586.67346  -1071404.65245  25089453.3424   25089460.0684   25089453.734
        38.0004         33.0004
  -8489619.83647  -6570536.01047  22804016.7894   22804022.5334   22804018.549
        47.0004         42.0004
 -26361510.47848 -20501734.14248  20466317.7284   20466324.3704   20466317.266
        53.0004         48.0004
 -17831710.86748 -13861308.68147  21467208.3814   21467213.9374   21467207.962
        51.0004         46.0004
 14  5  1  1 42 30.0000000  0 11G17G10G08G09G26G20G28G13G02G04G07
  -9325959.24447  -7222748.37547  23246221.2034   23246228.5264   23246220.822
        47.0004         42.0004
 -13853960.11747 -10791223.17046  23034447.8554   23034456.4774   23034448.767
        46.0004         41.0004
 -14508355.05148 -11299609.36948  19995832.5014   19995838.6384   19995832.596
        53.0004         49.0004
 -21102504.82849 -16397264.05248  20115261.6884   20115267.9384   20115261.491
        54.0004         49.0004
  -2065081.34947  -1539119.29146  24071435.8504   24071446.8254   24071436.058
        43.0004         38.0004
  -7350383.50446  -5513137.66645  24045649.9834   24045657.7664   24045653.148
        39.0004         35.0004
  -7060469.78647  -5508277.29747  22768264.1094   22768268.9424   22768264.119
        46.0004         42.0004
  -1378681.75046  -1029400.79845  25099712.8544   25099719.5654   25099711.841
        38.0004         34.0004
  -8563616.49147  -6628195.70847  22789935.8194   22789941.5274   22789934.948
        47.0004         42.0004
 -26393708.30848 -20526823.35148  20460191.2234   20460197.1844   20460190.615
        53.0004         48.0004
 -17748111.43048 -13796166.30347  21483116.7274   21483122.6014   21483116.546
        50.0004         46.0004
 14  5  1  1 43  0.0000000  0 11G17G10G08G09G26G20G28G13G02G04G07
  -9287259.00347  -7192592.32047  23253585.8174   23253592.4044   23253585.003
        47.0004         42.0004
 -13923450.73647 -10845371.66746  23021224.9024   23021231.9004   23021224.828
        46.0004         41.0004
 -14478717.30748 -11276515.03548  20001472.2884   20001478.3534   20001472.682
        53.0004         49.0004
 -21073648.72149 -16374778.78348  20120752.7264   20120759.1014   20120752.669
        54.0004         49.0004
  -2056220.51447  -1532214.64346  24073121.7754   24073134.1354   24073121.654
        42.0004         38.0004
  -7314895.45146  -5485484.55545  24052405.5224   24052409.9884   24052405.318
        39.0004         34.0004
  -7119387.19347  -5554186.97547  22757052.3834   22757058.1614   22757052.731
        46.0004         42.0004
  -1325037.82046   -987600.34745  25109921.7374   25109928.9504   25109919.863
        38.0004         33.0004
  -8637280.19047  -6685595.95047  22775919.2574   22775923.8124   22775919.677
        47.0004         42.0004
 -26425363.10648 -20551489.41548  20454167.0914   20454173.2044   20454166.589
        53.0004         48.0004
 -17664149.20148 -13730741.23547  21499094.7804   21499099.9374   21499094.080
        50.0004         46.0004
 14  5  1  1 43 30.0000000  0 11G17G10G08G09G26G20G28G13G02G04G07
  -9248676.14847  -7162527.74047  23260927.4514   23260933.7254   23260927.833
        47.0004         42.0004
 -13993033.01847 -10899591.58647  23007983.4004   23007991.1104   23007984.136
        46.0004         42.0004
 -14448438.88448 -11252921.47748  20007234.0214   20007240.7794   20007234.319
        53.0004         49.0004
 -21044226.49049 -16351852.38248  20126351.6484   20126357.6604   20126351.589
        54.0004         49.0004
  -2047175.53947  -1525166.50046  24074843.7574   24074855.6414   24074843.342
        43.0004         38.0004
  -7279074.10446  -5457571.75645  24059222.3434   24059227.0914   24059221.709
        39.0004         35.0004
  -7178337.07547  -5600121.95747  22745835.5434   22745839.6734   22745834.976
        46.0004         42.0004
  -1271656.27446   -946004.31045  25120078.4964   25120087.1984   25120077.281
        38.0004         33.0004
  -8710609.59247  -6742735.69647  22761963.7654   22761969.9194   22761964.079
        47.0004         42.0004
 -26456474.89048 -20575732.35248  20448246.5604   20448253.4064   20448246.589
        53.0004         49.0004
 -17579828.63048 -13665036.93647  21515139.7444   21515145.1774   21515139.774
        50.0004         46.0004
 14  5  1  1 44  0.0000000  0 11G17G10G08G09G26G20G28G13G02G04G07
  -9210211.73447  -7132555.44247  23268247.2664   23268254.0064   23268247.058
        47.0004         42.0004
 -14062704.26747 -10953880.83346  22994726.4844   22994732.2654   22994725.860
        46.0004         41.0004
 -14417520.52148 -11228829.26648  20013117.4324   20013124.2264   20013117.844
        53.0004         49.0004
 -21014239.11849 -16328485.60448  20132058.0074   20132064.0594   20132057.985
        54.0004         49.0004
  -2037948.04347  -1517976.12346  24076599.3014   24076610.9544   24076599.310
        43.0004         38.0004
  -7242918.62246  -5429398.59645  24066102.8864   24066110.0084   24066102.743
        39.0004         35.0004
  -7237316.47847  -5646079.94847  22734610.1894   22734616.3704   22734611.438
        46.0004         42.0004
  -1218537.12946   -904612.75145  25130186.3514   25130194.4734   25130186.704
        38.0004         33.0004
  -8783602.56247  -6799613.30747  22748073.9834   22748079.9984   22748074.453
        47.0004         42.0004
 -26487042.43848 -20599551.21148  20442429.7164   20442436.3714   20442429.382
        53.0004         49.0004
 -17495151.83348 -13599055.06447  21531253.1214   21531259.5394   21531253.117
        50.0004         46.0004
 14  5  1  1 44 30.0000000  0 11G17G10G08G09G26G20G28G13G02G04G07
  -9171867.62747  -7102676.89547  23275544.0424   23275551.0974   23275543.824
        47.0004         42.0004
 -14132463.09347 -11008238.33947  22981450.3504   22981457.1874   22981450.596
        46.0004         42.0004
 -14385964.15848 -11204239.90948  20019122.6674   20019129.0734   20019122.708
        53.0004         49.0004
 -20983688.66749 -16304680.06848  20137871.7904   20137877.7474   20137871.511
        54.0004         49.0004
  -2028540.82047  -1510645.71846  24078389.3594   24078400.1874   24078388.746
        43.0004         38.0004
  -7206428.91546  -5400965.00045  24073044.3634   24073052.2304   24073045.574
        39.0004         35.0004
  -7296323.46347  -5692059.42247  22723382.9294   22723387.6424   22723383.025
        47.0004         42.0004
  -1165681.22246   -863426.30345  25140244.4054   25140253.6134   25140244.419
        38.0004         33.0004
  -8856257.86147  -6856227.78447  22734248.5834   22734253.0814   22734248.561
        47.0004         42.0004
 -26517065.20248 -20622945.56048  20436716.7234   20436723.2264   20436716.384
        53.0004         49.0004
 -17410122.61748 -13532798.58247  21547433.8274   21547439.9154   21547433.526
        50.0004         46.0004
 14  5  1  1 45  0.0000000  0 11G17G10G08G09G26G20G28G13G02G04G07
  -9133646.45547  -7072894.14047  23282817.5084   23282824.3084   23282816.770
        47.0004         42.0004
 -14202308.01447 -11062662.91147  22968159.3754   22968166.1004   22968159.632
        46.0004         42.0004
 -14353771.82548 -11179155.00248  20025248.5284   20025255.0684   20025248.865
        53.0004         49.0004
 -20952577.63349 -16280437.71848  20143791.7594   20143798.0284   20143791.881
        54.0004         49.0004
  -2018956.62047  -1503177.37346  24080212.9094   24080225.9884   24080213.382
        43.0004         38.0004
  -7169605.36746  -5372271.26445  24080053.3914   24080058.8934   24080053.195
        39.0004         35.0004
  -7355356.50747  -5738059.20447  22712147.9924   22712155.0544   22712149.120
        47.0004         42.0004
  -1113089.70046   -822445.91045  25150254.4544   25150257.5744   25150252.293
        38.0004         33.0004
  -8928574.15747  -6912578.11047  22720487.7484   22720493.3894   22720487.089
        47.0004         42.0004
 -26546543.41248 -20645915.58948  20431106.9784   20431113.3494   20431106.663
        53.0004         48.0004
 -17324744.40648 -13466270.15847  21563680.9374   21563687.0914   21563680.987
        50.0004         46.0004
 14  5  1  1 45 30.0000000  0 11G17G10G08G09G26G20G28G13G02G04G07
  -9095545.70147  -7043205.22447  23290068.0154   23290073.9694   23290067.325
        47.0004         42.0004
 -14272232.39047 -11117149.39947  22954852.5754   22954861.2544   22954853.043
        46.0004         42.0004
 -14320940.58148 -11153572.24148  20031495.9714   20031502.2974   20031496.492
        53.0004         49.0004
 -20920903.15449 -16255756.31648  20149819.4354   20149825.5944   20149819.251
        54.0004         49.0004
  -2009193.43247  -1495569.58246  24082071.2304   24082083.0974   24082070.690
        43.0004         38.0004
  -7132442.81946  -5343313.38745  24087122.6854   24087133.9224   24087125.502
        39.0004         34.0004
  -7414408.63147  -5784073.86147  22700910.6504   22700916.9324   22700912.293
        47.0004         42.0004
  -1060758.19246   -781668.07745  25160210.5944   25160220.5614   25160210.089
        37.0004         33.0004
  -9000545.48747  -6968659.63647  22706791.4404   22706796.9714   22706791.449
        47.0004         42.0004
 -26575471.67548 -20668457.08548  20425602.4704   20425608.9094   20425602.019
        53.0004         48.0004
 -17239015.71248 -13399468.62247  21579994.5664   21579999.9334   21579993.985
        50.0004         46.0004
 14  5  1  1 46  0.0000000  0 11G17G10G08G09G26G20G28G13G02G04G07
  -9057571.94347  -7013615.25047  23297293.1254   23297299.7864   23297293.066
        47.0004         42.0004
 -14342239.50147 -11171700.35647  22941532.3464   22941537.9824   22941531.679
        46.0004         42.0004
 -14287477.22648 -11127496.92648  20037864.2824   20037870.6664   20037864.460
        53.0004         49.0004
 -20888672.14149 -16230641.25548  20155952.9024   20155958.8484   20155952.813
        54.0004         49.0004
  -1999258.52347  -1487827.96046  24083962.1914   24083972.0924   24083961.740
        43.0004         38.0004
  -7094946.42346  -5314095.34745  24094258.9824   24094268.3484   24094258.747
        39.0004         34.0004
  -7473482.27047  -5830105.28347  22689671.4684   22689676.1574   22689671.078
        47.0004         42.0004
  -1008692.37246   -741097.31945  25170116.2024   25170132.3434   25170118.221
        37.0004         32.0004
  -9072174.87647  -7024474.71147  22693161.1814   22693166.2384   22693161.089
        47.0004         42.0004
 -26603854.56648 -20690573.61448  20420201.0754   20420207.5064   20420200.793
        53.0004         48.0004
 -17152945.03148 -13332400.60747  21596374.4924   21596379.4544   21596373.453
        50.0004         46.0004
 14  5  1  1 46 30.0000000  0 11G17G10G08G09G26G20G28G13G02G04G07
  -9019724.34647  -6984123.58747  23304495.6934   23304502.4534   23304494.892
        47.0004         42.0004
 -14412324.64147 -11226312.12147  22928194.5514   22928202.9734   22928194.923
        46.0004         42.0004
 -14253380.38748 -11100927.99048  20044352.1544   20044359.0374   20044352.524
        53.0004         48.0004
 -20855883.89849 -16205091.99048  20162192.2914   20162198.4214   20162192.176
        54.0004         49.0004
  -1989151.48047  -1479952.23246  24085885.0794   24085896.2874   24085884.445
        43.0004         38.0004
  -7057112.81646  -5284614.55145  24101461.6664   24101464.1114   24101459.944
        39.0004         34.0004
  -7532572.14447  -5876149.34247  22678426.6434   22678431.5194   22678426.658
        47.0004         42.0004
   -956890.15946   -700731.96245  25179975.8894   25179981.5954   25179976.240
        37.0004         32.0004
  -9143458.15347  -7080020.09547  22679596.2674   22679601.9934   22679595.621
        47.0004         43.0004
 -26631688.73048 -20712262.56248  20414904.4144   20414910.6754   20414904.022
        53.0004         48.0004
 -17066532.33148 -13265066.08547  21612817.3794   21612823.6514   21612817.056
        50.0004         46.0004
 14  5  1  1 47  0.0000000  0 11G17G10G08G09G26G20G28G13G02G04G07
  -8982006.10447  -6954732.72947  23311672.9154   23311679.0934   23311673.006
        47.0004         42.0004
 -14482487.39147 -11280984.34347  22914842.7844   22914850.5384   22914842.989
        46.0004         42.0004
 -14218653.17148 -11073867.85248  20050960.7694   20050967.0494   20050961.090
        53.0004         48.0004
 -20822541.58649 -16179110.98148  20168537.0614   20168543.2284   20168536.795
        54.0004         49.0004
  -1978876.20847  -1471945.41746  24087839.6574   24087852.1764   24087839.789
        43.0004         39.0004
  -7018943.70346  -5254872.33645  24108720.9414   24108727.5934   24108722.552
        39.0004         35.0004
  -7591677.34947  -5922205.34647  22667177.7834   22667182.1484   22667179.333
        47.0004         42.0004
                   -660573.20245                  25189789.6524   25189782.228
                        33.0004
  -9214394.97447  -7135295.50547  22666096.7934   22666102.8014   22666097.311
        47.0004         43.0004
 -26658974.97348 -20733524.56848  20409712.0354   20409718.5844   20409711.705
        53.0004         48.0004
 -16979782.26048 -13197468.67747  21629325.0454   21629331.8054   21629325.083
        50.0004         46.0004
 14  5  1  1 47 30.0000000  0 11G17G10G08G09G26G20G28G13G02G04G07
  -8944418.55547  -6925443.70547  23318826.0624   23318832.2444   23318825.477
        47.0004         42.0004
 -14552725.37847 -11335715.21547  22901475.8174   22901484.7744   22901477.626
        47.0004         42.0004
 -14183296.69848 -11046317.38048  20057688.8784   20057695.5164   20057689.336
        53.0004         48.0004
 -20788646.78749 -16152699.46948  20174987.1734   20174993.0754   20174987.132
        54.0004         49.0004
  -1968434.47947  -1463808.90246  24089826.9994   24089837.5724   24089826.162
        43.0004         38.0004
  -6980438.10746  -5224867.93345  24116052.4764   24116055.7814   24116050.304
        39.0004         35.0004
  -7650795.26247  -5968271.25947  22655929.2554   22655932.5444   22655929.424
        47.0004         42.0004
   -854080.97746   -620620.88745  25199537.5724   25199544.9224   25199539.379
        37.0004         33.0004
  -9284983.14747  -7190299.24547  22652664.3614   22652669.2824   22652664.174
        47.0004         42.0004
 -26685712.53948 -20754359.02748  20404624.0804   20404630.8294   20404623.518
        53.0004         48.0004
 -16892697.66448 -13129610.59547  21645897.3694   21645902.3574   21645896.602
        50.0004         45.0004
 14  5  1  1 48  0.0000000  0 11G17G10G08G09G26G20G28G13G02G04G07
  -8906961.55847  -6896256.40647  23325953.8554   23325959.8754   23325953.693
        47.0004         42.0004
 -14623034.64547 -11390501.62847  22888097.3044   22888105.2144   22888097.865
        47.0004         42.0004
 -14147310.80148 -11018276.45248  20064536.8004   20064543.3804   20064537.226
        53.0004         48.0004
 -20754199.45449 -16125857.40448  20181542.2124   20181548.1564   20181542.045
        54.0004         49.0004
  -1957826.69747  -1455542.97046  24091845.1374   24091856.1284   24091845.303
        43.0004         38.0004
  -6941593.72946  -5194599.51245  24123442.1594   24123448.8654   24123441.097
        39.0004         34.0004
  -7709921.32447  -6014343.52947  22644676.4194   22644682.2454   22644678.098
        47.0004         42.0004
   -803072.37346   -580873.90545  25209246.0794   25209254.8404   25209246.154
        38.0004         33.0004
  -9355219.29947  -7245028.68147  22639299.1334   22639304.2854   22639299.337
        47.0004         43.0004
 -26711898.70448 -20774763.82448  20399640.4954   20399647.6884   20399640.797
        53.0004         48.0004
 -16805279.48148 -13061492.58047  21662531.8354   21662538.3494   21662531.640
        50.0004         45.0004
 14  5  1  1 48 30.0000000  0 11G17G10G08G09G26G20G28G13G02G04G07
  -8869638.73347  -6867173.69047  23333055.2324   23333062.7054   23333055.351
        47.0004         42.0004
 -14693415.20447 -11445343.59147  22874704.5574   22874712.1934   22874705.291
        47.0004         42.0004
 -14110699.38348 -10989748.10448  20071504.0594   20071510.1794   20071504.254
        53.0004         49.0004
 -20719203.59249 -16098587.92548  20188201.6394   20188207.6574   20188201.596
        54.0004         49.0004
  -1947057.57747  -1447151.35746  24093893.9914   24093906.3024   24093893.614
        43.0004         38.0004
  -6902412.78346  -5164068.87745  24130897.0194   24130905.6564   24130898.068
        39.0004         34.0004
  -7769055.36247  -6060422.01747  22633425.9904   22633430.5384   22633425.043
        47.0004         42.0004
   -752330.14746   -541334.47845  25218906.1064   25218909.4724   25218902.352
        38.0004         33.0004
  -9425103.65947  -7299484.00047  22625999.9834   22626005.5134   22626000.270
        47.0004         43.0004
 -26737535.35148 -20794740.42848  20394762.4314   20394769.4364   20394762.155
        53.0004         48.0004
 -16717533.13648 -12993118.85447  21679229.2364   21679235.4234   21679229.026
        50.0004         45.0004
 14  5  1  1 49  0.0000000  0 11G17G10G08G09G26G20G28G13G02G04G07
  -8832450.05147  -6838195.44647  23340133.3894   23340139.6474   23340131.596
        47.0004         42.0004
 -14763862.64947 -11500237.65347  22861298.2284   22861306.4744   22861299.502
        47.0004         42.0004
 -14073461.72948 -10960731.78248  20078589.9384   20078596.5064   20078590.138
        53.0004         49.0004
 -20683658.92549 -16070890.80448  20194965.3804   20194971.5844   20194965.289
        54.0004         49.0004
  -1936126.67547  -1438633.65746  24095973.5734   24095984.5144   24095974.754
        42.0004         38.0004
  -6862892.57346  -5133273.80745  24138418.5474   24138427.2134   24138418.629
        39.0004         34.0004
  -7828192.17847  -6106502.67547  22622172.4714   22622176.8824   22622171.557
        47.0004         42.0004
                   -502000.74345                  25228514.8444   25228509.263
                        32.0004
  -9494632.64547  -7353662.40247  22612768.1734   22612774.8204   22612769.455
        47.0004         43.0004
 -26762619.35448 -20814286.39548  20389988.9214   20389995.9024   20389988.606
        53.0004         48.0004
 -16629459.31448 -12924489.95647  21695989.3674   21695995.1224   21695989.556
        50.0004         45.0004
 14  5  1  1 49 30.0000000  0 11G17G10G08G09G26G20G28G13G02G04G07
  -8795393.33047  -6809320.06247  23347184.8354   23347190.5314   23347184.300
        47.0004         42.0004
 -14834371.67347 -11555179.71347  22847881.1394   22847888.7754   22847881.563
        47.0004         42.0004
 -14035596.57848 -10931226.50148  20085795.5584   20085802.2494   20085795.990
        53.0004         49.0004
 -20647563.81849 -16042764.77248  20201834.0994   20201840.1974   20201834.248
        54.0004         49.0004
  -1925033.29247  -1429989.36646  24098085.4844   24098096.2274   24098085.202
        42.0004         37.0004
  -6823029.52156  -5102211.61955  24146004.4905   24146009.2255   24146003.059
        38.0004         34.0004
  -7887326.30147  -6152581.23647  22610917.8464   22610923.2334   22610918.993
        47.0004         42.0004
                   -462870.57545                  25238072.1554   25238063.477
                        32.0004
  -9563800.87647  -7407559.70047  22599607.0154   22599612.1754   22599606.953
        47.0004         43.0004
 -26787147.32748 -20833399.10048  20385321.5504   20385327.8434   20385320.997
        53.0004         48.0004
 -16541057.78048 -12855605.69347  21712812.1524   21712817.9644   21712811.495
        50.0004         45.0004
 14  5  1  1 50  0.0000000  0 10G17G10G08G09G26G20G28G02G04G07
  -8758486.15047  -6780561.19447  23354207.0824   23354213.1574   23354207.005
        47.0004         42.0004
 -14904955.51647 -11610180.08247  22834449.7424   22834457.9644   22834450.373
        47.0004         42.0004
 -13997121.09448 -10901245.63148  20093117.1094   20093123.5134   20093117.443
        53.0004         49.0004
 -20610935.91049 -16014223.56048  20208804.4584   20208810.2054   20208804.296
        54.0004         49.0004
  -1913795.12547  -1421232.24546  24100224.2364   24100234.6624   24100223.309
        42.0004         38.0004
  -6782839.02346  -5070894.29345  24153651.5674   24153659.6944   24153651.809
        39.0004         34.0004
  -7946470.42047  -6198667.58247  22599664.3064   22599669.2634   22599663.910
        47.0004         42.0004
  -9632622.70647  -7461187.08047  22586511.0664   22586516.1514   22586510.932
        47.0004         43.0004
 -26811133.94348 -20852089.96148  20380757.0504   20380763.9064   20380756.662
        53.0004         48.0004
 -16452347.14948 -12786480.57547  21729692.9244   21729698.6964   21729692.589
        50.0004         45.0004
 14  5  1  1 50 30.0000000  0 10G17G10G08G09G26G20G28G02G04G07
  -8721711.40547  -6751905.51147  23361205.8134   23361212.6494   23361205.162
        47.0004         42.0004
 -14975593.92847 -11665222.97347  22821006.6164   22821014.6544   22821007.970
        47.0004         42.0004
 -13958018.30748 -10870775.96348  20100558.1894   20100565.0404   20100558.630
        53.0004         49.0004
 -20573758.72549 -15985254.34948  20215878.8134   20215884.9814   20215878.787
        54.0004         49.0004
  -1902395.94347  -1412349.65646  24102392.3334   24102404.2564   24102392.600
        42.0004         38.0004
  -6742302.36546  -5039307.23645  24161364.9384   24161372.4784   24161365.223
        39.0004         34.0004
  -8005603.70547  -6244745.48847  22588411.5154   22588415.5104   22588411.456
        47.0004         42.0004
  -9701077.47147  -7514528.43247  22573483.6014   22573488.7014   22573483.251
        47.0004         43.0004
 -26834560.41448 -20870344.35248  20376299.2044   20376305.6634   20376298.800
        53.0004         48.0004
 -16363311.96048 -12717102.56747  21746635.9274   21746641.6024   21746635.819
        50.0004         45.0004
 14  5  1  1 51  0.0000000  0 10G17G10G08G09G26G20G28G02G04G07
  -8685079.65347  -6723361.27347  23368176.5754   23368183.1804   23368175.988
        47.0004         42.0004
 -15046294.13447 -11720314.02047  22807553.3504   22807561.8934   22807553.711
        47.0004         42.0004
 -13918299.61948 -10839826.36848  20108116.3674   20108123.3294   20108116.752
        53.0004         49.0004
 -20536043.66349 -15955866.01348  20223055.5774   20223062.0884   20223055.867
        54.0004         49.0004
  -1890847.57847  -1403350.82746  24104590.5854   24104602.2554   24104589.111
        42.0004         38.0004
  -6701428.86546  -5007457.72145  24169140.9484   24169149.7444   24169143.301
        39.0004         34.0004
  -8064732.97747  -6290820.25847  22577159.1124   22577164.2964   22577159.456
        47.0004         43.0004
  -9769173.03848  -7567589.90647  22560525.0264   22560531.5234   22560526.366
        48.0004         43.0004
 -26857435.65348 -20888169.21048  20371946.3884   20371952.6334   20371945.663
        53.0004         49.0004
 -16273964.68648 -12647481.36747  21763637.9404   21763643.6994   21763637.704
        50.0004         45.0004
 14  5  1  1 51 30.0000000  0 10G17G10G08G09G26G20G28G02G04G07
  -8648590.12347  -6694927.86047  23375120.1384   23375126.9594   23375119.511
        47.0004         42.0004
 -15117050.66947 -11775448.94147  22794089.0614   22794097.4014   22794089.814
        47.0004         42.0004
 -13877963.54848 -10808395.69948  20115792.2044   20115798.8904   20115792.419
        53.0004         48.0004
 -20497789.65949 -15926057.72048  20230335.2554   20230341.4234   20230335.126
        54.0004         49.0004
  -1879149.03947  -1394234.97846  24106816.6954   24106828.6404   24106816.531
        42.0004         38.0004
  -6660215.03446  -4975342.98445  24176985.6004   24176992.1594   24176985.570
        39.0004         35.0004
  -8123852.37647  -6336887.35147  22565908.7884   22565914.7774   22565909.754
        47.0004         42.0004
  -9836904.48248  -7620367.62247  22547637.8014   22547642.6424   22547637.583
        48.0004         43.0004
 -26879756.25148 -20905561.88048  20367698.5634   20367705.8994   20367698.548
        53.0004         49.0004
 -16184305.21948 -12577616.90247  21780699.9724   21780705.7564   21780699.843
        50.0004         45.0004
