     2.11           OBSERVATION DATA    G (GPS)             RINEX VERSION / TYPE
teqc  2013Mar15     gpsops              20140524 00:23:22UTCPGM / RUN BY / DATE
Linux 2.4.21-27.ELsmp|Opteron|gcc -static|Linux x86_64|=+   COMMENT
BIT 2 OF LLI FLAGS DATA COLLECTED UNDER A/S CONDITION       COMMENT
GLPS                                                        MARKER NAME
42005M002                                                   MARKER NUMBER
GGN                 JPL                                     OBSERVER / AGENCY
ZR220013847         ASHTECH UZ-12       CQ00                REC # / TYPE / VERS
CR519992104         ASH701945B_M    SCIT                    ANT # / TYPE
   -33801.4662 -6377516.5323   -82154.3508                  APPROX POSITION XYZ
        0.0083        0.0000        0.0000                  ANTENNA: DELTA H/E/N
     1     1                                                WAVELENGTH FACT L1/2
     7    L1    L2    P1    P2    C1    S1    S2            # / TYPES OF OBSERV
    30.0000                                                 INTERVAL
                                                            COMMENT
This data is provided as a public service by NASA/JPL.      COMMENT
No warranty is expressed or implied regarding suitability   COMMENT
for use.  For further information, contact:                 COMMENT
Dave Stowers, NASA/JPL m/s 238-600                          COMMENT
4800 Oak Grove Drive, Pasadena CA 91109 USA                 COMMENT
                                                            COMMENT
Forced Modulo Decimation to 30 seconds                      COMMENT
 SNR is mapped to RINEX snr flag value [0-9]                COMMENT
  L1 & L2: min(max(int(snr_dBHz/6), 0), 9)                  COMMENT
pseudorange smoothing corrections not applied               COMMENT
  2014     5    23     0     0    0.0000000     GPS         TIME OF FIRST OBS
                                                            END OF HEADER
 14  5 23  0  0  0.0000000  0 11G13G08G04G26G10G07G20G09G28G02G17
  18055931.76546  14058261.30045  24879427.2964   24879432.1414   24879426.818
        39.0004         34.0004
 -26363163.73949 -20501742.85248  19934913.8484   19934920.3704   19934914.335
        54.0004         49.0004
 -26895142.57248 -20902952.92048  20669551.3704   20669557.8944   20669550.865
        52.0004         48.0004
  -2396409.46447  -1843180.69446  24056667.0854   24056680.3874   24056667.012
        42.0004         38.0004
 -12160897.60647  -9469371.19446  23385395.9474   23385404.3144   23385395.951
        45.0004         40.0004
 -18091065.70148 -14092549.60447  21127846.0844   21127851.2314   21127845.265
        52.0004         47.0004
  -2550717.67146  -1969197.44945  23816144.9854   23816154.1344   23816142.785
        38.0004         34.0004
  -1110668.21749   -862113.83248  20005815.6064   20005821.5304   20005815.256
        54.0004         50.0004
  -9077508.83647  -7045942.06446  23046107.3394   23046116.1864   23046108.013
        46.0004         41.0004
  -9095080.85247  -7033905.88146  23085441.3734   23085447.7014   23085441.220
        46.0004         41.0004
 -10524980.33748  -8147501.41047  23068529.6974   23068538.4894   23068529.229
        48.0004         43.0004
 14  5 23  0  0 30.0000000  0 11G13G08G04G26G10G07G20G09G28G02G17
  18115907.19946  14104995.57745  24890840.1684   24890846.8454   24890839.292
        39.0004         34.0004
 -26344226.83349 -20486986.78448  19938517.4584   19938524.1254   19938518.069
        54.0004         49.0004
 -26940952.96848 -20938649.27748  20660833.8284   20660840.1784   20660833.619
        52.0004         48.0004
  -2393125.00447  -1840621.26346  24057291.3964   24057304.7744   24057291.109
        42.0004         38.0004
 -12227622.82347  -9521364.72746  23372698.0384   23372707.0064   23372698.447
        45.0004         40.0004
 -18016359.72148 -14034337.11347  21142061.9684   21142067.6204   21142061.472
        51.0004         47.0004
  -2524483.73046  -1948755.38245  23821131.3934   23821143.9254   23821134.385
        38.0004         34.0004
  -1096758.53749   -851275.08248  20008462.1904   20008468.4384   20008462.327
        54.0004         50.0004
  -9134815.34047  -7090596.33946  23035203.3024   23035210.1544   23035202.309
        45.0004         41.0004
  -9175694.62747  -7096721.65346  23070100.8554   23070106.6584   23070101.826
        46.0004         41.0004
 -10483489.99248  -8115171.23447  23076424.7004   23076433.4944   23076424.558
        48.0004         43.0004
 14  5 23  0  1  0.0000000  0 11G13G08G04G26G10G07G20G09G28G02G17
  18175631.12546  14151533.85645  24902201.3684   24902213.2174   24902204.956
        39.0004         35.0004
 -26324632.66949 -20471718.56648  19942246.0684   19942252.6984   19942246.405
        54.0004         49.0004
 -26986252.77448 -20973947.77148  20652213.8464   20652220.1544   20652213.296
        52.0004         48.0004
  -2389602.90847  -1837876.64446  24057961.3524   24057974.8784   24057961.306
        42.0004         38.0004
 -12294488.76547  -9573467.89546  23359973.1184   23359982.0184   23359974.375
        45.0004         40.0004
 -17941228.03548 -13975792.92847  21156358.9694   21156364.3514   21156358.305
        51.0004         47.0004
  -2497933.83346  -1928067.09145  23826187.6234   23826198.1914   23826187.397
        38.0004         34.0004
  -1082249.86649   -839969.59148  20011223.1724   20011228.6764   20011223.143
        54.0004         50.0004
  -9192214.71247  -7135322.95646  23024279.4774   23024287.3184   23024279.470
        45.0004         40.0004
  -9256018.47447  -7159311.50246  23054815.0784   23054821.8374   23054816.231
        46.0004         41.0004
 -10442075.23148  -8082899.96447  23084306.6604   23084314.2784   23084305.539
        48.0004         43.0004
 14  5 23  0  1 30.0000000  0 11G13G08G04G26G10G07G20G09G28G02G17
  18235103.94346  14197876.47445  24913522.6804   24913527.0804   24913522.166
        39.0004         35.0004
 -26304380.04749 -20455937.25948  19946100.1794   19946106.4654   19946100.373
        54.0004         49.0004
 -27031038.51548 -21008845.70448  20643690.8954   20643697.3714   20643690.615
        52.0004         48.0004
  -2385843.61647  -1834947.20646  24058676.4284   24058688.6064   24058676.507
        42.0004         38.0004
 -12361492.08247  -9625678.12146  23347222.9844   23347231.6894   23347224.104
        45.0004         40.0004
 -17865671.67248 -13916917.82347  21170736.8464   21170742.4484   21170736.576
        51.0004         47.0004
  -2471065.31546  -1907130.54745  23831301.9164   23831308.8464   23831300.377
        39.0004         34.0004
  -1067141.42249   -828196.73948  20014098.3204   20014103.8374   20014098.039
        54.0004         50.0004
  -9249702.64847  -7180118.60246  23013339.1764   23013347.8974   23013340.053
        45.0004         41.0004
  -9336048.58747  -7221672.48146  23039586.9724   23039593.0944   23039586.333
        46.0004         41.0004
 -10400736.35148  -8050687.81247  23092171.7524   23092180.6134   23092172.085
        48.0004         43.0004
 14  5 23  0  2  0.0000000  0 11G13G08G04G26G10G07G20G09G28G02G17
  18294322.64346  14244021.05645  24924790.6174   24924797.1674   24924790.478
        39.0004         35.0004
 -26283472.33849 -20439645.49648  19950078.7384   19950085.1884   19950078.817
        54.0004         49.0004
 -27075311.51048 -21043344.09148  20635266.4774   20635272.5214   20635265.874
        52.0004         48.0004
  -2381851.61347  -1831836.43346  24059436.5254   24059448.9444   24059436.988
        42.0004         38.0004
 -12428633.84847  -9677996.23146  23334446.5034   23334456.1284   23334447.825
        45.0004         40.0004
 -17789696.07248 -13857716.04047  21185194.3564   21185200.0904   21185193.928
        51.0004         47.0004
  -2443879.83546  -1885947.02445  23836473.3084   23836488.7844   23836473.453
        39.0004         34.0004
  -1051436.73949   -815959.28748  20017086.2214   20017092.3154   20017086.509
        54.0004         50.0004
  -9307279.65847  -7224983.65946  23002383.6554   23002391.0534   23002383.794
        45.0004         41.0004
  -9415785.47347  -7283804.96346  23024413.3264   23024419.7534   23024413.228
        46.0004         41.0004
 -10359477.77048  -8018538.23547  23100023.8124   23100032.9244   23100023.256
        48.0004         43.0004
 14  5 23  0  2 30.0000000  0 11G13G08G04G26G10G07G20G09G28G02G17
  18353291.96746  14289971.29945  24936014.0844   24936019.5514   24936010.918
        39.0004         35.0004
 -26261904.85848 -20422839.62748  19954182.8404   19954189.0384   19954182.805
        53.0004         49.0004
 -27119064.87048 -21077437.56848  20626940.6124   20626946.8294   20626940.122
        53.0004         48.0004
  -2377623.82747  -1828541.93446  24060240.3764   24060253.7124   24060240.204
        42.0004         38.0004
 -12495907.01147  -9730416.73246  23321644.3804   23321653.0214   23321645.516
        45.0004         40.0004
 -17713298.55548 -13798185.48847  21199732.3764   21199737.4784   21199731.894
        51.0004         47.0004
  -2416371.19846  -1864511.68745  23841710.5524   23841722.4444   23841707.799
        39.0004         35.0004
  -1035131.52349   -803253.88448  20020189.2814   20020195.2284   20020189.422
        54.0004         50.0004
  -9364938.44647  -7269912.43846  22991410.3474   22991418.2554   22991411.217
        46.0004         41.0004
  -9495221.71547  -7345703.17546  23009295.7404   23009302.4594   23009297.042
        46.0004         41.0004
 -10318296.26548  -7986448.72447  23107859.3154   23107868.2084   23107859.668
        48.0004         43.0004
 14  5 23  0  3  0.0000000  0 11G13G08G04G26G10G07G20G09G28G02G17
  18412005.91246  14335722.55345  24947185.1454   24947193.0854   24947185.048
        39.0004         35.0004
 -26239684.10649 -20405524.71848  19958411.2664   19958417.5314   19958411.536
        54.0004         49.0004
 -27162302.90448 -21111129.50148  20618712.5784   20618718.7754   20618712.233
        53.0004         48.0004
  -2373167.63247  -1825069.46346  24061088.9784   24061100.5834   24061089.196
        42.0004         38.0004
 -12563315.43447  -9782942.61746  23308816.6964   23308825.0084   23308817.522
        45.0004         40.0004
 -17636487.57148 -13738332.75747  21214349.1204   21214354.6514   21214348.468
        51.0004         47.0004
  -2388544.19046  -1842828.27945  23847002.0224   23847012.6564   23847004.306
        39.0004         35.0004
  -1018232.33149   -790085.64648  20023405.0954   20023411.1254   20023404.895
        54.0004         50.0004
  -9422681.86847  -7314907.15846  22980423.1404   22980431.0094   22980422.854
        46.0004         41.0004
  -9574361.07947  -7407370.06946  22994235.8804   22994242.5524   22994236.659
        46.0004         41.0004
 -10277199.12648  -7954424.95547  23115679.7504   23115689.7884   23115680.070
        48.0004         43.0004
 14  5 23  0  3 30.0000000  0 11G13G08G04G26G10G07G20G09G28G02G17
  18470467.13246  14381276.88345  24958310.6544   24958313.5764   24958309.730
        39.0004         35.0004
 -26216807.45649 -20387698.71448  19962764.4144   19962770.9944   19962764.897
        54.0004         49.0004
 -27205020.91148 -21144416.20848  20610583.2374   20610589.6174   20610582.723
        53.0004         48.0004
  -2368481.65447  -1821417.93146  24061981.2774   24061991.7574   24061980.519
        42.0004         38.0004
 -12630853.78947  -9835569.75046  23295965.1334   23295973.5554   23295965.454
        45.0004         40.0004
 -17559262.22548 -13678157.16247  21229044.7374   21229049.9084   21229044.148
        51.0004         47.0004
  -2360394.36446  -1820893.31545  23852360.1294   23852370.3694   23852359.873
        39.0004         34.0004
  -1000736.76149   -776452.69548  20026734.4114   20026740.1964   20026734.549
        54.0004         50.0004
  -9480504.29847  -7359963.46046  22969419.7104   22969427.7804   22969419.752
        46.0004         41.0004
  -9653197.67947  -7468801.03746  22979234.9434   22979240.3464   22979235.019
        46.0004         41.0004
 -10236184.79848  -7922465.70447  23123484.5394   23123493.9634   23123484.832
        48.0004         43.0004
 14  5 23  0  4  0.0000000  0 11G13G08G04G26G10G07G20G09G28G02G17
  18528672.91246  14426632.15645  24969386.9264   24969395.9044   24969386.231
        39.0004         34.0004
 -26193278.01549 -20369364.04248  19967241.9834   19967248.4074   19967242.162
        54.0004         49.0004
 -27247219.52548 -21177298.20048  20602553.3494   20602559.1654   20602553.102
        53.0004         48.0004
  -2363570.18147  -1817590.67946  24062915.9804   24062927.5464   24062915.210
        42.0004         38.0004
 -12698522.40047  -9888298.38346  23283088.0274   23283096.5674   23283088.179
        45.0004         41.0004
 -17481627.62348 -13617662.65047  21243817.5734   21243823.7104   21243817.492
        51.0004         47.0004
  -2331923.32846  -1798708.06245  23857779.5394   23857788.0314   23857777.781
        39.0004         34.0004
   -982647.93749   -762357.46448  20030176.3154   20030182.7964   20030176.402
        54.0004         50.0004
  -9538405.54547  -7405081.17946  22958401.6884   22958409.2984   22958401.390
        46.0004         41.0004
  -9731731.75047  -7529996.26546  22964289.9464   22964295.0744   22964290.241
        46.0004         41.0004
 -10195257.16448  -7890573.99447  23131272.9894   23131282.3344   23131273.209
        48.0004         43.0004
 14  5 23  0  4 30.0000000  0 11G13G08G04G26G10G07G20G09G28G02G17
  18586623.85046  14471788.82745  24980411.0544   24980416.0024   24980413.021
        39.0004         34.0004
 -26169095.57549 -20350520.53948  19971843.8004   19971850.2094   19971843.951
        54.0004         49.0004
 -27288896.37048 -21209773.62248  20594622.0704   20594628.2674   20594621.593
        53.0004         48.0004
  -2358434.03947  -1813588.37146  24063893.0674   24063904.8794   24063893.195
        42.0004         38.0004
 -12766318.24947  -9941126.15846  23270186.5394   23270196.2554   23270187.098
        45.0004         40.0004
 -17403585.31248 -13556850.44447  21258668.6844   21258674.4894   21258668.350
        51.0004         47.0004
  -2303129.00446  -1776270.88145  23863256.2824   23863268.7934   23863256.430
        39.0004         34.0004
   -963965.78849   -747799.90748  20033731.6024   20033737.3114   20033731.594
        54.0004         50.0004
  -9596382.27447  -7450257.70446  22947367.8144   22947377.6114   22947368.765
        46.0004         41.0004
  -9809960.04647  -7590953.24046  22949403.2434   22949409.9714   22949403.163
        46.0004         41.0004
 -10154417.27847  -7858750.66847  23139045.7454   23139053.3844   23139044.254
        47.0004         43.0004
 14  5 23  0  5  0.0000000  0 11G13G08G04G26G10G07G20G09G28G02G17
  18644317.70646  14516745.23745  24991392.5744   24991399.7784   24991391.563
        38.0004         34.0004
 -26144262.64649 -20331170.16048  19976569.1214   19976575.6584   19976569.521
        54.0004         49.0004
 -27330051.67548 -21241842.63948  20586790.7554   20586796.8384   20586790.504
        53.0004         48.0004
  -2353076.96447  -1809413.89446  24064911.9314   24064923.8884   24064911.456
        42.0004         38.0004
 -12834241.38447  -9994053.11846  23257261.7574   23257269.2374   23257261.688
        45.0004         40.0004
 -17325139.72348 -13495723.98847  21273596.1824   21273602.8974   21273595.840
        51.0004         47.0004
  -2274012.09746  -1753582.33845  23868797.1154   23868809.2334   23868797.775
        39.0004         34.0004
   -944693.06749   -732782.15448  20037399.0024   20037404.9054   20037399.052
        54.0004         50.0004
  -9654433.80847  -7495492.52546  22936321.0584   22936329.1624   22936321.030
        46.0004         41.0004
  -9887882.16047  -7651671.61146  22934574.6904   22934581.6074   22934575.484
        46.0004         41.0004
 -10113668.69747  -7826998.49647  23146799.7094   23146807.3474   23146798.856
        47.0004         43.0004
 14  5 23  0  5 30.0000000  0 11G13G08G04G26G10G07G20G09G28G02G17
  18701755.95946  14561502.40445  25002320.7104   25002329.1354   25002323.207
        39.0004         34.0004
 -26118778.33849 -20311312.21548  19981418.9084   19981424.6214   19981419.118
        54.0004         49.0004
 -27370682.33948 -21273502.85648  20579058.7244   20579065.0394   20579058.205
        53.0004         48.0004
  -2347499.24747  -1805067.51546  24065973.2204   24065984.0284   24065972.956
        42.0004         38.0004
 -12902288.04547 -10047076.32446  23244312.5444   23244320.7524   23244313.210
        45.0004         41.0004
 -17246291.58148 -13434283.86447  21288600.8084   21288605.4824   21288600.507
        51.0004         47.0004
  -2244570.05846  -1730640.46545  23874401.1094   23874413.5964   23874401.187
        39.0004         34.0004
   -924829.08149   -717303.67948  20041179.0824   20041185.0654   20041178.853
        54.0004         50.0004
  -9712555.79247  -7540782.24446  22925261.1024   22925268.3874   22925260.903
        46.0004         41.0004
  -9965494.24647  -7712148.40947  22919806.1124   22919812.7254   22919806.686
        46.0004         42.0004
 -10073011.47348  -7795317.50947  23154536.0444   23154545.5364   23154535.808
        48.0004         43.0004
 14  5 23  0  6  0.0000000  0 11G13G08G04G26G10G07G20G09G28G02G17
  18758946.45546  14606066.56845  25013205.5144   25013209.3454   25013205.223
        39.0004         34.0004
 -26092635.06248 -20290940.78948  19986393.3814   19986399.7414   19986393.903
        53.0004         49.0004
 -27410778.77248 -21304746.77848  20571428.8184   20571434.8034   20571428.332
        53.0004         48.0004
  -2341694.37847  -1800544.11646  24067078.7234   24067091.3984   24067077.283
        42.0004         38.0004
 -12970448.16447 -10100187.95246  23231342.6064   23231350.1354   23231342.494
        45.0004         41.0004
 -17167035.57748 -13372525.91747  21303682.9224   21303688.1954   21303682.043
        51.0004         47.0004
 -10091893.66646  -7845438.06745  23880065.3164   23880076.1434   23880066.065
        39.0004         34.0004
   -904366.61549   -701358.85748  20045072.8604   20045078.7274   20045072.743
        54.0004         50.0004
  -9770737.73647  -7586118.68547  22914188.7294   22914197.5914   22914189.253
        46.0004         42.0004
 -10042785.66847  -7772375.33246  22905098.3334   22905103.5524   22905098.402
        46.0004         41.0004
 -10032438.83348  -7763702.42747  23162256.6184   23162265.3314   23162256.348
        48.0004         43.0004
 14  5 23  0  6 30.0000000  0 11G13G08G04G26G10G07G20G09G28G02G17
  18815870.34346  14650422.98745  25024036.5214   25024042.3744   25024038.180
        39.0004         34.0004
 -26065852.52348 -20270071.24148  19991490.1894   19991496.5164   19991490.328
        53.0004         49.0004
 -27450357.85248 -21335587.57648  20563897.0764   20563903.4374   20563896.910
        53.0004         48.0004
  -2335682.70047  -1795859.57546  24068221.9764   24068233.3814   24068221.362
        42.0004         38.0004
 -13038738.16147 -10153400.78946  23218346.6624   23218354.3154   23218346.785
        45.0004         41.0004
 -17087392.60648 -13310466.43547  21318838.1114   21318843.8634   21318838.024
        51.0004         46.0004
 -10061800.47746  -7821988.80145  23885795.7094   23885804.7134   23885793.511
        39.0004         34.0004
   -883324.96849   -684962.72248  20049076.6104   20049082.6024   20049076.814
        54.0004         50.0004
  -9828995.38647  -7631514.13747  22903103.3124   22903111.4664   22903103.278
        46.0004         42.0004
 -10119772.69347  -7832365.06847  22890447.3294   22890452.3654   22890447.918
        46.0004         42.0004
  -9991970.81847  -7732168.86047  23169957.2454   23169966.2144   23169956.684
        47.0004         43.0004
 14  5 23  0  7  0.0000000  0 11G13G08G04G26G10G07G20G09G28G02G17
  18872532.96946  14694575.81145  25034820.8284   25034827.2944   25034820.234
        39.0004         34.0004
 -26038426.09448 -20248699.95448  19996708.8014   19996715.4744   19996709.340
        53.0004         49.0004
 -27489412.57448 -21366019.77648  20556464.9194   20556471.3304   20556464.467
        53.0004         48.0004
  -2329460.65247  -1791011.11146  24069404.4654   24069417.5784   24069405.326
        42.0004         38.0004
 -13107150.40047 -10206708.86646  23205327.0604   23205334.7554   23205327.976
        45.0004         41.0004
 -17007359.74148 -13248103.14447  21334067.6414   21334073.2894   21334067.307
        51.0004         46.0004
 -10031384.22346  -7798287.79845  23891579.7064   23891590.3184   23891580.543
        39.0004         35.0004
   -861699.91649   -668111.99148  20053191.7244   20053197.8094   20053191.947
        54.0004         49.0004
  -9887320.57847  -7676962.20346  22892003.5844   22892010.9914   22892004.267
        46.0004         41.0004
 -10196447.87747  -7892111.81247  22875856.4424   22875862.4844   22875857.279
        46.0004         42.0004
  -9951603.74247  -7700713.95447  23177639.2934   23177647.4974   23177638.679
        47.0004         43.0004
 14  5 23  0  7 30.0000000  0 11G13G08G04G26G10G07G20G09G28G02G17
  18928937.08646  14738527.21845  25045552.2324   25045558.5754   25045553.899
        39.0004         34.0004
 -26010353.09848 -20226824.85548  20002050.9794   20002057.5234   20002051.548
        53.0004         49.0004
 -27527938.42048 -21396039.86848  20549134.2424   20549140.0094   20549133.648
        53.0004         48.0004
  -2323026.85747  -1785997.61946  24070629.2604   24070641.8964   24070629.712
        42.0004         38.0004
 -13175679.40347 -10260107.93146  23192287.2944   23192294.8944   23192287.690
        45.0004         41.0004
 -16926936.45648 -13185435.63647  21349372.2194   21349377.8074   21349371.750
        51.0004         46.0004
 -10000640.59046  -7774331.73445  23897432.5114   23897442.3314   23897432.971
        39.0004         34.0004
   -839489.27849   -650804.95848  20057418.4474   20057424.1624   20057418.330
        54.0004         49.0004
  -9945707.75547  -7722458.58347  22880893.0224   22880900.7734   22880893.376
        46.0004         42.0004
 -10272805.40947  -7951611.04147  22861326.4884   22861332.5214   22861326.376
        46.0004         42.0004
  -9911336.04147  -7669336.47447  23185301.6624   23185310.6834   23185301.488
        47.0004         43.0004
 14  5 23  0  8  0.0000000  0 11G13G08G04G26G10G07G20G09G28G02G17
  18985086.33346  14782280.02045  25056237.5724   25056241.7544   25056236.865
        38.0004         34.0004
 -25981630.68648 -20204443.71348  20007516.8454   20007523.0014   20007517.216
        53.0004         49.0004
 -27565930.24648 -21425643.84048  20541904.1884   20541910.4954   20541903.666
        53.0004         48.0004
  -2316379.45947  -1780817.70846  24071894.0344   24071906.5384   24071894.290
        43.0004         38.0004
 -13244319.51347 -10313593.57446  23179224.9254   23179233.4864   23179225.646
        45.0004         41.0004
 -16846121.46548 -13122462.89547  21364751.0244   21364756.0684   21364750.047
        51.0004         46.0004
  -9969564.75046  -7750116.76145  23903344.0914   23903356.6634   23903345.465
        39.0004         35.0004
   -816690.26849   -633039.45648  20061756.9334   20061762.4644   20061756.999
        54.0004         50.0004
 -10004150.42547  -7767998.20247  22869770.9434   22869780.0434   22869772.015
        46.0004         42.0004
 -10348839.70047  -8010858.40247  22846857.2424   22846863.1744   22846857.706
        46.0004         42.0004
  -9871165.56147  -7638034.74547  23192946.0584   23192953.3314   23192945.423
        47.0004         43.0004
 14  5 23  0  8 30.0000000  0 11G13G08G04G26G10G07G20G09G28G02G17
  19040975.25946  14825829.99045  25066871.5704   25066884.2434   25066872.627
        38.0004         34.0004
 -25952265.47448 -20181561.69048  20013104.8624   20013111.2634   20013105.058
        53.0004         49.0004
 -27603392.08448 -21454834.83248  20534775.2984   20534781.5464   20534774.913
        53.0004         48.0004
  -2309525.91447  -1775477.14846  24073199.0624   24073210.3464   24073198.573
        43.0004         38.0004
 -13313074.30247 -10367168.58046  23166141.0034   23166148.9044   23166142.428
        45.0004         41.0004
 -16764922.79048 -13059191.17447  21380202.1324   21380207.6794   21380201.556
        51.0004         46.0004
  -9938161.56646  -7725646.75045  23909320.7024   23909333.3654   23909321.217
        39.0004         34.0004
   -793309.08149   -614820.30348  20066206.2594   20066211.6824   20066206.159
        54.0004         49.0004
 -10062651.41147  -7813583.25647  22858641.2714   22858648.1194   22858639.452
        46.0004         42.0004
 -10424553.95347  -8069856.37247  22832449.0914   22832455.1014   22832450.149
        46.0004         42.0004
  -9831098.90647  -7606813.94147  23200570.3134   23200579.9384   23200569.210
        47.0004         42.0004
 14  5 23  0  9  0.0000000  0 11G13G08G04G26G10G07G20G09G28G02G17
                  14869172.76445                  25077464.1244   25077457.623
                        33.0004
 -25922263.35048 -20158183.37548  20018813.9934   20018820.1604   20018814.222
        53.0004         49.0004
 -27640327.65648 -21483615.74048  20527746.8084   20527752.8954   20527746.278
        53.0004         48.0004
  -2302472.85247  -1769981.11246  24074540.5704   24074552.5334   24074540.153
        43.0004         38.0004
 -13381946.34947 -10420834.95346  23153035.8914   23153043.5374   23153036.119
        46.0004         41.0004
 -16683348.37448 -12995626.67547  21395725.1814   21395730.6014   21395724.752
        51.0004         46.0004
  -9906434.54446  -7700924.37745  23915359.1734   23915373.1004   23915358.526
        39.0004         34.0004
   -769352.04849   -596152.43948  20070765.0634   20070770.7494   20070764.737
        54.0004         49.0004
 -10121212.96947  -7859215.50547  22847495.4014   22847502.4664   22847495.507
        46.0004         42.0004
 -10499950.78747  -8128607.00747  22818101.4834   22818107.2584   22818100.896
        47.0004         42.0004
  -9791143.31247  -7575679.65947  23208173.1854   23208182.6244   23208172.494
        47.0004         42.0004
 14  5 23  0  9 30.0000000  0 11G13G08G04G26G10G07G20G09G28G02G17
  19151968.51946  14912318.60345  25087994.5784   25088002.0624   25087993.497
        38.0004         33.0004
 -25891612.09648 -20134299.24248  20024646.7124   20024652.5644   20024647.071
        53.0004         49.0004
 -27676722.25248 -21511975.10448  20520821.0054   20520826.8954   20520820.653
        53.0004         48.0004
  -2295209.00547  -1764320.82746  24075922.8224   24075934.2494   24075922.800
        43.0004         38.0004
 -13450920.40147 -10474580.80946  23139911.1084   23139918.3334   23139910.748
        46.0004         41.0004
 -16601387.47948 -12931761.01447  21411321.9824   21411326.8244   21411321.370
        51.0004         46.0004
  -9874369.81246  -7675938.86245  23921460.7954   23921473.1044   23921461.114
        39.0004         35.0004
   -744807.00749   -577026.39048  20075435.7814   20075441.3614   20075435.728
        54.0004         50.0004
 -10179819.28347  -7904882.61647  22836341.7244   22836350.3904   22836342.913
        46.0004         42.0004
 -10575015.18847  -8187098.60347  22803817.6704   22803823.1134   22803816.848
        47.0004         42.0004
  -9751286.65647  -7544622.47147  23215758.8054   23215766.2924   23215757.359
        47.0004         43.0004
 14  5 23  0 10  0.0000000  0 11G13G08G04G26G10G07G20G09G28G02G17
  19207077.52746  14955260.86245  25098483.7244   25098485.6724   25098480.123
        38.0004         33.0004
 -25860321.04148 -20109916.56448  20030601.3554   20030607.2804   20030601.641
        53.0004         49.0004
 -27712583.04848 -21539918.51848  20513996.8234   20514003.0354   20513996.469
        53.0004         48.0004
  -2287744.73847  -1758504.36946  24077342.7834   24077354.6914   24077342.899
        43.0004         38.0004
 -13520002.73147 -10528411.04246  23126764.7984   23126771.9174   23126764.764
        46.0004         41.0004
 -16519050.99448 -12867602.68947  21426989.8404   21426995.2394   21426989.582
        51.0004         46.0004
  -9841975.14246  -7650696.24545  23927624.9004   23927634.9874   23927625.301
        39.0004         34.0004
   -719683.73149   -557449.76748  20080216.5224   20080221.9254   20080216.400
        54.0004         50.0004
 -10238476.14247  -7950589.11347  22825180.6734   22825190.1954   22825180.997
        46.0004         42.0004
 -10649752.65347  -8245335.43247  22789594.8414   22789600.4644   22789595.479
        47.0004         42.0004
  -9711539.07547  -7513650.27147  23223321.1714   23223331.2034   23223321.081
        47.0004         43.0004
 14  5 23  0 10 30.0000000  0 11G13G08G04G26G10G07G20G09G28G02G17
  19261925.27946  14997999.58745  25108918.0174   25108923.5404   25108918.120
        38.0004         33.0004
 -25828390.95548 -20085035.93848  20036676.9354   20036682.9464   20036677.436
        53.0004         49.0004
 -27747908.41848 -21567444.71748  20507274.5294   20507280.7334   20507274.315
        53.0004         48.0004
  -2280081.42447  -1752532.81446  24078802.1604   24078812.5654   24078800.933
        43.0004         38.0004
 -13589190.50347 -10582323.43346  23113598.3974   23113606.0004   23113598.383
        46.0004         41.0004
 -16436341.23948 -12803153.49247  21442729.4544   21442734.7404   21442728.578
        51.0004         46.0004
  -9809248.82046  -7625195.21645  23933853.9954   23933860.8394   23933853.740
        39.0004         35.0004
   -693982.78649   -537423.01348  20085106.8364   20085112.9944   20085107.364
        54.0004         50.0004
 -10297180.52347  -7996332.63947  22814010.4744   22814016.8194   22814009.736
        46.0004         42.0004
 -10724160.83947  -8303315.67947  22775435.2894   22775440.8684   22775435.986
        47.0004         42.0004
  -9671901.37147  -7482763.69847  23230864.7024   23230873.3794   23230863.610
        47.0004         42.0004
 14  5 23  0 11  0.0000000  0 11G13G08G04G26G10G07G20G09G28G02G17
  19316511.45846  15040534.48745  25119303.3914   25119317.1704   25119305.894
        37.0004         33.0004
 -25795823.40848 -20059658.59348  20042874.7674   20042880.4984   20042874.878
        53.0004         49.0004
 -27782697.32048 -21594552.89348  20500654.6604   20500660.9934   20500654.249
        53.0004         48.0004
  -2272221.42847  -1746407.98246  24080296.2694   24080309.0434   24080297.134
        43.0004         38.0004
 -13658482.16047 -10636316.77546  23100413.4064   23100420.2574   23100413.381
        46.0004         41.0004
 -16353261.25448 -12738415.81647  21458538.8274   21458543.8984   21458538.150
        51.0004         46.0004
  -9776190.71346  -7599435.61545  23940143.7174   23940154.9164   23940142.824
        39.0004         34.0004
   -667705.69749   -516947.31748  20090107.4814   20090113.3724   20090107.325
        54.0004         50.0004
 -10355930.09247  -8042111.38147  22802829.8594   22802836.8394   22802829.758
        46.0004         42.0004
 -10798237.74347  -8361037.79947  22761338.5874   22761344.6394   22761339.048
        47.0004         42.0004
  -9632375.91747  -7451964.59447  23238386.8154   23238394.5754   23238385.276
        47.0004         43.0004
 14  5 23  0 11 30.0000000  0 11G13G08G04G26G10G07G20G09G28G02G17
  19370836.02646  15082865.49445  25129641.5304   25129649.1364   25129642.647
        38.0004         33.0004
 -25762619.58048 -20033785.43948  20049192.6344   20049198.9994   20049193.364
        53.0004         49.0004
 -27816948.58348 -21621242.12448  20494136.5944   20494143.0244   20494136.040
        53.0004         48.0004
  -2264166.78747  -1740131.48046  24081828.3834   24081841.2714   24081828.685
        43.0004         38.0004
 -13727875.77347 -10690389.56546  23087206.7304   23087214.8234   23087207.054
        46.0004         41.0004
 -16269813.96148 -12673391.91947  21474418.2504   21474422.5914   21474417.610
        51.0004         46.0004
  -9742799.91346  -7573416.82545  23946495.6574   23946508.1984   23946497.828
        40.0004         35.0004
   -640853.80549   -496023.72248  20095217.2014   20095223.0714   20095217.290
        54.0004         50.0004
 -10414722.37547  -8087923.41047  22791642.0944   22791649.8064   22791642.232
        46.0004         42.0004
 -10871982.05347  -8418500.73647  22747305.3814   22747311.8444   22747306.975
        47.0004         42.0004
  -9592964.15947  -7421254.07947  23245885.3824   23245894.2914   23245884.975
        47.0004         43.0004
 14  5 23  0 12  0.0000000  0 11G13G08G04G26G10G07G20G09G28G02G17
  19424898.04346  15124991.95145  25139929.2554   25139934.1844   25139928.968
        38.0004         33.0004
 -25728780.84548 -20007417.55848  20055632.5874   20055638.4434   20055632.699
        53.0004         49.0004
 -27850661.61748 -21647511.95948  20487721.4744   20487727.4074   20487721.216
        53.0004         48.0004
  -2255919.64947  -1733704.98646  24083398.8524   24083410.6374   24083398.870
        43.0004         38.0004
 -13797369.31347 -10744540.21746  23073982.8174   23073989.9014   23073983.123
        46.0004         41.0004
 -16186002.07748 -12608083.92447  21490367.2794   21490372.2634   21490366.220
        50.0004         46.0004
  -9709076.10546  -7547138.52045  23952913.5544   23952923.6354   23952915.672
        40.0004         35.0004
   -613428.93549   -474653.64448  20100435.7834   20100441.9944   20100435.780
        54.0004         50.0004
 -10473554.93447  -8133766.81947  22780446.4214   22780454.4334   22780446.670
        47.0004         42.0004
 -10945391.64847  -8475702.87147  22733336.2344   22733341.5644   22733335.947
        47.0004         42.0004
  -9553667.79347  -7390633.48147  23253363.4184   23253371.3844   23253362.876
        47.0004         42.0004
 14  5 23  0 12 30.0000000  0 11G13G08G04G26G10G07G20G09G28G02G17
  19478697.59446  15166913.87245  25150164.6244   25150170.1054   25150167.492
        37.0004         33.0004
 -25694308.54648 -19980555.98948  20062192.2614   20062198.1284   20062192.507
        53.0004         49.0004
 -27883835.04248 -21673361.32048  20481408.0944   20481414.6124   20481408.065
        53.0004         48.0004
  -2247482.19647  -1727130.17846  24085005.0394   24085015.8144   24085003.888
        42.0004         38.0004
 -13866960.77547 -10798767.15246  23060739.7224   23060747.6694   23060740.157
        46.0004         41.0004
 -16101828.44948 -12542494.04547  21506384.5554   21506390.2284   21506384.063
        50.0004         46.0004
  -9675018.75746  -7520600.28745  23959395.8914   23959407.2074   23959396.426
        40.0004         35.0004
   -585432.27549   -452838.02748  20105763.4024   20105769.6364   20105763.513
        54.0004         50.0004
 -10532424.88647  -8179639.35947  22769244.2354   22769250.7784   22769243.852
        46.0004         42.0004
 -11018464.52747  -8532642.62247  22719430.8944   22719435.1254   22719431.093
        47.0004         42.0004
  -9514488.46547  -7360104.07747  23260818.7214   23260827.7004   23260818.257
        47.0004         43.0004
 14  5 23  0 13  0.0000000  0 11G13G08G04G26G10G07G20G09G28G02G17
  19532234.24846  15208630.93845  25160355.9294   25160360.7704   25160354.557
        37.0004         32.0004
 -25659204.00248 -19953201.76048  20068872.0934   20068878.4464   20068872.545
        53.0004         49.0004
 -27916467.98148 -21698789.52048  20475198.3844   20475204.9704   20475198.248
        53.0004         48.0004
  -2238856.25347  -1720408.48846  24086644.6534   24086658.5964   24086644.589
        42.0004         38.0004
 -13936648.07747 -10853068.78446  23047478.5554   23047485.9904   23047479.024
        46.0004         41.0004
 -16017296.12948 -12476624.66047  21522470.5784   21522475.7234   21522469.862
        50.0004         46.0004
  -9640626.39946  -7493801.04445  23965940.7204   23965950.2714   23965940.811
        39.0004         35.0004
   -556865.24349   -430577.95648  20111199.5354   20111205.4554   20111199.485
        54.0004         50.0004
 -10591329.87247  -8225539.21947  22758035.3224   22758042.3694   22758035.057
        46.0004         42.0004
 -11091198.35847  -8589318.17447  22705589.4224   22705595.7494   22705589.962
        47.0004         42.0004
  -9475427.85647  -7329667.18947  23268251.3214   23268260.4084   23268251.502
        47.0004         43.0004
 14  5 23  0 13 30.0000000  0 11G13G08G04G26G10G07G20G09G28G02G17
  19585507.63146  15250142.82645  25170493.2494   25170498.2274   25170493.127
        37.0004         33.0004
 -25623468.59048 -19925355.94948  20075672.7984   20075678.5634   20075672.947
        53.0004         49.0004
 -27948559.21948 -21723795.61948  20469091.8504   20469098.1024   20469091.357
        53.0004         48.0004
  -2230043.96847  -1713541.61646  24088321.6264   24088332.9024   24088322.086
        42.0004         38.0004
 -14006429.05947 -10907443.42146  23034199.3544   23034206.6434   23034200.349
        46.0004         41.0004
 -15932407.94848 -12410477.96747  21538623.6594   21538629.6754   21538623.666
        50.0004         46.0004
  -9605899.50046  -7466741.09245  23972548.0674   23972561.2954   23972548.973
        39.0004         35.0004
   -527729.23549   -407874.53148  20116743.8864   20116749.9534   20116744.169
        54.0004         50.0004
 -10650267.15247  -8271464.23447  22746818.3934   22746825.1314   22746819.157
        46.0004         42.0004
 -11163591.32647  -8645728.14447  22691814.0014   22691819.6294   22691814.205
        47.0004         42.0004
  -9436487.51747  -7299324.02347  23275662.2254   23275670.0004   23275661.578
        47.0004         43.0004
 14  5 23  0 14  0.0000000  0 11G13G08G04G26G10G07G20G09G28G02G17
  19638517.67546  15291449.50845  25180579.0694   25180585.1444   25180581.047
        37.0004         32.0004
 -25587104.14648 -19897019.98148  20082592.5134   20082598.2024   20082592.814
        53.0004         48.0004
 -27980108.32048 -21748379.27548  20463088.1684   20463094.1284   20463087.827
        53.0004         48.0004
  -2221047.77147  -1706531.42646  24090034.3444   24090046.1744   24090034.475
        42.0004         38.0004
 -14076301.85347 -10961889.58546  23020902.5634   23020910.4734   23020903.129
        46.0004         41.0004
 -15847166.88648 -12344056.31647  21554845.0274   21554850.6054   21554844.321
        50.0004         46.0004
  -9570836.70346  -7439419.44545  23979221.2714   23979231.2294   23979219.641
        39.0004         35.0004
   -498026.15949   -384729.23548  20122396.2724   20122401.8464   20122396.146
        54.0004         50.0004
 -10709234.61047  -8317412.76947  22735596.8344   22735605.2654   22735598.000
        47.0004         42.0004
 -11235641.70547  -8701871.13947  22678102.9584   22678109.6164   22678103.143
        47.0004         42.0004
  -9397669.36547  -7269076.06047  23283048.6724   23283058.1574   23283047.736
        47.0004         42.0004
 14  5 23  0 14 30.0000000  0 11G13G08G04G26G10G07G20G09G28G02G17
  19691261.50146  15332548.69045  25190618.6534   25190620.9904   25190616.197
        37.0004         33.0004
 -25550114.36548 -19868196.73848  20089631.5844   20089637.5714   20089631.625
        53.0004         48.0004
 -28011116.42348 -21772541.38048  20457187.7614   20457193.5664   20457187.363
        53.0004         48.0004
  -2211871.80547  -1699381.15746  24091781.0694   24091791.8264   24091779.851
        42.0004         38.0004
 -14146266.25447 -11016407.13946  23007588.8594   23007597.2804   23007589.737
        46.0004         41.0004
 -15761577.80348 -12277363.48147  21571132.1404   21571137.4284   21571131.652
        50.0004         46.0004
  -9535439.92846  -7411837.49945  23985955.4944   23985963.0864   23985956.768
        39.0004         35.0004
   -467759.74249   -361144.97248  20128155.8194   20128161.4664   20128155.866
        54.0004         50.0004
 -10768231.74347  -8363384.41347  22724371.0824   22724377.4254   22724370.691
        46.0004         42.0004
 -11307350.08247  -8757747.64747  22664457.3034   22664462.2164   22664457.651
        47.0004         43.0004
  -9358976.89247  -7238926.02947  23290411.6724   23290420.2174   23290410.889
        47.0004         42.0004
 14  5 23  0 15  0.0000000  0 11G13G08G04G26G10G07G20G09G28G02G17
  18168322.63046                  25200599.7524                   25200603.181
        37.0004
 -25512497.03748 -19838884.49248  20096789.4674   20096795.5674   20096789.838
        53.0004         48.0004
 -28041579.26348 -21796278.59548  20451390.3654   20451397.0484   20451389.795
        53.0004         48.0004
  -2202514.76447  -1692089.78646  24093559.7114   24093573.1064   24093560.200
        42.0004         38.0004
 -14216316.91447 -11070991.90646  22994258.7724   22994266.1884   22994259.664
        46.0004         41.0004
 -15675640.26748 -12210399.11647  21587485.1124   21587490.7744   21587484.501
        50.0004         46.0004
  -9499705.05246  -7383992.13445  23992755.5514   23992767.1014   23992755.985
        39.0004         34.0004
   -436928.04249   -337120.22748  20134022.7124   20134028.4424   20134022.637
        54.0004         50.0004
 -10827252.52447  -8409374.48947  22713139.7224   22713147.4324   22713139.699
        47.0004         42.0004
 -11378710.94447  -8813353.36447  22650877.6734   22650883.1204   22650878.136
        47.0004         42.0004
  -9320408.48347  -7208872.67847  23297751.0864   23297760.4484   23297750.374
        47.0004         43.0004
 14  5 23  0 15 30.0000000  0 11G13G08G04G26G10G07G20G09G28G02G17
                  14186530.95445                  25210549.9154   25210538.589
                        32.0004
 -25474256.19448 -19809086.39448  20104066.6834   20104072.2654   20104066.976
        53.0004         48.0004
 -28071498.11448 -21819591.92948  20445697.5654   20445703.2534   20445697.221
        53.0004         48.0004
  -2192981.26947  -1684660.93246  24095374.7764   24095387.0674   24095373.891
        42.0004         38.0004
 -14286454.29247 -11125644.24446  22980911.3524   22980919.7704   22980912.080
        46.0004         41.0004
 -15589359.49048 -12143167.30147  21603903.9974   21603909.6194   21603903.747
        50.0004         45.0004
  -9463634.42846  -7355885.16145  23999620.7124   23999631.8144   23999620.647
        39.0004         35.0004
   -405535.07249   -312658.13148  20139996.5624   20140002.4814   20139996.658
        54.0004         50.0004
 -10886296.68047  -8455382.79547  22701903.6974   22701909.6844   22701903.544
        47.0004         42.0004
 -11449724.78947  -8868688.68747  22637364.2164   22637368.9104   22637364.582
        47.0004         43.0004
  -9281968.32447  -7178919.25747  23305066.3604   23305074.4344   23305065.316
        47.0004         43.0004
 14  5 23  0 16  0.0000000  0 10G08G04G26G10G07G20G09G28G02G17
 -25435393.60648 -19778803.81548  20111461.8364   20111467.9914   20111462.005
        53.0004         48.0004
 -28100872.10648 -21842480.69148  20440107.6594   20440113.3524   20440106.875
        53.0004         49.0004
  -2183273.19547  -1677096.03546  24097221.8894   24097233.1554   24097221.635
        42.0004         38.0004
 -14356676.07447 -11180362.34346  22967548.1834   22967556.5554   22967549.471
        46.0004         41.0004
 -15502738.47348 -12075670.35847  21620386.8334   21620392.6814   21620386.412
        50.0004         45.0004
  -9427227.06246  -7327515.76345  24006546.9204   24006559.4984   24006549.133
        39.0004         34.0004
   -373582.32049   -287759.84048  20146077.2284   20146082.7224   20146077.255
        54.0004         50.0004
 -10945361.16047  -8501406.93947  22690664.5064   22690670.9204   22690663.955
        47.0004         42.0004
 -11520389.52247  -8923751.97847  22623917.4164   22623922.2624   22623916.837
        47.0004         43.0004
  -9243657.61047  -7149066.69947  23312357.0804   23312364.4364   23312355.675
        47.0004         43.0004
 14  5 23  0 16 30.0000000  0 10G08G04G26G10G07G20G09G28G02G17
 -25395908.83548 -19748036.42248  20118975.5544   20118981.5354   20118975.808
        53.0004         48.0004
 -28129698.75348 -21864942.95548  20434622.2534   20434628.4534   20434621.719
        53.0004         49.0004
  -2173391.06147  -1669395.50346  24099102.1944   24099113.6884   24099102.109
        42.0004         38.0004
 -14426978.52547 -11235143.31846  22954170.6654   22954177.3054   22954171.091
        46.0004         41.0004
 -15415778.28448 -12007909.11747  21636935.0114   21636940.7334   21636934.467
        50.0004         45.0004
  -9390480.91246  -7298882.37445  24013541.5174   24013552.2474   24013542.314
        39.0004         34.0004
   -341069.56949   -262425.18248  20152263.9384   20152269.6774   20152263.860
        54.0004         50.0004
 -11004442.06047  -8547443.86547  22679421.3474   22679427.4384   22679421.324
        47.0004         42.0004
 -11590701.84847  -8978540.66647  22610537.0534   22610541.6194   22610536.719
        47.0004         43.0004
  -9205476.11647  -7119314.84547  23319621.4284   23319630.1644   23319621.172
        47.0004         42.0004
 14  5 23  0 17  0.0000000  0 10G08G04G26G10G07G20G09G28G02G17
 -25355806.59248 -19716787.88248  20126607.0964   20126612.8774   20126606.860
        53.0004         48.0004
 -28157980.44248 -21886980.57848  20429239.9074   20429245.7884   20429239.552
        53.0004         49.0004
  -2163340.12347  -1661563.44246  24101013.4934   24101026.7794   24101014.009
        43.0004         38.0004
 -14497362.51547 -11289987.82447  22940776.5794   22940785.5044   22940777.601
        46.0004         42.0004
 -15328484.98348 -11939888.30647  21653545.8464   21653551.7314   21653546.498
        50.0004         45.0004
  -9353398.50546  -7269987.00645  24020597.6654   24020608.9964   24020598.241
        39.0004         35.0004
   -308001.75549   -236658.01148  20158556.7684   20158562.2644   20158556.537
        54.0004         50.0004
 -11063539.91547  -8593494.01547  22668174.5844   22668182.5764   22668174.738
        47.0004         42.0004
 -11660662.55747  -9033055.37247  22597222.9584   22597229.1834   22597223.860
        47.0004         43.0004
  -9167428.88847  -7089667.60147  23326862.4634   23326870.1254   23326861.722
        47.0004         42.0004
 14  5 23  0 17 30.0000000  0 10G08G04G26G10G07G20G09G28G02G17
 -25315085.49348 -19685057.11348  20134355.6384   20134361.5614   20134355.993
        53.0004         48.0004
 -28185713.38448 -21908590.60348  20423962.9604   20423968.6104   20423962.235
        53.0004         49.0004
  -2153119.40547  -1653599.07246  24102959.1254   24102970.5054   24102959.822
        42.0004         38.0004
 -14567822.92147 -11344891.86747  22927368.5674   22927376.3734   22927369.426
        46.0004         42.0004
 -15240858.40148 -11871607.79247  21670220.5454   21670226.9234   21670220.453
        50.0004         45.0004
  -9315976.12946  -7240826.69945  24027718.8964   24027732.1154   24027719.268
        39.0004         34.0004
   -274377.69949   -210457.40148  20164954.7974   20164960.3724   20164954.980
        54.0004         50.0004
 -11122649.12547  -8639553.01047  22656926.8954   22656933.0364   22656926.699
        47.0004         42.0004
 -11730266.94448  -9087292.42347  22583978.5074   22583982.6804   22583978.438
        48.0004         43.0004
  -9129514.26247  -7060123.69147  23334076.3104   23334084.3824   23334076.071
        47.0004         42.0004
 14  5 23  0 18  0.0000000  0 10G08G04G26G10G07G20G09G28G02G17
 -25273748.66748 -19652846.55848  20142221.5864   20142227.5214   20142221.887
        53.0004         48.0004
 -28212897.96648 -21929773.34248  20418789.4024   20418795.4754   20418789.157
        53.0004         49.0004
  -2142732.34147  -1645505.08046  24104935.9114   24104947.3914   24104934.974
        42.0004         38.0004
 -14638358.51347 -11399854.49547  22913945.9924   22913954.0904   22913946.248
        46.0004         42.0004
 -15152902.79248 -11803070.90247  21686958.7214   21686964.2224   21686958.299
        50.0004         45.0004
  -9278214.81146  -7211402.28445  24034903.7774   24034916.4134   24034904.325
        39.0004         34.0004
   -240200.41149   -183825.70248  20171458.4984   20171464.1954   20171458.386
        54.0004         50.0004
 -11181768.34547  -8685619.80747  22645675.1434   22645683.9444   22645676.644
        47.0004         42.0004
 -11799514.65948  -9141251.55147  22570801.5414   22570806.1814   22570801.404
        48.0004         43.0004
  -9091734.95047  -7030685.19947  23341265.8494   23341273.3284   23341265.004
        47.0004         42.0004
 14  5 23  0 18 30.0000000  0 10G08G04G26G10G07G20G09G28G02G17
 -25231799.81848 -19620159.10048  20150204.6144   20150210.3504   20150204.508
        53.0004         48.0004
 -28239535.46048 -21950529.77148  20413720.5714   20413726.3394   20413719.912
        53.0004         49.0004
  -2132183.09647  -1637284.71646  24106944.1694   24106955.7434   24106943.970
        42.0004         37.0004
 -14708969.16847 -11454875.62547  22900510.3204   22900516.6304   22900509.932
        46.0004         42.0004
 -15064623.08748 -11734281.46547  21703757.3534   21703762.6874   21703757.329
        50.0004         45.0004
  -9240115.98546  -7181714.89045  24042154.5294   24042168.4644   24042155.591
        39.0004         34.0004
   -205473.71749   -156765.89448  20178066.6494   20178072.8914   20178066.864
        54.0004         50.0004
 -11240896.62747  -8731693.66747  22634424.8864   22634431.0804   22634424.615
        47.0004         42.0004
 -11868405.54448  -9194932.62647  22557691.0464   22557696.5664   22557691.812
        48.0004         43.0004
  -9054094.56647  -7001354.98447  23348428.0464   23348436.9534   23348428.061
        47.0004         42.0004
 14  5 23  0 19  0.0000000  0 10G08G04G26G10G07G20G09G28G02G17
 -25189237.23548 -19586993.40348  20158303.8674   20158309.5304   20158303.935
        53.0004         48.0004
 -28265621.64348 -21970856.61648  20408756.3284   20408762.0344   20408756.251
        53.0004         49.0004
  -2121470.25847  -1628936.88246  24108980.7164   24108992.2674   24108980.522
        42.0004         38.0004
 -14779649.46447 -11509951.02147  22887058.5614   22887066.7654   22887059.803
        46.0004         42.0004
 -14976018.53448 -11665238.88947  21720618.7314   21720623.7454   21720618.225
        50.0004         45.0004
  -9201675.59246  -7151761.34045  24049470.4654   24049478.3974   24049469.716
        39.0004         34.0004
   -170195.75749   -129276.52448  20184779.8804   20184785.3824   20184779.807
        54.0004         50.0004
 -11300027.71847  -8777769.72947  22623172.8944   22623179.2664   22623172.181
        47.0004         42.0004
 -11936934.64948  -9248331.79747  22544650.5474   22544655.8214   22544649.758
        48.0004         43.0004
  -9016591.27347  -6972131.58147  23355565.0414   23355572.9944   23355564.686
        47.0004         42.0004
 14  5 23  0 19 30.0000000  0 10G08G04G26G10G07G20G09G28G02G17
 -25146064.82048 -19553352.51848  20166519.2374   20166524.8574   20166519.301
        53.0004         48.0004
 -28291158.21148 -21990755.18648  20403896.9624   20403902.6724   20403896.534
        53.0004         49.0004
  -2110598.22447  -1620465.00546  24111049.0574   24111061.7914   24111050.328
        42.0004         37.0004
 -14850399.45147 -11565080.72547  22873595.9324   22873603.6254   22873596.513
        46.0004         42.0004
 -14887094.66048 -11595947.49447  21737539.4944   21737545.8784   21737539.745
        50.0004         45.0004
  -9162895.84146  -7121543.32945  24056847.4604   24056860.9734   24056849.612
        39.0004         34.0004
   -134370.47449   -101360.67248  20191597.1724   20191602.9844   20191597.300
        54.0004         50.0004
 -11359161.36047  -8823847.77647  22611919.2764   22611926.7284   22611920.022
        47.0004         42.0004
 -12005102.31748  -9301449.33547  22531677.8474   22531684.2604   22531679.121
        48.0004         43.0004
  -8979228.55647  -6943017.72647  23362674.7304   23362683.2974   23362674.796
        47.0004         42.0004
 14  5 23  0 20  0.0000000  0 10G08G04G26G10G07G20G09G28G02G17
 -25102285.82948 -19519238.97448  20174850.1124   20174855.6664   20174850.351
        53.0004         48.0004
 -28316145.83848 -22010226.00748  20399142.0954   20399147.6614   20399141.692
        53.0004         49.0004
  -2099570.56047  -1611871.88546  24113149.2854   24113160.3964   24113148.522
        42.0004         37.0004
 -14921218.06147 -11620263.89547  22860118.9484   22860127.0514   22860120.485
        47.0004         42.0004
 -14797855.58248 -11526410.48747  21754521.4574   21754527.3304   21754521.310
        50.0004         45.0004
  -9123777.69246  -7091061.66145  24064293.9364   24064302.8594   24064292.469
        39.0004         34.0004
    -98001.07049    -73020.82348  20198517.8234   20198523.7634   20198517.736
        54.0004         50.0004
 -11418296.36747  -8869926.88847  22600666.5124   22600673.5384   22600666.640
        47.0004         43.0004
 -12072908.33148  -9354285.06347  22518774.2064   22518779.4824   22518775.119
        48.0004         43.0004
  -8942009.32247  -6914015.67247  23369757.9314   23369765.8034   23369756.958
        47.0004         42.0004
 14  5 23  0 20 30.0000000  0 10G08G04G26G10G07G20G09G28G02G17
 -25057898.86748 -19484651.68648  20183296.2014   20183302.4134   20183296.598
        53.0004         48.0004
 -28340580.67548 -22029266.08548  20394492.3314   20394498.2834   20394491.728
        53.0004         49.0004
  -2088386.21747  -1603156.66446  24115276.6824   24115287.7244   24115277.333
        42.0004         38.0004
 -14992100.15947 -11675496.55047  22846630.0724   22846638.1804   22846631.471
        47.0004         42.0004
 -14708301.00248 -11456627.63547  21771563.1194   21771568.8054   21771562.679
        49.0004         45.0004
  -9084317.49646  -7060313.47045  24071801.0644   24071812.6844   24071802.927
        39.0004         34.0004
    -61085.94549    -44255.74548  20205542.7984   20205548.0554   20205542.854
        54.0004         50.0004
 -11477426.71847  -8916002.37047  22589414.8444   22589422.2174   22589414.600
        47.0004         43.0004
 -12140347.25448  -9406834.76347  22505941.1104   22505948.2924   22505942.233
        48.0004         43.0004
  -8904931.80447  -6885124.05247  23376812.8734   23376821.9554   23376812.571
        47.0004         43.0004
 14  5 23  0 21  0.0000000  0 10G08G04G26G10G07G20G09G28G02G17
 -25012908.65448 -19449594.33148  20191857.8464   20191863.6324   20191858.050
        53.0004         48.0004
 -28364465.25848 -22047877.39248  20389946.9974   20389952.8934   20389946.556
        53.0004         49.0004
  -2077050.36347  -1594323.38246  24117433.8114   24117444.5904   24117433.772
        42.0004         38.0004
 -15063046.47147 -11730779.23947  22833130.1324   22833138.1494   22833130.172
        47.0004         42.0004
 -14618436.96248 -11386603.64647  21788663.8524   21788669.0714   21788663.433
        49.0004         45.0004
  -9044517.44746  -7029300.42045  24079377.0744   24079387.3044   24079375.686
        39.0004         34.0004
    -23630.30649    -15069.47848  20212670.3674   20212676.2054   20212670.427
        54.0004         50.0004
 -11536552.56647  -8962074.34147  22578161.6214   22578170.0004   22578163.254
        47.0004         43.0004
 -12207420.66048  -9459099.62647  22493179.3914   22493182.6944   22493178.736
        48.0004         43.0004
  -8868000.62047  -6856346.45147  23383840.2864   23383849.0104   23383840.263
        47.0004         42.0004
 14  5 23  0 21 30.0000000  0 10G08G04G26G10G07G20G09G28G02G17
 -24967314.53548 -19414066.40248  20200533.9924   20200539.5304   20200534.184
        53.0004         48.0004
 -28387796.69848 -22066057.68248  20385507.0214   20385513.1514   20385506.867
        53.0004         49.0004
  -2065562.87147  -1585371.93246  24119619.3374   24119631.2994   24119619.801
        42.0004         38.0004
 -15134052.09047 -11786108.14347  22819617.0254   22819625.7374   22819618.521
        46.0004         42.0004
 -14528264.17748 -11316339.07447  21805823.5464   21805827.8294   21805822.715
        49.0004         45.0004
  -9004375.33646  -6998020.87545  24087012.5444   24087022.3754   24087014.797
        39.0004         34.0004
     14366.43649     14538.41648  20219900.8634   20219906.5854   20219900.784
        54.0004         50.0004
 -11595669.11347  -9008139.06647  22566913.1344   22566919.3694   22566913.821
        47.0004         43.0004
 -12274124.47948  -9511076.50547  22480485.0904   22480490.0244   22480485.011
        48.0004         43.0004
  -8831214.90147  -6827682.20447  23390840.8044   23390849.3444   23390840.718
        47.0004         43.0004
 14  5 23  0 22  0.0000000  0 10G08G04G26G10G07G20G09G28G02G17
 -24921120.65948 -19378071.12648  20209324.4554   20209330.0884   20209324.562
        53.0004         48.0004
 -28410576.17348 -22083807.86548  20381171.9934   20381178.5464   20381171.886
        53.0004         49.0004
  -2053927.62447  -1576305.34346  24121834.3324   24121844.2584   24121833.781
        42.0004         38.0004
 -15205116.63847 -11841482.96147  22806094.6534   22806101.1494   22806095.300
        46.0004         42.0004
 -14437787.17548 -11245837.45247  21823040.3744   21823045.0744   21823039.622
        49.0004         45.0004
  -8963892.52746  -6966475.82545  24094718.6924   24094729.0064   24094717.271
        39.0004         34.0004
     52900.46149     44564.98548  20227233.5404   20227239.2274   20227233.601
        54.0004         50.0004
 -11654775.28347  -9054195.69247  22555665.8544   22555672.2064   22555665.798
        47.0004         43.0004
 -12340458.68348  -9562765.37247  22467861.7724   22467867.0134   22467862.136
        48.0004         43.0004
  -8794577.86447  -6799133.79347  23397812.7614   23397820.9654   23397812.197
        47.0004         42.0004
 14  5 23  0 22 30.0000000  0 10G08G04G26G10G07G20G09G28G02G17
 -24874327.20348 -19341608.64248  20218228.9024   20218235.0124   20218229.050
        53.0004         48.0004
 -28432801.40348 -22101126.17148  20376942.9944   20376948.4804   20376942.752
        53.0004         49.0004
  -2042145.04747  -1567123.92846  24124076.1794   24124087.8654   24124075.934
        42.0004         38.0004
 -15276236.21847 -11896900.67047  22792560.7154   22792567.5414   22792561.596
        46.0004         42.0004
 -14347007.22448 -11175099.76147  21840314.3004   21840320.6834   21840314.966
        49.0004         45.0004
  -8923067.03146  -6934663.74745  24102487.9274   24102497.6784   24102487.844
        39.0004         34.0004
     91971.62949     75010.10348  20234668.5114   20234674.2204   20234668.339
        54.0004         50.0004
 -11713866.63947  -9100240.78547  22544420.1054   22544427.7794   22544420.656
        47.0004         43.0004
 -12406419.84448  -9614163.54647  22455310.0934   22455314.7984   22455310.400
        48.0004         44.0004
  -8758089.24047  -6770701.04447  23404755.8614   23404763.8074   23404755.052
        47.0004         42.0004
 14  5 23  0 23  0.0000000  0 10G08G04G26G10G07G20G09G28G02G17
 -24826937.21248 -19304681.32948  20227247.3274   20227252.6334   20227247.414
        53.0004         48.0004
 -28454473.08048 -22118013.14248  20372818.5154   20372824.7174   20372818.219
        53.0004         49.0004
  -2030218.61347  -1557830.45546  24126345.9234   24126357.4014   24126345.338
        42.0004         38.0004
 -15347409.93547 -11952360.56847  22779016.5344   22779025.0624   22779017.122
        47.0004         42.0004
 -14255928.79648 -11104129.47347  21857647.0754   21857651.2444   21857645.856
        49.0004         45.0004
  -8881899.68946                  24110321.8054                   24110320.377
        39.0004
    131576.71049    105871.26248  20242205.1994   20242210.4524   20242205.205
        54.0004         50.0004
 -11772941.86347  -9146273.31847  22533179.0204   22533185.8854   22533179.224
        47.0004         43.0004
 -12472007.70648  -9665270.85447  22442827.3924   22442833.4774   22442828.997
        48.0004         44.0004
  -8721751.90947  -6742386.18247  23411670.4324   23411678.2554   23411670.240
        47.0004         42.0004
 14  5 23  0 23 30.0000000  0 10G08G04G26G10G07G20G09G28G02G17
 -24778956.19048 -19267293.47048  20236376.8064   20236383.0654   20236377.137
        53.0004         48.0004
 -28475594.40248 -22134471.25848  20368799.4544   20368805.2184   20368799.451
        53.0004         49.0004
  -2018153.97247  -1548429.28046  24128641.5274   24128652.2404   24128640.564
        43.0004         38.0004
 -15418638.91647 -12007863.51447  22765461.5204   22765468.7944   22765462.464
        46.0004         42.0004
 -14164558.05548 -11032931.42947  21875034.3234   21875039.0444   21875033.411
        49.0004         44.0004
  -8840393.66446  -6870242.96045  24118217.1174   24118226.8934   24118219.862
        39.0004         35.0004
    171710.18949    137144.16048  20249842.2074   20249847.8664   20249842.015
        54.0004         50.0004
 -11832001.55047  -9192293.72847  22521940.7394   22521945.9064   22521940.432
        47.0004         43.0004
 -12537223.96648  -9716088.59147  22430418.1034   22430423.5284   22430418.699
        48.0004         44.0004
  -8685570.02947  -6714192.44347  23418556.6024   23418563.8614   23418555.594
        47.0004         42.0004
 14  5 23  0 24  0.0000000  0 10G08G04G26G10G07G20G09G28G02G17
 -24730380.72548 -19229442.41348  20245620.8624   20245626.7964   20245621.332
        53.0004         48.0004
 -28496159.25148 -22150495.76648  20364886.1744   20364891.7414   20364885.657
        53.0004         49.0004
  -2005947.82147  -1538917.82746  24130964.8354   24130974.6134   24130964.074
        43.0004         38.0004
 -15489915.34747 -12063403.44647  22751898.2814   22751905.1734   22751899.072
        47.0004         42.0004
 -14072892.61448 -10961503.73347  21892477.3444   21892481.3654   21892476.347
        49.0004         44.0004
  -8798543.25446  -6837632.21745  24126182.1524   24126192.5214   24126182.492
        39.0004         34.0004
    212375.51849    168831.48348  20257580.5944   20257585.8884   20257580.585
        54.0004         50.0004
 -11891037.19347  -9238295.41847  22510706.0344   22510711.5624   22510706.424
        47.0004         43.0004
 -12602061.47648  -9766611.20347  22418079.6104   22418085.2644   22418079.994
        48.0004         44.0004
  -8649539.83847  -6686116.91347  23425412.2934   23425420.5314   23425411.817
        47.0004         42.0004
 14  5 23  0 24 30.0000000  0 10G08G04G26G10G07G20G09G28G02G17
 -24681215.25048 -19191131.60448  20254976.4994   20254982.6804   20254976.959
        53.0004         48.0004
 -28516169.54948 -22166088.15548  20361078.1124   20361083.9654   20361077.976
        53.0004         49.0004
  -1993604.59247  -1529299.56746  24133312.8664   24133323.1054   24133310.959
        43.0004         38.0004
 -15561239.30247 -12118980.40847  22738325.8034   22738332.7034   22738326.824
        47.0004         42.0004
 -13980937.61448 -10889850.41047  21909975.2684   21909980.8944   21909975.168
        49.0004         44.0004
  -8756350.42346  -6804754.73245  24134213.3214   24134223.4144   24134212.964
        39.0004         34.0004
    253568.53249    200929.99348  20265419.0574   20265424.7474   20265419.111
        54.0004         49.0004
 -11950048.80048  -9284278.37647  22499477.2154   22499482.1914   22499476.873
        48.0004         43.0004
 -12666520.76148  -9816839.10247  22405814.4224   22405817.8984   22405814.166
        48.0004         44.0004
  -8613665.52747  -6658162.84647  23432238.5664   23432246.4764   23432238.396
        47.0004         42.0004
 14  5 23  0 25  0.0000000  0 10G08G04G26G10G07G20G09G28G02G17
 -24631462.85848 -19152363.45548  20264443.8364   20264449.7814   20264444.413
        53.0004         48.0004
 -28535625.96648 -22181248.94348  20357375.6094   20357381.6094   20357375.362
        53.0004         49.0004
  -1981127.32747  -1519576.85046  24135687.4194   24135698.2604   24135686.914
        43.0004         38.0004
 -15632608.96147 -12174592.97547  22724745.4544   22724751.1564   22724745.356
        47.0004         42.0004
 -13888696.95048 -10817974.49847  21927528.3004   21927532.2974   21927527.674
        49.0004         44.0004
  -8713815.56046  -6771610.67745  24142307.6054   24142317.0284   24142307.111
        39.0004         34.0004
    295286.15649    233437.29048  20273357.6984   20273363.1664   20273357.722
        54.0004         50.0004
 -12009034.50448  -9330241.14347  22488251.9894   22488259.0354   22488252.138
        48.0004         43.0004
 -12730601.26948  -9866771.83847  22393619.8334   22393624.1264   22393620.153
        48.0004         44.0004
  -8577948.62447  -6630331.43747  23439035.9724   23439043.7544   23439034.988
        46.0004         42.0004
 14  5 23  0 25 30.0000000  0 10G08G04G26G10G07G20G09G28G02G17
 -24581123.07348 -19113137.60048  20274023.3894   20274029.3604   20274023.890
        53.0004         48.0004
 -28554525.75948 -22195976.00448  20353779.4744   20353784.8694   20353779.084
        53.0004         49.0004
  -1968516.08747  -1509749.76346  24138086.0844   24138096.1274   24138085.588
        43.0004         38.0004
 -15704019.90647 -12230237.72147  22711155.0254   22711161.6374   22711155.995
        47.0004         42.0004
 -13796171.72148 -10745876.84347  21945134.5374   21945140.1254   21945134.669
        49.0004         44.0004
  -8670937.00146  -6738198.78645  24150467.5704   24150474.9494   24150466.949
        39.0004         34.0004
    337528.67949    266353.59548  20281396.1294   20281401.4654   20281396.268
        54.0004         50.0004
 -12067988.88148  -9376179.50147  22477033.7134   22477040.7154   22477033.084
        48.0004         43.0004
 -12794298.97448  -9916406.28647  22381497.0844   22381503.5404   22381498.053
        48.0004         44.0004
  -8542388.96547  -6602622.54947  23445802.0814   23445809.8834   23445801.846
        47.0004         42.0004
 14  5 23  0 26  0.0000000  0 10G08G04G26G10G07G20G09G28G02G17
 -24530201.14248 -19073458.12048  20283713.8724   20283719.0744   20283713.928
        53.0004         48.0004
 -28572871.60348 -22210271.41648  20350288.1754   20350293.7254   20350287.691
        53.0004         49.0004
  -1955775.97847  -1499822.23246  24140510.7404   24140520.8584   24140510.670
        43.0004         38.0004
 -15775472.97647 -12285915.28847  22697558.9984   22697564.6844   22697559.068
        47.0004         42.0004
 -13703367.58848 -10673561.85747  21962795.0824   21962800.2034   21962794.961
        49.0004         44.0004
  -8627717.21046  -6704521.02745  24158689.4064   24158699.2264   24158688.947
        39.0004         34.0004
    380291.03149    299674.96748  20289533.5614   20289539.0704   20289533.481
        54.0004         50.0004
 -12126912.24248  -9422093.69347  22465819.7364   22465825.5914   22465820.416
        48.0004         43.0004
 -12857615.36948  -9965743.62347  22369449.8984   22369455.3284   22369449.572
        48.0004         44.0004
  -8506990.56647  -6575039.33447  23452538.2364   23452546.4064   23452537.837
        47.0004         42.0004
 14  5 23  0 26 30.0000000  0 10G08G04G26G10G07G20G09G28G02G17
 -24478697.92948 -19033325.69848  20293514.0584   20293520.0074   20293514.606
        53.0004         48.0004
 -28590661.65548 -22224133.74048  20346902.5874   20346908.5324   20346902.231
        53.0004         49.0004
  -1942907.73747  -1489794.84846  24142958.2914   24142969.8234   24142958.385
        43.0004         38.0004
 -15846964.09047 -12341622.50647  22683954.1414   22683959.7614   22683954.494
        47.0004         42.0004
 -13610286.21048 -10601030.83847  21980507.9384   21980512.7304   21980508.044
        49.0004         44.0004
  -8584154.32046  -6670575.97545  24166981.0764   24166992.0354   24166979.385
        39.0004         34.0004
    423572.51649    333400.85148  20297769.7554   20297775.0024   20297769.759
        54.0004         50.0004
 -12185800.43748  -9467980.47247  22454613.9234   22454620.4664   22454614.292
        48.0004         43.0004
 -12920547.44148 -10014781.47947  22357474.0194   22357479.3284   22357474.155
        48.0004         44.0004
  -8471753.30347  -6547581.67547  23459243.5254   23459252.4144   23459242.820
        46.0004         42.0004
 14  5 23  0 27  0.0000000  0 10G08G04G26G10G07G20G09G28G02G17
 -24426613.85448 -18992740.65548  20303425.6984   20303430.9894   20303425.777
        53.0004         48.0004
 -28607894.12648 -22237561.59148  20343623.6404   20343629.0734   20343623.283
        53.0004         49.0004
  -1929911.86347  -1479668.02346  24145431.9464   24145442.9974   24145431.999
        43.0004         38.0004
 -15918489.21647 -12397356.22147  22670342.8264   22670349.3954   22670343.491
        47.0004         42.0004
 -13516928.79648 -10528284.72247  21998273.0894   21998278.8244   21998272.805
        49.0004         44.0004
                                                                  24175335.699

    467372.72449    367530.93948  20306104.7224   20306109.8724   20306104.670
        54.0004         50.0004
 -12244649.26848  -9513836.58947  22443415.6304   22443422.2514   22443415.701
        48.0004         43.0004
 -12983091.78848 -10063517.21047  22345571.6624   22345576.0654   22345571.565
        48.0004         44.0004
  -8436676.58947  -6520249.12147  23465918.5924   23465926.9644   23465917.935
        46.0004         42.0004
 14  5 23  0 27 30.0000000  0  9G08G04G26G10G07G09G28G02G17
 -24373952.43048 -18951705.73348  20313446.5114   20313452.1574   20313446.725
        53.0004         48.0004
 -28624570.24948 -22250555.91648  20340450.0564   20340456.0344   20340449.308
        53.0004         49.0004
  -1916791.99047  -1469444.58946  24147928.6584   24147939.7784   24147928.785
        43.0004         38.0004
 -15990047.70947 -12453115.94347  22656725.9924   22656732.7024   22656726.497
        47.0004         42.0004
 -13423299.97348 -10455327.11947  22016090.8894   22016095.3954   22016089.767
        49.0004         44.0004
    511687.95849    402062.34748  20314537.4264   20314542.9194   20314537.312
        54.0004         49.0004
 -12303457.35648  -9559660.96147  22432225.4844   22432232.0064   22432224.786
        48.0004         43.0004
 -13045248.38748 -10111950.80647  22333743.6724   22333748.1944   22333744.123
        48.0004         44.0004
  -8401763.73247  -6493044.24947  23472561.1184   23472570.5774   23472561.208
        46.0004         42.0004
 14  5 23  0 28  0.0000000  0 10G08G04G26G10G07G20G09G28G02G17
 -24320722.27848 -18910227.65048  20323576.2234   20323581.8354   20323576.408
        53.0004         48.0004
 -28640696.11048 -22263121.47148  20337381.6624   20337387.2174   20337381.259
        53.0004         49.0004
  -1903556.75947  -1459131.28046  24150446.6864   24150457.4554   24150446.918
        43.0004         38.0004
 -16061643.38947 -12508904.63447  22643101.4134   22643107.2204   22643101.922
        47.0004         42.0004
 -13329408.75048 -10382165.05247  22033956.4544   22033961.9084   22033956.357
        49.0004         44.0004
  -8451406.78146  -6567136.40045  24192239.2804   24192250.3234   24192240.536
        38.0004         34.0004
    556509.78149    436988.49648  20323066.9994   20323072.1754   20323066.681
        54.0004         49.0004
 -12362227.74348  -9605455.94547  22421040.2654   22421047.7624   22421040.854
        48.0004         43.0004
 -13107021.95548 -10160085.93947  22321988.9274   22321993.4724   22321988.525
        48.0004         44.0004
  -8367022.27847  -6465972.93247  23479172.7534   23479181.1674   23479172.594
        47.0004         42.0004
 14  5 23  0 28 30.0000000  0 10G08G04G26G10G07G20G09G28G02G17
 -24266917.05448 -18868301.45248  20333814.7854   20333820.5654   20333814.814
        53.0004         48.0004
 -28656262.74948 -22275251.27048  20334419.2994   20334424.6774   20334418.552
        53.0004         49.0004
  -1890199.64247  -1448722.96846  24152989.0524   24152999.8004   24152988.840
        43.0004         38.0004
 -16133265.22347 -12564713.72347  22629472.5024   22629479.5534   22629472.718
        47.0004         42.0004
 -13235249.74648 -10308794.32247  22051874.6514   22051880.2874   22051874.321
        49.0004         44.0004
  -8406471.98846  -6532122.29045  24200792.7874   24200804.8064   24200791.275
        38.0004         34.0004
    601844.60649    472314.39048  20331693.3494   20331698.8614   20331693.529
        54.0004         49.0004
 -12420949.17948  -9651212.80447  22409866.3054   22409873.8594   22409866.737
        48.0004         43.0004
 -13168402.64148 -10207914.93047  22310307.4134   22310312.3584   22310308.147
        48.0004         44.0004
  -8332444.57947  -6439029.21547  23485753.2664   23485761.5184   23485752.866
        47.0004         42.0004
 14  5 23  0 29  0.0000000  0 10G08G04G26G10G07G20G09G28G02G17
 -24212541.62548 -18825930.94448  20344162.0334   20344167.5594   20344162.273
        53.0004         48.0004
 -28671272.95148 -22286947.47548  20331562.4174   20331568.3254   20331562.096
        53.0004         49.0004
  -1876725.67647  -1438223.60946  24155552.5124   24155562.8604   24155552.750
        43.0004         38.0004
 -16204913.66247 -12620543.52947  22615837.5204   22615843.2784   22615838.649
        47.0004         42.0004
 -13140828.79348 -10235219.47347  22069842.6474   22069846.5914   22069842.295
        49.0004         44.0004
  -8361193.59646  -6496840.49645  24209407.3314   24209419.4824   24209408.405
        38.0004         33.0004
    647687.32449    508036.04548  20340417.1114   20340422.3674   20340417.230
        54.0004         49.0004
 -12479621.56448  -9696931.43447  22398701.5864   22398708.1824   22398701.601
        48.0004         43.0004
 -13229391.37648 -10255438.50147  22298703.1894   22298706.7344   22298702.949
        48.0004         44.0004
  -8298035.15147  -6412216.62247  23492301.2194   23492309.3814   23492300.366
        47.0004         42.0004
 14  5 23  0 29 30.0000000  0 10G08G04G26G10G07G20G09G28G02G17
 -24157592.63848 -18783113.50448  20354618.5894   20354624.1934   20354618.648
        53.0004         48.0004
 -28685720.51948 -22298205.27348  20328813.2174   20328819.1004   20328813.270
        53.0004         49.0004
  -1863131.25847  -1427630.38946  24158139.6754   24158150.5144   24158139.641
        43.0004         38.0004
 -16276580.39647 -12676387.59547  22602199.6684   22602206.2984   22602201.217
        47.0004         42.0004
 -13046143.10548 -10161438.34547  22087860.7904   22087866.4794   22087860.591
        49.0004         44.0004
  -8315566.23156  -6461286.72455  24218090.8675   24218102.5955   24218090.538
        38.0004         34.0004
    694041.57249    544156.29848  20349237.8674   20349243.5534   20349237.702
        54.0004         49.0004
 -12538236.39148  -9742605.21747  22387547.2704   22387554.0944   22387547.423
        48.0004         43.0004
 -13289981.04348 -10302651.12047  22287171.6294   22287176.1504   22287172.168
        49.0004         44.0004
  -8263788.90047  -6385531.19547  23498817.7034   23498826.1784   23498817.044
        47.0004         42.0004
 14  5 23  0 30  0.0000000  0 10G08G04G26G10G07G20G09G28G02G17
 -24102089.78948 -18739864.48448  20365180.3604   20365185.6304   20365180.520
        53.0004         48.0004
 -28699622.66648 -22309038.06548  20326167.5984   20326173.5074   20326167.298
        53.0004         49.0004
  -1849435.75147  -1416958.39246  24160745.9734   24160756.2504   24160745.559
        43.0004         38.0004
 -16348280.01447 -12732257.28247  22588555.9794   22588562.5524   22588556.102
        47.0004         42.0004
 -12951212.45348 -10087466.35147  22105925.3054   22105930.7414   22105924.774
        49.0004         44.0004
  -8269606.75756  -6425474.16855  24226837.4035   24226845.9105   24226836.666
        38.0004         34.0004
    740888.09249    580660.13448  20358152.5534   20358157.9174   20358152.509
        54.0004         49.0004
 -12596807.95448  -9788245.28747  22376401.7514   22376407.5334   22376401.769
        48.0004         43.0004
 -13350187.32848 -10349564.99447  22275715.0214   22275720.0924   22275715.654
        49.0004         44.0004
  -8229724.53747  -6358987.49547  23505300.5734   23505307.9394   23505299.610
        47.0004         42.0004
 14  5 23  0 30 30.0000000  0 10G08G04G26G10G07G20G09G28G02G17
 -24046019.68748 -18696173.44948  20375850.1734   20375855.4634   20375850.457
        53.0004         48.0004
 -28712964.09448 -22319433.93648  20323629.2634   20323634.7794   20323628.826
        53.0004         49.0004
  -1835625.86647  -1406197.29846  24163374.0174   24163383.5784   24163372.826
        43.0004         38.0004
 -16419994.74847 -12788138.75447  22574908.9404   22574915.2174   22574909.695
        47.0004         42.0004
 -12856024.72548 -10013294.01847  22124039.1704   22124043.6424   22124038.718
        49.0004         44.0004
  -8223299.89046  -6389390.93845  24235646.0894   24235661.3434   24235648.032
        38.0004         33.0004
    788239.91549    617557.72048  20367162.9114   20367168.6304   20367163.236
        54.0004         49.0004
 -12655318.01048  -9833837.44347  22365266.4694   22365273.5774   22365267.624
        48.0004         43.0004
 -13409993.25248 -10396166.90247  22264334.8634   22264338.6674   22264334.768
        49.0004         44.0004
  -8195827.87447  -6332574.45947  23511751.0924   23511758.0744   23511749.767
        47.0004         42.0004
 14  5 23  0 31  0.0000000  0 10G08G04G26G10G07G20G09G28G02G17
 -23989389.49648 -18652045.98048  20386626.1544   20386631.5704   20386626.498
        52.0004         48.0004
 -28725748.89448 -22329396.07248  20321196.0804   20321201.8094   20321195.775
        53.0004         49.0004
  -1821708.36347  -1395352.31546  24166021.8094   24166031.9934   24166021.868
        43.0004         38.0004
 -16491726.86647 -12844033.77147  22561259.1734   22561265.2884   22561259.823
        47.0004         42.0004
 -12760587.55648  -9938927.32147  22142199.4684   22142204.9064   22142199.483
        49.0004         44.0004
  -8176649.42046  -6353039.96545  24244527.6084   24244535.8194   24244525.906
        38.0004         33.0004
    836090.40449    654843.87348  20376268.6664   20376274.3224   20376268.595
        54.0004         49.0004
 -12713768.19048  -9879382.93747  22354144.5854   22354151.6204   22354144.540
        48.0004         43.0004
 -13469402.00648 -10442459.32347  22253029.9354   22253033.7434   22253029.996
        49.0004         44.0004
  -8162104.60747  -6306296.54047  23518167.4034   23518175.6254   23518166.984
        46.0004         42.0004
 14  5 23  0 31 30.0000000  0 10G08G04G26G10G07G20G09G28G02G17
 -23932200.99948 -18607483.46748  20397508.8474   20397514.4924   20397509.270
        52.0004         48.0004
 -28737976.72748 -22338924.20848  20318869.5254   20318874.6044   20318868.994
        53.0004         49.0004
  -1807685.11947  -1384424.94946  24168690.6924   24168701.8384   24168689.880
        43.0004         38.0004
 -16563473.49547 -12899940.09547  22547605.8664   22547612.1764   22547606.234
        47.0004         43.0004
 -12664903.36248  -9864368.13647  22160408.2494   22160412.1724   22160407.572
        49.0004         44.0004
  -8129655.47546  -6316421.35545  24253467.7504   24253482.8744   24253468.919
        38.0004         33.0004
    884437.50049    692516.99348  20385468.8234   20385474.3384   20385469.035
        54.0004         49.0004
 -12772155.13348  -9924879.15947  22343033.9304   22343039.5824   22343033.903
        48.0004         43.0004
 -13528411.58548 -10488440.71447  22241799.9144   22241803.8254   22241800.083
        49.0004         44.0004
  -8128555.69647  -6280154.48746  23524551.3174   23524560.4534   23524551.161
        46.0004         41.0004
 14  5 23  0 32  0.0000000  0 10G08G04G26G10G07G20G09G28G02G17
 -23874457.42948 -18562488.42548  20408496.8774   20408502.5884   20408497.295
        52.0004         48.0004
 -28749648.74048 -22348019.24048  20316648.2894   20316653.9224   20316647.666
        53.0004         49.0004
  -1793559.32647  -1373417.68346  24171378.0884   24171389.3354   24171378.085
        43.0004         38.0004
 -16635232.88947 -12955856.37747  22533949.5994   22533956.6814   22533950.757
        47.0004         43.0004
 -12568976.31648  -9789619.71247  22178662.3384   22178666.1714   22178661.352
        48.0004         44.0004
  -8082318.96346  -6279535.83045  24262474.7784   24262492.2624   24262475.236
        37.0004         33.0004
    933277.82049    730574.44348  20394763.0914   20394768.0834   20394762.912
        54.0004         49.0004
 -12830477.05448  -9970324.70647  22331935.5844   22331941.6074   22331935.293
        48.0004         43.0004
 -13587021.67248 -10534110.79747  22230646.2604   22230651.6424   22230647.512
        49.0004         44.0004
  -8095183.38247  -6254150.04047  23530901.3064   23530910.8474   23530901.627
        46.0004         42.0004
 14  5 23  0 32 30.0000000  0 10G08G04G26G10G07G20G09G28G02G17
 -23816161.11248 -18517062.67348  20419590.6554   20419596.3114   20419590.811
        52.0004         48.0004
 -28760764.39048 -22356680.73748  20314533.0564   20314538.4304   20314532.600
        53.0004         49.0004
  -1779332.68347  -1362331.82746  24174084.7264   24174095.0874   24174084.463
        43.0004         38.0004
 -16707002.04047 -13011780.26447  22520293.5264   22520299.3274   22520293.860
        47.0004         43.0004
 -12472808.94548  -9714684.02747  22196962.1014   22196966.0154   22196961.754
        48.0004         44.0004
                  -6242382.85545                  24271562.3754   24271549.813
                        33.0004
    982609.61449    769014.85848  20404150.4084   20404155.7614   20404150.615
        54.0004         49.0004
 -12888730.99248 -10015717.29747  22320849.9104   22320857.3464   22320850.168
        48.0004         43.0004
 -13645230.37948 -10579468.13347  22219569.2114   22219574.2844   22219570.151
        49.0004         44.0004
  -8061988.27147  -6228283.67346  23537218.7714   23537226.2784   23537218.167
        46.0004         41.0004
 14  5 23  0 33  0.0000000  0 10G08G04G26G10G07G20G09G28G02G17
 -23757314.95748 -18471208.47548  20430788.9154   20430794.3414   20430788.673
        52.0004         48.0004
 -28771324.26048 -22364909.17248  20312523.3244   20312529.0114   20312523.153
        53.0004         49.0004
  -1765008.01947  -1351169.57746  24176811.4874   24176821.2094   24176810.270
        43.0004         38.0004
 -16778779.20547 -13067710.38447  22506633.0224   22506641.2964   22506635.009
        47.0004         43.0004
 -12376404.40248  -9639563.53647  22215307.4494   22215310.5604   22215306.997
        48.0004         44.0004
                  -6204963.22345                  24280698.7334   24280687.659
                        33.0004
   1032429.83249    807835.86548  20413630.8404   20413636.1164   20413630.724
        54.0004         49.0004
 -12946914.14348 -10061054.72947  22309777.8904   22309785.4614   22309778.141
        48.0004         44.0004
 -13703037.04248 -10624512.18447  22208570.4064   22208573.6534   22208570.503
        49.0004         44.0004
  -8028972.02947  -6202556.67346  23543501.9284   23543509.3424   23543501.343
        46.0004         41.0004
 14  5 23  0 33 30.0000000  0 10G08G04G26G10G07G20G09G28G02G17
 -23697920.70648 -18424927.18548  20442090.5924   20442095.6544   20442091.016
        52.0004         48.0004
 -28781327.75448 -22372704.05848  20310619.5364   20310625.4424   20310618.880
        53.0004         49.0004
  -1750586.64347  -1339931.98746  24179555.3064   24179565.1384   24179555.537
        43.0004         38.0004
 -16850560.82947 -13123643.99047  22492975.1094   22492980.9714   22492975.382
        47.0004         43.0004
 -12279765.48248  -9564260.41347  22233697.0234   22233701.4764   22233696.170
        48.0004         44.0004
  -7938252.24946  -6167276.13445  24289892.2734   24289901.9144   24289892.848
        37.0004         33.0004
   1082736.88749    847036.22448  20423203.8884   20423209.1364   20423203.770
        54.0004         49.0004
 -13005022.77848 -10106334.09847  22298719.9944   22298726.1984   22298720.415
        48.0004         44.0004
 -13760439.27248 -10669241.08947  22197645.7994   22197650.4544   22197646.138
        49.0004         44.0004
  -7996135.18947  -6176969.47246  23549749.8704   23549759.0024   23549750.040
        46.0004         41.0004
 14  5 23  0 34  0.0000000  0 10G08G04G26G10G07G20G09G28G02G17
 -23637982.20448 -18378221.80848  20453496.3824   20453502.2704   20453496.957
        52.0004         48.0004
 -28790776.07548 -22380066.34548  20308821.6524   20308827.4014   20308821.562
        53.0004         49.0004
  -1736072.11947  -1328621.79346  24182315.9794   24182327.9684   24182315.737
        43.0004         38.0004
 -16922346.10547 -13179580.43747  22479313.9524   22479320.2584   22479314.178
        47.0004         43.0004
 -12182896.39648  -9488777.93247  22252129.8674   22252135.0134   22252130.123
        48.0004         43.0004
  -7889545.30146  -6129322.71745  24299157.9994   24299169.8904   24299160.776
        37.0004         33.0004
   1133527.28149    886613.21148  20432869.0624   20432874.1594   20432869.124
        54.0004         49.0004
 -13063055.48948 -10151554.31347  22287676.8064   22287683.6174   22287677.267
        48.0004         44.0004
 -13817437.01648 -10713654.81147  22186800.1384   22186804.4574   22186800.284
        49.0004         44.0004
  -7963480.20547  -6151523.98046  23555964.8704   23555971.1134   23555963.685
        46.0004         41.0004
 14  5 23  0 34 30.0000000  0 10G08G04G26G10G07G20G09G28G02G17
 -23577500.78948 -18331093.38248  20465006.2004   20465010.8614   20465005.971
        52.0004         48.0004
 -28799668.19248 -22386995.22948  20307129.4574   20307135.0614   20307129.076
        53.0004         49.0004
  -1721465.47447  -1317239.81746  24185096.7044   24185106.5064   24185096.444
        43.0004         38.0004
 -16994131.26247 -13235516.80047  22465653.0114   22465661.4034   22465654.305
        47.0004         43.0004
 -12085799.07148  -9413117.60247  22270606.9174   22270610.8594   22270607.102
        48.0004         44.0004
  -7840495.61046  -6091102.25645  24308494.2214   24308507.4634   24308494.085
        37.0004         32.0004
   1184799.64649    926565.76348  20442625.9324   20442630.8514   20442625.602
        54.0004         49.0004
 -13121008.39548 -10196712.33247  22276649.2414   22276655.4984   22276648.613
        48.0004         44.0004
 -13874027.92948 -10757751.52447  22176030.3154   22176035.7204   22176031.280
        49.0004         44.0004
  -7931007.24147  -6126220.31346  23562144.2664   23562151.7264   23562143.129
        46.0004         41.0004
 14  5 23  0 35  0.0000000  0 10G08G04G26G10G07G20G09G28G02G17
 -23516479.99048 -18283544.65248  20476617.4674   20476623.1644   20476617.897
        52.0004         48.0004
 -28808005.56348 -22393491.84048  20305542.7284   20305548.6024   20305542.654
        53.0004         49.0004
  -1706770.01347  -1305788.65646  24187892.4174   24187903.6564   24187891.950
        43.0004         38.0004
 -17065914.86848 -13291451.94647  22451993.3684   22451998.8844   22451994.400
        48.0004         43.0004
 -11988477.11048  -9337282.23347  22289126.8454   22289132.1244   22289126.729
        48.0004         44.0004
  -7791104.16546  -6052615.48045  24317897.2074   24317903.5464   24317892.811
        37.0004         32.0004
   1236550.29449    966890.99648  20452473.3474   20452478.2844   20452473.505
        54.0004         49.0004
 -13178879.30048 -10241806.44647  22265635.6954   22265643.1094   22265636.506
        48.0004         44.0004
 -13930211.85448 -10801531.10447  22165339.1204   22165343.3344   22165340.018
        49.0004         44.0004
  -7898718.44547  -6101060.16647  23568287.8044   23568296.2904   23568287.425
        46.0004         42.0004
 14  5 23  0 35 30.0000000  0 10G08G04G26G10G07G20G09G28G02G17
 -23454922.22448 -18235577.50848  20488331.6914   20488336.7654   20488331.945
        52.0004         48.0004
 -28815787.95748 -22399556.01048  20304061.7804   20304067.5544   20304061.705
        53.0004         49.0004
  -1691987.77847  -1294269.85546  24190705.9264   24190715.3894   24190706.179
        43.0004         38.0004
 -17137693.92448 -13347383.55447  22438335.1654   22438340.5294   22438334.647
        48.0004         43.0004
 -11890933.64248  -9261274.26647  22307689.1634   22307692.3064   22307688.263
        48.0004         43.0004
  -7741371.02346  -6013862.41745  24327358.8054   24327365.7974   24327357.288
        37.0004         33.0004
   1288777.20249   1007587.34448  20462411.4344   20462417.1884   20462411.853
        54.0004         49.0004
 -13236665.31048 -10286834.41947  22254639.9164   22254645.7974   22254639.984
        48.0004         44.0004
 -13985986.93148 -10844992.09647  22154725.2004   22154730.6674   22154725.668
        49.0004         44.0004
  -7866614.46847  -6076044.02746  23574396.8444   23574404.5854   23574396.807
        46.0004         41.0004
 14  5 23  0 36  0.0000000  0 10G08G04G26G10G07G20G09G28G02G17
 -23392828.94048 -18187193.07848  20500147.4514   20500153.7064   20500147.762
        52.0004         48.0004
 -28823014.50748 -22405187.04848  20302686.9284   20302692.6554   20302686.321
        53.0004         49.0004
  -1677119.79947  -1282684.25746  24193533.4764   24193544.7964   24193533.622
        43.0004         38.0004
 -17209464.71448 -13403308.72147  22424677.7094   22424682.7844   22424677.673
        48.0004         43.0004
 -11793170.50848  -9185095.12647  22326292.8884   22326297.2914   22326292.367
        48.0004         44.0004
                  -5974842.30645                  24336899.7784   24336886.911
                        32.0004
   1341478.81049   1048653.59148  20472440.9024   20472445.6044   20472440.699
        54.0004         49.0004
 -13294362.37848 -10331793.09247  22243660.1824   22243666.5044   22243660.099
        48.0004         44.0004
 -14041350.99348 -10888132.82547  22144190.8494   22144194.6714   22144190.314
        49.0004         44.0004
  -7834695.35447  -6051171.93946  23580472.1274   23580480.1004   23580470.839
        46.0004         41.0004
 14  5 23  0 36 30.0000000  0  9G08G04G26G10G07G09G28G02G17
 -23330184.30848 -18138379.02148  20512068.6484   20512074.0494   20512068.825
        52.0004         48.0004
 -28829666.94248 -22410370.72848  20301421.0194   20301426.4644   20301420.597
        53.0004         49.0004
  -1662149.80547  -1271019.14746  24196382.5084   24196393.9004   24196382.759
        43.0004         38.0004
 -17281206.40448 -13459211.21647  22411025.9184   22411030.7854   22411025.016
        48.0004         43.0004
 -11695172.16348  -9108732.71247  22344941.2614   22344945.3384   22344940.525
        48.0004         43.0004
   1394671.29649   1090102.34248  20482562.6954   20482567.6604   20482562.740
        54.0004         49.0004
 -13351949.12648 -10376665.80547  22232702.1054   22232708.2454   22232701.959
        48.0004         44.0004
 -14096284.39848 -10930937.97247  22133736.4324   22133740.7274   22133736.881
        49.0004         44.0004
  -7802943.96347  -6026430.54346  23586513.4104   23586521.1254   23586512.550
        46.0004         41.0004
 14  5 23  0 37  0.0000000  0  9G08G04G26G10G07G09G28G02G17
 -23267034.72448 -18089171.49848  20524084.8674   20524090.4874   20524085.670
        52.0004         48.0004
 -28835789.35449 -22415141.40348  20300255.9134   20300261.1554   20300255.528
        54.0004         49.0004
  -1647123.76347  -1259310.37146  24199242.0354   24199251.1654   24199242.024
        43.0004         38.0004
 -17352960.28848 -13515123.21247  22397369.5964   22397377.0064   22397371.249
        48.0004         43.0004
 -11596985.36748  -9032223.44747  22363626.1964   22363628.7814   22363625.131
        48.0004         43.0004
   1448308.47749   1131897.60748  20492769.5144   20492774.7744   20492769.408
        54.0004         49.0004
 -13409466.43448 -10421484.41247  22221757.2694   22221761.8774   22221757.192
        48.0004         44.0004
 -14150829.42348 -10973440.49847  22123356.2774   22123361.4344   22123357.284
        49.0004         45.0004
  -7771405.10647  -6001854.75046  23592514.2064   23592522.6684   23592514.352
        46.0004         41.0004
 14  5 23  0 37 30.0000000  0  9G08G04G26G10G07G09G28G02G17
 -23203354.81248 -18039550.73348  20536203.0804   20536208.5174   20536203.461
        52.0004         48.0004
 -28841354.32249 -22419477.71048  20299197.0634   20299202.1684   20299196.664
        54.0004         49.0004
  -1632016.18747  -1247538.05246  24202116.1604   24202127.0784   24202116.499
        42.0004         38.0004
 -17424695.74048 -13571020.83847  22383719.7224   22383725.6304   22383719.445
        48.0004         43.0004
 -11498585.58548  -8955548.23047  22382350.0404   22382355.3134   22382349.621
        48.0004         43.0004
   1502415.66849   1174059.11648  20503065.8274   20503070.5164   20503065.750
        54.0004         49.0004
 -13466883.44048 -10466224.86047  22210830.1904   22210836.4024   22210830.930
        48.0004         44.0004
 -14204957.45948 -11015618.08247  22113056.9054   22113060.1324   22113057.174
        49.0004         45.0004
  -7740051.91047  -5977423.63146  23598480.5644   23598489.0604   23598480.623
        46.0004         41.0004
 14  5 23  0 38  0.0000000  0  9G08G04G26G10G07G09G28G02G17
 -23139150.46548 -17989521.31548  20548420.7154   20548425.7434   20548421.310
        52.0004         48.0004
 -28846365.12748 -22423382.19648  20298243.1954   20298248.8204   20298242.688
        53.0004         49.0004
  -1616832.29847  -1235706.28146  24205006.2664   24205016.1244   24205006.438
        43.0004         38.0004
 -17496413.39748 -13626904.59647  22370072.2114   22370078.9174   22370072.874
        48.0004         43.0004
 -11399978.61248  -8878711.55847  22401114.9864   22401118.2074   22401114.026
        48.0004         43.0004
   1556987.18049   1216582.43948  20513450.2004   20513455.4384   20513450.139
        54.0004         49.0004
 -13524200.27048 -10510887.25147  22199922.9094   22199929.2154   22199923.671
        48.0004         44.0004
 -14258670.07448 -11057471.97747  22102836.5404   22102839.5534   22102836.068
        49.0004         45.0004
  -7708888.67847  -5953140.53546  23604411.3874   23604419.3484   23604410.503
        46.0004         41.0004
 14  5 23  0 38 30.0000000  0  9G08G04G26G10G07G09G28G02G17
 -23074425.93348 -17939086.55948  20560737.3424   20560743.1904   20560737.649
        52.0004         48.0004
 -28850823.41448 -22426856.15648  20297395.1224   20297400.5244   20297394.591
        53.0004         49.0004
  -1601575.73047  -1223817.88546  24207909.2504   24207919.4374   24207908.747
        43.0004         38.0004
 -17568112.11348 -13682773.60847  22356427.9884   22356433.9284   22356428.468
        48.0004         43.0004
 -11301169.13248  -8801717.09247  22419916.9814   22419920.6834   22419916.544
        48.0004         43.0004
   1612018.90549   1259464.36748  20523922.1864   20523927.6454   20523922.260
        54.0004         49.0004
 -13581415.52548 -10555470.48447  22189035.6304   22189041.8734   22189035.632
        49.0004         44.0004
 -14311967.67148 -11099002.47347  22092693.2954   22092697.0194   22092693.798
        49.0004         45.0004
  -7677917.94647  -5929007.46046  23610303.9984   23610312.3204   23610304.357
        46.0004         41.0004
 14  5 23  0 39  0.0000000  0  9G08G04G26G10G07G09G28G02G17
 -23009183.01748 -17888247.86547  20573152.6084   20573157.9684   20573153.022
        52.0004         47.0004
 -28854728.60748 -22429899.13448  20296651.7584   20296656.9774   20296651.223
        53.0004         49.0004
  -1586247.69447  -1211873.79046  24210825.9084   24210837.6154   24210825.621
        43.0004         38.0004
 -17639788.28348 -13738625.03447  22342787.1354   22342793.9014   22342789.358
        48.0004         43.0004
 -11202158.89947  -8724566.19647  22438757.5844   22438762.1514   22438757.528
        47.0004         43.0004
   1667509.42349   1302703.79948  20534481.9534   20534486.7084   20534481.913
        54.0004         49.0004
 -13638525.20748 -10599971.46147  22178168.1554   22178175.5274   22178167.841
        48.0004         44.0004
 -14364847.78648 -11140207.67447  22082631.0344   22082634.0224   22082630.683
        49.0004         45.0004
  -7647139.64647  -5905024.32746  23616160.6034   23616169.1844   23616161.188
        46.0004         41.0004
 14  5 23  0 39 30.0000000  0  9G08G04G26G10G07G09G28G02G17
 -22943425.28848 -17837008.01147  20585666.4654   20585671.3664   20585666.166
        52.0004         47.0004
 -28858082.04548 -22432512.16548  20296013.2354   20296018.8534   20296012.941
        53.0004         49.0004
  -1570851.29547  -1199876.42146  24213755.2424   24213766.2564   24213755.416
        42.0004         38.0004
 -17711439.76348 -13794457.23347  22329153.4784   22329159.5374   22329153.921
        48.0004         43.0004
 -11102951.83347  -8647261.92147  22457636.4664   22457640.7034   22457636.007
        47.0004         43.0004
   1723455.21649   1346297.98548  20545127.7874   20545132.9904   20545127.879
        54.0004         49.0004
 -13695527.01348 -10644388.37247  22167320.4454   22167328.2074   22167320.884
        48.0004         44.0004
 -14417310.22548 -11181087.41247  22072647.5254   22072651.5764   22072647.558
        49.0004         45.0004
  -7616555.61347  -5881192.57346  23621981.0864   23621989.4534   23621981.102
        46.0004         41.0004
 14  5 23  0 40  0.0000000  0  9G08G04G26G10G07G09G28G02G17
 -22877155.71848 -17785369.31547  20598276.2304   20598281.7164   20598276.664
        52.0004         47.0004
 -28860884.44848 -22434695.83248  20295480.4154   20295486.0684   20295480.063
        53.0004         49.0004
  -1555389.01147  -1187827.70746  24216698.2604   24216708.0714   24216697.196
        42.0004         37.0004
 -17783064.46648 -13850268.57047  22315523.8844   22315529.9124   22315524.310
        48.0004         43.0004
 -11003551.46147  -8569807.02547  22476552.7654   22476555.4694   22476551.503
        47.0004         43.0004
   1779853.40449   1390244.68748  20555860.2834   20555865.6444   20555860.310
        54.0004         49.0004
 -13752418.45748 -10688719.29647  22156493.6224   22156500.5454   22156494.594
        48.0004         44.0004
 -14469354.42748 -11221641.24747  22062743.5274   22062747.1164   22062743.528
        49.0004         45.0004
  -7586167.05747  -5857513.12346  23627764.8014   23627772.5664   23627764.362
        46.0004         41.0004
 14  5 23  0 40 30.0000000  0  9G08G04G26G10G07G09G28G02G17
 -22810376.30448 -17733333.34047  20610984.4374   20610989.7504   20610984.499
        52.0004         47.0004
 -28863135.49549 -22436449.86448  20295051.8224   20295057.3824   20295051.344
        54.0004         49.0004
  -1539862.17947  -1175728.71646  24219653.1104   24219661.9524   24219652.115
        42.0004         37.0004
 -17854658.97148 -13906056.37947  22301900.4384   22301905.0764   22301900.453
        48.0004         43.0004
 -10903959.77848  -8492203.04647  22495503.2474   22495508.0274   22495502.731
        48.0004         43.0004
   1836702.28349   1434542.57748  20566678.0204   20566683.0244   20566677.940
        54.0004         49.0004
 -13809195.90248 -10732961.38747  22145689.2824   22145696.5064   22145690.062
        48.0004         44.0004
 -14520978.10048 -11261867.40447  22052919.7394   22052924.2134   22052920.297
        49.0004         45.0004
  -7555974.51847  -5833986.42346  23633509.4954   23633517.1294   23633509.443
        46.0004         41.0004
 14  5 23  0 41  0.0000000  0  9G08G04G26G10G07G09G28G02G17
 -22743090.04848 -17680902.41547  20623787.8454   20623793.3404   20623788.331
        52.0004         47.0004
 -28864836.15949 -22437775.03648  20294728.4324   20294733.7644   20294727.984
        54.0004         49.0004
  -1524273.41447  -1163581.46146  24222620.3514   24222628.7684   24222619.570
        42.0004         37.0004
 -17926221.24748 -13961819.07747  22288281.7194   22288288.0714   22288281.793
        48.0004         43.0004
 -10804180.20147  -8414452.66547  22514490.5004   22514495.0554   22514490.423
        47.0004         43.0004
   1893998.77349   1479189.25348  20577581.3144   20577586.3334   20577581.310
        54.0004         49.0004
 -13865856.94948 -10777112.78147  22134908.1624   22134914.6364   22134907.852
        48.0004         44.0004
 -14572180.52648 -11301765.31647  22043176.5274   22043179.2974   22043175.987
        49.0004         45.0004
  -7525979.25047  -5810613.45246  23639217.3484   23639224.8684   23639217.130
        46.0004         41.0004
 14  5 23  0 41 30.0000000  0  9G08G04G26G10G07G09G28G02G17
 -22675300.84348 -17628079.58547  20636688.2494   20636693.6784   20636688.376
        52.0004         47.0004
 -28865987.40749 -22438672.09248  20294509.1974   20294514.8224   20294508.850
        54.0004         49.0004
  -1508625.95147  -1151388.46446  24225597.1474   24225607.0444   24225596.185
        42.0004         38.0004
 -17997749.49948 -14017555.26947  22274670.0304   22274676.4784   22274670.855
        48.0004         44.0004
 -10704216.69747  -8336558.94447  22533513.5404   22533517.3644   22533512.230
        47.0004         43.0004
   1951739.22549   1524181.87348  20588569.1684   20588573.8944   20588568.599
        54.0004         49.0004
 -13922398.91848 -10821171.37747  22124147.6344   22124153.4154   22124148.457
        49.0004         44.0004
 -14622961.72848 -11341335.00147  22033512.3074   22033516.0044   22033512.849
        49.0004         45.0004
  -7496183.30647  -5787395.79146  23644887.2384   23644894.9994   23644886.633
        46.0004         41.0004
 14  5 23  0 42  0.0000000  0 10G08G04G26G05G10G07G09G28G02G17
 -22607008.84748 -17574864.97747  20649683.5264   20649689.0464   20649683.739
        52.0004         47.0004
 -28866587.72849 -22439139.84948  20294395.1264   20294400.4604   20294394.542
        54.0004         49.0004
  -1492919.34947  -1139149.38746  24228586.3284   24228596.0494   24228585.468
        42.0004         38.0004
   -407960.15948   -267424.13546  25463554.8044   25463562.0514   25463552.894
        51.0004         36.0004
 -18069238.50648 -14073260.88347  22261065.6614   22261072.0774   22261067.507
        48.0004         44.0004
 -10604069.67947  -8258522.23747  22552570.6904   22552574.1224   22552570.127
        47.0004         43.0004
   2009923.38749   1569520.24348  20599640.9204   20599646.0934   20599640.912
        54.0004         49.0004
 -13978816.94748 -10865133.40647  22113411.4954   22113418.6584   22113412.521
        49.0004         44.0004
 -14673318.30948 -11380573.82047  22023929.7054   22023933.9734   22023930.407
        49.0004         45.0004
  -7466585.06747  -5764332.19946  23650519.6904   23650527.5774   23650519.187
        46.0004         41.0004
 14  5 23  0 42 30.0000000  0 10G08G04G26G05G10G07G09G28G02G17
 -22538218.54748 -17521262.07547  20662773.6064   20662779.1934   20662774.092
        52.0004         47.0004
 -28866639.05649 -22439179.83048  20294385.4954   20294390.5164   20294384.741
        54.0004         49.0004
  -1477157.62447  -1126867.36546  24231584.8884   24231593.6294   24231583.893
        42.0004         37.0004
   -488324.74347   -330045.45246  25448261.2064   25448269.1884   25448259.948
        46.0004         36.0004
 -18140687.28048 -14128935.15447  22247470.1204   22247476.6644   22247470.791
        48.0004         44.0004
 -10503743.74647  -8180346.12047  22571661.7614   22571666.7364   22571661.581
        47.0004         43.0004
   2068546.95549   1615201.00648  20610796.5904   20610801.5454   20610796.453
        54.0004         49.0004
 -14035109.47048 -10908997.63347  22102700.1544   22102705.9754   22102700.451
        49.0004         44.0004
 -14723250.67248 -11419482.08147  22014428.5734   22014432.3614   22014428.262
        49.0004         45.0004
  -7437187.13647  -5741424.69146  23656114.5654   23656121.2654   23656113.406
        46.0004         41.0004
 14  5 23  0 43  0.0000000  0 10G08G04G26G05G10G07G09G28G02G17
 -22468934.79848 -17467274.67547  20675957.7334   20675963.2314   20675958.248
        52.0004         47.0004
 -28866144.05949 -22438794.09948  20294479.0464   20294484.8094   20294478.629
        54.0004         49.0004
  -1461344.84747  -1114545.54246  24234594.1164   24234602.4734   24234593.519
        42.0004         37.0004
   -568907.66147   -392836.97346  25432926.0654   25432933.7414   25432925.107
        43.0004         36.0004
 -18212095.11548 -14184577.51447  22233881.3864   22233888.7894   22233881.902
        48.0004         44.0004
 -10403244.04947  -8102034.59747  22590786.2634   22590790.6844   22590785.575
        47.0004         43.0004
   2127605.45449   1661220.67148  20622035.0274   20622040.3684   20622035.003
        54.0004         49.0004
 -14091275.48348 -10952763.28547  22092011.9254   22092017.6484   22092012.485
        49.0004         44.0004
 -14772759.68548 -11458060.46047  22005006.2524   22005010.7624   22005006.991
        50.0004         45.0004
  -7407992.55347  -5718675.63346  23661669.3094   23661677.3894   23661668.646
        46.0004         41.0004
 14  5 23  0 43 30.0000000  0 10G08G04G26G05G10G07G09G28G02G17
 -22399157.43848 -17412902.63647  20689236.2384   20689241.4554   20689236.595
        52.0004         47.0004
 -28865100.33349 -22437980.78848  20294677.7554   20294683.1764   20294677.664
        54.0004         49.0004
  -1445480.19747  -1102183.30846  24237613.1504   24237620.2204   24237611.908
        42.0004         37.0004
   -649705.51447   -455795.96846  25417549.7794   25417558.4814   25417549.929
        42.0004         37.0004
 -18283456.21148 -14240183.46847  22220301.7734   22220306.1164   22220302.293
        48.0004         44.0004
 -10302570.42847  -8023587.54847  22609943.9584   22609947.5994   22609943.271
        47.0004         42.0004
   2187099.28249   1707579.55548  20633356.1944   20633361.6054   20633356.007
        54.0004         49.0004
 -14147308.93748 -10996425.63947  22081348.5514   22081355.2144   22081349.177
        49.0004         44.0004
 -14821841.34448 -11496305.84847  21995666.9214   21995671.3624   21995667.133
        50.0004         45.0004
  -7378999.10647  -5696083.30046  23667186.6414   23667195.9424   23667185.814
        45.0004         41.0004
 14  5 23  0 44  0.0000000  0 10G08G04G26G05G10G07G09G28G02G17
 -22328890.04348 -17358148.76547  20702607.5024   20702613.1214   20702607.826
        52.0004         47.0004
 -28863508.95449 -22436740.73848  20294980.6904   20294985.6394   20294980.147
        54.0004         49.0004
  -1429566.46147  -1089782.82246  24240640.7964   24240649.2244   24240640.745
        42.0004         38.0004
   -730716.94346   -518921.37346  25402134.4344   25402142.3394   25402132.634
        41.0004         36.0004
 -18354768.53348 -14295751.42147  22206731.0934   22206736.3654   22206732.099
        48.0004         44.0004
 -10201726.32147  -7945007.65247  22629132.9444   22629138.2674   22629133.152
        47.0004         42.0004
   2247025.10049   1754275.05048  20644759.8714   20644764.6444   20644759.978
        54.0004         49.0004
 -14203207.72748 -11039983.06947  22070712.0774   22070718.3234   22070712.273
        49.0004         44.0004
 -14870495.45348 -11534218.06147  21986408.0224   21986412.3544   21986408.605
        50.0004         45.0004
  -7350208.03647  -5673648.66946  23672665.8004   23672672.0704   23672664.705
        45.0004         41.0004
 14  5 23  0 44 30.0000000  0 10G08G04G26G05G10G07G09G28G02G17
 -22258137.47548 -17303016.83547  20716071.5774   20716076.6864   20716071.649
        52.0004         47.0004
 -28861372.37549 -22435075.85748  20295387.1724   20295392.7464   20295386.813
        54.0004         49.0004
  -1413607.61647  -1077347.19646  24243676.3334   24243687.4304   24243676.997
        42.0004         37.0004
   -811942.64746   -582213.77846  25386677.9374   25386687.4054   25386675.309
        41.0004         36.0004
 -18426030.96248 -14351280.50547  22193170.3674   22193176.0174   22193171.261
        48.0004         44.0004
 -10100716.60347  -7866298.70947  22648354.5424   22648358.5364   22648354.345
        47.0004         43.0004
   2307378.25548   1801303.54148  20656244.5234   20656249.2654   20656244.180
        53.0004         49.0004
 -14258970.38348 -11083434.41647  22060101.2504   22060106.1544   22060101.205
        49.0004         44.0004
 -14918722.79048 -11571797.74347  21977230.5164   21977234.7414   21977230.955
        50.0004         45.0004
  -7321622.47147  -5651374.17146  23678104.7094   23678112.8174   23678104.493
        45.0004         41.0004
 14  5 23  0 45  0.0000000  0 10G08G04G26G05G10G07G09G28G02G17
 -22186900.53448 -17247507.47247  20729627.6924   20729632.9254   20729627.713
        52.0004         47.0004
 -28858689.64249 -22432985.40748  20295897.8474   20295903.4964   20295897.356
        54.0004         49.0004
  -1397604.03747  -1064876.70646  24246721.8774   24246730.7284   24246721.975
        42.0004         37.0004
   -893380.19846   -645671.23346  25371180.6434   25371190.8404   25371178.293
        40.0004         36.0004
 -18497239.26548 -14406767.40847  22179619.8444   22179624.8304   22179620.538
        48.0004         44.0004
  -9999542.57347  -7787461.73247  22667607.2824   22667612.5484   22667607.112
        47.0004         42.0004
   2368157.96848   1848664.41348  20667810.4364   20667815.3574   20667810.266
        53.0004         49.0004
 -14314591.93348 -11126775.81947  22049516.3824   22049521.6304   22049516.323
        49.0004         44.0004
 -14966520.38248 -11609042.55447  21968135.4264   21968139.4714   21968135.915
        50.0004         45.0004
  -7293241.35847  -5629258.98946  23683505.1454   23683512.9234   23683505.335
        45.0004         41.0004
 14  5 23  0 45 30.0000000  0 10G08G04G26G05G10G07G09G28G02G17
 -22115184.03348 -17191624.42447  20743274.5364   20743279.4244   20743274.545
        52.0004         47.0004
 -28855463.22849 -22430471.31048  20296511.6974   20296516.7324   20296511.075
        54.0004         49.0004
  -1381559.71647  -1052374.47746  24249775.4384   24249784.7164   24249774.866
        42.0004         38.0004
   -975029.49646   -709293.72046  25355643.2744   25355651.4934   25355640.877
        40.0004         36.0004
 -18568392.69348 -14462211.55047  22166080.1884   22166084.8944   22166080.550
        48.0004         44.0004
  -9898209.00547  -7708500.44547  22686891.3144   22686895.0304   22686890.675
        47.0004         42.0004
   2429359.63248   1896354.07848  20679456.6924   20679461.2924   20679456.676
        53.0004         49.0004
 -14370071.27748 -11170006.40547  22038958.9124   22038963.8264   22038958.767
        49.0004         44.0004
 -15013889.17348 -11645953.24247  21959120.9484   21959125.7004   21959121.372
        50.0004         45.0004
  -7265067.31247  -5607305.16546  23688866.4984   23688875.4784   23688865.836
        45.0004         40.0004
 14  5 23  0 46  0.0000000  0 10G08G04G26G05G10G07G09G28G02G17
 -22042990.55548 -17135369.70347  20757012.2624   20757017.7094   20757012.482
        52.0004         47.0004
 -28851693.44649 -22427533.81148  20297229.1964   20297234.6494   20297228.689
        54.0004         49.0004
  -1365476.49947  -1039841.92946  24252835.4534   24252844.7364   24252835.355
        42.0004         37.0004
  -1056889.38246   -773080.28146  25340063.3484   25340072.7494   25340063.158
        41.0004         36.0004
 -18639487.62348 -14517610.10647  22152551.2414   22152556.4974   22152551.744
        48.0004         44.0004
  -9796718.29947  -7629416.70347  22706203.9574   22706207.6714   22706203.591
        47.0004         42.0004
   2490980.86648   1944370.68248  20691182.8074   20691187.6694   20691182.714
        53.0004         49.0004
 -14425405.20948 -11213123.68147  22028429.2814   22028434.4704   22028429.260
        49.0004         44.0004
 -15060827.73948 -11682528.69147  21950189.5354   21950192.9114   21950189.484
        50.0004         45.0004
  -7237100.68947  -5585512.97446  23694188.4534   23694196.3864   23694188.017
        45.0004         40.0004
 14  5 23  0 46 30.0000000  0 10G08G04G26G05G10G07G09G28G02G17
 -21970322.07048 -17078744.83647  20770840.2744   20770846.0504   20770840.775
        52.0004         47.0004
 -28847379.93449 -22424172.62848  20298049.5984   20298055.4494   20298049.512
        54.0004         49.0004
  -1349355.55047  -1027279.98846  24255903.1874   24255910.8844   24255903.886
        42.0004         38.0004
  -1138957.16846   -837028.84946  25324447.2864   25324453.8004   25324445.138
        41.0004         36.0004
 -18710520.45748 -14572960.24647  22139033.3464   22139039.6524   22139034.617
        49.0004         44.0004
  -9695072.43947  -7550212.07547  22725546.2884   22725550.9034   22725545.535
        47.0004         42.0004
   2553020.06648   1992712.98048  20702988.3524   20702993.6914   20702988.330
        53.0004         49.0004
 -14480589.55948 -11256124.40547  22017927.7584   22017933.5944   22017927.735
        49.0004         44.0004
 -15107334.38748 -11718767.57947  21941338.8404   21941342.8994   21941339.205
        50.0004         45.0004
  -7209341.77547  -5563882.63046  23699470.8694   23699479.1704   23699470.404
        45.0004         40.0004
 14  5 23  0 47  0.0000000  0 10G08G04G26G05G10G07G09G28G02G17
 -21897182.49848 -17021752.88247  20784758.5234   20784763.7154   20784759.031
        52.0004         47.0004
 -28842524.76349 -22420389.37248  20298973.6744   20298979.2054   20298973.386
        54.0004         49.0004
  -1333200.01747  -1014691.11046  24258977.0444   24258986.5894   24258976.584
        42.0004         38.0004
  -1221232.64846   -901139.25146  25308789.5634   25308797.2984   25308789.341
        41.0004         36.0004
 -18781489.70848 -14628260.85447  22125529.1634   22125534.6734   22125529.627
        49.0004         44.0004
  -9593275.43347  -7470889.66047  22744917.2134   22744921.6534   22744916.895
        47.0004         42.0004
   2615473.49948   2041378.05748  20714872.4064   20714877.3624   20714872.580
        53.0004         49.0004
 -14535622.34548 -11299007.02847  22007455.0614   22007461.3814   22007455.055
        49.0004         44.0004
 -15153409.31848 -11754670.06847  21932570.6054   21932575.0614   21932571.740
        50.0004         45.0004
  -7181791.92247  -5542415.17946  23704713.9134   23704722.2214   23704712.777
        45.0004         41.0004
 14  5 23  0 47 30.0000000  0 10G08G04G26G05G10G07G09G28G02G17
 -21823575.16148 -16964396.43547  20798765.4664   20798771.1464   20798765.477
        52.0004         47.0004
 -28837128.64149 -22416184.59848  20300000.6144   20300006.2814   20300000.228
        54.0004         49.0004
  -1317012.41547  -1002077.23446  24262058.7414   24262067.4194   24262058.658
        43.0004         38.0004
  -1303714.80946   -965410.69146  25293094.1044   25293101.7454   25293093.832
        41.0004         37.0004
 -18852392.72348 -14683509.84647  22112036.1694   22112041.6204   22112036.786
        49.0004         44.0004
  -9491330.39747  -7391451.89847  22764316.6594   22764321.0924   22764316.973
        47.0004         42.0004
   2678337.81748   2090363.29948  20726835.0704   20726840.0364   20726835.533
        53.0004         49.0004
 -14590500.96348 -11341769.53147  21997011.1784   21997019.2724   21997012.404
        49.0004         44.0004
 -15199051.91448 -11790235.67547  21923885.4304   21923889.4674   21923885.991
        50.0004         45.0004
  -7154452.67047  -5521111.85046  23709915.6494   23709924.0974   23709915.848
        45.0004         41.0004
 14  5 23  0 48  0.0000000  0 10G08G04G26G05G10G07G09G28G02G17
 -21749501.43848 -16906676.57847  20812861.4684   20812866.5494   20812861.523
        51.0004         47.0004
 -28831191.11848 -22411557.95248  20301130.7894   20301135.5344   20301130.130
        53.0004         49.0004
  -1300793.32547   -989438.83046  24265143.4384   24265152.8004   24265143.757
        42.0004         38.0004
  -1386400.33546  -1029840.61346  25277360.5124   25277366.9084   25277359.569
        41.0004         36.0004
 -18923224.98648 -14738703.72247  22098556.9104   22098562.5644   22098557.982
        49.0004         44.0004
  -9389239.08047  -7311900.15147  22783744.7664   22783747.8084   22783744.295
        47.0004         42.0004
   2741611.90348   2139667.83148  20738875.6754   20738880.8384   20738875.710
        53.0004         49.0004
 -14645220.60548 -11384408.14947  21986599.7724   21986604.3944   21986599.454
        49.0004         44.0004
 -15244259.53048 -11825462.33747  21915282.2874   21915286.6054   21915283.077
        50.0004         45.0004
  -7127323.22447  -5499971.99546  23715079.0774   23715086.9014   23715078.203
        45.0004         41.0004
 14  5 23  0 48 30.0000000  0 10G08G04G26G05G10G07G09G28G02G17
 -21674966.79348 -16848597.55147  20827044.2624   20827049.4954   20827044.782
        51.0004         47.0004
 -28824715.19148 -22406511.77448  20302362.8394   20302368.3984   20302362.377
        53.0004         49.0004
  -1284547.09047   -976779.26746  24268234.6044   24268244.3154   24268235.924
        42.0004         38.0004
  -1469290.84546  -1094430.28646  25261583.7724   25261593.3844   25261585.444
        41.0004         36.0004
 -18993985.92948 -14793842.02047  22085091.6514   22085097.6244   22085091.980
        49.0004         44.0004
  -9287006.50447  -7232238.33747  22803198.3134   22803202.2414   22803197.703
        47.0004         42.0004
   2805290.80948   2189287.80548  20750993.6914   20750998.5314   20750993.753
        53.0004         49.0004
 -14699780.61048 -11426922.38547  21976216.9944   21976221.6714   21976216.893
        49.0004         45.0004
 -15289033.55648 -11860351.13847  21906762.9664   21906766.3924   21906763.129
        50.0004         45.0004
  -7100406.49647  -5478997.90646  23720200.6464   23720209.0154   23720200.857
        46.0004         41.0004
 14  5 23  0 49  0.0000000  0 10G08G04G26G05G10G07G09G28G02G17
 -21599972.21048 -16790160.13847  20841315.3344   20841320.7014   20841315.772
        51.0004         47.0004
 -28817699.87548 -22401045.29548  20303697.8434   20303703.3274   20303697.417
        53.0004         49.0004
  -1268274.13147   -964098.88546  24271332.5564   24271340.1634   24271331.706
        42.0004         38.0004
  -1552382.91046  -1159177.00446  25245771.7654   25245783.0014   25245773.418
        41.0004         36.0004
 -19064671.32348 -14848921.45347  22071640.5474   22071645.6834   22071641.471
        49.0004         44.0004
  -9184633.57947  -7152467.16447  22822679.9984   22822684.5474   22822678.386
        47.0004         42.0004
   2869373.50448   2239222.41248  20763188.5184   20763192.8864   20763188.020
        53.0004         49.0004
 -14754176.17048 -11469308.47647  21965865.3234   21965870.8454   21965865.797
        49.0004         45.0004
 -15333371.42348 -11894900.07047  21898325.6934   21898329.4734   21898325.664
        50.0004         45.0004
  -7073701.44347  -5458188.75646  23725282.5764   23725290.9734   23725282.205
        46.0004         41.0004
 14  5 23  0 49 30.0000000  0 10G08G04G26G05G10G07G09G28G02G17
 -21524522.85948 -16731368.36847  20855672.6804   20855677.8524   20855673.299
        51.0004         47.0004
 -28810148.35049 -22395160.99048  20305134.9424   20305140.5744   20305134.719
        54.0004         49.0004
  -1251978.65047   -951400.95946  24274432.3954   24274440.6854   24274432.989
        42.0004         38.0004
  -1635676.96346  -1224081.12646  25229920.3584   25229932.0384   25229923.042
        41.0004         36.0004
 -19135280.27048 -14903941.31947  22058204.2014   22058208.9204   22058204.702
        49.0004         44.0004
  -9082125.26947  -7072590.50147  22842185.7854   22842189.4054   22842185.528
        47.0004         42.0004
   2933854.96948   2289467.74848  20775458.5764   20775463.4974   20775458.528
        53.0004         49.0004
 -14808406.60748 -11511565.91247  21955546.0204   21955550.7504   21955546.035
        49.0004         45.0004
 -15377274.69048 -11929110.36347  21889971.5314   21889974.5094   21889971.108
        50.0004         45.0004
  -7047210.98047  -5437546.82646  23730322.6784   23730330.4074   23730323.157
        46.0004         41.0004
 14  5 23  0 50  0.0000000  0 10G08G04G26G05G10G07G09G28G02G17
 -21448619.85448 -16672223.09947  20870116.5854   20870121.8994   20870116.805
        51.0004         47.0004
 -28802059.29949 -22388857.83248  20306674.0274   20306679.3854   20306673.636
        54.0004         49.0004
  -1235660.86147   -938685.64646  24277539.0734   24277546.0944   24277537.829
        42.0004         38.0004
  -1719170.32646  -1289140.55846  25214033.1604   25214043.1664   25214034.291
        41.0004         36.0004
 -19205808.16048 -14958898.04347  22044783.2034   22044788.9374   22044783.356
        49.0004         44.0004
  -8979482.80647  -6992609.29747  22861718.8434   22861722.3364   22861717.987
        46.0004         42.0004
   2998734.53848   2340023.29548  20787804.8424   20787809.4454   20787804.658
        53.0004         49.0004
 -14862466.46048 -11553690.41747  21945258.5414   21945264.6944   21945258.699
        49.0004         45.0004
 -15420740.29248 -11962979.61747  21881699.2954   21881703.3334   21881699.953
        50.0004         45.0004
  -7020933.91747  -5417071.17746  23735325.0864   23735331.0334   23735323.634
        46.0004         41.0004
 14  5 23  0 50 30.0000000  0 10G08G04G26G05G10G07G09G28G02G17
 -21372267.63848 -16612727.81047  20884646.4444   20884651.5204   20884646.577
        51.0004         47.0004
 -28793435.04749 -22382137.63848  20308315.2514   20308320.7694   20308314.987
        54.0004         49.0004
  -1219324.21847   -925955.64346  24280646.1694   24280655.4804   24280646.958
        42.0004         38.0004
  -1802862.21446  -1354354.69746  25198107.7464   25198115.6414   25198108.251
        41.0004         36.0004
 -19276253.33548 -15013790.31647  22031377.5124   22031382.4954   22031378.685
        49.0004         44.0004
  -8876710.26647  -6912526.73347  22881275.5564   22881279.2194   22881274.558
        46.0004         42.0004
   3064007.83448   2390885.64348  20800225.4654   20800230.6224   20800225.689
        53.0004         49.0004
 -14916354.13748 -11595680.76347  21935003.9324   21935008.5314   21935004.476
        49.0004         45.0004
 -15463769.01548 -11996508.44547  21873511.4594   21873515.2844   21873511.618
        50.0004         45.0004
  -6994872.34447  -5396763.44346  23740282.6724   23740291.7664   23740282.906
        46.0004         41.0004
 14  5 23  0 51  0.0000000  0 10G08G04G26G05G10G07G09G28G02G17
 -21295468.64048 -16552884.37647  20899259.9734   20899265.9774   20899260.631
        51.0004         47.0004
 -28784275.83849 -22375000.59948  20310058.3804   20310063.6464   20310057.777
        54.0004         49.0004
  -1202970.20947   -913212.10846  24283758.3664   24283768.0494   24283757.375
        42.0004         38.0004
  -1886750.97446  -1419722.24146  25182144.4284   25182152.8194   25182144.095
        41.0004         36.0004
 -19346612.41348 -15068615.50247  22017988.7844   22017994.5194   22017989.726
        49.0004         45.0004
  -8773809.92847  -6832344.58746  22900856.0564   22900859.0934   22900855.585
        46.0004         41.0004
   3129672.84048   2442053.21948  20812721.1494   20812726.1704   20812721.192
        53.0004         49.0004
 -14970065.77348 -11637533.93447  21924783.5314   21924788.8944   21924783.288
        50.0004         45.0004
 -15506359.38348 -12029695.69347  21865406.6064   21865411.1994   21865407.409
        50.0004         45.0004
  -6969026.14447  -5376623.54646  23745202.0394   23745209.6664   23745201.637
        46.0004         41.0004
 14  5 23  0 51 30.0000000  0 10G08G04G26G05G10G07G09G28G02G17
 -21218227.06548 -16492696.08347  20913959.2994   20913964.5934   20913959.315
        51.0004         47.0004
 -28774584.24748 -22367448.71548  20311902.2374   20311907.5804   20311901.953
        53.0004         49.0004
  -1186602.45047   -900457.86846  24286872.8504   24286881.1124   24286873.264
        42.0004         38.0004
  -1970836.78446  -1485243.35946  25166142.8184   25166150.6574   25166142.513
        41.0004         36.0004
 -19416883.83548 -15123372.38247  22004616.3334   22004621.4204   22004617.423
        49.0004         45.0004
  -8670786.34147  -6752066.40647  22920461.8034   22920465.4484   22920460.853
        46.0004         42.0004
   3195725.04248   2493522.51348  20825290.3944   20825295.7774   20825290.629
        53.0004         49.0004
 -15023600.08048 -11679248.93347  21914595.4704   21914600.9024   21914595.931
        50.0004         45.0004
 -15548512.16648 -12062541.97747  21857384.7804   21857389.0164   21857385.549
        50.0004         46.0004
  -6943397.73747  -5356653.35046  23750079.5824   23750086.5984   23750078.340
        46.0004         41.0004
 14  5 23  0 52  0.0000000  0 10G08G04G26G05G10G07G09G28G02G17
 -21140543.50248 -16432163.38647  20928741.8284   20928746.8504   20928742.006
        51.0004         46.0004
 -28764358.64649 -22359480.72448  20313848.1014   20313853.5364   20313848.135
        54.0004         49.0004
  -1170220.28947   -887692.40546  24289989.0964   24289999.5614   24289990.062
        42.0004         38.0004
  -2055115.11846  -1550914.49546  25150105.1314   25150112.3234   25150105.054
        41.0004         36.0004
 -19487062.28148 -15178056.81247  21991262.1924   21991267.6844   21991262.799
        49.0004         45.0004
  -8567639.38247  -6671692.09946  22940088.9734   22940092.8304   22940088.802
        46.0004         41.0004
   3262164.64848   2545293.67648  20837933.6154   20837938.4114   20837933.550
        53.0004         49.0004
 -15076951.33648 -11720821.29147  21904443.5824   21904448.6844   21904443.594
        50.0004         45.0004
 -15590223.86448 -12095044.56547  21849447.7824   21849451.5294   21849448.072
        50.0004         45.0004
  -6917984.75447  -5336851.03346  23754913.9844   23754922.6474   23754914.121
        46.0004         41.0004
 14  5 23  0 52 30.0000000  0 10G08G04G26G05G10G07G09G28G02G17
 -21062424.36648 -16371291.27847  20943607.5034   20943611.9314   20943607.496
        51.0004         46.0004
 -28753603.11249 -22351099.79548  20315895.0024   20315900.5764   20315894.622
        54.0004         49.0004
  -1153829.20247   -874919.98046  24293109.3764   24293118.2364   24293109.146
        42.0004         38.0004
  -2139587.86746  -1616737.13146  25134028.8194   25134038.7874   25134029.059
        41.0004         36.0004
 -19557148.15548 -15232669.11247  21977925.4174   21977929.8694   21977925.710
        49.0004         45.0004
  -8464375.17647  -6591226.43246  22959739.3284   22959743.1974   22959739.276
        46.0004         41.0004
   3328985.30648   2597361.76648  20850649.0874   20850654.0694   20850649.079
        53.0004         48.0004
 -15130119.57348 -11762251.05147  21894325.6874   21894331.6314   21894325.765
        49.0004         45.0004
 -15631497.20448 -12127205.56147  21841593.5474   21841597.5984   21841593.856
        50.0004         45.0004
  -6892791.61347  -5317220.01246  23759709.1634   23759715.4734   23759707.791
        46.0004         41.0004
 14  5 23  0 53  0.0000000  0 10G08G04G26G05G10G07G09G28G02G17
 -20983871.30848 -16310081.04847  20958555.3014   20958560.2454   20958555.512
        51.0004         46.0004
 -28742317.47049 -22342305.79648  20318042.6694   20318047.9344   20318042.378
        54.0004         49.0004
  -1137429.79947   -862141.09846  24296229.1804   24296239.1994   24296230.325
        42.0004         38.0004
  -2224251.70346  -1682708.67646  25117919.1284   25117926.6124   25117918.194
        41.0004         36.0004
 -19627136.73048 -15287205.59447  21964607.0194   21964612.2194   21964607.402
        49.0004         45.0004
  -8360995.35747  -6510670.67646  22979413.1614   22979415.3714   22979411.945
        46.0004         41.0004
   3396185.53248   2649725.61848  20863436.7364   20863441.5704   20863436.964
        53.0004         48.0004
 -15183100.32048 -11803534.70747  21884243.9914   21884249.6244   21884243.776
        49.0004         45.0004
 -15672329.95448 -12159023.25547  21833823.6424   21833827.3064   21833823.770
        50.0004         46.0004
  -6867817.34547  -5297759.53446  23764461.2734   23764469.4344   23764461.231
        46.0004         41.0004
 14  5 23  0 53 30.0000000  0 10G08G04G26G05G10G07G09G28G02G17
 -20904887.72048 -16248535.34147  20973585.1324   20973589.7644   20973585.377
        51.0004         46.0004
 -28730502.82349 -22333099.59048  20320290.9854   20320296.1554   20320290.682
        54.0004         49.0004
  -1121024.47147   -849357.57646  24299352.1034   24299359.5524   24299350.733
        42.0004         37.0004
  -2309106.11046  -1748828.74146  25101771.4504   25101779.5874   25101771.059
        41.0004         36.0004
 -19697025.52748 -15341664.31647  21951307.5104   21951311.9864   21951308.077
        49.0004         45.0004
  -8257503.10747  -6430027.31146  22999106.0654   22999109.8274   22999105.428
        46.0004         41.0004
   3463762.58148   2702383.09648  20876296.4254   20876301.0024   20876296.399
        53.0004         48.0004
 -15235890.79448 -11844670.10647  21874198.1754   21874203.8984   21874198.292
        49.0004         45.0004
 -15712721.49248 -12190497.13947  21826137.3924   21826140.9104   21826137.261
        50.0004         46.0004
  -6843062.58847  -5278470.10646  23769172.6214   23769179.5574   23769171.353
        46.0004         41.0004
 14  5 23  0 54  0.0000000  0 10G08G04G26G05G10G07G09G28G02G17
 -20825476.15248 -16186656.13747  20988697.4204   20988702.3174   20988697.080
        51.0004         46.0004
 -28718159.95349 -22323481.78148  20322639.6294   20322645.2254   20322639.359
        54.0004         49.0004
  -1104614.69947   -836570.59846  24302475.7014   24302483.3014   24302475.660
        42.0004         38.0004
  -2394148.82646  -1815095.51946  25085587.5194   25085594.6424   25085587.263
        41.0004         36.0004
 -19766811.40648 -15396042.85647  21938027.1954   21938032.2614   21938027.945
        49.0004         45.0004
  -8153900.46147  -6349297.92546  23018821.5914   23018824.9654   23018820.894
        46.0004         41.0004
   3531713.79548   2755332.13048  20889227.3154   20889231.7264   20889227.088
        53.0004         48.0004
 -15288487.06448 -11885654.17547  21864189.6394   21864194.7884   21864189.516
        49.0004         45.0004
 -15752670.84648 -12221626.46547  21818534.3334   21818539.1924   21818535.628
        50.0004         46.0004
  -6818527.83547  -5259352.11446  23773839.9124   23773849.3164   23773839.994
        45.0004         41.0004
 14  5 23  0 54 30.0000000  0 10G08G04G26G05G10G07G09G28G02G17
 -20745641.96748 -16124447.60547  21003888.4464   21003893.9744   21003889.051
        51.0004         46.0004
 -28705292.36749 -22313455.10548  20325088.1704   20325093.8564   20325087.921
        54.0004         49.0004
  -1088205.18847   -823783.82946  24305597.0534   24305605.7874   24305596.147
        42.0004         38.0004
  -2479380.73646  -1881509.72746  25069367.1544   25069377.5134   25069369.001
        41.0004         37.0004
 -19836493.86348 -15450340.79847  21924767.2494   21924772.2134   21924767.761
        49.0004         45.0004
  -8050192.95647  -6268486.83146  23038555.8324   23038558.5174   23038555.795
        46.0004         41.0004
   3600033.63348   2808568.39648  20902227.6034   20902232.6344   20902227.707
        53.0004         48.0004
 -15340888.79348 -11926486.65847  21854218.3724   21854222.5104   21854217.638
        49.0004         45.0004
 -15792179.97048 -12252412.75947  21811016.8404   21811019.5084   21811016.716
        50.0004         46.0004
  -6794216.20647  -5240407.98946  23778466.6804   23778474.1374   23778466.662
        45.0004         41.0004
 14  5 23  0 55  0.0000000  0 10G08G04G26G05G10G07G09G28G02G17
 -20665384.18948 -16061909.02247  21019160.6634   21019165.6534   21019161.311
        51.0004         46.0004
 -28691897.02149 -22303017.19048  20327637.3304   20327642.7334   20327637.081
        54.0004         49.0004
  -1071793.77947   -810995.57646  24308719.6304   24308728.1804   24308720.184
        42.0004         38.0004
  -2564796.07646  -1948066.86246  25053115.4674   25053121.8724   25053114.634
        41.0004         37.0004
 -19906065.72048 -15504552.55247  21911527.9294   21911532.6424   21911529.173
        50.0004         45.0004
  -7946379.13547  -6187592.89646  23058311.4964   23058314.1174   23058309.990
        46.0004         41.0004
   3668723.65048   2862093.11248  20915298.9134   20915303.6754   20915299.129
        53.0004         48.0004
 -15393088.85748 -11967162.00547  21844283.0954   21844289.9574   21844284.416
        49.0004         45.0004
 -15831243.93148 -12282852.17047  21803582.5754   21803587.4414   21803583.286
        50.0004         46.0004
  -6770123.82047  -5221634.71046  23783051.5084   23783059.7224   23783050.986
        45.0004         41.0004
 14  5 23  0 55 30.0000000  0 10G08G04G26G05G10G07G09G28G02G17
 -20584710.11548 -15999046.03947  21034513.1454   21034518.0964   21034513.255
        51.0004         46.0004
 -28677979.24149 -22292172.18348  20330285.9174   20330291.2514   20330285.553
        54.0004         49.0004
  -1055386.64947   -798210.65046  24311840.7564   24311849.5004   24311841.927
        42.0004         38.0004
  -2650397.68346  -2014769.14946  25036823.8984   25036831.2124   25036824.830
        41.0004         37.0004
 -19975528.30948 -15558679.17747  21898308.7694   21898314.8544   21898309.850
        50.0004         45.0004
  -7842466.12847  -6106621.67646  23078083.9244   23078088.9574   23078084.290
        46.0004         41.0004
   3737776.90548   2915900.87748  20928439.2924   20928444.2094   20928439.316
        53.0004         48.0004
 -15445088.38148 -12007681.07847  21834389.2264   21834394.7354   21834389.008
        49.0004         45.0004
 -15869866.39048 -12312947.55947  21796234.1214   21796236.8004   21796233.611
        50.0004         46.0004
  -6746255.39847  -5203035.93546  23787592.5134   23787601.8964   23787592.367
        45.0004         41.0004
 14  5 23  0 56  0.0000000  0 10G08G04G26G05G10G07G09G28G02G17
 -20503623.40648 -15935861.52147  21049942.7094   21049947.9574   21049943.532
        51.0004         46.0004
 -28663540.21249 -22280921.00348  20333033.5474   20333038.6594   20333033.000
        54.0004         49.0004
  -1038986.14047   -785430.89746  24314962.4244   24314971.3934   24314962.548
        42.0004         38.0004
  -2736183.78947  -2081615.19046  25020501.1464   25020506.9434   25020500.299
        42.0004         37.0004
 -20044878.74148 -15612718.39447  21885112.8414   21885118.1834   21885113.104
        50.0004         45.0004
  -7738456.58547  -6025575.23446  23097876.5514   23097880.8974   23097876.870
        46.0004         41.0004
   3807190.20948   2969989.20148  20941647.9714   20941652.9184   20941648.322
        53.0004         48.0004
 -15496884.07548 -12048041.33147  21824532.7964   21824539.1004   21824533.159
        50.0004         45.0004
 -15908046.62848 -12342698.35847  21788968.2454   21788971.3734   21788968.378
        50.0004         46.0004
  -6722612.09447  -5184612.58646  23792092.5574   23792099.7254   23792091.850
        45.0004         41.0004
 14  5 23  0 56 30.0000000  0 10G08G04G26G05G10G07G09G28G02G17
 -20422123.02548 -15872354.66047  21065452.0304   21065456.6224   21065452.251
        51.0004         46.0004
 -28648577.19049 -22269261.51848  20335880.8094   20335886.1374   20335880.409
        54.0004         49.0004
  -1022590.15347   -772654.63946  24318082.3814   24318092.1004   24318082.604
        42.0004         38.0004
  -2822148.97847  -2148600.79946  25004141.6544   25004147.3194   25004141.861
        42.0004         37.0004
 -20114110.03148 -15666664.76747  21871938.6884   21871943.4734   21871939.244
        50.0004         45.0004
  -7634349.60647  -5944452.87446  23117687.9404   23117691.6594   23117687.750
        46.0004         41.0004
   3876964.87948   3024359.11848  20954925.7354   20954930.8674   20954926.060
        53.0004         48.0004
 -15548468.94848 -12088237.30047  21814715.9144   21814721.3264   21814716.393
        50.0004         45.0004
 -15945780.32748 -12372101.20447  21781787.0294   21781790.6354   21781787.643
        50.0004         46.0004
  -6699190.00847  -5166361.60546  23796549.8164   23796558.3044   23796549.100
        45.0004         41.0004
 14  5 23  0 57  0.0000000  0 10G08G04G26G05G10G07G09G28G02G17
 -20340215.27748 -15808530.36947  21081038.5504   21081043.5224   21081038.842
        51.0004         46.0004
 -28633094.60649 -22257197.18748  20338827.0064   20338832.6824   20338826.790
        54.0004         49.0004
  -1006204.11847   -759886.17246  24321200.8434   24321209.1444   24321200.089
        42.0004         38.0004
  -2908295.18347  -2215727.44446  24987750.5084   24987754.8154   24987747.724
        42.0004         37.0004
 -20183222.63648 -15720518.66347  21858785.7524   21858791.4364   21858787.032
        50.0004         45.0004
  -7530151.37647  -5863259.39546  23137516.0574   23137519.8224   23137516.205
        46.0004         41.0004
   3947094.46448   3079005.59648  20968271.1084   20968275.7784   20968270.997
        53.0004         48.0004
 -15599843.17348 -12128269.13247  21804940.3014   21804945.8724   21804940.506
        50.0004         45.0004
 -15983070.51148 -12401158.45347  21774690.8354   21774694.7794   21774691.774
        50.0004         46.0004
  -6675993.15547  -5148286.13346  23800963.5234   23800971.2374   23800962.975
        45.0004         41.0004
 14  5 23  0 57 30.0000000  0 10G08G04G26G05G10G07G09G28G02G17
 -20257902.84548 -15744390.72747  21096702.0304   21096707.3534   21096702.107
        51.0004         46.0004
 -28617093.21449 -22244728.58948  20341871.8774   20341877.5874   20341871.654
        54.0004         49.0004
   -989829.43947   -747126.53646  24324317.2714   24324325.6414   24324316.748
        42.0004         38.0004
  -2994619.98646  -2282993.27846  24971321.7854   24971328.4374   24971320.108
        41.0004         37.0004
 -20252213.18548 -15774277.46347  21845657.8594   21845663.8364   21845658.674
        50.0004         45.0004
  -7425864.13147  -5781996.56246  23157361.2274   23157365.9594   23157361.117
        46.0004         41.0004
   4017576.63448   3133926.81148  20981683.1074   20981687.8044   20981683.380
        53.0004         48.0004
 -15651003.19148 -12168134.04747  21795204.0984   21795210.0344   21795204.508
        50.0004         45.0004
 -16019915.48648 -12429868.79747  21767679.4754   21767683.2314   21767680.111
        50.0004         46.0004
  -6653021.65647  -5130386.25446  23805334.8584   23805343.7694   23805334.228
        45.0004         40.0004
 14  5 23  0 58  0.0000000  0 10G08G04G26G05G10G07G09G28G02G17
 -20175189.58348 -15679938.76847  21112441.4554   21112446.4684   21112441.988
        51.0004         46.0004
 -28600575.01248 -22231857.28148  20345015.3654   20345020.7634   20345015.039
        53.0004         49.0004
   -973469.01247   -734378.00146  24327429.3904   24327437.8874   24327429.044
        42.0004         38.0004
  -3081122.08547  -2350397.27246  24954859.0164   24954867.1034   24954858.665
        42.0004         37.0004
 -20321079.30648 -15827939.28047  21832552.1554   21832558.1354   21832553.861
        50.0004         45.0004
  -7321491.13347  -5700666.89746  23177221.8404   23177226.7424   23177222.207
        45.0004         41.0004
   4088407.68148   3189119.86048  20995162.3334   20995166.6044   20995162.228
        53.0004         48.0004
 -15701946.60548 -12207830.17847  21785509.8484   21785516.1404   21785510.532
        50.0004         45.0004
 -16056315.73348 -12458232.59147  21760752.4564   21760756.4844   21760753.136
        50.0004         46.0004
  -6630276.00847  -5112662.38146  23809663.0564   23809671.2954   23809663.145
        45.0004         40.0004
 14  5 23  0 58 30.0000000  0 10G08G04G26G05G10G07G09G28G02G17
 -20092078.99348 -15615177.19547  21128257.0314   21128261.6074   21128257.241
        50.0004         46.0004
 -28583541.39948 -22218584.35848  20348256.7154   20348262.3574   20348256.379
        53.0004         49.0004
   -957124.94347   -721642.23346  24330540.9134   24330548.8254   24330540.965
        43.0004         38.0004
  -3167800.49247  -2417938.63846  24938365.9144   24938371.4054   24938364.507
        42.0004         37.0004
 -20389818.08648 -15881501.80147  21819472.1944   21819478.0874   21819473.020
        49.0004         45.0004
  -7217035.31747  -5619272.70946  23197099.6604   23197103.8664   23197099.687
        45.0004         41.0004
   4159584.48048   3244582.32548  21008706.8714   21008711.4304   21008706.560
        53.0004         48.0004
 -15752670.72348 -12247355.43447  21775858.0544   21775863.6204   21775858.066
        50.0004         45.0004
 -16092270.90548 -12486249.58747  21753911.7234   21753914.9414   21753911.533
        50.0004         46.0004
  -6607757.69447  -5095115.65846  23813948.3714   23813957.1044   23813948.219
        45.0004         41.0004
 14  5 23  0 59  0.0000000  0 10G08G04G26G05G10G07G09G28G02G17
 -20008571.91048 -15550106.69847  21144147.9254   21144152.3704   21144148.294
        50.0004         46.0004
 -28565991.60348 -22204909.21148  20351596.1314   20351601.9664   20351596.029
        53.0004         49.0004
   -940797.11347   -708919.11946  24333647.0484   24333655.7824   24333645.747
        43.0004         38.0004
  -3254651.66947  -2485614.62046  24921837.0094   24921846.4344   24921837.348
        42.0004         37.0004
 -20458424.57848 -15934961.27947  21806416.2784   21806423.0574   21806417.520
        50.0004         45.0004
  -7112497.21347  -5537814.40446  23216993.6404   23216997.0014   23216992.510
        45.0004         40.0004
   4231106.61748   3300313.86048  21022316.7504   21022321.1464   21022316.784
        53.0004         48.0004
 -15803170.01148 -12286705.48947  21766247.7784   21766253.6104   21766247.897
        50.0004         45.0004
 -16127778.51248 -12513917.81447  21747153.8194   21747157.4944   21747154.484
        51.0004         46.0004
  -6585464.93547  -5077744.68746  23818190.5344   23818198.7424   23818190.371
        45.0004         41.0004
 14  5 23  0 59 30.0000000  0 10G08G04G26G05G10G07G09G28G02G17
 -19924674.00348 -15484731.56247  21160113.4044   21160117.9944   21160113.594
        50.0004         46.0004
 -28547929.64048 -22190834.96948  20355033.3974   20355038.7944   20355033.205
        53.0004         49.0004
   -924490.34447   -696212.39346  24336749.4314   24336758.4164   24336749.864
        42.0004         38.0004
  -3341676.37247  -2553425.82546  24905278.3454   24905284.1924   24905276.976
        42.0004         37.0004
 -20526898.04148 -15988317.03447  21793386.6804   21793391.8014   21793387.191
        50.0004         45.0004
  -7007882.38347  -5456296.30846  23236899.7954   23236904.2144   23236899.692
        45.0004         41.0004
   4302968.39048   3356310.04948  21035991.5864   21035996.2134   21035991.553
        53.0004         48.0004
 -15853444.22548 -12325880.16847  21756680.8364   21756687.1184   21756681.581
        50.0004         45.0004
 -16162840.78848 -12541239.04147  21740482.0484   21740485.9574   21740482.387
        51.0004         46.0004
  -6563400.66547  -5060551.75346  23822388.7384   23822397.6384   23822389.441
        45.0004         41.0004
 14  5 23  1  0  0.0000000  0 10G08G04G26G05G10G07G09G28G02G17
 -19840388.83948 -15419054.72647  21176151.6694   21176156.6704   21176152.187
        50.0004         46.0004
 -28529356.53348 -22176362.43748  20358567.7554   20358573.3744   20358567.509
        53.0004         49.0004
   -908206.44347   -683523.51246  24339848.3944   24339856.8804   24339848.744
        42.0004         38.0004
  -3428872.88346  -2621370.90646  24888683.4074   24888691.6474   24888683.756
        41.0004         37.0004
 -20595235.34648 -16041566.57447  21780381.8624   21780386.9964   21780382.823
        50.0004         45.0004
  -6903193.48347  -5374720.50246  23256822.3184   23256826.6374   23256821.467
        45.0004         41.0004
   4375166.95748   3412568.69348  21049730.2494   21049735.2654   21049730.556
        53.0004         48.0004
 -15903489.88848 -12364876.75647  21747157.2984   21747163.2334   21747158.190
        50.0004         45.0004
 -16197457.20348 -12568212.84547  21733895.1764   21733898.4374   21733895.483
        51.0004         46.0004
  -6541565.18547  -5043537.10046  23826544.3284   23826552.6594   23826544.284
        45.0004         41.0004
 14  5 23  1  0 30.0000000  0 10G08G04G26G05G10G07G09G28G02G17
 -19755719.97048 -15353078.84847  21192264.3314   21192268.5484   21192264.163
        50.0004         46.0004
 -28510274.63248 -22161493.44248  20362199.2004   20362204.1904   20362198.690
        53.0004         49.0004
   -891948.23347   -670854.64146  24342941.7444   24342950.0944   24342941.107
        43.0004         38.0004
  -3516239.86146  -2689448.83346  24872059.7144   24872065.7824   24872059.172
        41.0004         37.0004
 -20663435.23548 -16094709.15347  21767403.6024   21767408.9774   21767404.779
        50.0004         45.0004
  -6798434.00547  -5293089.69946  23276756.0044   23276760.6694   23276756.230
        45.0004         40.0004
   4447698.44148   3469086.75448  21063533.0164   21063537.8124   21063532.767
        53.0004         48.0004
 -15953304.92948 -12403693.63447  21737677.7864   21737683.5884   21737678.524
        50.0004         45.0004
 -16231628.02348 -12594839.43147  21727391.8244   21727395.8394   21727392.430
        51.0004         46.0004
  -6519959.79147  -5026701.73246  23830655.2794   23830663.8834   23830655.441
        45.0004         41.0004
 14  5 23  1  1  0.0000000  0 10G08G04G26G05G10G07G09G28G02G17
 -19670666.30948 -15286803.07147  21208448.4894   21208453.8154   21208448.845
        50.0004         46.0004
 -28490680.87948 -22146225.60648  20365927.6754   20365933.1434   20365927.295
        53.0004         49.0004
   -875713.33247   -658203.93246  24346031.7444   24346039.9714   24346031.437
        42.0004         38.0004
  -3603771.69746  -2757655.21646  24855402.8314   24855407.1314   24855401.735
        41.0004         37.0004
 -20731489.98548 -16147738.72347  21754453.5824   21754459.3204   21754454.262
        50.0004         45.0004
  -6693602.38047  -5211402.68746  23296705.2074   23296710.7764   23296705.008
        45.0004         40.0004
   4520564.37748   3525865.43748  21077398.3144   21077403.7624   21077398.421
        53.0004         48.0004
 -16002881.63648 -12442324.79647  21728244.8294   21728249.4964   21728244.332
        50.0004         45.0004
 -16265348.32548 -12621114.95747  21720975.8234   21720979.3924   21720976.224
        51.0004         46.0004
  -6498580.70947  -5010042.71446  23834724.5354   23834732.4214   23834723.641
        45.0004         40.0004
 14  5 23  1  1 30.0000000  0 10G08G04G26G05G10G07G09G28G02G17
 -19585236.34848 -15220234.02547  21224705.1114   21224710.9284   21224705.365
        50.0004         45.0004
 -28470581.91248 -22130564.09048  20369752.6554   20369757.8944   20369752.125
        53.0004         49.0004
   -859509.11747   -645577.14446  24349115.7554   24349121.1274   24349115.330
        42.0004         38.0004
  -3691471.54546  -2825992.54346  24838711.9594   24838720.1454   24838713.278
        41.0004         37.0004
 -20799401.88948 -16200657.12547  21741530.5174   21741535.9204   21741531.190
        50.0004         45.0004
  -6588706.71047  -5129665.75246  23316666.6764   23316671.9104   23316665.478
        45.0004         40.0004
   4593756.50248   3582898.29148  21091326.4984   21091331.4674   21091326.638
        52.0004         48.0004
 -16052222.33348 -12480772.06347  21718855.1464   21718859.6744   21718855.045
        50.0004         45.0004
 -16298623.32748 -12647043.51147  21714643.4934   21714646.8474   21714643.764
        51.0004         46.0004
  -6477433.44447  -4993564.32146  23838748.4694   23838756.9004   23838747.731
        45.0004         40.0004
 14  5 23  1  2  0.0000000  0 10G08G04G26G05G10G07G09G28G02G17
 -19499437.76448 -15153377.59947  21241032.0854   21241036.6134   21241032.225
        50.0004         46.0004
 -28449983.90848 -22114513.72148  20373672.0154   20373677.3184   20373671.467
        53.0004         49.0004
   -843341.90947   -632979.16846  24352191.7704   24352199.7744   24352189.844
        42.0004         38.0004
  -3779342.70046  -2894463.36846  24821990.5314   24821997.6054   24821991.389
        41.0004         37.0004
 -20867171.91548 -16253464.94147  21728634.7414   21728639.7264   21728634.994
        50.0004         45.0004
  -6483754.20947  -5047884.54846  23336637.7664   23336641.8004   23336637.624
        45.0004         40.0004
   4667267.35448   3640179.50048  21105315.2434   21105319.6044   21105315.252
        52.0004         48.0004
 -16101328.23848 -12519036.36647  21709510.4254   21709516.3944   21709510.656
        50.0004         45.0004
 -16331457.11448 -12672628.25547  21708395.2174   21708398.6104   21708395.310
        51.0004         46.0004
  -6456522.70647  -4977270.23646  23842728.6154   23842735.8374   23842727.514
        45.0004         41.0004
 14  5 23  1  2 30.0000000  0 10G08G04G26G05G10G07G09G28G02G17
 -19413261.05748 -15086226.77747  21257431.1924   21257435.3684   21257430.746
        50.0004         45.0004
 -28428874.70148 -22098065.01048  20377688.8174   20377694.8114   20377688.662
        53.0004         49.0004
   -827200.39647   -620401.23446  24355263.3524   24355270.2714   24355263.265
        42.0004         38.0004
  -3867369.76146  -2963055.68246  24805239.9254   24805246.6434   24805240.198
        41.0004         37.0004
 -20934784.16848 -16306149.85747  21715767.8054   21715772.0224   21715768.774
        50.0004         44.0004
  -6378734.01247  -4966050.60046  23356622.8104   23356626.4124   23356623.079
        45.0004         40.0004
   4741107.46948   3697717.26648  21119366.4004   21119371.4254   21119366.438
        52.0004         48.0004
 -16150183.21648 -12557105.14847  21700213.5084   21700218.7714   21700214.076
        50.0004         45.0004
 -16363835.76748 -12697858.34647  21702233.7714   21702237.2164   21702234.765
        51.0004         46.0004
  -6435835.77547  -4961150.54546  23846664.1054   23846672.9844   23846663.821
        45.0004         41.0004
 14  5 23  1  3  0.0000000  0 10G08G04G26G05G10G07G09G28G02G17
 -19326718.26648 -15018790.84247  21273898.6394   21273904.0694   21273899.302
        50.0004         45.0004
 -28407264.70748 -22081226.07948  20381801.4104   20381806.6754   20381801.171
        53.0004         49.0004
   -811095.61247   -607851.91746  24358326.7674   24358334.5934   24358327.454
        42.0004         38.0004
  -3955560.27646  -3031775.37346  24788458.3414   24788464.2764   24788457.938
        41.0004         37.0004
 -21002244.26748 -16358716.02547  21702930.9634   21702935.7214   21702931.589
        50.0004         45.0004
  -6273657.91047  -4884173.09246  23376618.2764   23376622.3224   23376617.800
        45.0004         40.0004
   4815264.83248   3755502.23048  21133478.4914   21133482.8304   21133478.398
        52.0004         48.0004
 -16198793.05248 -12594982.90347  21690963.4774   21690968.6284   21690963.387
        50.0004         45.0004
 -16395768.17648 -12722740.72147  21696157.0524   21696160.9654   21696157.347
        51.0004         46.0004
  -6415382.02747  -4945212.54946  23850556.9944   23850563.9194   23850556.496
        45.0004         41.0004
 14  5 23  1  3 30.0000000  0 10G08G04G26G05G10G07G09G28G02G17
 -19239808.70048 -14951069.06647  21290437.7634   21290442.1264   21290438.066
        50.0004         44.0004
 -28385152.17148 -22063995.55848  20386009.1754   20386014.8174   20386008.825
        53.0004         49.0004
   -795026.08447   -595330.06946  24361385.6474   24361394.0264   24361385.032
        42.0004         38.0004
  -4043908.31947  -3100617.82546  24771644.6964   24771653.3464   24771645.696
        42.0004         37.0004
 -21069546.00448 -16411158.82147  21690123.8334   21690128.3174   21690124.306
        50.0004         45.0004
  -6168525.02047  -4802251.34346  23396624.7624   23396628.4554   23396624.034
        45.0004         40.0004
   4889739.91448   3813534.76548  21147650.5874   21147655.2464   21147650.230
        52.0004         48.0004
 -16247150.87048 -12632664.28047  21681761.1434   21681766.5574   21681761.812
        50.0004         45.0004
 -16427250.56548 -12747272.42447  21690166.7024   21690170.2884   21690166.856
        51.0004         46.0004
  -6395158.34747  -4929453.83046  23854404.8224   23854413.0694   23854404.759
        46.0004         41.0004
 14  5 23  1  4  0.0000000  0 10G08G04G26G05G10G07G09G28G02G17
 -19152538.72548 -14883066.35647  21307044.4754   21307049.4064   21307044.627
        50.0004         46.0004
 -28362541.51348 -22046376.89248  20390311.8154   20390317.1054   20390311.355
        53.0004         49.0004
   -778996.75847   -582839.54946  24364435.0094   24364443.3594   24364435.642
        43.0004         38.0004
  -4132415.94747  -3169584.63646  24754803.1574   24754809.8134   24754802.816
        42.0004         37.0004
 -21136689.20048 -16463477.92947  21677346.4894   21677350.2604   21677347.221
        50.0004         46.0004
  -6063341.19647  -4720289.90046  23416640.3874   23416644.2964   23416639.444
        45.0004         40.0004
   4964526.82048   3871810.28147  21161881.9174   21161886.7234   21161881.874
        52.0004         47.0004
 -16295256.96248 -12670149.50247  21672606.8294   21672611.9454   21672606.703
        50.0004         45.0004
 -16458285.33248 -12771455.33847  21684260.4904   21684264.4814   21684261.374
        51.0004         46.0004
  -6375168.11147  -4913877.02846  23858208.5944   23858216.7064   23858208.878
        46.0004         41.0004
 14  5 23  1  4 30.0000000  0 10G08G04G26G05G10G07G09G28G02G17
 -19064911.31848 -14814785.36347  21323720.0374   21323722.8964   21323719.927
        50.0004         45.0004
 -28339433.24648 -22028370.48048  20394709.1224   20394715.1034   20394708.727
        53.0004         49.0004
   -763008.65947   -570381.16446  24367477.8374   24367485.9064   24367477.929
        43.0004         38.0004
  -4221080.06946  -3238673.39846  24737932.2714   24737936.0804   24737930.500
        41.0004         37.0004
 -21203670.41648 -16515670.96547  21664600.4414   21664604.9614   21664601.378
        50.0004         46.0004
  -5958108.31147  -4638290.23446  23436665.1804   23436669.6394   23436664.332
        44.0004         40.0004
   5039623.48648   3930327.18448  21176172.7374   21176177.2544   21176172.109
        52.0004         48.0004
 -16343107.54948 -12707435.63747  21663500.8744   21663505.7694   21663501.499
        50.0004         45.0004
 -16488871.70148 -12795288.85147  21678440.3464   21678444.1544   21678440.176
        51.0004         46.0004
  -6355410.77847  -4898481.69946  23861968.7264   23861976.4514   23861968.200
        45.0004         41.0004
 14  5 23  1  5  0.0000000  0 10G08G04G26G05G10G07G09G28G02G17
 -18976929.46448 -14746228.04947  21340461.8904   21340467.0354   21340462.213
        50.0004         45.0004
 -28315829.57948 -22009978.03748  20399200.6784   20399206.7414   20399200.387
        53.0004         49.0004
   -747064.26347   -557956.83146  24370512.0454   24370519.9374   24370510.659
        43.0004         38.0004
  -4309899.50646  -3307883.18546  24721028.6254   24721035.9644   24721028.082
        41.0004         37.0004
 -21270486.74948 -16567735.62847  21651885.3034   21651890.3064   21651886.181
        50.0004         45.0004
  -5852829.44447  -4556254.72846  23456698.1834   23456702.7694   23456699.248
        44.0004         39.0004
   5115026.32848   3989082.66148  21190520.8304   21190525.7154   21190521.170
        52.0004         48.0004
 -16390699.80548 -12744520.47047  21654444.7384   21654450.1194   21654444.757
        50.0004         45.0004
 -16519009.98648 -12818773.21147  21672705.6034   21672709.0104   21672705.704
        51.0004         46.0004
  -6335887.02547  -4883268.38046  23865684.4484   23865691.8544   23865683.646
        45.0004         41.0004
 14  5 23  1  5 30.0000000  0 10G08G04G26G05G10G07G09G28G02G17
 -18888595.11648 -14677395.99547  21357271.2204   21357275.1344   21357271.578
        50.0004         45.0004
 -28291730.41248 -21991199.49348  20403786.4494   20403792.4764   20403786.363
        53.0004         49.0004
   -731164.01347   -545566.91046  24373537.8274   24373544.1174   24373538.050
        43.0004         38.0004
  -4398870.93646  -3377211.39046  24704097.6884   24704104.5994   24704097.120
        41.0004         37.0004
 -21337133.60348 -16619668.17447  21639202.7554   21639207.3564   21639203.728
        50.0004         45.0004
  -5747505.72047  -4474184.27546  23476741.6264   23476746.2144   23476741.870
        44.0004         40.0004
   5190733.98448   4048075.66948  21204927.4524   21204932.3674   21204927.694
        52.0004         48.0004
 -16438028.96248 -12781400.29247  21645438.2964   21645443.3424   21645438.334
        50.0004         45.0004
 -16548698.20248 -12841906.86447  21667055.6364   21667059.5864   21667055.931
        51.0004         46.0004
  -6316595.50547  -4868236.02546  23869354.9274   23869362.4474   23869354.146
        45.0004         41.0004
 14  5 23  1  6  0.0000000  0 10G08G04G26G05G10G07G09G28G02G17
 -18799914.29848 -14608293.76047  21374146.1824   21374151.0954   21374146.454
        50.0004         45.0004
 -28267140.61548 -21972038.64248  20408466.2584   20408471.3474   20408465.632
        53.0004         49.0004
   -715312.98147   -533215.32646  24376553.3144   24376561.2234   24376553.487
        43.0004         38.0004
  -4487995.29446  -3446658.76746  24687137.2074   24687143.5324   24687136.965
        41.0004         37.0004
 -21403611.37448 -16671469.12547  21626552.8464   21626557.6044   21626553.280
        50.0004         45.0004
  -5642142.95847  -4392083.40246  23496791.1174   23496795.4484   23496791.519
        44.0004         40.0004
   5266740.10248   4107301.24748  21219390.8524   21219395.5274   21219391.020
        52.0004         48.0004
 -16485095.30348 -12818075.31147  21636481.1924   21636487.0144   21636481.142
        50.0004         45.0004
 -16577939.57348 -12864692.33047  21661491.5864   21661494.1884   21661491.545
        51.0004         46.0004
  -6297540.03047  -4853387.59146  23872982.3434   23872989.5024   23872981.230
        45.0004         41.0004
 14  5 23  1  6 30.0000000  0 10G08G04G26G05G10G07G09G28G02G17
 -18710887.70048 -14538922.14147  21391087.9634   21391092.1104   21391088.209
        50.0004         45.0004
 -28242058.80548 -21952494.40548  20413239.1834   20413244.6044   20413238.897
        53.0004         49.0004
   -699510.26547   -520901.40546  24379560.9204   24379566.9224   24379560.252
        43.0004         38.0004
  -4577268.18447  -3516221.87446  24670150.0044   24670156.8214   24670149.208
        42.0004         37.0004
 -21469913.53448 -16723133.16447  21613936.3264   21613940.7334   21613936.621
        50.0004         45.0004
  -5536740.83247  -4309951.84646  23516849.4054   23516853.1314   23516848.797
        44.0004         40.0004
   5343044.94648   4166759.59947  21233911.3954   21233915.6544   21233911.513
        52.0004         47.0004
 -16531892.45848 -12854540.58247  21627576.8014   21627581.7684   21627576.643
        50.0004         45.0004
 -16606730.92148 -12887127.13247  21656012.1024   21656015.6584   21656012.631
        51.0004         46.0004
  -6278717.76347  -4838720.88246  23876563.3344   23876569.6514   23876563.252
        45.0004         41.0004
 14  5 23  1  7  0.0000000  0 10G08G04G26G05G10G07G09G28G02G17
 -18621520.27048 -14469285.00747  21408093.4654   21408097.7364   21408093.581
        50.0004         45.0004
 -28216488.04848 -21932569.17048  20418104.8214   20418110.5654   20418104.647
        53.0004         49.0004
   -683759.19147   -508627.70546  24382556.8744   24382564.2034   24382557.354
        43.0004         38.0004
  -4666689.43447  -3585900.59546  24653134.0084   24653140.7494   24653133.125
        42.0004         37.0004
 -21536039.42948 -16774660.13047  21601353.0494   21601357.5764   21601353.576
        50.0004         46.0004
  -5431303.38947  -4227792.78146  23536913.5294   23536916.1184   23536912.754
        44.0004         39.0004
   5419644.07448   4226447.25047  21248487.8294   21248492.0354   21248487.808
        52.0004         47.0004
 -16578419.08448 -12890795.04247  21618722.5274   21618727.9664   21618722.922
        50.0004         46.0004
 -16635073.39148 -12909212.15547  21650618.3984   21650621.8314   21650618.637
        51.0004         46.0004
  -6260130.51147  -4824237.29546  23880100.0054   23880108.0604   23880099.431
        45.0004         40.0004
 14  5 23  1  7 30.0000000  0 10G08G04G26G05G10G07G09G28G02G17
 -18531817.11148 -14399386.34347  21425162.9794   21425167.3034   21425163.447
        50.0004         45.0004
 -28190431.92948 -21912265.73048  20423063.5824   20423069.2694   20423063.232
        53.0004         49.0004
   -668063.45947   -496397.15546  24385544.5084   24385552.3744   24385545.385
        43.0004         38.0004
  -4756258.56147  -3655694.54046  24636088.8034   24636094.4244   24636088.298
        42.0004         37.0004
 -21601986.84548 -16826047.92347  21588804.3674   21588808.6794   21588804.298
        50.0004         46.0004
  -5325834.98747  -4145609.59746  23556985.3564   23556987.1484   23556983.216
        44.0004         39.0004
   5496532.66448   4286360.44647  21263118.6754   21263123.6724   21263119.059
        52.0004         47.0004
 -16624674.10448 -12926837.86947  21609920.7124   21609926.2714   21609921.051
        50.0004         46.0004
 -16662968.61748 -12930948.68247  21645310.8724   21645314.0114   21645311.246
        51.0004         46.0004
  -6241780.14747  -4809938.31646  23883591.4854   23883599.5614   23883591.097
        45.0004         40.0004
 14  5 23  1  8  0.0000000  0 10G08G04G26G05G10G07G09G28G02G17
 -18441778.12148 -14329226.02947  21442297.2594   21442300.6824   21442297.444
        50.0004         45.0004
 -28163888.83448 -21891582.82648  20428114.1724   20428120.2584   20428113.796
        53.0004         49.0004
   -652421.80247   -484208.74746  24388520.5484   24388529.0924   24388520.552
        43.0004         38.0004
  -4845970.84547  -3725600.04946  24619017.4804   24619023.7864   24619016.897
        42.0004         38.0004
 -21667749.92048 -16877292.17247  21576289.2064   21576294.1734   21576290.263
        50.0004         46.0004
  -5220335.28047  -4063402.01346  23577059.2384   23577061.9594   23577059.070
        44.0004         39.0004
   5573710.83448   4346499.28647  21277805.6494   21277809.7654   21277805.597
        52.0004         47.0004
 -16670651.03148 -12962664.00347  21601171.6604   21601176.9694   21601171.706
        50.0004         46.0004
 -16690413.51948 -12952334.31347  21640087.5034   21640091.3414   21640088.284
        51.0004         46.0004
  -6223663.65447  -4795821.56646  23887039.6624   23887047.3854   23887038.885
        45.0004         40.0004
 14  5 23  1  8 30.0000000  0 10G08G04G26G05G10G07G09G28G02G17
 -18351409.57048 -14258808.78747  21459493.5504   21459498.0894   21459493.578
        50.0004         45.0004
 -28136863.49648 -21870524.15248  20433256.7444   20433262.7514   20433256.642
        53.0004         49.0004
   -636839.32347   -472066.42746  24391487.3704   24391493.3434   24391486.707
        43.0004         38.0004
  -4935827.26347  -3795617.88046  24601918.1374   24601923.2234   24601917.459
        42.0004         38.0004
 -21733328.09748 -16928392.10947  21563810.2484   21563815.0844   21563811.217
        50.0004         46.0004
  -5114809.97547  -3981174.49846  23597140.4874   23597143.7044   23597139.460
        44.0004         39.0004
   5651172.54148   4406859.07147  21292546.1984   21292550.4154   21292546.052
        52.0004         47.0004
 -16716350.06248 -12998273.58447  21592475.4034   21592481.0434   21592475.237
        50.0004         46.0004
 -16717411.03448 -12973371.32247  21634950.4204   21634953.5634   21634951.005
        51.0004         46.0004
  -6205784.61747  -4781889.85346  23890440.8974   23890449.1084   23890441.242
        45.0004         40.0004
 14  5 23  1  9  0.0000000  0 10G08G04G26G05G10G07G09G28G02G17
 -18260712.97148 -14188135.95547  21476752.3364   21476756.5494   21476752.742
        50.0004         46.0004
 -28109355.76848 -21849089.57748  20438491.8894   20438497.1704   20438491.322
        53.0004         49.0004
   -621315.67447   -459969.96646  24394440.6224   24394447.6964   24394439.768
        43.0004         38.0004
  -5025823.84947  -3865744.91646  24584792.8664   24584798.5274   24584792.146
        43.0004         38.0004
 -21798716.73448 -16979344.38747  21551367.5764   21551371.9914   21551368.264
        50.0004         46.0004
  -5009259.52947  -3898927.39646  23617224.6814   23617229.7744   23617225.362
        44.0004         39.0004
   5728916.93048   4467439.12647  21307340.3294   21307345.0094   21307340.608
        52.0004         47.0004
 -16761765.84448 -13033662.46947  21583833.5554   21583838.6384   21583833.237
        50.0004         46.0004
 -16743958.80948 -12994057.88747  21629898.6644   21629901.7614   21629898.683
        51.0004         46.0004
  -6188141.11947  -4768141.67646  23893798.3304   23893807.1824   23893798.651
        45.0004         40.0004
 14  5 23  1  9 30.0000000  0 10G08G04G26G05G10G07G09G28G02G17
 -18169693.38848 -14117212.01547  21494072.2534   21494078.0044   21494073.570
        49.0004         43.0004
 -28081368.19548 -21827281.09948  20443817.7414   20443823.4304   20443817.290
        53.0004         49.0004
   -605853.92447   -447921.72646  24397382.0654   24397389.6794   24397381.604
        43.0004         38.0004
  -5115959.44347  -3935980.30946  24567638.4914   24567646.1424   24567640.294
        43.0004         38.0004
 -21863913.40548 -17030146.82747  21538961.2524   21538965.9554   21538961.690
        50.0004         46.0004
  -4903687.74347  -3816663.68146  23637315.1334   23637318.4154   23637314.442
        44.0004         39.0004
   5806939.77648   4528236.14047  21322187.7294   21322192.0954   21322187.680
        52.0004         47.0004
 -16806896.53448 -13068829.18047  21575244.2974   21575249.5574   21575244.817
        50.0004         45.0004
 -16770057.92848 -13014394.85147  21624932.5714   21624935.4374   21624932.623
        51.0004         46.0004
  -6170734.31747  -4754577.92746  23897111.7244   23897118.4354   23897111.304
        45.0004         40.0004
 14  5 23  1 10  0.0000000  0 10G08G04G26G05G10G07G09G28G02G17
 -18078353.65948 -14046037.94647  21511454.4564   21511458.9764   21511454.408
        49.0004         45.0004
 -28052904.11548 -21805101.32248  20449234.0854   20449239.6064   20449233.693
        53.0004         49.0004
   -590457.65247   -435924.50846  24400311.0024   24400319.9874   24400311.289
        43.0004         38.0004
  -5206234.28247  -4006324.18246  24550461.7814   24550465.9854   24550461.619
        43.0004         38.0004
 -21928917.33448 -17080799.17447  21526590.9924   21526596.0394   21526591.944
        50.0004         46.0004
  -4798098.41647  -3734386.28146  23657407.2854   23657412.3414   23657408.018
        44.0004         39.0004
   5885236.53648   4589246.57147  21337087.3074   21337091.7674   21337086.944
        52.0004         47.0004
 -16851740.50348 -13103772.49247  21566711.3394   21566716.2504   21566711.516
        50.0004         46.0004
 -16795710.08848 -13034383.53747  21620050.8874   21620053.5554   21620050.969
        51.0004         46.0004
  -6153565.77547  -4741199.84346  23900377.6254   23900385.8584   23900377.957
        45.0004         40.0004
 14  5 23  1 10 30.0000000  0 10G08G04G26G05G10G07G09G28G02G17
 -17986695.43748 -13974615.96547  21528896.3944   21528900.1544   21528897.050
        50.0004         45.0004
 -28023962.18948 -21782549.19148  20454741.1954   20454747.0634   20454741.039
        53.0004         49.0004
   -575125.39747   -423977.19046  24403229.9234   24403236.1854   24403229.756
        42.0004         38.0004
  -5296642.85547  -4076772.27846  24533257.2664   24533261.9604   24533256.437
        43.0004         38.0004
 -21993721.89248 -17131296.27147  21514259.2944   21514263.5814   21514259.879
        50.0004         46.0004
  -4692491.07347  -3652094.85046  23677505.1924   23677508.7614   23677504.006
        44.0004         39.0004
   5963807.70648   4650470.83147  21352038.9924   21352043.0974   21352038.850
        52.0004         47.0004
 -16896291.71248 -13138487.68047  21558232.6104   21558238.9224   21558233.197
        50.0004         46.0004
 -16820912.15048 -13054021.49447  21615254.8144   21615258.3284   21615255.078
        51.0004         46.0004
  -6136632.79747  -4728005.30646  23903601.2444   23903608.7124   23903600.154
        45.0004         40.0004
 14  5 23  1 11  0.0000000  0 10G08G04G26G05G10G07G09G28G02G17
 -17894724.48748 -13902950.26047  21546398.3034   21546402.6864   21546397.816
        49.0004         45.0004
 -27994547.27348 -21759628.51048  20460339.0594   20460345.0414   20460338.512
        53.0004         49.0004
   -559862.12847   -412083.62646  24406134.4884   24406142.7514   24406133.359
        43.0004         38.0004
  -5387186.84647  -4147325.88946  24516028.0334   24516033.0264   24516025.984
        42.0004         38.0004
 -22058326.94048 -17181637.83047  21501964.8544   21501970.4644   21501965.990
        50.0004         46.0004
  -4586871.36347  -3569793.78746  23697602.4094   23697607.5034   23697602.756
        44.0004         39.0004
   6042646.89748   4711903.95747  21367041.1934   21367045.8614   21367041.243
        52.0004         47.0004
 -16940550.06148 -13172974.66047  21549810.9704   21549816.0034   21549811.213
        50.0004         46.0004
 -16845667.03448 -13073310.99747  21610543.9254   21610547.7514   21610544.313
        51.0004         46.0004
  -6119938.67347  -4714996.89146  23906777.2044   23906784.5404   23906777.488
        44.0004         40.0004
 14  5 23  1 11 30.0000000  0 10G08G04G26G05G10G07G09G28G02G17
 -17802445.26748 -13831044.63847  21563958.2344   21563961.7784   21563958.205
        49.0004         45.0004
 -27964661.24748 -21736340.72848  20466025.9604   20466031.9234   20466025.750
        53.0004         49.0004
   -544669.89047   -400245.40946  24409023.8844   24409033.9934   24409024.962
        42.0004         38.0004
  -5477863.99647  -4217983.26646  24498770.2814   24498777.6034   24498770.440
        42.0004         38.0004
 -22122729.95448 -17231821.99547  21489710.2224   21489715.0024   21489710.336
        51.0004         46.0004
  -4481242.20147  -3487485.35946  23717704.2374   23717707.4524   23717703.204
        44.0004         39.0004
   6121751.01948   4773543.52047  21382094.6684   21382098.5744   21382094.569
        52.0004         47.0004
 -16984512.64248 -13207231.16447  21541445.2484   21541450.1854   21541445.401
        50.0004         45.0004
 -16869974.78648 -13092252.10047  21605919.1134   21605921.5014   21605919.591
        51.0004         46.0004
  -6103483.39547  -4702174.61346  23909909.1824   23909915.7594   23909908.346
        44.0004         39.0004
 14  5 23  1 12  0.0000000  0 10G08G04G26G05G10G07G09G28G02G17
 -17709858.38748 -13758899.05747  21581576.6284   21581580.8514   21581577.396
        49.0004         45.0004
 -27934305.05448 -21712686.58948  20471802.7174   20471808.1714   20471802.453
        53.0004         48.0004
   -529549.30247   -388463.01446  24411901.5824   24411909.6734   24411901.373
        43.0004         38.0004
  -5568671.12247  -4288741.92846  24481492.1554   24481497.8604   24481490.966
        42.0004         38.0004
 -22186926.32848 -17281845.09447  21477492.9154   21477497.9754   21477494.480
        51.0004         46.0004
  -4375604.62447  -3405170.36646  23737805.5384   23737810.5474   23737805.018
        44.0004         39.0004
   6201118.39948   4835388.22847  21397197.3434   21397202.0504   21397197.333
        52.0004         47.0004
 -17028175.15848 -13241253.84247  21533136.4954   21533141.8254   21533136.743
        50.0004         46.0004
 -16893834.29448 -13110843.91747  21601378.3024   21601381.9904   21601377.804
        51.0004         46.0004
  -6087266.02047  -4689537.71046  23912995.7004   23913003.1994   23912994.629
        44.0004         40.0004
 14  5 23  1 12 30.0000000  0 10G08G04G26G05G10G07G09G28G02G17
 -17616965.61148 -13686515.10447  21599253.0764   21599257.8174   21599253.902
        49.0004         45.0004
 -27903477.64648 -21688665.26848  20477668.8694   20477674.4944   20477668.845
        53.0004         49.0004
   -514500.23347   -376736.34546  24414766.5214   24414773.4314   24414765.896
        43.0004         38.0004
  -5659604.21847  -4359598.73446  24464186.0514   24464193.0434   24464186.636
        42.0004         38.0004
 -22250910.70948 -17331702.90147  21465318.2924   21465322.9964   21465318.097
        51.0004         46.0004
  -4269959.21747  -3322849.28546  23757909.1664   23757913.3384   23757908.441
        43.0004         39.0004
   6280748.33348   4897437.52547  21412350.5484   21412354.9824   21412350.291
        52.0004         47.0004
 -17071532.63148 -13275038.83847  21524885.3654   21524891.3174   21524886.095
        50.0004         46.0004
 -16917243.45248 -13129084.80947  21596923.7394   21596926.9644   21596923.969
        51.0004         46.0004
  -6071284.65047  -4677084.69946  23916036.2314   23916044.2554   23916035.653
        44.0004         40.0004
 14  5 23  1 13  0.0000000  0 10G08G04G26G05G10G07G09G28G02G17
 -17523774.96248 -13613898.99747  21616986.5254   21616992.1994   21616987.824
        49.0004         45.0004
 -27872186.36348 -21664282.48648  20483623.5534   20483629.3664   20483623.203
        53.0004         49.0004
   -499529.09847   -365070.42246  24417614.6454   24417621.5954   24417614.553
        43.0004         38.0004
  -5750665.96847  -4430555.79946  24446858.7524   24446864.2694   24446858.012
        43.0004         38.0004
 -22314685.06048 -17381397.11147  21453181.4614   21453186.6974   21453182.221
        51.0004         46.0004
  -4164313.21547  -3240527.74546  23778012.2754   23778018.6074   23778012.606
        43.0004         39.0004
   6360632.81748   4959685.16847  21427551.7444   21427556.4754   21427551.659
        52.0004         47.0004
 -17114586.98148 -13308587.61447  21516692.6484   21516698.1804   21516692.890
        50.0004         46.0004
 -16940207.49248 -13146978.85947  21592553.6224   21592556.8694   21592554.203
        51.0004         46.0004
  -6055543.93047  -4664819.21846  23919031.0844   23919038.3174   23919031.687
        44.0004         39.0004
 14  5 23  1 13 30.0000000  0 10G08G04G26G05G10G07G09G28G02G17
 -17430288.93648 -13541052.76547  21634777.1224   21634781.4544   21634777.388
        49.0004         46.0004
 -27840431.73548 -21639538.65248  20489666.6184   20489672.3374   20489666.299
        53.0004         49.0004
   -484636.76247   -353465.89546  24420449.1204   24420455.3864   24420448.323
        43.0004         38.0004
  -5841853.52947  -4501610.91146  24429505.6834   24429511.2374   24429505.817
        43.0004         39.0004
 -22378245.71448 -17430924.97747  21441086.6084   21441090.9894   21441086.908
        51.0004         46.0004
  -4058668.02047  -3158206.82846  23798117.0594   23798120.9344   23798116.465
        43.0004         39.0004
   6440769.85848   5022129.62647  21442801.4124   21442805.6964   21442801.305
        51.0004         47.0004
 -17157333.62648 -13341896.64147  21508558.1724   21508563.9784   21508558.652
        50.0004         46.0004
 -16962725.15448 -13164525.08847  21588268.9264   21588272.1584   21588268.709
        51.0004         46.0004
  -6040042.87847  -4652740.48346  23921980.8544   23921988.5774   23921980.685
        44.0004         40.0004
 14  5 23  1 14  0.0000000  0 10G08G04G26G05G10G07G09G28G02G17
 -17336508.58248 -13467977.31847  21652622.8624   21652627.3064   21652623.143
        49.0004         44.0004
 -27808213.35448 -21614433.45848  20495797.6674   20495803.2154   20495797.114
        53.0004         49.0004
   -469822.68847   -341922.35746  24423267.5284   24423275.5824   24423266.409
        43.0004         38.0004
  -5933162.31547  -4572760.47446  24412131.1534   24412135.2354   24412130.730
        43.0004         39.0004
 -22441586.61548 -17480281.57547  21429033.2894   21429038.4834   21429034.021
        51.0004         46.0004
  -3953024.04747  -3075886.87146  23818220.1674   23818224.2954   23818220.047
        43.0004         39.0004
   6521158.99248   5084770.51447  21458099.1314   21458103.4484   21458099.052
        51.0004         47.0004
 -17199767.38448 -13374961.84747  21500483.6134   21500489.3484   21500483.529
        50.0004         46.0004
 -16984794.29848 -13181721.80947  21584069.0434   21584072.5724   21584069.096
        51.0004         46.0004
  -6024779.35147  -4640846.82846  23924885.2934   23924893.0944   23924885.447
        44.0004         40.0004
 14  5 23  1 14 30.0000000  0 10G08G04G26G05G10G07G09G28G02G17
 -17242440.50948 -13394677.51847  21670523.2124   21670528.1974   21670523.532
        49.0004         45.0004
 -27775536.87948 -21588971.30848  20502015.9694   20502020.9964   20502015.322
        53.0004         49.0004
   -455092.66547   -330444.31746  24426069.8514   24426078.0184   24426070.710
        42.0004         38.0004
  -6024594.48647  -4644006.18046  24394732.0364   24394737.1614   24394731.348
        44.0004         39.0004
 -22504708.89448 -17529467.86247  21417022.0424   21417026.2974   21417022.069
        51.0004         46.0004
  -3847387.50347  -2993572.69546  23838322.2594   23838326.1304   23838322.317
        43.0004         39.0004
   6601793.25748   5147602.40447  21473443.0164   21473447.5544   21473443.182
        51.0004         47.0004
 -17241889.35748 -13407784.08547  21492467.4304   21492473.4094   21492467.974
        50.0004         46.0004
 -17006418.82648 -13198572.08647  21579954.2104   21579957.2184   21579954.664
        51.0004         46.0004
  -6009757.45147  -4629141.46146  23927744.4994   23927751.4274   23927744.145
        44.0004         40.0004
 14  5 23  1 15  0.0000000  0 10G08G04G26G05G10G07G09G28G02G17
 -17148084.20848 -13321153.20247  21688478.8614   21688483.3254   21688479.328
        49.0004         44.0004
 -27742400.24548 -21563150.59048  20508321.3264   20508327.0004   20508320.742
        53.0004         48.0004
   -440444.32947   -319029.93046  24428857.5724   24428866.2974   24428857.923
        42.0004         38.0004
  -6116143.47447  -4715342.92146  24377310.4084   24377316.2274   24377309.690
        44.0004         39.0004
 -22567604.62648 -17578477.48947  21405052.9404   21405057.7844   21405053.828
        51.0004         46.0004
  -3741756.58147  -2911262.90446  23858423.0434   23858427.2484   23858423.176
        43.0004         38.0004
   6682673.68748   5210626.09947  21488834.5194   21488838.8954   21488834.389
        51.0004         47.0004
 -17283692.36748 -13440357.77647  21484512.5964   21484517.9284   21484512.906
        50.0004         46.0004
 -17027595.01748 -13215073.00947  21575923.9604   21575927.3794   21575924.222
        51.0004         46.0004
  -5994972.52347  -4617620.74346  23930557.1534   23930565.2244   23930557.122
        44.0004         40.0004
 14  5 23  1 15 30.0000000  0 10G08G04G26G05G10G07G09G28G02G17
 -17053444.45848 -13247407.69547  21706488.9714   21706492.7064   21706488.564
        48.0004         44.0004
 -27708807.56448 -21536974.51848  20514713.4294   20514719.2184   20514713.199
        53.0004         48.0004
   -425881.63347   -307682.27146  24431628.3024   24431635.8564   24431627.961
        42.0004         38.0004
  -6207809.77747  -4786771.06846  24359867.1854   24359872.9484   24359866.025
        44.0004         39.0004
 -22630273.52248 -17627310.32047  21393127.6214   21393132.0444   21393127.929
        51.0004         45.0004
  -3636136.25547  -2828961.36146  23878522.0224   23878526.5004   23878521.557
        43.0004         39.0004
   6763795.20748   5273837.63647  21504271.2384   21504275.9264   21504271.296
        51.0004         47.0004
 -17325175.20848 -13472681.99647  21476619.3494   21476624.0694   21476619.391
        50.0004         46.0004
 -17048324.93748 -13231226.18747  21571979.4504   21571983.1124   21571980.294
        51.0004         46.0004
  -5980427.35247  -4606286.84646  23933325.3174   23933333.9734   23933324.939
        44.0004         39.0004
 14  5 23  1 16  0.0000000  0 10G08G04G26G05G10G07G09G28G02G17
 -16958526.62948 -13173445.47747  21724550.2014   21724555.2934   21724550.297
        49.0004         43.0004
 -27674761.90648 -21510445.47348  20521192.5834   20521197.6054   20521192.224
        53.0004         48.0004
   -411407.66247   -296403.74546  24434383.1674   24434389.5574   24434383.368
        42.0004         38.0004
  -6299592.22747  -4858289.72546  24342400.4694   24342406.2634   24342400.048
        44.0004         39.0004
 -22692713.33148 -17675964.69747  21381245.4484   21381250.6034   21381246.288
        51.0004         46.0004
  -3530529.93347  -2746670.74646  23898617.3864   23898622.0284   23898617.416
        43.0004         39.0004
   6845153.66648   5337233.81047  21519753.1514   21519757.9514   21519753.040
        51.0004         47.0004
 -17366336.52748 -13504755.72647  21468786.5164   21468790.8684   21468786.352
        50.0004         46.0004
 -17068610.15748 -13247032.85347  21568119.4014   21568122.7584   21568119.557
        51.0004         46.0004
  -5966123.18247  -4595140.74446  23936047.1324   23936056.4944   23936047.582
        44.0004         39.0004
 14  5 23  1 16 30.0000000  0 10G08G04G26G05G10G07G09G28G02G17
 -16863334.18148 -13099269.80047  21742664.8934   21742669.2984   21742665.402
        49.0004         44.0004
 -27640264.49448 -21483564.41548  20527756.9074   20527762.8134   20527756.737
        53.0004         48.0004
   -397023.24247   -285195.01546  24437120.3794   24437126.4794   24437120.141
        42.0004         38.0004
  -6391487.78047  -4929896.51946  24324913.8964   24324918.6114   24324913.264
        44.0004         39.0004
 -22754920.81348 -17724438.33947  21369407.8074   21369412.1104   21369408.601
        51.0004         46.0004
  -3424939.25447  -2664392.33046  23918710.2154   23918715.4254   23918710.729
        43.0004         38.0004
   6926747.05348   5400813.04447  21535280.1474   21535283.9714   21535279.868
        51.0004         47.0004
 -17407172.16148 -13536575.56547  21461015.5844   21461020.4064   21461015.513
        50.0004         46.0004
 -17088450.15548 -13262492.58247  21564344.2484   21564347.1554   21564344.202
        51.0004         46.0004
  -5952058.58047  -4584181.30946  23938724.5674   23938731.5734   23938723.820
        44.0004         40.0004
 14  5 23  1 17  0.0000000  0 10G08G04G26G05G10G07G09G28G02G17
 -16767869.04348 -13024881.42047  21760831.9824   21760837.5254   21760831.548
        48.0004         42.0004
 -27605317.29848 -21456332.87848  20534407.8424   20534413.1054   20534407.310
        53.0004         49.0004
   -382730.29947   -274057.55546  24439840.6754   24439847.1584   24439839.924
        42.0004         37.0004
  -6483494.66447  -5001590.06746  24307404.3584   24307409.5444   24307404.530
        43.0004         39.0004
 -22816891.88048 -17772727.50847  21357614.7634   21357620.4044   21357615.719
        51.0004         47.0004
  -3319366.76647  -2582128.10146  23938801.3274   23938806.1764   23938800.842
        43.0004         38.0004
   7008572.22648   5464572.90247  21550850.8784   21550855.9184   21550850.782
        51.0004         47.0004
 -17447679.25448 -13568139.44947  21453307.0534   21453312.0004   21453307.144
        50.0004         46.0004
 -17107845.08748 -13277605.51547  21560653.3134   21560656.3854   21560653.616
        51.0004         46.0004
  -5938234.05847  -4573408.95546  23941355.2014   23941362.2624   23941354.334
        44.0004         39.0004
 14  5 23  1 17 30.0000000  0 10G08G04G26G05G10G07G09G28G02G17
 -16672134.90748 -12950283.43747  21779049.3424   21779053.8834   21779049.623
        49.0004         44.0004
 -27569922.65948 -21428752.68348  20541142.4054   20541148.1864   20541142.076
        53.0004         48.0004
   -368531.03147   -262993.08946  24442541.7274   24442548.8924   24442541.253
        42.0004         37.0004
  -6575610.98747  -5073368.88946  24289875.4344   24289880.9294   24289875.464
        43.0004         39.0004
 -22878624.55648 -17820830.99047  21345868.2744   21345873.3784   21345868.603
        51.0004         47.0004
  -3213815.41647  -2499880.33746  23958887.8664   23958891.2074   23958886.544
        43.0004         38.0004
   7090625.55448   5528510.56447  21566464.7804   21566469.3324   21566464.784
        51.0004         46.0004
 -17487855.58748 -13599445.58247  21445661.6744   21445666.4224   21445661.715
        50.0004         46.0004
 -17126795.59448 -13292372.13947  21557047.1424   21557050.9284   21557047.363
        51.0004         47.0004
  -5924650.10447  -4562824.04946  23943940.3914   23943947.1494   23943939.378
        44.0004         40.0004
 14  5 23  1 18  0.0000000  0 10G08G04G26G05G10G07G09G28G02G17
 -16576133.87048 -12875477.33047  21797317.2744   21797322.0884   21797317.740
        48.0004         44.0004
 -27534081.64148 -21400824.65648  20547963.1374   20547969.0504   20547962.784
        53.0004         48.0004
   -354426.08647   -252002.13746  24445226.3954   24445233.3914   24445226.206
        42.0004         38.0004
  -6667833.96247  -5145230.83946  24272326.7344   24272331.0464   24272325.448
        43.0004         39.0004
 -22940114.28548 -17868745.11247  21334166.5444   21334172.2944   21334167.439
        51.0004         47.0004
  -3108286.45247  -2417650.01946  23978969.6004   23978971.2594   23978968.331
        43.0004         38.0004
   7172905.28348   5592624.64647  21582122.3054   21582127.2614   21582122.012
        51.0004         47.0004
 -17527697.12848 -13630490.92547  21438080.1904   21438085.5134   21438080.200
        50.0004         46.0004
 -17145300.85748 -13306791.82547  21553525.4534   21553529.2134   21553525.796
        51.0004         46.0004
  -5911305.34947  -4552425.51846  23946479.2744   23946486.1784   23946478.818
        44.0004         40.0004
 14  5 23  1 18 30.0000000  0 10G08G04G26G05G10G07G09G28G02G17
 -16479871.34348 -12800467.44447  21815635.5124   21815639.7424   21815635.606
        48.0004         44.0004
 -27497798.35748 -21372552.02048  20554867.6834   20554873.3424   20554867.189
        53.0004         48.0004
   -340419.22447   -241087.61046  24447891.3254   24447898.5634   24447891.543
        42.0004         38.0004
  -6760163.38947  -5217175.73346  24254756.0464   24254760.6214   24254755.993
        43.0004         39.0004
 -23001360.54048 -17916469.79447  21322512.4204   21322517.1944   21322512.890
        51.0004         46.0004
  -3002784.31147  -2335440.59646  23999045.5224   23999049.5054   23999044.956
        43.0004         38.0004
   7255406.49248   5656911.29347  21597821.5744   21597826.9174   21597822.047
        51.0004         47.0004
 -17567202.60348 -13661274.39247  21430562.4504   21430567.6454   21430562.381
        51.0004         46.0004
 -17163363.25948 -13320866.41847  21550088.5344   21550091.4204   21550089.111
        51.0004         46.0004
  -5898201.76147  -4542214.92846  23948973.3684   23948980.0924   23948972.356
        44.0004         40.0004
 14  5 23  1 19  0.0000000  0 10G08G04G26G05G10G07G09G28G02G17
 -16383350.96048 -12725256.84447  21834002.3874   21834007.8484   21834003.030
        49.0004         44.0004
 -27461074.27048 -21343935.89448  20561855.9254   20561861.8534   20561855.667
        53.0004         48.0004
   -326511.98347   -230250.69246  24450538.0994   24450545.4504   24450536.823
        43.0004         38.0004
  -6852596.69847  -5289201.58846  24237167.0524   24237172.6294   24237166.296
        44.0004         39.0004
 -23062359.08448 -17964001.17247  21310904.6674   21310909.8044   21310905.378
        51.0004         47.0004
  -2897311.10847  -2253253.74046  24019116.0764   24019119.2854   24019115.263
        43.0004         38.0004
   7338126.62748   5721368.51647  21613562.8664   21613567.8034   21613563.158
        51.0004         47.0004
 -17606368.81048 -13691793.49847  21423109.0404   21423114.7984   21423109.590
        51.0004         46.0004
 -17180982.87948 -13334595.99247  21546735.3854   21546738.7574   21546735.843
        51.0004         46.0004
  -5885338.86747  -4532191.87446  23951419.6074   23951428.9354   23951419.960
        45.0004         40.0004
 14  5 23  1 19 30.0000000  0 10G08G04G26G05G10G07G09G28G02G17
 -16286574.94348 -12649847.07647  21852419.0574   21852422.3654   21852419.348
        48.0004         44.0004
 -27423910.87948 -21314977.45648  20568928.4854   20568933.6664   20568927.713
        53.0004         48.0004
   -312705.01247   -219491.92746  24453165.4534   24453172.1694   24453165.723
        43.0004         38.0004
  -6945130.69247  -5361305.89346  24219559.1054   24219562.5664   24219557.992
        44.0004         39.0004
 -23123106.22948 -18011336.60647  21299344.9914   21299350.0704   21299345.470
        51.0004         47.0004
  -2791868.33047  -2171090.57646  24039179.6844   24039185.3824   24039180.443
        42.0004         38.0004
   7421063.46248   5785994.60347  21629345.6304   21629350.2584   21629345.241
        51.0004         47.0004
 -17645191.79748 -13722045.08647  21415721.4984   21415725.8874   21415721.898
        51.0004         46.0004
 -17198159.01148 -13347979.98647  21543467.0174   21543470.4694   21543467.567
        51.0004         46.0004
  -5872715.74247  -4522355.65846  23953822.9884   23953831.0034   23953822.551
        45.0004         40.0004
 14  5 23  1 20  0.0000000  0 10G08G04G26G05G10G07G09G28G02G17
 -16189548.45448 -12574241.86347  21870881.2454   21870886.6874   21870882.406
        48.0004         44.0004
 -27386312.56348 -21285680.11548  20576082.8334   20576088.5054   20576082.310
        53.0004         48.0004
   -299002.83847   -208814.84946  24455773.1214   24455778.9624   24455773.393
        43.0004         38.0004
  -7037765.90247  -5433489.06246  24201931.0324   24201935.2154   24201930.171
        44.0004         39.0004
 -23183601.88548 -18058476.22047  21287832.5504   21287838.1304   21287833.653
        51.0004         46.0004
  -2686461.03147  -2088955.08346  24059240.2404   24059242.5894   24059239.132
        42.0004         38.0004
   7504211.37648   5850785.16947  21645168.0904   21645172.0754   21645167.984
        51.0004         46.0004
 -17683671.56848 -13752029.26447  21408399.0804   21408403.7684   21408399.187
        51.0004         45.0004
 -17214894.70448 -13361020.78647  21540282.2174   21540285.8434   21540282.842
        51.0004         46.0004
  -5860334.70147  -4512708.09146  23956179.0844   23956185.9504   23956177.737
        44.0004         40.0004
 14  5 23  1 20 30.0000000  0 10G08G04G26G05G10G07G09G28G02G17
 -16092271.83148 -12498441.73747  21889393.7224   21889398.0334   21889393.683
        48.0004         43.0004
 -27348278.28048 -21256043.05748  20583320.5654   20583326.5374   20583320.335
        53.0004         48.0004
   -285403.74247   -198218.05846  24458359.7764   24458367.9564   24458359.802
        43.0004         38.0004
  -7130496.35047  -5505746.44446  24184284.0524   24184288.9824   24184284.241
        44.0004         39.0004
 -23243839.08148 -18105414.37147  21276370.3984   21276375.1334   21276370.916
        51.0004         47.0004
  -2581088.06147  -2006846.32946  24079291.2514   24079295.1824   24079291.118
        42.0004         38.0004
   7587570.87548   5915740.59847  21661030.5854   21661035.1204   21661030.728
        51.0004         46.0004
 -17721801.88148 -13781741.22347  21401142.8914   21401148.3774   21401143.170
        51.0004         47.0004
 -17231186.96348 -13373716.05947  21537182.2634   21537185.4604   21537182.523
        51.0004         47.0004
  -5848192.66847  -4503246.75146  23958489.1434   23958496.1984   23958488.570
        44.0004         40.0004
 14  5 23  1 21  0.0000000  0 10G08G04G26G05G10G07G09G28G02G17
 -15994753.02848 -12422453.15347  21907950.7604   21907955.5564   21907950.784
        48.0004         44.0004
 -27309814.09848 -21226071.01648  20590640.2334   20590646.1114   20590639.833
        53.0004         48.0004
   -271913.51547   -187706.11146  24460927.5614   24460934.8364   24460927.824
        43.0004         38.0004
  -7223324.78547  -5578080.17746  24166619.9464   24166623.6694   24166618.797
        44.0004         39.0004
 -23303818.72448 -18152151.68347  21264956.8564   21264961.7464   21264957.205
        51.0004         47.0004
  -2475755.86847  -1924769.36046  24099336.4574   24099339.0944   24099334.942
        42.0004         38.0004
   7671134.76448   5980855.30447  21676932.1994   21676936.6854   21676932.108
        51.0004         46.0004
 -17759583.63848 -13811181.62147  21393953.2824   21393958.4814   21393953.640
        51.0004         46.0004
 -17247040.21748 -13386069.24547  21534164.8224   21534168.8694   21534165.583
        51.0004         47.0004
  -5836293.63947  -4493974.76746  23960752.5934   23960761.1694   23960752.489
        44.0004         40.0004
 14  5 23  1 21 30.0000000  0 10G08G04G26G05G10G07G09G28G02G17
 -15896991.60148 -12346275.55947  21926554.6034   21926556.6304   21926554.533
        48.0004         44.0004
 -27270918.75448 -21195763.00348  20598041.8364   20598047.5154   20598041.200
        53.0004         48.0004
   -258530.48347   -177277.70746  24463474.0754   24463481.1344   24463474.121
        43.0004         38.0004
  -7316245.47247  -5650485.79746  24148937.2464   24148942.2824   24148936.818
        44.0004         39.0004
 -23363534.59048 -18198683.52547  21253592.8814   21253598.3084   21253593.662
        51.0004         47.0004
  -2370463.47147  -1842723.39946  24119371.8434   24119375.2654   24119371.439
        42.0004         38.0004
   7754903.38848   6046129.53847  21692873.1154   21692877.4604   21692873.052
        51.0004         46.0004
 -17797010.52848 -13840345.41747  21386831.3214   21386836.2734   21386831.576
        51.0004         46.0004
 -17262451.59048 -13398078.10947  21531233.0374   21531235.9404   21531232.967
        51.0004         47.0004
  -5824633.77847  -4484889.15846  23962971.9504   23962980.3274   23962971.682
        44.0004         40.0004
 14  5 23  1 22  0.0000000  0 10G08G04G26G05G10G07G09G28G02G17
 -15798991.32848 -12269911.80347  21945202.1314   21945207.1544   21945202.874
        48.0004         43.0004
 -27231594.91248 -21165121.09748  20605524.6494   20605530.5734   20605524.183
        53.0004         48.0004
   -245256.88147   -166934.54246  24466000.1584   24466006.6384   24465999.809
        43.0004         38.0004
  -7409256.80347  -5722962.04846  24131237.5034   24131242.1824   24131237.320
        44.0004         39.0004
 -23422983.88948 -18245007.60847  21242280.1934   21242285.3494   21242281.043
        51.0004         47.0004
  -2265213.72147  -1760710.67346  24139400.3944   24139403.7984   24139400.036
        42.0004         38.0004
   7838873.53948   6111560.80147  21708852.1354   21708856.5514   21708852.154
        51.0004         46.0004
 -17834080.42148 -13869231.11747  21379777.4284   21379781.9204   21379777.686
        51.0004         46.0004
 -17277422.04948 -13409743.40747  21528384.2534   21528387.0034   21528384.281
        51.0004         47.0004
  -5813213.98647  -4475990.61346  23965144.6764   23965153.2584   23965144.907
        45.0004         40.0004
 14  5 23  1 22 30.0000000  0 10G08G04G26G05G10G07G09G28G02G17
 -15700756.38148 -12193365.21947  21963896.4124   21963900.5554   21963897.074
        48.0004         43.0004
 -27191845.82048 -21134147.82448  20613088.8464   20613094.6964   20613088.413
        53.0004         48.0004
   -232095.49947   -156678.85546  24468504.1114   24468511.9764   24468504.051
        43.0004         38.0004
  -7502357.05347  -5795507.59046  24113521.3744   24113525.3584   24113520.653
        44.0004         39.0004
 -23482164.93248 -18291122.70447  21231018.5874   21231023.2314   21231019.030
        51.0004         47.0004
  -2160010.24447  -1678733.98746  24159421.0824   24159424.9974   24159419.950
        42.0004         38.0004
   7923040.84248   6177145.67947  21724868.7034   21724873.4464   21724868.576
        51.0004         46.0004
 -17870791.24948 -13897836.95847  21372791.4154   21372796.5234   21372791.778
        51.0004         46.0004
 -17291952.97048 -13421066.20447  21525618.8674   21525622.1234   21525619.109
        51.0004         47.0004
  -5802034.51547  -4467279.33546  23967273.0764   23967280.6834   23967272.449
        45.0004         40.0004
 14  5 23  1 23  0.0000000  0 10G08G04G26G05G10G07G09G28G02G17
 -15602291.61548 -12116639.19047  21982634.6844   21982637.2484   21982633.494
        48.0004         43.0004
 -27151675.82948 -21102846.58348  20620733.2584   20620739.1574   20620732.577
        53.0004         48.0004
   -219050.19147   -146513.58946  24470986.6894   24470993.0954   24470986.743
        43.0004         38.0004
  -7595546.52947  -5868122.67346  24095788.3654   24095792.6774   24095787.331
        44.0004         39.0004
 -23541076.95248 -18337028.23147  21219808.3044   21219812.3454   21219808.771
        51.0004         47.0004
  -2054857.26047  -1596796.67846  24179430.7764   24179433.8694   24179430.014
        42.0004         38.0004
   8007400.30548   6242880.29047  21740921.4304   21740926.4254   21740921.515
        51.0004         46.0004
 -17907142.39548 -13926162.51747  21365873.9034   21365879.2284   21365874.412
        51.0004         46.0004
 -17306046.99748 -13432048.57547  21522936.3784   21522940.6004   21522937.036
        51.0004         47.0004
  -5791097.82847  -4458757.24346  23969353.2764   23969361.3434   23969353.303
        45.0004         40.0004
 14  5 23  1 23 30.0000000  0 10G08G04G26G05G10G07G09G28G02G17
 -15503597.42948 -12039734.56047  22001413.7664   22001418.1924   22001414.268
        48.0004         43.0004
 -27111083.10148 -21071215.93048  20628457.5674   20628463.8044   20628457.143
        53.0004         48.0004
   -206118.73547   -136437.06646  24473447.3444   24473453.7424   24473447.943
        43.0004         38.0004
  -7688818.80347  -5940802.27046  24078038.9924   24078043.1404   24078037.408
        44.0004         39.0004
 -23599712.61348 -18382718.40447  21208650.2054   21208655.1244   21208650.490
        51.0004         47.0004
  -1949753.30547  -1514897.53146  24199431.5204   24199435.0484   24199430.215
        42.0004         38.0004
   8091952.98248   6308765.47147  21757012.0274   21757016.2434   21757011.751
        51.0004         46.0004
 -17943127.11048 -13954202.53147  21359026.1824   21359031.0754   21359026.555
        51.0004         46.0004
 -17319700.89548 -13442687.98447  21520338.5104   21520341.6944   21520338.548
        51.0004         47.0004
  -5780399.68547  -4450421.02646  23971389.4794   23971396.8544   23971389.425
        45.0004         40.0004
 14  5 23  1 24  0.0000000  0 10G08G04G26G05G10G07G09G28G02G17
 -15404680.40148 -11962656.29247  22020237.2434   22020241.1364   22020237.662
        48.0004         44.0004
 -27070073.76448 -21039260.65548  20636261.5264   20636267.5394   20636261.171
        53.0004         48.0004
   -193306.52547   -126453.43446  24475885.3664   24475893.1114   24475885.100
        43.0004         38.0004
  -7782175.85347  -6013547.93146  24060272.6624   24060277.6104   24060271.974
        44.0004         40.0004
 -23658072.84248 -18428194.06647  21197544.2134   21197549.4024   21197545.181
        51.0004         47.0004
  -1844704.61147  -1433041.46446  24219422.0554   24219423.4274   24219420.157
        42.0004         38.0004
   8176692.55548   6374796.29247  21773136.6604   21773142.3344   21773136.541
        51.0004         46.0004
 -17978746.25148 -13981957.69347  21352248.3744   21352252.8124   21352248.501
        51.0004         46.0004
 -17332918.77948 -13452987.64547  21517823.4104   21517826.6164   21517823.420
        51.0004         47.0004
  -5769943.59447  -4442273.42646  23973379.2604   23973387.4334   23973378.894
        45.0004         40.0004
 14  5 23  1 24 30.0000000  0 10G08G04G26G05G10G07G09G28G02G17
 -15305542.26948 -11885405.90447  22039103.6444   22039106.7174   22039103.236
        48.0004         42.0004
 -27028647.96648 -21006980.86348  20644144.3954   20644150.3714   20644144.004
        53.0004         48.0004
   -180613.25947   -116562.49846  24478301.3524   24478307.6804   24478299.714
        43.0004         38.0004
  -7875613.07747  -6086356.06246  24042491.7934   24042497.8384   24042491.836
        44.0004         40.0004
 -23716152.17248 -18473450.73647  21186492.0614   21186497.7524   21186493.023
        51.0004         47.0004
  -1739711.13947  -1351228.40746  24239400.3514   24239404.0854   24239399.673
        42.0004         38.0004
   8261617.85648   6440971.84747  21789297.5714   21789302.6504   21789297.795
        51.0004         46.0004
 -18013995.00148 -14009424.22247  21345540.7434   21345545.4854   21345540.642
        51.0004         46.0004
 -17345699.33748 -13462946.53047  21515391.2844   21515394.2334   21515391.631
        51.0004         47.0004
  -5759727.23647  -4434312.62746  23975323.3604   23975331.3354   23975323.420
        45.0004         40.0004
 14  5 23  1 25  0.0000000  0 10G08G04G26G05G10G07G09G28G02G17
 -15206185.51048 -11807984.91347  22058009.2844   22058015.1944   22058009.849
        48.0004         42.0004
 -26986807.94048 -20974378.29248  20652106.6774   20652112.5004   20652106.160
        53.0004         48.0004
   -168040.68847   -106765.61646  24480692.6024   24480700.6214   24480693.136
        43.0004         38.0004
  -7969128.35947  -6159225.01046  24024697.5504   24024702.4544   24024696.458
        44.0004         40.0004
 -23773947.99448 -18518486.48547  21175493.9244   21175499.1164   21175494.483
        51.0004         47.0004
  -1634775.35247  -1269460.32046  24259368.8484   24259373.0444   24259368.687
        42.0004         38.0004
   8346725.57948   6507289.54647  21805493.0694   21805498.3664   21805493.235
        51.0004         46.0004
 -18048870.47048 -14036599.86247  21338904.4924   21338909.0264   21338904.434
        51.0004         46.0004
 -17358043.21248 -13472565.14247  21513042.3134   21513045.9874   21513042.566
        51.0004         47.0004
  -5749750.66747  -4426538.68646  23977222.4324   23977229.7994   23977221.959
        45.0004         40.0004
 14  5 23  1 25 30.0000000  0 10G08G04G26G05G10G07G09G28G02G17
 -15106615.03348 -11730397.26347  22076957.5324   22076961.0624   22076957.052
        48.0004         44.0004
 -26944557.33548 -20941455.79048  20660146.6224   20660152.5224   20660146.191
        53.0004         48.0004
   -155591.76947    -97065.09346  24483061.6044   24483068.9604   24483062.219
        43.0004         38.0004
  -8062720.99447  -6232154.23246  24006887.3284   24006892.5364   24006886.309
        44.0004         40.0004
 -23831458.27048 -18563299.76347  21164550.3404   21164555.8894   21164551.017
        51.0004         47.0004
  -1529900.97647  -1187740.07546  24279327.3964   24279329.7984   24279325.883
        42.0004         37.0004
   8432011.53248   6573746.12047  21821722.6494   21821727.3424   21821722.588
        51.0004         46.0004
 -18083371.47548 -14063483.72347  21332338.4754   21332344.0064   21332338.736
        51.0004         46.0004
 -17369952.20548 -13481844.88747  21510776.5004   21510779.7044   21510776.294
        51.0004         47.0004
  -5740014.77747  -4418952.29046  23979074.6874   23979081.1314   23979074.000
        45.0004         40.0004
 14  5 23  1 26  0.0000000  0 10G08G04G26G05G10G07G09G28G02G17
 -15006834.56147 -11652646.17447  22095945.3984   22095948.6374   22095945.066
        47.0004         42.0004
 -26901898.19048 -20908214.94748  20668264.3844   20668270.2744   20668264.065
        53.0004         48.0004
   -143267.96247    -87462.03646  24485407.5404   24485413.9424   24485406.537
        43.0004         38.0004
  -8156388.28547  -6305141.63246  23989062.6194   23989068.2444   23989061.628
        45.0004         40.0004
 -23888679.90348 -18607888.19847  21153661.5414   21153667.1574   21153662.383
        52.0004         47.0004
  -1425090.04147  -1106069.28146  24299271.7094   24299275.6834   24299270.861
        42.0004         37.0004
   8517472.84348   6640339.34347  21837985.2574   21837990.4074   21837985.181
        50.0004         46.0004
 -18117494.94548 -14090073.42947  21325845.3414   21325850.1544   21325845.357
        51.0004         46.0004
 -17381426.79548 -13490786.14347  21508592.5804   21508596.0724   21508593.118
        51.0004         47.0004
  -5730519.19847  -4411553.14746  23980881.2414   23980889.2594   23980881.220
        45.0004         40.0004
 14  5 23  1 26 30.0000000  0 10G08G04G26G05G10G07G09G28G02G17
 -14906847.06848 -11574733.78247  22114969.8014   22114974.9504   22114971.911
        48.0004         42.0004
 -26858833.10548 -20874657.79248  20676459.0994   20676465.3304   20676458.901
        53.0004         48.0004
   -131071.10247    -77957.92646  24487728.4784   24487734.5374   24487728.105
        43.0004         39.0004
  -8250128.21447  -6378185.64846  23971224.3004   23971229.5724   23971223.906
        45.0004         40.0004
 -23945609.80548 -18652249.30947  21142828.5244   21142833.6134   21142829.080
        52.0004         47.0004
  -1320344.81447  -1024449.69946  24319202.5094   24319207.3054   24319203.106
        42.0004         37.0004
   8603106.36148   6707066.74847  21854281.2044   21854285.3294   21854280.652
        50.0004         46.0004
 -18151238.07648 -14116366.76147  21319423.7574   21319429.3864   21319424.244
        51.0004         46.0004
 -17392467.69348 -13499389.46247  21506490.7804   21506494.6584   21506491.656
        51.0004         47.0004
  -5721264.12447  -4404341.41646  23982642.8164   23982650.6164   23982642.684
        45.0004         40.0004
 14  5 23  1 27  0.0000000  0 10G08G04G26G05G10G07G09G28G02G17
 -14806655.13648 -11496662.21347  22134036.9394   22134042.8494   22134037.965
        48.0004         42.0004
 -26815363.35048 -20840785.30348  20684731.3064   20684737.2194   20684731.010
        53.0004         48.0004
   -119001.95947    -68553.32946  24490025.6834   24490032.1934   24490024.628
        43.0004         39.0004
  -8343937.37847  -6451283.61046  23953373.4794   23953377.7964   23953372.374
        45.0004         40.0004
 -24002244.10248 -18696379.97247  21132050.8634   21132056.3534   21132052.030
        52.0004         47.0004
  -1215667.00847   -942882.64546  24339122.9704   24339127.7984   24339123.326
        42.0004         37.0004
   8688910.06248   6773926.77747  21870608.3434   21870613.2534   21870608.495
        50.0004         46.0004
 -18184597.40548 -14142361.03047  21313075.6844   21313080.7344   21313076.139
        51.0004         46.0004
 -17403074.88648 -13507654.82147  21504473.1204   21504476.4734   21504473.332
        51.0004         47.0004
  -5712248.44547  -4397316.21346  23984358.2204   23984366.5594   23984357.990
        45.0004         40.0004
 14  5 23  1 27 30.0000000  0 10G08G04G26G05G10G07G09G28G02G17
 -14706263.35848 -11418434.98947  22153142.3414   22153146.1244   22153141.740
        48.0004         43.0004
 -26771492.62848 -20806600.38048  20693079.4294   20693085.7164   20693079.065
        53.0004         48.0004
   -107063.44747    -59250.51946  24492296.7804   24492303.2014   24492296.850
        43.0004         39.0004
  -8437815.41347  -6524435.24946  23935507.9064   23935513.5814   23935508.122
        44.0004         40.0004
 -24058581.19648 -18740279.06047  21121330.7254   21121335.9534   21121331.299
        52.0004         47.0004
  -1111060.12247   -861370.84446  24359029.2964   24359033.0854   24359029.390
        42.0004         37.0004
   8774879.79548   6840916.17747  21886968.4184   21886972.7314   21886968.198
        50.0004         46.0004
 -18217571.46248 -14168055.05847  21306801.0154   21306805.8364   21306801.513
        51.0004         46.0004
 -17413250.11748 -13515583.58947  21502536.7704   21502540.0214   21502536.956
        51.0004         47.0004
  -5703472.95147  -4390478.18646  23986027.8354   23986036.3894   23986027.743
        45.0004         40.0004
 14  5 23  1 28  0.0000000  0 10G08G04G26G05G10G07G09G28G02G17
 -14605675.14047 -11340054.90547  22172283.0594   22172286.5404   22172283.755
        47.0004         42.0004
 -26727223.00348 -20772104.62748  20701504.2014   20701510.1104   20701503.757
        53.0004         48.0004
    -95257.06247    -50050.67146  24494543.9354   24494551.0054   24494543.689
        43.0004         39.0004
  -8531759.54347  -6597638.39946  23917632.0464   23917636.8994   23917630.796
        44.0004         40.0004
 -24114617.80148 -18783943.99547  21110666.8974   21110672.3764   21110667.704
        52.0004         47.0004
  -1006525.78547   -779915.58346  24378921.7154   24378926.2304   24378921.832
        42.0004         37.0004
   8861012.86748   6908032.86747  21903359.0304   21903363.7184   21903358.755
        50.0004         45.0004
 -18250157.33348 -14193446.58347  21300600.0604   21300605.4344   21300600.390
        51.0004         46.0004
 -17422994.00848 -13523176.25347  21500682.4574   21500686.8354   21500682.943
        52.0004         47.0004
  -5694937.15447  -4383826.92846  23987653.0694   23987660.6804   23987652.348
        45.0004         41.0004
 14  5 23  1 28 30.0000000  0 10G08G04G26G05G10G07G09G28G02G17
 -14504891.23248 -11261522.05547  22191462.1424   22191466.5164   22191462.359
        48.0004         42.0004
 -26682555.19248 -20737298.58748  20710003.7204   20710009.6614   20710003.531
        53.0004         48.0004
    -83582.82947    -40953.80746  24496764.1244   24496772.0284   24496764.492
        43.0004         39.0004
  -8625765.69847  -6670889.87346  23899741.9124   23899747.5964   23899742.155
        44.0004         40.0004
 -24170349.22948 -18827371.14347  21100062.2294   21100067.5934   21100062.652
        52.0004         47.0004
   -902065.05747   -698517.69746  24398798.8364   24398805.2244   24398799.584
        42.0004         37.0004
   8947307.70848   6975275.60147  21919780.0634   21919785.0434   21919780.459
        50.0004         45.0004
 -18282350.79948 -14218532.37047  21294474.2454   21294479.1094   21294474.060
        51.0004         46.0004
 -17432305.94348 -13530432.32447  21498910.5194   21498913.8964   21498910.938
        51.0004         47.0004
  -5686639.38247  -4377361.15746  23989231.5204   23989239.3124   23989231.657
        45.0004         41.0004
 14  5 23  1 29  0.0000000  0 10G08G04G26G05G10G07G09G28G02G17
 -14403919.30547 -11182842.74547  22210676.3754   22210680.7024   22210676.010
        47.0004         44.0004
 -26637495.33848 -20702187.06848  20718578.5084   20718584.5774   20718578.446
        52.0004         48.0004
    -72046.08847    -31964.06846  24498959.3684   24498965.5474   24498959.047
        43.0004         38.0004
  -8719834.67947  -6744190.29946  23881842.0014   23881846.5384   23881841.719
        44.0004         40.0004
 -24225776.39248 -18870561.18747  21089514.5634   21089519.5804   21089515.198
        52.0004         47.0004
   -797683.74047   -617181.66246  24418661.8774   24418666.3504   24418662.388
        42.0004         37.0004
   9033757.58448   7042639.14947  21936231.0394   21936235.4284   21936230.959
        50.0004         45.0004
 -18314152.75648 -14243313.06147  21288422.2894   21288427.1104   21288422.360
        51.0004         46.0004
 -17441190.00748 -13537354.99847  21497219.7884   21497223.4804   21497220.305
        52.0004         47.0004
  -5678582.86447  -4371083.35946  23990765.4554   23990772.4374   23990764.293
        45.0004         41.0004
 14  5 23  1 29 30.0000000  0 10G08G04G26G05G10G07G09G28G02G17
 -14302760.58347 -11104017.93847  22229924.9154   22229930.6854   22229926.130
        47.0004         43.0004
 -26592043.94848 -20666770.45648  20727228.0024   20727233.9374   20727227.377
        53.0004         48.0004
    -60646.53047    -23081.22746  24501129.6094   24501136.0564   24501128.760
        43.0004         38.0004
  -8813963.38547  -6817537.27246  23863929.4594   23863934.3574   23863929.191
        45.0004         40.0004
 -24280894.26948 -18913510.22747  21079025.8834   21079030.9844   21079026.657
        52.0004         47.0004
   -693382.47547   -535908.02446  24438511.1014   24438514.5334   24438510.509
        42.0004         37.0004
   9120361.53648   7110122.74847  21952711.0924   21952715.5664   21952711.354
        50.0004         45.0004
 -18345558.77748 -14267785.25947  21282445.9284   21282451.0044   21282445.926
        51.0004         47.0004
 -17449645.17348 -13543943.46747  21495611.2414   21495614.0984   21495611.162
        51.0004         47.0004
  -5670765.41347  -4364991.85846  23992252.3194   23992260.1954   23992252.432
        45.0004         41.0004
 14  5 23  1 30  0.0000000  0 10G08G04G26G05G10G07G09G28G02G17
 -14201416.47747 -11025048.43547  22249211.0984   22249215.3844   22249211.559
        47.0004         43.0004
 -26546202.32848 -20631049.77048  20735951.0454   20735956.9964   20735951.130
        53.0004         48.0004
    -49384.65347    -14305.68546  24503273.2504   24503279.4604   24503272.741
        43.0004         39.0004
  -8908147.70947  -6890927.57746  23846006.5194   23846011.9254   23846006.480
        45.0004         40.0004
 -24335698.72948 -18956215.05447  21068596.9834   21068602.3264   21068597.967
        52.0004         47.0004
   -589162.19147   -454697.49246  24458343.6644   24458348.9394   24458342.471
        42.0004         37.0004
   9207117.63648   7177724.90647  21969220.3704   21969224.5704   21969220.500
        50.0004         45.0004
 -18376564.65548 -14291945.64647  21276545.3474   21276550.5124   21276545.715
        51.0004         46.0004
 -17457671.19948 -13550197.53247  21494084.1854   21494087.4924   21494084.286
        51.0004         47.0004
  -5663185.75647  -4359085.62846  23993694.4164   23993703.2854   23993694.026
        45.0004         41.0004
 14  5 23  1 30 30.0000000  0 10G08G04G26G05G10G07G09G28G02G17
 -14099892.53547 -10945938.83847  22268531.0154   22268535.8114   22268531.389
        47.0004         43.0004
 -26499974.00048 -20595027.76348  20744747.9224   20744754.2244   20744748.046
        52.0004         48.0004
    -38263.51447     -5639.77646  24505387.9564   24505395.6854   24505388.010
        43.0004         39.0004
  -9002387.11847  -6964360.82146  23828073.5764   23828078.8314   23828073.486
        45.0004         41.0004
 -24390188.12248 -18998674.37547  21058228.7574   21058233.8964   21058228.856
        52.0004         47.0004
   -485026.46547   -373552.88046  24478158.6304   24478164.2274   24478158.702
        42.0004         37.0004
   9294021.48848   7245442.18347  21985758.3474   21985761.8604   21985757.567
        50.0004         45.0004
 -18407169.63648 -14315793.64947  21270721.4464   21270727.1454   21270721.604
        51.0004         47.0004
 -17465270.14948 -13556118.81947  21492637.8684   21492641.3994   21492638.079
        51.0004         47.0004
  -5655845.02747  -4353365.59246  23995091.9914   23995099.1504   23995091.637
        45.0004         41.0004
 14  5 23  1 31  0.0000000  0 10G08G04G26G05G10G07G09G28G02G17
 -13998192.02247 -10866691.59047  22287883.0754   22287885.9134   22287883.972
        47.0004         43.0004
 -26453361.84948 -20558706.66448  20753618.3754   20753624.4764   20753618.057
        52.0004         48.0004
    -27284.72347      2915.19446  24507477.9904   24507484.9414   24507478.480
        43.0004         39.0004
  -9096679.13547  -7037835.05046  23810130.3054   23810135.1494   23810130.253
        45.0004         41.0004
 -24444359.65048 -19040886.00247  21047919.5904   21047925.1074   21047920.435
        52.0004         47.0004
   -380977.56547   -292475.92546  24497959.4724   24497963.4624   24497959.227
        42.0004         37.0004
   9381070.18848   7313272.33447  22002322.4554   22002326.5874   22002322.668
        50.0004         45.0004
 -18437370.77848 -14339326.96347  21264974.3664   21264979.9904   21264974.613
        51.0004         46.0004
 -17472443.28748 -13561708.29847  21491273.1134   21491276.2134   21491273.133
        52.0004         47.0004
  -5648742.67247  -4347831.29946  23996443.2964   23996451.5844   23996442.416
        45.0004         40.0004
 14  5 23  1 31 30.0000000  0 10G08G04G26G05G10G07G09G28G02G17
 -13896309.43447 -10787302.41847  22307270.8334   22307274.6604   22307271.278
        47.0004         42.0004
 -26406359.80248 -20522081.75648  20762562.2354   20762568.7734   20762561.727
        52.0004         48.0004
    -16441.49947     11364.50446  24509541.3184   24509547.1334   24509541.958
        43.0004         39.0004
  -9191013.13647  -7111342.00046  23792179.3304   23792183.5944   23792178.827
        45.0004         41.0004
 -24498201.75948 -19082840.94147  21037674.1214   21037679.2524   21037674.471
        52.0004         47.0004
   -277009.26546   -211461.78246  24517743.6204   24517748.9814   24517743.878
        41.0004         37.0004
   9468269.27848   7381219.67147  22018915.9724   22018921.1444   22018916.406
        50.0004         45.0004
 -18467157.32148 -14362537.12447  21259305.9774   21259311.3894   21259306.554
        51.0004         47.0004
 -17479182.70448 -13566959.82247  21489990.6484   21489993.8264   21489991.241
        52.0004         47.0004
  -5641870.37047  -4342476.26946  23997751.2044   23997758.5994   23997751.086
        45.0004         40.0004
 14  5 23  1 32  0.0000000  0 10G08G04G26G05G10G07G09G28G02G17
 -13794265.29547 -10707787.53047  22326689.7924   22326692.5314   22326690.174
        47.0004         42.0004
 -26358986.80948 -20485167.79648  20771577.1704   20771583.3564   20771577.066
        52.0004         48.0004
     -5752.22047     19693.89246  24511575.4564   24511581.3684   24511574.362
        43.0004         38.0004
  -9285403.38747  -7184892.78946  23774217.9454   23774222.3764   23774216.878
        45.0004         41.0004
 -24551728.47548 -19124550.12247  21027487.8434   21027493.5634   21027488.770
        52.0004         47.0004
   -173140.29546   -130525.05146  24537509.3514   24537515.4294   24537509.749
        41.0004         37.0004
   9555599.00048   7449268.79947  22035534.1664   22035538.4874   22035534.330
        50.0004         45.0004
 -18496543.27648 -14385435.24047  21253714.2234   21253719.2774   21253714.245
        51.0004         47.0004
 -17485506.41648 -13571887.42047  21488786.3504   21488790.5294   21488786.785
        52.0004         47.0004
  -5635244.22247  -4337313.05446  23999011.4954   23999020.0194   23999011.550
        45.0004         40.0004
 14  5 23  1 32 30.0000000  0 10G08G04G26G05G10G07G09G28G02G17
 -13692053.43447 -10628141.83747  22346139.8794   22346143.9024   22346140.005
        47.0004         43.0004
 -26311236.71648 -20447959.98948  20780664.2314   20780670.1774   20780663.311
        52.0004         48.0004
      4790.48347     27909.06346  24513581.2724   24513586.9064   24513580.748
        43.0004         38.0004
  -9379838.70247  -7258478.69146  23756247.1694   23756250.9234   23756245.764
        45.0004         40.0004
 -24604927.80648 -19166004.18847  21017365.2044   21017369.7314   21017365.647
        52.0004         47.0004
    -69364.21046    -49660.70846  24557257.8004   24557263.3234   24557257.114
        41.0004         37.0004
   9643065.35048   7517424.39347  22052178.5954   22052182.7084   22052178.586
        50.0004         45.0004
 -18525517.12548 -14408012.20447  21248200.7774   21248205.6144   21248200.963
        51.0004         47.0004
 -17491405.76948 -13576484.34747  21487664.4664   21487668.2234   21487665.063
        52.0004         47.0004
  -5628854.81547  -4332334.30946  24000228.4014   24000235.9774   24000227.467
        45.0004         40.0004
 14  5 23  1 33  0.0000000  0 10G08G04G26G05G10G07G09G28G02G17
 -13589678.17747 -10548368.90147  22365621.1074   22365625.8034   22365621.377
        47.0004         42.0004
 -26263112.61848 -20410460.75248  20789821.4234   20789827.9594   20789821.199
        52.0004         48.0004
     15184.36447     36008.25446  24515558.6544   24515565.4704   24515559.462
        43.0004         38.0004
  -9474317.26247  -7332098.28746  23738268.4824   23738272.8994   23738267.290
        45.0004         40.0004
 -24657797.51448 -19207201.42047  21007304.3584   21007309.3094   21007304.666
        52.0004         47.0004
     34316.30646     31129.17846  24576988.2904   24576992.1994   24576987.058
        41.0004         37.0004
   9730664.73448   7585683.62947  22068848.7364   22068852.8604   22068848.179
        50.0004         45.0004
 -18554077.32248 -14430266.91447  21242765.4944   21242770.6894   21242765.749
        51.0004         47.0004
 -17496882.85148 -13580752.23847  21486622.5064   21486625.8614   21486622.680
        52.0004         47.0004
  -5622702.84147  -4327540.57146  24001398.4524   24001406.3784   24001398.154
        45.0004         40.0004
 14  5 23  1 33 30.0000000  0 10G08G04G26G05G10G07G09G28G02G17
 -13487144.72347 -10468472.87647  22385133.7254   22385136.6484   22385133.179
        47.0004         42.0004
 -26214618.65848 -20372673.31248  20799049.7574   20799056.0574   20799049.532
        52.0004         48.0004
     25426.00847     43988.81746  24517507.9044   24517515.3484   24517507.499
        43.0004         39.0004
  -9568838.47647  -7405751.12446  23720281.4004   23720287.2514   23720280.574
        45.0004         41.0004
 -24710336.26248 -19248140.74647  20997306.5114   20997311.5834   20997307.179
        52.0004         47.0004
    137897.17146    111841.39946  24596698.9344   24596702.3314   24596697.492
        41.0004         37.0004
   9818392.21848   7654042.68047  22085541.7174   22085547.2424   22085541.884
        50.0004         45.0004
 -18582222.91548 -14452198.53047  21237409.8494   21237415.3114   21237410.274
        51.0004         47.0004
 -17501940.46348 -13584693.25447  21485659.4364   21485663.4794   21485660.236
        52.0004         47.0004
  -5616789.19747  -4322932.54846  24002523.8224   24002531.1304   24002523.123
        45.0004         41.0004
 14  5 23  1 34  0.0000000  0 10G08G04G26G05G10G07G09G28G02G17
 -13384452.29047 -10388452.84247  22404674.6314   22404680.3394   22404674.621
        47.0004         42.0004
 -26165753.61548 -20334596.70548  20808348.4794   20808354.6774   20808348.224
        52.0004         48.0004
     35517.63847     51852.49746  24519427.7884   24519435.9244   24519427.360
        43.0004         38.0004
  -9663396.13547  -7479432.37046  23702287.4454   23702293.5154   23702286.957
        45.0004         41.0004
 -24762537.35348 -19288816.96447  20987372.8574   20987378.1824   20987373.220
        52.0004         47.0004
    241379.80146    192477.08146  24616389.8404   24616395.7604   24616389.375
        41.0004         37.0004
   9906248.88148   7722502.39347  22102260.4904   22102265.1214   22102260.741
        50.0004         45.0004
 -18609947.66148 -14473802.32547  21232133.8054   21232139.0084   21232134.134
        51.0004         47.0004
 -17506575.62948 -13588305.09947  21484777.8334   21484781.3144   21484778.174
        52.0004         47.0004
  -5611110.05647  -4318507.25146  24003604.7814   24003612.0154   24003604.548
        45.0004         41.0004
 14  5 23  1 34 30.0000000  0 11G08G04G26G05G10G07G30G09G28G02G17
 -13281608.08547 -10308314.53447  22424245.9934   22424250.4384   22424245.287
        46.0004         42.0004
 -26116523.73348 -20296235.81248  20817716.4564   20817722.8334   20817716.274
        52.0004         48.0004
     45453.95047     59595.15046  24521318.7844   24521325.7214   24521318.846
        43.0004         38.0004
  -9757991.93347  -7553143.32046  23684286.2854   23684291.4704   23684286.245
        45.0004         41.0004
 -24814401.67948 -19329230.75947  20977503.7414   20977508.8044   20977504.306
        52.0004         47.0004
    344758.53046    273031.79146  24636061.6754   24636066.3774   24636061.591
        41.0004         37.0004
   -768946.41448   -608795.13247  22386224.4274   22386230.9314   22386223.778
        50.0004         44.0004
   9994227.97448   7791057.50347  22119002.6354   22119006.5694   22119002.378
        50.0004         45.0004
 -18637252.24248 -14495078.59447  21226938.5724   21226943.3874   21226938.335
        51.0004         46.0004
 -17510793.14648 -13591591.50647  21483975.1374   21483979.1884   21483975.233
        52.0004         47.0004
  -5605668.90147  -4314267.39946  24004639.9704   24004647.7974   24004639.541
        45.0004         41.0004
 14  5 23  1 35  0.0000000  0 11G08G04G26G05G10G07G30G09G28G02G17
 -13178612.34747 -10228058.12046  22443845.1334   22443849.8584   22443844.923
        46.0004         41.0004
 -26066929.13348 -20257590.72848  20827154.0474   20827160.3214   20827153.902
        52.0004         48.0004
     55235.94247     67217.53746  24523180.5114   24523186.6684   24523180.243
        43.0004         38.0004
  -9852620.75447  -7626880.01746  23666279.5324   23666283.9454   23666277.976
        45.0004         41.0004
 -24865924.01448 -19369378.06847  20967699.0384   20967704.4684   20967699.631
        52.0004         47.0004
    448033.70146    353505.80246  24655716.2594   24655719.4564   24655715.245
        41.0004         36.0004
   -679713.47048   -539263.16047  22403204.5574   22403210.4334   22403204.781
        49.0004         44.0004
  10082329.08348   7859707.69847  22135768.0154   22135772.8974   22135767.553
        49.0004         45.0004
 -18664132.12548 -14516023.90747  21221823.1634   21221827.9334   21221823.244
        51.0004         46.0004
 -17514591.35748 -13594551.18147  21483252.7494   21483256.2224   21483252.841
        52.0004         47.0004
  -5600462.60747  -4310210.53846  24005630.6404   24005638.1734   24005630.277
        45.0004         41.0004
 14  5 23  1 35 30.0000000  0 11G08G04G26G05G10G07G30G09G28G02G17
 -13075470.25647 -10147687.60146  22463471.6554   22463476.5124   22463471.370
        46.0004         40.0004
 -26016974.18348 -20218664.85548  20836660.2544   20836666.7504   20836660.066
        52.0004         48.0004
     64860.18647     74717.01446  24525010.7354   24525018.6944   24525010.312
        43.0004         38.0004
  -9947282.05847  -7700642.01946  23648265.5994   23648270.4834   23648265.114
        45.0004         41.0004
 -24917103.08648 -19409257.89647  20957959.8124   20957965.4324   20957960.514
        52.0004         47.0004
    551201.54246    433896.18446  24675349.0184   24675354.3494   24675347.547
        41.0004         37.0004
   -590347.88748   -469627.58147  22420211.5844   22420216.2384   22420210.330
        49.0004         43.0004
  10170547.44748   7928449.26747  22152555.1124   22152558.6794   22152554.971
        49.0004         45.0004
 -18690586.72248 -14536637.98947  21216788.5094   21216794.2764   21216789.485
        51.0004         47.0004
 -17517973.20548 -13597186.42447  21482609.0264   21482612.3394   21482609.403
        52.0004         47.0004
  -5595492.66347  -4306337.85846  24006576.5474   24006584.8004   24006576.529
        45.0004         41.0004
 14  5 23  1 36  0.0000000  0 11G08G04G26G05G10G07G30G09G28G02G17
 -12972184.46947 -10067205.10346  22483126.0094   22483130.6454   22483126.594
        46.0004         41.0004
 -25966660.43148 -20179459.39648  20846235.3854   20846241.1654   20846234.843
        52.0004         48.0004
     74325.92747     82092.98846  24526813.1664   24526819.9854   24526812.063
        43.0004         38.0004
 -10041972.79447  -7774426.95746  23630246.2874   23630251.2324   23630246.737
        45.0004         41.0004
 -24967935.16348 -19448867.33647  20948286.9664   20948292.3494   20948287.361
        52.0004         47.0004
    654260.50546    514201.69746  24694960.0524   24694964.5774   24694959.485
        41.0004         36.0004
   -500852.30148   -399890.85247  22437240.8124   22437248.2424   22437240.687
        49.0004         45.0004
  10258880.87148   7997280.48547  22169365.2424   22169368.0784   22169364.277
        49.0004         45.0004
 -18716612.84148 -14556918.20647  21211836.8034   21211841.7944   21211837.062
        51.0004         47.0004
 -17520938.99048 -13599497.45647  21482044.5264   21482048.5234   21482044.920
        52.0004         47.0004
  -5590757.86247  -4302648.39946  24007477.4514   24007485.6114   24007477.132
        46.0004         41.0004
 14  5 23  1 36 30.0000000  0 11G08G04G26G05G10G07G30G09G28G02G17
 -12868759.34047  -9986614.10347  22502806.9694   22502811.8814   22502807.683
        46.0004         42.0004
 -25915991.73648 -20139977.34848  20855876.9224   20855882.6674   20855876.657
        52.0004         48.0004
     83630.78347     89343.58246  24528584.2034   24528590.7284   24528584.361
        43.0004         38.0004
 -10136691.08847  -7848233.37546  23612221.6264   23612226.5864   23612221.991
        45.0004         41.0004
 -25018418.33148 -19488204.90247  20938680.6374   20938686.3204   20938681.066
        52.0004         47.0004
    757207.41646    594419.91946  24714550.0554   24714556.2064   24714549.842
        41.0004         36.0004
   -411230.35948   -330055.69347  22454295.7554   22454301.1894   22454295.938
        49.0004         44.0004
  10347325.47148   8066198.33247  22186195.1714   22186199.3954   22186194.771
        49.0004         45.0004
 -18742208.63348 -14576862.97747  21206965.4624   21206971.1224   21206965.704
        51.0004         47.0004
 -17523490.73948 -13601485.86247  21481559.2864   21481562.4284   21481559.834
        52.0004         47.0004
  -5586258.79147  -4299142.61946  24008333.3314   24008341.0074   24008333.143
        46.0004         41.0004
 14  5 23  1 37  0.0000000  0 11G08G04G26G05G10G07G30G09G28G02G17
 -12765195.36747  -9905914.90047  22522514.0674   22522518.5824   22522514.801
        46.0004         42.0004
 -25864967.94748 -20100218.62148  20865586.8204   20865592.7584   20865586.088
        52.0004         48.0004
     92775.67247     96469.51746  24530323.9004   24530329.4674   24530323.513
        43.0004         38.0004
 -10231432.17747  -7922057.55846  23594193.2154   23594196.9654   23594193.480
        45.0004         40.0004
 -25068547.41948 -19527266.55847  20929140.8824   20929146.6374   20929141.867
        52.0004         47.0004
    860042.75246    674551.19945  24734118.0884   24734123.9954   24734118.668
        40.0004         35.0004
   -321482.12848   -260122.12147  22471374.3074   22471379.8534   22471374.086
        49.0004         44.0004
  10435880.87648   8135202.54147  22203045.5714   22203051.4934   22203046.054
        49.0004         45.0004
 -18767369.35448 -14596468.74347  21202177.5774   21202183.1804   21202178.135
        51.0004         47.0004
 -17525627.04748 -13603150.54947  21481151.8794   21481156.0994   21481153.093
        52.0004         47.0004
  -5581992.17947  -4295817.97546  24009145.9114   24009153.4474   24009144.998
        46.0004         41.0004
 14  5 23  1 37 30.0000000  0 11G08G04G26G05G10G07G30G09G28G02G17
 -12661498.82247  -9825112.48846  22542247.7264   22542251.9034   22542248.085
        46.0004         41.0004
 -25813594.25348 -20060187.22748  20875362.8514   20875368.6424   20875362.154
        52.0004         48.0004
    101756.31247    103467.48646  24532031.8744   24532039.0254   24532031.279
        43.0004         38.0004
 -10326196.66547  -7995899.97246  23576160.2144   23576165.1244   23576160.304
        45.0004         41.0004
 -25118322.04848 -19566052.01447  20919668.7714   20919675.1684   20919669.971
        52.0004         47.0004
    962762.04746    754592.04245  24753665.0284   24753672.0664   24753665.495
        40.0004         35.0004
   -231612.92348   -190094.19747  22488475.9984   22488482.2244   22488475.426
        49.0004         44.0004
  10524541.62148   8204288.83047  22219918.2914   22219922.3024   22219918.083
        49.0004         45.0004
 -18792095.40348 -14615735.79847  21197472.5874   21197478.1704   21197472.893
        51.0004         47.0004
 -17527351.54848 -13604494.34947  21480824.2484   21480828.2244   21480824.414
        52.0004         47.0004
  -5577960.45847  -4292676.36046  24009912.8644   24009920.7104   24009912.111
        46.0004         41.0004
 14  5 23  1 38  0.0000000  0 11G08G04G26G05G10G07G30G09G28G02G17
 -12557671.79047  -9744208.26947  22562004.9524   22562010.2344   22562006.165
        46.0004         42.0004
 -25761872.72448 -20019884.79948  20885204.9254   20885211.4814   20885204.543
        52.0004         48.0004
    110571.88847    110336.82146  24533709.9954   24533717.0024   24533709.683
        43.0004         38.0004
 -10420980.92847  -8069757.79046  23558123.6314   23558128.0554   23558122.880
        45.0004         41.0004
 -25167738.61548 -19604558.45548  20910265.6044   20910271.4124   20910266.150
        52.0004         48.0004
   1065363.64146    834541.16745  24773189.0004   24773196.5394   24773189.912
        39.0004         34.0004
   -141624.97248   -119973.79047  22505599.7404   22505606.6744   22505600.182
        49.0004         44.0004
  10613305.27448   8273455.30547  22236809.2344   22236813.0634   22236808.826
        49.0004         44.0004
 -18816383.55348 -14634661.63647  21192850.9544   21192856.0854   21192851.205
        51.0004         47.0004
 -17528664.89948 -13605517.76847  21480574.2514   21480578.3194   21480574.505
        52.0004         47.0004
  -5574162.27147  -4289716.72346  24010635.8654   24010643.3554   24010635.553
        46.0004         41.0004
 14  5 23  1 38 30.0000000  0 11G08G04G26G05G10G07G30G09G28G02G17
 -12453718.38347  -9663205.60546  22581785.8124   22581791.4554   22581787.519
        46.0004         41.0004
 -25709806.69348 -19979313.93248  20895113.1284   20895118.8054   20895112.576
        52.0004         48.0004
    119220.32047    117075.89646  24535355.3754   24535363.8294   24535355.944
        43.0004         38.0004
 -10515783.48547  -8143629.86646  23540082.7124   23540088.3444   23540082.701
        46.0004         41.0004
 -25216795.07648 -19642784.29248  20900930.8734   20900936.5534   20900931.295
        52.0004         48.0004
   1167844.73946    914396.42245  24792692.5034   24792697.1034   24792692.172
        39.0004         35.0004
    -51521.67748    -49763.47047  22522745.2514   22522753.3584   22522746.375
        49.0004         44.0004
  10702168.36448   8342699.26547  22253719.3144   22253723.0494   22253719.187
        49.0004         44.0004
 -18840232.17948 -14653244.98047  21188312.3964   21188317.8154   21188312.707
        51.0004         47.0004
 -17529568.90348 -13606222.21947  21480403.1204   21480406.1934   21480403.194
        52.0004         47.0004
  -5570598.23547  -4286939.53746  24011313.5604   24011321.5924   24011313.672
        46.0004         41.0004
 14  5 23  1 39  0.0000000  0 11G08G04G26G05G10G07G30G09G28G02G17
 -12349640.90247  -9582106.40146  22601593.2934   22601597.0914   22601593.071
        46.0004         41.0004
 -25657397.45148 -19938475.62848  20905086.0214   20905092.3424   20905085.778
        52.0004         48.0004
    127701.11247    123684.35746  24536969.6454   24536976.3104   24536968.942
        43.0004         38.0004
 -10610600.56047  -8217513.25146  23522039.8834   23522044.6634   23522039.704
        46.0004         41.0004
 -25265487.56048 -19680726.50948  20891664.7954   20891670.2994   20891665.304
        52.0004         48.0004
   1270204.28846    994156.94345  24812169.5154   24812176.5764   24812170.309
        39.0004         35.0004
     38695.33648     20535.46847  22539914.4634   22539920.5274   22539913.723
        48.0004         43.0004
  10791129.04548   8412019.25047  22270647.6654   22270652.0384   22270648.361
        49.0004         44.0004
 -18863637.71748 -14671483.06347  21183858.4994   21183863.3934   21183858.967
        51.0004         47.0004
 -17530063.57948 -13606607.71147  21480308.1624   21480312.5504   21480308.805
        52.0004         47.0004
  -5567266.73947  -4284343.55546  24011947.3144   24011955.3214   24011947.235
        46.0004         41.0004
 14  5 23  1 39 30.0000000  0 11G08G04G26G05G10G07G30G09G28G02G17
 -12245442.45847  -9500912.93147  22621420.4954   22621425.3614   22621421.275
        46.0004         42.0004
 -25604647.62248 -19897371.92548  20915124.3224   20915130.6054   20915123.766
        52.0004         48.0004
    136012.86547    130161.12046  24538551.7554   24538558.7804   24538550.238
        43.0004         38.0004
 -10705429.73647  -8291406.06946  23503994.2514   23503999.9164   23503994.229
        46.0004         41.0004
 -25313813.30348 -19718382.95848  20882468.8244   20882474.2834   20882469.558
        52.0004         48.0004
   1372440.53046   1073821.39145  24831627.5704   24831629.1584   24831625.843
        39.0004         34.0004
    129023.32048     90920.85447  22557102.3454   22557109.9554   22557102.645
        48.0004         43.0004
  10880184.39148   8481412.99947  22287595.0134   22287598.9754   22287594.176
        49.0004         44.0004
 -18886597.89948 -14689374.12447  21179489.5804   21179494.5344   21179489.593
        51.0004         47.0004
 -17530149.99048 -13606675.07947  21480292.4524   21480295.8944   21480292.415
        52.0004         47.0004
  -5564167.00047  -4281928.15246  24012536.5824   24012545.2494   24012536.881
        46.0004         41.0004
 14  5 23  1 40  0.0000000  0 11G08G04G26G05G10G07G30G09G28G02G17
 -12141127.92747  -9419628.95146  22641271.3284   22641276.2604   22641271.336
        46.0004         41.0004
 -25551562.12748 -19856006.67248  20925226.0164   20925232.0254   20925225.571
        52.0004         48.0004
    144152.15647    136503.46746  24540100.4594   24540106.6774   24540100.401
        43.0004         39.0004
 -10800270.72847  -8365308.10346  23485947.2794   23485950.9464   23485946.471
        46.0004         41.0004
 -25361771.13548 -19755752.72348  20873342.9274   20873348.2574   20873343.318
        52.0004         48.0004
   1474549.21746   1153386.40845  24851054.6624   24851064.2704   24851056.653
        39.0004         34.0004
    219457.64548    161389.11547  22574311.2184   22574318.8354   22574311.045
        48.0004         43.0004
  10969329.54548   8550876.73347  22304558.3394   22304563.2274   22304558.304
        49.0004         44.0004
 -18909112.26248 -14706917.78747  21175205.1104   21175210.1894   21175205.294
        51.0004         47.0004
 -17529831.41648 -13606426.87747  21480352.4884   21480356.6134   21480352.863
        52.0004         47.0004
  -5561300.42947  -4279694.43546  24013082.8044   24013090.3844   24013082.408
        46.0004         41.0004
 14  5 23  1 40 30.0000000  0 11G08G04G26G05G10G07G30G09G28G02G17
 -12036697.23947  -9338254.43947  22661144.4454   22661147.7344   22661143.754
        46.0004         42.0004
 -25498139.82948 -19814378.97748  20935391.9884   20935398.4314   20935391.743
        52.0004         48.0004
    152120.84047    142712.87146  24541616.3214   24541622.5424   24541616.992
        43.0004         38.0004
 -10895117.71747  -8439214.80046  23467898.4564   23467902.5194   23467897.898
        46.0004         41.0004
 -25409354.96948 -19792831.06448  20864287.7034   20864293.5114   20864288.428
        52.0004         48.0004
  -4725148.24746  -3677546.86645  24870463.1014   24870468.2544   24870463.916
        39.0004         34.0004
    309998.82248    231940.62047  22591540.9434   22591548.8934   22591541.099
        48.0004         44.0004
  11058565.05848   8620410.86347  22321539.3404   22321544.3254   22321539.699
        49.0004         44.0004
 -18931175.33248 -14724109.79847  21171006.5224   21171011.4624   21171006.974
        51.0004         47.0004
 -17529105.86748 -13605861.54447  21480490.7164   21480494.5904   21480491.096
        52.0004         47.0004
  -5558663.35547  -4277639.55246  24013584.5194   24013591.9074   24013584.023
        46.0004         41.0004
 14  5 23  1 41  0.0000000  0 11G08G04G26G05G10G07G30G09G28G02G17
 -11932156.43147  -9256794.14947  22681037.1834   22681041.7904   22681037.886
        46.0004         42.0004
 -25444386.66948 -19772493.46247  20945621.2274   20945627.5804   20945620.453
        52.0004         47.0004
    159914.55447    148785.94346  24543099.9514   24543105.9754   24543099.703
        43.0004         38.0004
 -10989970.92947  -8513126.36546  23449848.0744   23449851.7264   23449847.489
        46.0004         41.0004
 -25456564.99448 -19829618.12748  20855303.7784   20855309.9514   20855304.580
        52.0004         48.0004
  -4623296.61546  -3598182.16345  24889846.5024   24889848.9554   24889845.235
        39.0004         34.0004
    400641.23448    302570.95547  22608790.3874   22608795.9984   22608790.332
        48.0004         42.0004
  11147885.19948   8690010.95647  22338537.0234   22338540.4484   22338536.844
        49.0004         44.0004
 -18952787.68148 -14740950.59647  21166894.2034   21166899.1524   21166894.362
        51.0004         47.0004
 -17527977.18448 -13604982.08647  21480705.6264   21480709.4404   21480705.995
        52.0004         47.0004
  -5556257.84447  -4275765.10946  24014042.0374   24014049.8954   24014041.745
        46.0004         41.0004
 14  5 23  1 41 30.0000000  0 11G08G04G26G05G10G07G30G09G28G02G17
 -11827507.81447  -9175249.77546  22700951.4644   22700957.1704   22700952.009
        46.0004         41.0004
 -25390303.98248 -19730351.18247  20955912.6814   20955918.8174   20955912.228
        52.0004         47.0004
    167532.78247    154722.26346  24544548.3874   24544555.2574   24544547.947
        43.0004         38.0004
 -11084826.87747  -8587040.05146  23431798.3234   23431802.3644   23431797.337
        46.0004         41.0004
 -25503397.56148 -19866111.07048  20846391.9444   20846397.9634   20846392.696
        52.0004         48.0004
  -4521577.28946  -3518920.54945  24909203.2854   24909210.1034   24909202.397
        39.0004         34.0004
    491383.22848    373278.92047  22626057.6264   22626064.3224   22626057.603
        48.0004         43.0004
  11237287.95648   8759675.41747  22355550.3164   22355554.0874   22355549.411
        49.0004         44.0004
 -18973945.86548 -14757437.49847  21162867.5704   21162872.6384   21162868.083
        51.0004         47.0004
 -17526445.73248 -13603788.78547  21480996.7224   21481000.8284   21480997.296
        52.0004         47.0004
  -5554082.61047  -4274070.10946  24014456.7034   24014464.3354   24014456.124
        46.0004         41.0004
 14  5 23  1 42  0.0000000  0 11G08G04G26G05G10G07G30G09G28G02G17
 -11722755.77047  -9093624.84146  22720885.1174   22720889.0094   22720885.340
        46.0004         41.0004
 -25335895.94748 -19687955.37247  20966266.2014   20966272.3594   20966265.715
        52.0004         47.0004
    174972.86247    160519.78046  24545964.7294   24545971.9964   24545964.182
        43.0004         38.0004
 -11179684.20847  -8660954.82447  23413746.5784   23413750.7104   23413746.907
        46.0004         42.0004
 -25549851.35748 -19902308.86648  20837552.1824   20837557.3974   20837552.821
        52.0004         48.0004
  -4419993.28446  -3439764.38245  24928532.7324   24928536.7174   24928533.225
        39.0004         34.0004
    582220.88248    444061.45547  22643343.3594   22643350.5754   22643343.218
        48.0004         43.0004
  11326769.24048   8829401.08147  22372577.5514   22372581.1264   22372576.874
        49.0004         44.0004
 -18994649.40848 -14773570.13347  21158927.9884   21158933.2604   21158928.030
        51.0004         47.0004
 -17524514.23948 -13602283.75347  21481364.5434   21481368.3064   21481365.145
        52.0004         47.0004
  -5552138.30547  -4272555.05846  24014826.3704   24014833.6534   24014825.987
        46.0004         41.0004
 14  5 23  1 42 30.0000000  0 11G08G04G26G05G10G07G30G09G28G02G17
 -11617901.08747  -9011920.03346  22740839.4554   22740842.4324   22740838.872
        45.0004         41.0004
 -25281162.62448 -19645306.10247  20976681.5054   20976687.9864   20976681.259
        52.0004         47.0004
    182235.70747    166179.16046  24547346.7614   24547353.1584   24547347.061
        43.0004         38.0004
 -11274538.33647  -8734867.09347  23395697.3584   23395701.1144   23395696.428
        46.0004         42.0004
 -25595920.71248 -19938207.09348  20828785.3324   20828790.7544   20828786.489
        52.0004         48.0004
  -4318544.08746  -3360713.26245  24947836.1454   24947841.0304   24947837.501
        38.0004         34.0004
    673153.87948    514918.28247  22660647.4894   22660653.7864   22660647.509
        48.0004         43.0004
  11416328.54448   8899187.53047  22389620.1744   22389623.3244   22389619.580
        49.0004         44.0004
 -19014893.17848 -14789344.50247  21155075.9384   21155080.4574   21155075.773
        51.0004         47.0004
 -17522181.47948 -13600466.05747  21481809.3314   21481811.9274   21481808.831
        52.0004         47.0004
  -5550421.66047  -4271217.40246  24015152.8104   24015161.2254   24015152.703
        46.0004         41.0004
 14  5 23  1 43  0.0000000  0 11G08G04G26G05G10G07G30G09G28G02G17
 -11512948.95447  -8930139.20546  22760810.6684   22760814.5434   22760810.809
        45.0004         41.0004
 -25226108.87648 -19602407.14547  20987157.8244   20987164.2354   20987157.638
        52.0004         47.0004
    189318.03647    171697.90546  24548694.0244   24548700.1964   24548694.457
        43.0004         38.0004
 -11369388.49147  -8808776.27147  23377647.0334   23377651.4664   23377647.129
        46.0004         42.0004
 -25641604.92348 -19973805.21248  20820091.8344   20820097.8944   20820092.660
        52.0004         48.0004
  -4217233.70346  -3281770.32645  24967115.8744   24967122.0454   24967116.962
        39.0004         34.0004
    764177.49948    585845.72447  22677968.1944   22677976.8854   22677969.157
        48.0004         43.0004
  11505961.02948   8969030.99847  22406675.9644   22406679.7654   22406676.114
        49.0004         44.0004
 -19034676.97548 -14804760.44447  21151311.0244   21151315.8414   21151311.019
        51.0004         47.0004
 -17519450.85748 -13598338.33447  21482328.4154   21482331.7794   21482328.220
        52.0004         47.0004
  -5548934.63747  -4270058.66646  24015436.0964   24015443.2814   24015435.453
        46.0004         41.0004
 14  5 23  1 43 30.0000000  0 11G08G04G26G05G10G07G30G09G28G02G17
 -11407902.15847  -8848284.61746  22780799.9524   22780804.2814   22780800.344
        46.0004         41.0004
 -25170736.84448 -19559260.17347  20997695.1564   20997701.4634   20997694.613
        52.0004         47.0004
    196218.69247    177075.07246  24550007.7184   24550013.8844   24550005.939
        43.0004         38.0004
 -11464232.01547  -8882680.29147  23359599.7054   23359602.5354   23359598.388
        46.0004         42.0004
 -25686900.81848 -20009100.74548  20811472.9584   20811478.0384   20811473.521
        52.0004         48.0004
  -4116063.81046  -3202936.85045  24986370.7004   24986373.5684   24986369.178
        39.0004         34.0004
    855289.41848    656841.96047  22695307.5834   22695313.4364   22695306.973
        48.0004         43.0004
  11595664.27648   9038929.61947  22423746.1314   22423751.1734   22423745.893
        49.0004         44.0004
 -19053998.51548 -14819816.19347  21147634.1374   21147639.1294   21147634.357
        51.0004         47.0004
 -17516323.12048 -13595901.17647  21482923.6964   21482927.0574   21482924.119
        52.0004         47.0004
  -5547675.84747  -4269077.77046  24015674.9564   24015682.4154   24015675.026
        46.0004         41.0004
 14  5 23  1 44  0.0000000  0 11G08G04G26G05G10G07G30G09G28G02G17
 -11302764.70447  -8766359.37847  22800806.6244   22800810.9144   22800807.465
        46.0004         42.0004
 -25115050.15548 -19515868.02147  21008291.7274   21008298.5444   21008291.417
        52.0004         47.0004
    202935.36847    182308.87746  24551285.7924   24551291.8204   24551285.386
        43.0004         38.0004
 -11559066.96947  -8956577.63147  23341552.6624   23341556.4994   23341552.425
        46.0004         42.0004
 -25731806.68348 -20044092.36648  20802927.5424   20802932.8574   20802927.922
        52.0004         48.0004
  -4015037.16646  -3124215.01545  25005594.3534   25005597.9324   25005595.145
        40.0004         35.0004
    946486.00448    727904.17947  22712661.1624   22712669.0424   22712660.996
        48.0004         43.0004
  11685434.69848   9108880.57947  22440828.8224   22440832.5724   22440828.591
        48.0004         44.0004
 -19072856.51648 -14834510.73847  21144045.2744   21144050.6394   21144045.674
        51.0004         47.0004
 -17512800.58348 -13593156.38847  21483593.7874   21483597.2634   21483593.938
        52.0004         47.0004
  -5546645.44947  -4268274.84446  24015870.8884   24015879.7584   24015870.983
        45.0004         41.0004
 14  5 23  1 44 30.0000000  0 11G08G04G26G05G10G07G30G09G28G02G17
 -11197537.35947  -8684363.99746  22820830.4134   22820834.9554   22820831.063
        45.0004         40.0004
 -25059049.19548 -19472230.99147  21018947.9634   21018955.1864   21018948.211
        52.0004         47.0004
    209469.06447    187400.10346  24552529.4594   24552535.3474   24552529.162
        43.0004         38.0004
 -11653888.60747  -9030464.60047  23323509.6454   23323513.7124   23323508.796
        46.0004         42.0004
 -25776317.67748 -20078776.28848  20794457.1734   20794462.5944   20794457.732
        52.0004         48.0004
  -3914153.58246  -3045604.63145  25024791.4704   25024797.3634   25024791.886
        40.0004         35.0004
   1037766.95748    799032.13747  22730031.3434   22730037.7634   22730031.027
        48.0004         43.0004
  11775271.68548   9178883.40847  22457924.4904   22457929.7644   22457924.417
        48.0004         44.0004
 -19091246.32648 -14848840.46547  21140546.2784   21140551.2994   21140546.469
        51.0004         47.0004
 -17508882.40248 -13590103.30547  21484339.5884   21484343.1594   21484339.865
        52.0004         47.0004
  -5545841.04347  -4267648.02146  24016023.3614   24016032.0704   24016024.159
        45.0004         41.0004
 14  5 23  1 45  0.0000000  0 11G08G04G26G05G10G07G30G09G28G02G17
 -11092223.52247  -8602301.35446  22840871.0964   22840875.2774   22840871.750
        46.0004         41.0004
 -25002736.92048 -19428351.36847  21029664.6244   21029671.2954   21029664.145
        52.0004         47.0004
    215818.26647    192347.56146  24553737.8924   24553742.9094   24553738.213
        43.0004         38.0004
 -11748694.45747  -9104339.26147  23305467.6944   23305471.3194   23305466.699
        46.0004         42.0004
 -25820430.99048 -20113150.34048  20786062.6924   20786068.3044   20786063.636
        52.0004         48.0004
  -3813414.94546  -2967107.17445  25043963.1484   25043969.4064   25043962.282
        40.0004         35.0004
   1129129.50448    870223.68447  22747416.3844   22747424.0654   22747416.622
        48.0004         43.0004
  11865172.43648   9248935.91547  22475031.7814   22475036.8014   22475031.824
        48.0004         44.0004
 -19109165.95048 -14862803.80447  21137136.2034   21137141.6164   21137136.568
        52.0004         47.0004
 -17504569.59248 -13586742.72447  21485160.1834   21485163.7324   21485160.224
        52.0004         47.0004
  -5545261.67247  -4267196.55046  24016133.9904   24016142.3604   24016134.069
        45.0004         40.0004
 14  5 23  1 45 30.0000000  0 11G08G04G26G05G10G07G30G09G28G02G17
 -10986830.03347  -8520176.58146  22860927.7324   22860932.3004   22860927.920
        45.0004         41.0004
 -24946119.73248 -19384234.14947  21040438.3714   21040445.0614   21040438.082
        52.0004         47.0004
    221977.56947    197147.06046  24554910.8974   24554914.9434   24554909.544
        43.0004         38.0004
 -11843485.90747  -9178202.70547  23287428.9364   23287433.3194   23287428.841
        46.0004         42.0004
 -25864148.08348 -20147215.63748  20777743.5524   20777749.4674   20777744.002
        52.0004         48.0004
  -3712827.33446  -2888727.39945  25063103.8074   25063106.9044   25063103.204
        40.0004         35.0004
   1220566.95548    941473.60147  22764816.4634   22764823.3054   22764817.116
        48.0004         43.0004
  11955129.89348   9319032.61247  22492150.0234   22492155.2244   22492150.286
        48.0004         44.0004
 -19126617.40848 -14876402.34547  21133815.2094   21133820.3494   21133815.361
        52.0004         47.0004
 -17499868.19948 -13583079.34447  21486054.7744   21486058.8554   21486055.330
        52.0004         47.0004
  -5544910.45647  -4266922.85246  24016201.5174   24016210.7224   24016200.485
        45.0004         40.0004
 14  5 23  1 46  0.0000000  0 11G08G04G26G05G10G07G30G09G28G02G17
 -10881356.76047  -8437989.66946  22880997.2984   22881002.7854   22880998.522
        45.0004         41.0004
 -24889196.90448 -19339878.77347  21051271.0254   21051277.0504   21051270.308
        52.0004         47.0004
    227949.45347    201800.50646  24556045.8724   24556052.5374   24556045.467
        43.0004         38.0004
 -11938256.87247  -9252050.18247  23269394.9754   23269399.5334   23269395.567
        46.0004         42.0004
 -25907462.30248 -20180967.01048  20769501.4804   20769506.9354   20769502.059
        52.0004         48.0004
  -3612388.77846  -2810463.77245  25082215.6204   25082220.9834   25082215.690
        40.0004         35.0004
   1312080.36447   1012782.70947  22782231.2954   22782238.6814   22782231.405
        47.0004         43.0004
  12045144.86948   9389174.12747  22509278.9194   22509284.0224   22509279.476
        48.0004         43.0004
 -19143594.78548 -14889631.47247  21130584.5244   21130589.4954   21130584.951
        52.0004         47.0004
 -17494775.69948 -13579111.20347  21487023.6514   21487027.9464   21487023.969
        52.0004         47.0004
  -5544783.75347  -4266824.10046  24016224.9554   24016233.4654   24016225.789
        45.0004         40.0004
 14  5 23  1 46 30.0000000  0 11G08G04G26G05G10G07G30G09G28G02G17
 -10775807.00647  -8355743.17646  22901083.5544   22901087.8164   22901084.145
        45.0004         41.0004
 -24831971.29848 -19295287.46647  21062160.4294   21062166.4834   21062159.627
        52.0004         47.0004
    233731.91947    206306.35146  24557145.9534   24557152.2794   24557145.627
        43.0004         38.0004
 -12033004.92647  -9325879.81447  23251365.3474   23251369.2414   23251364.874
        47.0004         42.0004
 -25950371.33148 -20214402.65448  20761336.2734   20761341.3384   20761336.730
        52.0004         48.0004
  -3512101.61546  -2732318.13345  25101300.6694   25101306.9234   25101300.812
        40.0004         35.0004
   1403666.63047   1084148.59547  22799660.3204   22799666.6894   22799660.025
        47.0004         43.0004
  12135214.44748   9459358.19347  22526418.2184   22526423.8534   22526418.713
        48.0004         43.0004
 -19160096.37548 -14902489.86147  21127444.4794   21127449.1084   21127444.476
        52.0004         47.0004
 -17489293.84648 -13574839.66747  21488067.0544   21488070.2334   21488067.446
        52.0004         47.0004
  -5544880.79147  -4266899.69046  24016207.4934   24016215.1704   24016206.907
        45.0004         40.0004
 14  5 23  1 47  0.0000000  0 11G08G04G26G05G10G07G30G09G28G02G17
 -10670183.96847  -8273439.57246  22921183.1624   22921187.8534   22921183.633
        45.0004         40.0004
 -24774446.16948 -19250462.75747  21073106.7894   21073113.7614   21073106.708
        52.0004         47.0004
    239323.55347    210663.49146  24558209.4374   24558216.4474   24558209.928
        43.0004         38.0004
 -12127727.73847  -9399689.79047  23233341.2244   23233345.0044   23233339.706
        47.0004         42.0004
 -25992872.90848 -20247520.80048  20753247.9464   20753254.1474   20753249.057
        52.0004         48.0004
  -3411968.24346  -2654292.35146  25120354.7874   25120358.0074   25120355.733
        40.0004         36.0004
   1495322.89947   1155569.02747  22817100.7364   22817108.0274   22817101.134
        47.0004         43.0004
  12225335.40848   9529582.29547  22543568.4554   22543575.1584   22543568.394
        48.0004         43.0004
 -19176120.40148 -14914976.11647  21124395.2954   21124400.1874   21124395.308
        52.0004         47.0004
 -17483424.32848 -13570266.05847  21489184.3254   21489187.9044   21489184.383
        52.0004         47.0004
  -5545201.17247  -4267149.31046  24016146.7204   24016154.0294   24016145.743
        45.0004         41.0004
 14  5 23  1 47 30.0000000  0 11G08G04G26G05G10G07G30G09G28G02G17
 -10564492.31547  -8191082.47446  22941296.1644   22941300.8724   22941295.956
        45.0004         41.0004
 -24716625.90748 -19205408.07547  21084109.9144   21084116.9234   21084109.684
        52.0004         47.0004
    244721.32247    214869.56646  24559237.4214   24559244.6794   24559237.020
        43.0004         38.0004
 -12222424.67747  -9473479.59147  23215320.2044   23215324.4614   23215319.758
        47.0004         42.0004
 -26034966.19548 -20280320.79548  20745238.3814   20745244.0154   20745239.033
        52.0004         48.0004
  -3311991.85046  -2576388.87146  25139379.0504   25139387.0614   25139380.059
        41.0004         36.0004
   1587044.83647   1227040.62847  22834555.0494   22834562.9684   22834555.834
        47.0004         43.0004
  12315503.20348   9599842.89847  22560727.1004   22560731.4684   22560726.956
        48.0004         43.0004
 -19191666.74748 -14927090.15347  21121436.6794   21121442.0214   21121436.936
        52.0004         47.0004
 -17477170.34848 -13565392.87647  21490374.2914   21490378.2914   21490374.501
        52.0004         47.0004
  -5545746.10147  -4267573.90046  24016042.2524   24016050.9774   24016042.354
        45.0004         40.0004
 14  5 23  1 48  0.0000000  0 11G08G04G26G05G10G07G30G09G28G02G17
 -10458733.67747  -8108673.17846  22961420.9504   22961425.9914   22961421.355
        45.0004         40.0004
 -24658511.70248 -19160124.35647  21095168.7224   21095174.9624   21095168.256
        52.0004         47.0004
    249925.19747    218924.55546  24560225.8954   24560233.7714   24560227.181
        43.0004         38.0004
 -12317091.75647  -9547246.13147  23197304.6074   23197310.0834   23197304.766
        47.0004         42.0004
 -26076647.12548 -20312799.47848  20737306.6884   20737312.7604   20737307.035
        52.0004         48.0004
  -3212173.02946  -2498608.20446  25158375.4144   25158380.7284   25158375.185
        41.0004         36.0004
   1678831.16047   1298562.40547  22852022.1234   22852028.3724   22852022.201
        47.0004         43.0004
  12405716.60748   9670139.02847  22577893.9144   22577899.0244   22577893.925
        48.0004         43.0004
 -19206731.74948 -14938829.11947  21118569.7844   21118574.8214   21118570.347
        52.0004         47.0004
 -17470531.91448 -13560220.12247  21491637.8034   21491641.5724   21491638.109
        52.0004         47.0004
  -5546513.11647  -4268171.53346  24015896.2294   24015904.0584   24015896.071
        45.0004         40.0004
 14  5 23  1 48 30.0000000  0 10G08G04G26G05G10G30G09G28G02G17
 -10352911.11747  -8026214.03346  22981557.5524   22981562.9174   22981558.250
        45.0004         40.0004
 -24600105.99748 -19114613.49147  21106282.6724   21106289.2584   21106282.598
        52.0004         47.0004
    254934.16347    222827.66246  24561179.7954   24561186.7224   24561180.692
        43.0004         38.0004
 -12411725.66347  -9620986.83447  23179297.5104   23179302.1824   23179296.494
        47.0004         42.0004
 -26117912.83948 -20344954.61648  20729453.6574   20729459.9894   20729454.622
        52.0004         48.0004
   1770679.51047   1370132.52247  22869500.6374   22869507.8464   22869500.280
        47.0004         43.0004
  12495973.27048   9740468.88547  22595070.1254   22595074.4124   22595069.120
        48.0004         43.0004
 -19221313.33048 -14950191.38747  21115794.8734   21115800.2774   21115795.430
        52.0004         47.0004
 -17463510.30548 -13554748.78847  21492973.4384   21492977.1074   21492973.903
        52.0004         47.0004
  -5547501.48247  -4268941.65846  24015708.5064   24015716.4164   24015708.196
        45.0004         40.0004
 14  5 23  1 49  0.0000000  0 10G08G04G26G05G10G30G09G28G02G17
 -10247028.67947  -7943708.30646  23001706.7734   23001712.1644   23001707.332
        45.0004         40.0004
 -24541412.70348 -19068878.52547  21117452.0124   21117458.1184   21117451.356
        51.0004         47.0004
    259746.01347    226577.17846  24562095.8514   24562102.4334   24562096.548
        43.0004         38.0004
 -12506324.94347  -9694700.55047  23161295.0544   23161300.0244   23161294.478
        47.0004         42.0004
 -26158761.41648 -20376784.71748  20721680.9314   20721686.6724   20721681.333
        52.0004         48.0004
   1862586.31647   1441748.17947  22886990.4164   22886995.0064   22886989.677
        47.0004         42.0004
  12586269.48848   9810829.54747  22612251.9824   22612257.8524   22612252.017
        48.0004         43.0004
 -19235410.30348 -14961176.04147  21113112.8974   21113117.7404   21113112.902
        52.0004         47.0004
 -17456108.03148 -13548980.82347  21494382.4734   21494386.0914   21494382.878
        52.0004         47.0004
  -5548711.34847  -4269884.39246  24015478.3694   24015486.3094   24015477.716
        45.0004         40.0004
 14  5 23  1 49 30.0000000  0 10G08G04G26G05G10G30G09G28G02G17
 -10141089.69647  -7861158.48146  23021866.7204   23021871.6414   23021866.885
        44.0004         40.0004
 -24482434.65648 -19022921.67747  21128675.1534   21128681.7364   21128674.661
        51.0004         47.0004
    264359.04647    230171.77346  24562973.4164   24562980.8904   24562973.053
        43.0004         38.0004
 -12600887.68947  -9768385.80347  23143300.3054   23143305.4594   23143300.570
        47.0004         42.0004
 -26199190.85748 -20408288.20948  20713987.4134   20713993.2104   20713987.908
        52.0004         48.0004
   1954548.66447   1513407.11547  22904490.1014   22904495.2134   22904489.537
        47.0004         42.0004
  12676602.03848   9881218.52847  22629442.0454   22629445.7224   22629441.504
        48.0004         43.0004
 -19249021.21148 -14971781.94247  21110522.8554   21110527.1574   21110522.960
        52.0004         47.0004
 -17448326.81348 -13542917.57147  21495862.5764   21495867.1744   21495863.360
        52.0004         47.0004
  -5550142.23647  -4270999.34846  24015205.8734   24015214.0304   24015206.090
        45.0004         41.0004
 14  5 23  1 50  0.0000000  0 10G08G04G26G05G10G30G09G28G02G17
 -10035094.55947  -7778564.83046  23042036.8824   23042040.2444   23042037.072
        44.0004         39.0004
 -24423172.30748 -18976743.27947  21139952.4614   21139959.1084   21139951.960
        51.0004         47.0004
    268774.31247    233612.26546  24563814.5014   24563821.0524   24563813.568
        43.0004         38.0004
 -12695408.70047  -9842038.52947  23125313.6814   23125318.2994   23125313.518
        47.0004         42.0004
 -26239196.02148 -20439461.10648  20706374.9174   20706380.3104   20706375.452
        52.0004         48.0004
   2046566.19847   1585109.04447  22921999.7764   22922007.0854   22921999.528
        47.0004         42.0004
  12766970.39248   9951635.40447  22646639.0684   22646643.7914   22646638.272
        48.0004         43.0004
 -19262141.79048 -14982005.76947  21108025.4644   21108031.1954   21108026.273
        52.0004         47.0004
 -17440165.85448 -13536558.41847  21497415.6744   21497419.8774   21497416.498
        52.0004         47.0004
  -5551790.92147  -4272284.01446  24014892.0594   24014899.8874   24014892.129
        45.0004         41.0004
 14  5 23  1 50 30.0000000  0 10G08G04G26G05G10G30G09G28G02G17
  -9929050.65947  -7695933.24146  23062215.4264   23062218.9564   23062216.340
        44.0004         40.0004
 -24363632.53048 -18930348.71947  21151282.2644   21151289.1934   21151281.988
        51.0004         47.0004
    272986.64747    236894.62146  24564616.5184   24564622.8214   24564615.757
        43.0004         38.0004
 -12789888.72447  -9915659.32547  23107334.7644   23107339.1194   23107333.994
        47.0004         42.0004
 -26278778.42748 -20470304.57748  20698842.4124   20698847.8574   20698843.097
        53.0004         48.0004
   2138632.36747   1656848.87447  22939520.0504   22939526.3784   22939519.579
        47.0004         42.0004
  12857367.98248  10022075.05547  22663840.8994   22663845.2534   22663840.306
        48.0004         43.0004
 -19274773.84448 -14991848.93447  21105621.8304   21105627.1734   21105622.059
        52.0004         47.0004
 -17431630.88148 -13529907.83447  21499039.8724   21499043.9394   21499040.489
        52.0004         47.0004
  -5553661.00647  -4273741.20446  24014537.0894   24014544.3614   24014535.695
        45.0004         40.0004
 14  5 23  1 51  0.0000000  0 10G08G04G26G05G10G30G09G28G02G17
  -9822957.08947  -7613263.01946  23082405.9314   23082409.1494   23082404.752
        44.0004         39.0004
 -24303814.06948 -18883737.00047  21162665.7434   21162672.0124   21162665.399
        51.0004         47.0004
    276998.75147    240020.95046  24565379.3174   24565385.2234   24565379.431
        43.0004         38.0004
 -12884321.90247  -9989243.61247  23089364.3744   23089369.5674   23089365.060
        47.0004         42.0004
 -26317931.23448 -20500813.29648  20691391.9974   20691397.9274   20691392.604
        53.0004         48.0004
   2230748.66147   1728627.76347  22957048.8274   22957055.1584   22957048.240
        47.0004         42.0004
  12947796.01048  10092538.41447  22681049.3784   22681053.9274   22681048.581
        48.0004         43.0004
 -19286911.59748 -15001306.92847  21103312.4864   21103317.0624   21103312.544
        51.0004         47.0004
 -17422719.24348 -13522963.75147  21500735.9424   21500739.7784   21500736.545
        52.0004         47.0004
  -5555747.49147  -4275367.01646  24014139.8394   24014147.1824   24014139.207
        45.0004         40.0004
 14  5 23  1 51 30.0000000  0 10G08G04G26G05G10G30G09G28G02G17
  -9716818.79947  -7530557.96046  23102602.2164   23102606.8234   23102602.071
        44.0004         39.0004
 -24243721.69748 -18836911.83147  21174100.7344   21174107.2884   21174100.442
        51.0004         47.0004
    280807.34547    242988.69746  24566103.8634   24566110.4014   24566104.896
        43.0004         38.0004
 -12978707.31447 -10062790.68547  23071404.1694   23071408.2644   23071403.362
        47.0004         43.0004
 -26356654.24248 -20530987.10648  20684023.3274   20684028.4854   20684023.941
        53.0004         48.0004
   2322910.35647   1800442.02447  22974586.6894   22974592.5904   22974586.741
        47.0004         42.0004
  13038249.71648  10163021.78147  22698262.2314   22698265.6224   22698261.469
        48.0004         43.0004
 -19298555.52348 -15010380.11847  21101095.9704   21101101.4174   21101096.571
        51.0004         47.0004
 -17413434.38748 -13515728.84947  21502503.0244   21502507.0744   21502503.224
        52.0004         47.0004
  -5558051.72947  -4277162.50846  24013700.9534   24013709.1494   24013700.878
        45.0004         40.0004
 14  5 23  1 52  0.0000000  0 10G08G04G26G05G10G30G09G28G02G17
  -9610639.16147  -7447820.63746  23122807.6804   23122813.7594   23122807.316
        44.0004         40.0004
 -24183358.69348 -18789875.79547  21185587.1454   21185595.0694   21185587.124
        51.0004         47.0004
    284410.48947    245796.35646  24566789.8124   24566796.3424   24566790.152
        43.0004         38.0004
 -13073042.62047 -10136298.71747  23053453.4364   23053457.0754   23053451.977
        47.0004         43.0004
 -26394945.61148 -20560824.57248  20676736.4294   20676742.1684   20676737.224
        53.0004         48.0004
   2415114.21947   1872289.15247  22992131.8754   22992139.2384   22992132.471
        47.0004         42.0004
  13128725.92948  10233522.69847  22715478.9484   22715484.0054   22715478.889
        48.0004         43.0004
 -19309704.17948 -15019067.37947  21098974.7404   21098979.3974   21098975.204
        51.0004         47.0004
 -17403778.96348 -13508205.19147  21504340.1124   21504344.1044   21504340.733
        52.0004         47.0004
  -5560573.29847  -4279127.37046  24013221.6144   24013229.2994   24013221.012
        45.0004         40.0004
 14  5 23  1 52 30.0000000  0 10G08G04G26G05G10G30G09G28G02G17
  -9504420.36947  -7365052.84646  23143021.3284   23143025.6814   23143021.269
        45.0004         40.0004
 -24122726.83748 -18742630.25947  21197125.4454   21197132.1574   21197125.306
        51.0004         47.0004
    287808.08347    248443.84746  24567436.4724   24567442.2614   24567435.945
        43.0004         38.0004
 -13167324.60247 -10209765.19347  23035511.4174   23035515.9024   23035511.081
        47.0004         43.0004
 -26432801.80448 -20590322.94048  20669532.6294   20669538.5234   20669533.527
        53.0004         48.0004
   2507358.81447   1944168.01647  23009686.5874   23009692.5974   23009685.809
        47.0004         42.0004
  13219222.80948  10304039.72447  22732697.7524   22732704.1184   22732699.119
        48.0004         43.0004
 -19320354.69948 -15027366.47947  21096948.3714   21096953.3664   21096948.598
        51.0004         47.0004
 -17393753.39748 -13500393.09547  21506248.0234   21506251.8154   21506248.537
        52.0004         47.0004
  -5563310.61447  -4281260.32746  24012699.4914   24012708.2154   24012699.497
        45.0004         40.0004
 14  5 23  1 53  0.0000000  0 10G08G04G26G05G10G30G09G28G02G17
  -9398165.92947  -7282257.31146  23163240.7794   23163245.8964   23163241.626
        44.0004         39.0004
 -24061829.55048 -18695177.88847  21208714.0514   21208720.8834   21208713.559
        51.0004         46.0004
    290998.20847    250929.67846  24568042.8524   24568049.8734   24568043.240
        43.0004         38.0004
 -13261550.89647 -10283188.27547  23017580.4374   23017584.7194   23017580.376
        47.0004         43.0004
 -26470220.75748 -20619480.60548  20662412.6294   20662418.2454   20662412.946
        53.0004         48.0004
   2599640.90447   2016076.09247  23027246.7454   23027253.9854   23027246.617
        47.0004         42.0004
  13309736.98648  10374570.22547  22749922.6334   22749927.0864   22749923.708
        48.0004         43.0004
 -19330505.76748 -15035276.40447  21095016.6294   21095021.5274   21095016.752
        52.0004         47.0004
 -17383359.87048 -13492294.27747  21508226.1764   21508230.0844   21508226.443
        52.0004         47.0004
  -5566263.37847  -4283561.17746  24012138.1324   24012146.0904   24012137.457
        45.0004         40.0004
 14  5 23  1 53 30.0000000  0 11G24G08G04G26G05G10G30G09G28G02G17
   -849416.84748   -621509.38746  24574785.9054   24574797.9144   24574784.193
        50.0004         37.0004
  -9291882.81147  -7199439.38946  23183465.7984   23183470.8554   23183466.487
        44.0004         39.0004
 -24000673.96448 -18647524.24447  21220351.1524   21220358.3704   21220351.145
        51.0004         46.0004
    293975.35047    253249.53846  24568609.0414   24568616.3984   24568609.692
        43.0004         38.0004
 -13355723.55647 -10356569.56747  22999660.2794   22999664.1974   22999659.675
        47.0004         43.0004
 -26507204.37448 -20648299.04948  20655374.9424   20655380.5554   20655375.418
        53.0004         48.0004
   2691953.61847   2088008.03847  23044813.2844   23044819.1154   23044813.501
        46.0004         42.0004
  13400261.51048  10445108.79047  22767150.3554   22767154.0954   22767149.588
        48.0004         43.0004
 -19340160.06648 -15042799.23247  21093179.3034   21093183.9584   21093179.828
        52.0004         47.0004
 -17372604.50448 -13483913.51047  21510272.4624   21510276.7234   21510273.119
        52.0004         47.0004
  -5569434.94747  -4286032.51146  24011534.7084   24011542.1724   24011534.033
        45.0004         40.0004
 14  5 23  1 54  0.0000000  0 11G24G08G04G26G05G10G30G09G28G02G17
   -914209.81147   -671997.35646  24562455.5154   24562469.8414   24562453.999
        45.0004         37.0004
  -9185570.48547  -7116598.71246  23203696.9064   23203700.6464   23203696.704
        44.0004         38.0004
 -23939258.65948 -18599668.22847  21232038.3834   21232045.5544   21232038.132
        51.0004         46.0004
    296742.38847    255405.67846  24569136.8394   24569142.7364   24569136.414
        43.0004         38.0004
 -13449835.41848 -10429903.50147  22981751.8934   22981756.1294   22981751.031
        48.0004         43.0004
 -26543746.21148 -20676773.25348  20648421.0024   20648426.7294   20648421.576
        53.0004         48.0004
   2784298.45647   2159965.00746  23062385.8794   23062391.5724   23062386.048
        46.0004         41.0004
  13490797.81148  10515656.52747  22784377.9734   22784382.6154   22784377.993
        48.0004         43.0004
 -19349311.97748 -15049930.59247  21091437.8934   21091442.5444   21091438.212
        52.0004         47.0004
 -17361484.60048 -13475248.69747  21512388.9184   21512393.0954   21512389.304
        52.0004         47.0004
  -5572820.44447  -4288670.55546  24010890.0724   24010898.1064   24010890.180
        45.0004         40.0004
 14  5 23  1 54 30.0000000  0 11G24G08G04G26G05G10G30G09G28G02G17
   -978671.41947   -722227.08646  24550188.4584   24550201.7954   24550187.423
        43.0004         37.0004
  -9079228.00847  -7033734.48046  23223932.2434   23223937.0034   23223932.559
        44.0004         39.0004
 -23877582.83148 -18551609.20447  21243775.3604   21243782.0954   21243774.687
        51.0004         46.0004
    299301.79947    257400.03046  24569623.9294   24569630.6924   24569623.537
        42.0004         38.0004
 -13543880.19648 -10503185.15947  22963855.5894   22963859.8614   22963855.516
        48.0004         43.0004
 -26579839.79348 -20704898.17048  20641552.7054   20641558.4114   20641553.323
        53.0004         48.0004
   2876676.65247   2231948.04047  23079964.8554   23079971.4784   23079965.067
        47.0004         42.0004
  13581346.86348  10586214.19147  22801608.9014   22801613.8644   22801608.944
        48.0004         43.0004
 -19357955.94948 -15056666.15447  21089793.1314   21089798.0764   21089793.462
        52.0004         47.0004
 -17349998.46448 -13466298.51147  21514574.8854   21514578.6394   21514574.888
        52.0004         47.0004
  -5576415.26047  -4291471.69246  24010206.3844   24010214.0824   24010205.999
        45.0004         40.0004
 14  5 23  1 55  0.0000000  0 11G24G08G04G26G05G10G30G09G28G02G17
  -1042802.17247   -772199.02846  24537983.1124   24537996.7434   24537983.466
        42.0004         37.0004
  -8972860.39347  -6950850.72046  23244173.5704   23244179.8904   23244174.399
        44.0004         39.0004
 -23815651.27048 -18503350.90247  21255561.0684   21255567.6424   21255560.253
        51.0004         46.0004
    301650.29947    259230.02046  24570070.6954   24570076.5034   24570070.354
        42.0004         38.0004
 -13637857.13648 -10576413.95947  22945971.8044   22945976.0974   22945971.802
        48.0004         43.0004
 -26615484.81848 -20732673.55148  20634769.7334   20634775.6284   20634770.032
        53.0004         48.0004
   2969083.42947   2303953.27747  23097549.3604   23097556.8104   23097548.836
        46.0004         42.0004
  13671904.15847  10656778.26947  22818842.5534   22818848.1694   22818841.663
        47.0004         43.0004
 -19366092.35948 -15063006.21347  21088245.1734   21088249.6464   21088244.963
        52.0004         47.0004
 -17338149.56448 -13457065.65147  21516829.7634   21516833.2234   21516830.168
        52.0004         47.0004
  -5580220.80847  -4294437.06146  24009480.8984   24009489.8964   24009480.874
        44.0004         40.0004
 14  5 23  1 55 30.0000000  0 11G24G08G04G26G05G10G30G09G28G02G17
  -1106602.56046   -821913.54146  24525841.9394   24525858.7274   24525842.910
        41.0004         37.0004
  -8866471.52847  -6867950.50046  23264418.9614   23264424.3334   23264419.675
        44.0004         39.0004
 -23753467.61648 -18454896.17047  21267393.5744   21267400.6084   21267393.271
        51.0004         46.0004
    303786.02447    260894.22146  24570477.5844   24570484.1844   24570476.448
        43.0004         38.0004
 -13731764.60548 -10649588.62847  22928101.3414   22928107.1384   22928101.507
        48.0004         43.0004
 -26650679.85048 -20760098.29648  20628072.3754   20628078.0024   20628073.002
        53.0004         48.0004
   3061515.45147   2375978.17646  23115139.3594   23115145.6494   23115138.240
        46.0004         41.0004
  13762466.13048  10727345.99547  22836074.6474   22836080.7114   22836075.116
        48.0004         43.0004
 -19373720.00748 -15068949.83947  21086793.0754   21086798.5364   21086793.615
        52.0004         47.0004
 -17325940.56948 -13447552.19647  21519152.6754   21519156.8144   21519152.928
        52.0004         47.0004
  -5584236.94747  -4297566.50746  24008717.1004   24008725.2734   24008717.108
        44.0004         40.0004
 14  5 23  1 56  0.0000000  0 11G24G08G04G26G05G10G30G09G28G02G17
  -1170069.57846   -871368.29946  24513766.4984   24513779.3764   24513765.197
        41.0004         37.0004
  -8760062.38347  -6785034.33646  23284668.9694   23284672.1844   23284668.643
        44.0004         39.0004
 -23691032.89348 -18406245.80347  21279274.6984   21279281.9184   21279274.512
        51.0004         46.0004
    305709.48947    262393.04446  24570842.8344   24570849.0134   24570842.728
        43.0004         38.0004
 -13825598.06248 -10722705.62947  22910247.2554   22910250.3474   22910245.804
        48.0004         43.0004
 -26685420.47848 -20787168.95748  20621461.3104   20621467.5544   20621461.946
        53.0004         48.0004
   3153972.27147   2448022.45147  23132731.4304   23132738.6324   23132732.452
        46.0004         42.0004
  13853032.04348  10797916.80347  22853309.5774   22853314.8774   22853309.482
        48.0004         43.0004
 -19380835.69148 -15074494.52847  21085439.2224   21085444.3034   21085439.448
        52.0004         47.0004
 -17313371.39648 -13437758.08447  21521544.8794   21521548.5124   21521545.266
        52.0004         47.0004
  -5588460.47747  -4300857.57046  24007914.4014   24007921.1394   24007913.559
        44.0004         40.0004
 14  5 23  1 56 30.0000000  0 11G24G08G04G26G05G10G30G09G28G02G17
  -1233205.42746   -920564.96446  24501751.2524   24501765.6024   24501750.748
        41.0004         37.0004
  -8653638.70747  -6702106.76146  23304919.8874   23304923.8724   23304920.402
        44.0004         40.0004
 -23628352.94648 -18357404.35347  21291202.6904   21291209.1134   21291202.123
        51.0004         46.0004
    307416.63247    263723.29146  24571167.5184   24571173.3534   24571167.228
        42.0004         38.0004
 -13919357.73248 -10795765.13347  22892404.4524   22892408.6494   22892403.778
        48.0004         43.0004
 -26719707.38348 -20813886.07048  20614936.8454   20614943.2954   20614937.504
        53.0004         48.0004
   3246448.12247   2520081.52246  23150330.6914   23150337.4434   23150330.230
        46.0004         41.0004
  13943596.00647  10868486.09147  22870543.6524   22870546.9994   22870543.330
        47.0004         43.0004
 -19387440.91148 -15079641.46047  21084182.3544   21084187.4894   21084182.740
        52.0004         47.0004
 -17300446.49848 -13427686.77247  21524004.2154   21524008.2794   21524004.748
        52.0004         47.0004
  -5592893.76047  -4304312.07446  24007070.7564   24007078.3534   24007070.761
        45.0004         40.0004
 14  5 23  1 57  0.0000000  0 11G24G08G04G26G05G10G30G09G28G02G17
  -1296007.66847   -969501.68646  24489799.4024   24489814.6274   24489799.903
        42.0004         37.0004
  -8547202.36547  -6619169.42646  23325174.5114   23325178.2834   23325174.204
        44.0004         39.0004
 -23565429.04548 -18308372.80147  21303175.6944   21303182.2584   21303175.738
        51.0004         46.0004
    308907.52147    264885.01546  24571451.3284   24571457.0484   24571450.957
        43.0004         38.0004
 -14013039.32448 -10868763.79147  22874577.6944   22874582.3954   22874576.873
        48.0004         43.0004
 -26753536.90348 -20840246.77548  20608499.3224   20608505.3134   20608499.927
        53.0004         48.0004
   3338941.87747   2592154.57147  23167930.8344   23167937.4364   23167930.591
        46.0004         42.0004
  14034156.64447  10939052.78547  22887776.6084   22887781.7854   22887776.560
        47.0004         43.0004
 -19393532.73548 -15084388.33847  21083023.3494   21083028.2464   21083023.140
        52.0004         47.0004
 -17287166.73748 -13417338.95147  21526531.4614   21526535.2504   21526531.758
        52.0004         47.0004
  -5597534.78047  -4307928.42946  24006187.9094   24006195.5794   24006187.079
        44.0004         40.0004
 14  5 23  1 57 30.0000000  0 11G24G08G04G26G05G10G30G09G28G02G17
  -1358476.34046  -1018178.51846  24477913.9294   24477925.8034   24477912.748
        41.0004         37.0004
  -8440757.06847  -6536225.12946  23345429.8324   23345435.7014   23345430.273
        44.0004         39.0004
 -23502265.28148 -18259154.35347  21315195.9184   21315203.1234   21315195.758
        51.0004         46.0004
    310180.10847    265876.65546  24571693.6094   24571699.9834   24571693.176
        43.0004         38.0004
 -14106641.01348 -10941700.20147  22856764.8614   22856769.6524   22856765.364
        48.0004         43.0004
 -26786907.63048 -20866249.98248  20602149.0294   20602155.2804   20602149.823
        53.0004         48.0004
   3431449.99747   2664238.80446  23185534.6994   23185542.0184   23185534.322
        46.0004         41.0004
  14124710.65847  11009614.32247  22905008.1454   22905012.6714   22905007.848
        47.0004         43.0004
 -19399110.28948 -15088734.49247  21081961.5644   21081966.6554   21081961.784
        52.0004         47.0004
 -17273534.46848 -13406716.45247  21529125.1504   21529129.5784   21529125.388
        52.0004         47.0004
  -5602383.15147  -4311706.36146  24005264.5264   24005273.1554   24005264.677
        44.0004         40.0004
 14  5 23  1 58  0.0000000  0 11G24G08G04G26G05G10G30G09G28G02G17
  -1420609.69647  -1066594.05146  24466089.1174   24466103.7554   24466089.168
        42.0004         37.0004
  -8334304.75947  -6453275.36446  23365688.0544   23365691.1814   23365687.651
        44.0004         39.0004
 -23438863.13648 -18209750.14047  21327260.7324   21327267.6454   21327260.669
        51.0004         46.0004
    311234.15247    266697.99346  24571894.3824   24571901.1584   24571893.729
        42.0004         38.0004
 -14200159.58848 -11014571.82647  22838970.1764   22838973.0064   22838969.492
        48.0004         43.0004
 -26819816.01848 -20891892.92148  20595887.0074   20595892.5654   20595887.457
        53.0004         48.0004
   3523971.11547   2736333.19546  23203141.2004   23203147.7394   23203140.558
        45.0004         41.0004
  14215256.26747  11080169.30347  22922238.7264   22922243.6274   22922238.202
        47.0004         43.0004
 -19404171.34148 -15092678.17647  21080998.7854   21081003.5054   21080998.827
        51.0004         47.0004
 -17259550.54148 -13395819.94047  21531786.1554   21531790.3194   21531786.883
        52.0004         47.0004
  -5607437.57447  -4315644.84446  24004302.1964   24004309.7064   24004302.238
        44.0004         40.0004
 14  5 23  1 58 30.0000000  0 11G24G08G04G26G05G10G30G09G28G02G17
  -1482408.41047  -1114748.82646  24454329.2634   24454343.0054   24454328.894
        42.0004         37.0004
  -8227850.09947  -6370323.77546  23385945.2204   23385950.1634   23385945.883
        44.0004         40.0004
 -23375227.07148 -18160163.66047  21339370.4724   21339377.5434   21339369.947
        51.0004         46.0004
    312067.14947    267347.07846  24572053.9334   24572058.7044   24572053.209
        43.0004         38.0004
 -14293593.63648 -11087377.59747  22821190.0504   22821192.8984   22821189.349
        48.0004         44.0004
 -26852261.76748 -20917175.36448  20589712.8024   20589718.5264   20589713.515
        53.0004         48.0004
   3616501.01047   2808434.42046  23220747.9104   23220755.9014   23220748.430
        46.0004         41.0004
  14305789.49347  11150714.63547  22939466.4674   22939471.1604   22939466.137
        47.0004         42.0004
 -19408715.89548 -15096219.39047  21080133.7484   21080138.4774   21080133.802
        51.0004         47.0004
 -17245218.28448 -13384652.00247  21534513.6084   21534518.3324   21534514.005
        51.0004         47.0004
  -5612698.38547  -4319744.14546  24003301.0554   24003308.9174   24003300.986
        44.0004         40.0004
 14  5 23  1 59  0.0000000  0 11G24G08G04G26G05G10G30G09G28G02G17
  -1543869.62947  -1162640.61046  24442634.3824   24442647.7984   24442632.193
        42.0004         37.0004
  -8121393.50947  -6287370.71846  23406202.8144   23406207.2384   23406203.606
        44.0004         39.0004
 -23311357.86948 -18110395.51547  21351524.9684   21351531.6234   21351524.214
        51.0004         46.0004
    312679.94947    267824.57446  24572168.5864   24572174.4354   24572169.668
        43.0004         38.0004
 -14386938.37448 -11160113.77647  22803426.8164   22803430.6094   22803426.081
        48.0004         44.0004
 -26884240.70148 -20942094.05048  20583627.4994   20583632.7314   20583627.868
        53.0004         48.0004
   3709039.31847   2880542.18847  23238358.6414   23238364.7794   23238358.010
        46.0004         42.0004
  14396309.76147  11221249.86447  22956692.1554   22956697.2554   22956691.606
        47.0004         42.0004
 -19412740.37048 -15099355.35347  21079367.9994   21079373.1294   21079368.090
        51.0004         47.0004
 -17230537.82148 -13373212.72847  21537307.4764   21537311.7434   21537308.071
        51.0004         47.0004
  -5618162.42147  -4324001.79446  24002262.0654   24002269.8854   24002261.392
        44.0004         39.0004
 14  5 23  1 59 30.0000000  0 11G24G08G04G26G05G10G30G09G28G02G17
  -1604993.86747  -1210269.83046  24431002.0454   24431016.0844   24431001.988
        42.0004         37.0004
  -8014939.54447  -6204419.66546  23426461.1224   23426467.5314   23426460.895
        44.0004         39.0004
 -23247260.00748 -18060449.18447  21363722.5674   21363729.5164   21363721.797
        51.0004         46.0004
    313069.95647    268128.48246  24572242.1354   24572250.1194   24572243.242
        42.0004         38.0004
 -14480192.16748 -11232779.09547  22785681.5384   22785685.5264   22785680.634
        48.0004         43.0004
 -26915751.58248 -20966648.02048  20577630.9924   20577637.0984   20577632.029
        53.0004         48.0004
   3801582.06647   2952653.42347  23255968.8474   23255975.7934   23255968.256
        46.0004         42.0004
  14486812.80947  11291771.67647  22973913.0824   22973919.5614   22973913.847
        47.0004         42.0004
 -19416244.58748 -15102085.91847  21078701.0254   21078706.4614   21078701.266
        51.0004         47.0004
 -17215512.20048 -13361504.49547  21540167.0264   21540171.1684   21540167.048
        51.0004         47.0004
  -5623830.21947  -4328418.21646  24001184.3564   24001190.7924   24001182.839
        44.0004         39.0004
 14  5 23  2  0  0.0000000  0 11G24G08G04G26G05G10G30G09G28G02G17
  -1665780.46547  -1257635.94146  24419434.2704   24419449.8184   24419434.485
        42.0004         37.0004
  -7908491.17047  -6121472.96246  23446717.0004   23446721.9814   23446717.340
        43.0004         37.0004
 -23182936.16348 -18010326.76447  21375961.9944   21375969.0904   21375961.811
        51.0004         46.0004
    313235.98347    268257.85546  24572275.7654   24572281.3034   24572275.095
        42.0004         38.0004
 -14573352.84248 -11305371.86547  22767953.8804   22767957.4534   22767952.974
        48.0004         44.0004
 -26946792.34248 -20990835.66248  20571724.0174   20571730.3674   20571724.729
        53.0004         48.0004
   3894126.65147   3024766.06146  23273578.9424   23273585.9754   23273579.235
        46.0004         41.0004
  14577296.05447  11362278.06547  22991132.6524   22991137.4974   22991132.513
        47.0004         42.0004
 -19419227.23448 -15104410.07247  21078133.4574   21078138.5284   21078133.698
        51.0004         47.0004
 -17200143.24048 -13349528.71847  21543091.4484   21543095.5724   21543091.876
        51.0004         47.0004
  -5629700.90147  -4332992.72746  24000066.8854   24000072.7664   24000065.858
        44.0004         39.0004
 14  5 23  2  0 30.0000000  0 11G24G08G04G26G05G10G30G09G28G02G17
  -1726227.09747  -1304737.13846  24407932.2684   24407946.7594   24407931.114
        42.0004         37.0004
  -7802050.00647  -6038531.88646  23466970.8704   23466977.0624   23466972.435
        44.0004         39.0004
 -23118387.88748 -17960029.46547  21388245.5304   21388253.2064   21388245.408
        51.0004         46.0004
    313178.20347    268212.84946  24572263.8824   24572269.7224   24572264.012
        42.0004         38.0004
 -14666416.47448 -11377889.01247  22750243.6784   22750247.8944   22750243.261
        48.0004         44.0004
 -26977359.38448 -21014654.16748  20565907.7434   20565913.6944   20565908.297
        53.0004         48.0004
   3986671.92647   3096879.23846  23291189.7394   23291197.7824   23291190.035
        46.0004         41.0004
  14667758.38747  11432768.15747  23008347.3674   23008352.6684   23008346.907
        47.0004         42.0004
 -19421685.60248 -15106325.69047  21077665.1694   21077670.8594   21077665.930
        51.0004         47.0004
 -17184431.48848 -13337285.84047  21546081.3924   21546085.3184   21546081.739
        51.0004         47.0004
  -5635772.17847  -4337723.55546  23998910.6784   23998918.7044   23998910.405
        44.0004         39.0004
 14  5 23  2  1  0.0000000  0 11G24G08G04G26G05G10G30G09G28G02G17
  -1786334.14047  -1351573.73646  24396493.1434   24396508.2304   24396494.184
        42.0004         37.0004
  -7695619.85547  -5955599.51446  23487225.0834   23487228.7334   23487225.574
        43.0004         38.0004
 -23053618.99948 -17909560.26047  21400570.8674   21400577.7944   21400570.401
        51.0004         46.0004
    312894.54547    267991.81746  24572209.8394   24572216.4644   24572209.737
        42.0004         38.0004
 -14759380.86548 -11450328.81547  22732553.0694   22732557.0874   22732553.152
        48.0004         44.0004
 -27007451.42048 -21038102.54248  20560181.4824   20560187.0514   20560182.060
        53.0004         48.0004
   4079214.37247   3168990.17946  23308800.0264   23308806.7904   23308800.401
        45.0004         40.0004
  14758196.11347  11503239.07447  23025556.0834   23025562.5454   23025556.149
        47.0004         42.0004
 -19423619.24748 -15107832.44147  21077297.6444   21077302.5714   21077298.049
        51.0004         47.0004
 -17168379.83348 -13324778.10347  21549135.5594   21549140.0234   21549136.387
        51.0004         47.0004
  -5642044.15247  -4342610.75546  23997716.6814   23997723.9214   23997716.314
        44.0004         39.0004
 14  5 23  2  1 30.0000000  0 11G24G08G04G26G05G10G30G09G28G02G17
  -1846099.90347  -1398144.39846  24385121.2554   24385134.5424   24385119.970
        42.0004         37.0004
  -7589202.05247  -5872676.55446  23507476.1454   23507480.9574   23507476.284
        43.0004         39.0004
 -22988631.25648 -17858920.51747  21412937.7134   21412944.8484   21412937.244
        51.0004         46.0004
    312385.06347    267594.82746  24572113.5394   24572117.8114   24572112.737
        42.0004         37.0004
 -14852242.41648 -11522688.48447  22714883.1704   22714885.9984   22714881.570
        48.0004         44.0004
 -27037065.24948 -21061178.28848  20554545.9594   20554552.1524   20554546.622
        53.0004         48.0004
   4171752.77847   3241097.98446  23326409.4444   23326417.2094   23326409.777
        45.0004         41.0004
  14848607.71747  11573689.63047  23042762.3834   23042766.4024   23042761.138
        47.0004         42.0004
 -19425025.85748 -15108928.51647  21077029.7524   21077035.1324   21077030.362
        51.0004         47.0004
 -17151989.31448 -13312006.32747  21552255.1564   21552259.0974   21552255.392
        52.0004         47.0004
  -5648514.58047  -4347652.57846  23996485.5614   23996493.3964   23996485.148
        44.0004         39.0004
 14  5 23  2  2  0.0000000  0 11G24G08G04G26G05G10G30G09G28G02G17
  -1905526.08047  -1444450.45046  24373812.5834   24373826.1584   24373812.659
        42.0004         37.0004
  -7482802.39147  -5789767.84346  23527723.1494   23527727.9294   23527723.527
        43.0004         38.0004
 -22923429.83948 -17808114.26947  21425345.0644   21425352.3204   21425344.832
        51.0004         46.0004
    311646.20547    267019.08546  24571971.9994   24571980.4574   24571972.654
        42.0004         38.0004
 -14945000.83648 -11594967.78747  22697231.1194   22697235.2794   22697230.915
        48.0004         44.0004
 -27066201.39848 -21083881.80948  20549001.5584   20549007.5024   20549002.319
        53.0004         48.0004
   4264282.01947   3313198.64146  23344017.8334   23344024.8614   23344017.278
        45.0004         40.0004
  14938987.97147  11644115.76747  23059959.8164   23059964.5614   23059959.372
        46.0004         42.0004
 -19425906.47148 -15109614.72047  21076862.5954   21076867.7804   21076862.757
        51.0004         47.0004
 -17135264.19448 -13298973.81947  21555437.6794   21555441.7874   21555437.903
        52.0004         47.0004
  -5655185.05347  -4352850.27046  23995216.8244   23995225.0774   23995215.860
        44.0004         39.0004
 14  5 23  2  2 30.0000000  0 11G24G08G04G26G05G10G30G09G28G02G17
  -1964610.46047  -1490490.18146  24362568.7144   24362582.8734   24362568.257
        42.0004         37.0004
  -7376421.79247  -5706874.00446  23547966.9614   23547972.8204   23547966.932
        43.0004         39.0004
 -22858016.15548 -17757142.61047  21437793.6494   21437800.6684   21437792.583
        51.0004         46.0004
    310678.68547    266265.18946  24571787.4304   24571794.9084   24571787.682
        42.0004         37.0004
 -15037651.55348 -11667163.15747  22679600.7954   22679604.1174   22679599.953
        48.0004         44.0004
 -27094855.56448 -21106209.76048  20543548.7724   20543555.0704   20543549.452
        53.0004         48.0004
   4356801.52147   3385291.71146  23361623.1114   23361629.9064   23361623.505
        45.0004         41.0004
  15029336.17447  11714516.93047  23077152.9964   23077157.3564   23077152.491
        46.0004         42.0004
 -19426258.10548 -15109888.73547  21076795.6294   21076800.6504   21076796.043
        51.0004         47.0004
 -17118204.56948 -13285680.65247  21558684.4334   21558688.1534   21558684.677
        52.0004         47.0004
  -5662052.71447  -4358201.62046  23993910.2004   23993916.6624   23993909.332
        44.0004         39.0004
 14  5 23  2  3  0.0000000  0 11G24G08G04G26G05G10G30G09G28G02G17
  -2023350.54747  -1536261.59546  24351392.0584   24351405.3044   24351389.870
        42.0004         37.0004
  -7270061.90147  -5623996.29546  23568207.1254   23568212.0014   23568206.811
        44.0004         40.0004
 -22792391.49748 -17706006.56147  21450280.8674   21450287.4844   21450280.571
        51.0004         46.0004
    309482.59747    265333.17946  24571561.0584   24571566.8644   24571560.272
        42.0004         37.0004
 -15130190.53348 -11739271.47947  22661991.0114   22661995.5324   22661990.022
        49.0004         44.0004
 -27123024.81448 -21128159.85648  20538188.5154   20538194.7374   20538189.020
        53.0004         48.0004
   4449309.94047   3457376.13346  23379227.0574   23379234.3784   23379226.989
        46.0004         41.0004
  15119651.13847  11784892.18747  23094339.0914   23094344.9474   23094339.053
        46.0004         42.0004
 -19426078.36248 -15109748.69547  21076829.4984   21076834.9114   21076830.132
        51.0004         47.0004
 -17100811.25848 -13272127.47347  21561993.8314   21561998.0354   21561994.128
        51.0004         47.0004
  -5669115.35647  -4363704.91946  23992565.4114   23992573.1284   23992565.410
        44.0004         39.0004
