     2.11           OBSERVATION DATA    G (GPS)             RINEX VERSION / TYPE
teqc  2008Oct2      gpsops              20090115 00:09:43UTCPGM / RUN BY / DATE
    30.0000                                                 INTERVAL
     1     1                                                WAVELENGTH FACT L1/2
     7    L1    L2    P1    P2    C1    S1    S2            # / TYPES OF OBSERV
Linux 2.4.20-8|Pentium IV|gcc -static|Linux|486/DX+         COMMENT
     2.10           OBSERVATION DATA    GPS                 COMMENT
soc2rnx ver 1.20    gpsops              15-Jan-2009 00:09:30COMMENT
S1, if present, is the SNR for the C/A data stream on L1.   COMMENT
 SNR is mapped to RINEX snr flag value [1,4-9]              COMMENT
    SNR:   >316  >100  >31.6  >10  >3.2    >0 bad=0         COMMENT
L1 & L2:      9     8     7     6     5     4     1         COMMENT
                                                            COMMENT
This data is provided as a public service by NASA/JPL.      COMMENT
No warranty is expressed or implied regarding suitability   COMMENT
for use.  For further information, contact:                 COMMENT
Dave Stowers, NASA/JPL m/s 238-600                          COMMENT
4800 Oak Grove Drive, Pasadena CA 91109 USA                 COMMENT
                                                            COMMENT
Forced Modulo Decimation to 30 seconds                      COMMENT
  2009     1    14     0     0    0.0000000     GPS         TIME OF FIRST OBS
GGN                 JPL                                     OBSERVER / AGENCY
CR519992104         ASH701945B_M    SCIT                    ANT # / TYPE
   -33801.4662 -6377516.5323   -82154.3508                  APPROX POSITION XYZ
        0.0083        0.0000        0.0000                  ANTENNA: DELTA H/E/N
ZR220013847         ASHTECH UZ-12       CQ00                REC # / TYPE / VERS
GLPS                                                        MARKER NAME
42005M002                                                   MARKER NUMBER
                                                            END OF HEADER
 09  1 14  0  0  0.0000000  0 12G 9G22G 5G 6G18G24G12G14G30G29G31G21
 115524805.76347  90019323.98047  21983642.5384   21983647.5144   21983643.5584
        50.000          44.000
 127545021.42847  99385732.70447  24271008.4714   24271010.8184   24271009.3824
        44.000          38.000
 124869558.99847  97300931.73847  23761904.8594   23761911.3634   23761905.9064
        45.000          39.000
 130991818.96147 102071516.78347  24926937.7594   24926942.2664   24926938.0444
        39.000          35.000
 124172514.26247  96757786.08447  23629256.8934   23629258.2104   23629256.3384
        47.000          40.000
 112761539.38347  87866120.08247  21457818.4354   21457823.9904   21457818.6964
        53.000          46.000
 128170445.65547  99873049.50747  24390044.3394   24390050.4574   24390044.8954
        43.000          38.000
 115149929.26747  89727208.38547  21912309.8454   21912312.2774   21912310.3384
        51.000          45.000
 123154074.15447  95964198.10247  23435450.6864   23435457.3004   23435451.0854
        47.000          41.000
 115991942.31147  90383321.13147  22072539.8994   22072542.6124   22072539.0684
        51.000          45.000
 126018167.10247  98195941.97047  23980484.7304   23980488.3074   23980484.9174
        45.000          39.000
 108027638.50147  84177373.98447  20556978.7314   20556981.1794   20556979.1054
        55.000          49.000
 09  1 14  0  0 30.0000000  0 12G 9G22G 5G 6G18G24G12G14G30G29G31G21
 115579966.23947  90062306.16647  21994139.9424   21994144.0404   21994140.2544
        50.000          44.000
 127528739.01647  99373045.13547  24267910.8054   24267912.0714   24267910.8004
        44.000          38.000
 124855959.34047  97290334.60247  23759316.6314   23759322.9254   23759317.4494
        45.000          39.000
 130933283.54047 102025904.80447  24915798.3624   24915803.8474   24915799.0474
        39.000          35.000
 124154339.09947  96743623.61847  23625797.0814   23625799.6854   23625797.5264
        46.000          40.000
 112784666.88747  87884141.51447  21462219.8224   21462224.7904   21462220.0504
        53.000          47.000
 128171704.27547  99874030.25347  24390284.4284   24390289.9454   24390284.4194
        43.000          38.000
 115149204.48247  89726643.64347  21912171.5474   21912174.6834   21912171.8014
        51.000          45.000
 123135008.68647  95949341.93847  23431823.7364   23431828.8804   23431823.1684
        46.000          41.000
 116065547.44247  90440675.77447  22086545.9874   22086549.3784   22086545.8294
        50.000          45.000
 125914364.17247  98115056.68147  23960731.4884   23960734.9264   23960731.7204
        45.000          39.000
 107970729.45047  84133029.28047  20546149.5604   20546151.6334   20546149.9784
        54.000          49.000
 09  1 14  0  1  0.0000000  0 12G 9G22G 5G 6G18G24G12G14G30G29G31G21
 115635627.46447  90105678.56847  22004731.9094   22004735.6834   22004732.0044
        50.000          44.000
 127512243.05247  99360191.17747  24264771.6854   24264772.4964   24264772.0164
        45.000          38.000
 124842315.42847  97279702.99347  23756720.4844   23756726.3684   23756721.2524
        46.000          39.000
 130875043.93947 101980523.31547  24904716.7094   24904722.1404   24904716.4004
        40.000          35.000
 124135949.93347  96729294.42347  23622297.4014   23622300.3804   23622297.6844
        46.000          40.000
 112808265.78047  87902530.26347  21466710.8124   21466715.6514   21466711.0714
        53.000          46.000
 128172922.26347  99874979.33747  24390516.3344   24390521.6214   24390515.1594
        43.000          38.000
 115148906.94047  89726411.81947  21912115.1404   21912118.1154   21912115.4474
        51.000          45.000
 123115780.26247  95934358.77547  23428165.0994   23428169.9544   23428164.7544
        47.000          41.000
 116139252.91547  90498108.60247  22100571.7414   22100575.0754   22100571.3434
        50.000          45.000
 125810571.88547  98034179.69047  23940980.1184   23940983.8964   23940980.0024
        44.000          39.000
 107914243.08347  84089013.94547  20535400.2954   20535402.7344   20535400.6184
        54.000          49.000
 09  1 14  0  1 30.0000000  0 12G 9G22G 5G 6G18G24G12G14G30G29G31G21
 115691790.06847  90149441.65347  22015419.2384   22015423.1164   22015419.2394
        50.000          44.000
 127495533.86347  99347171.06247  24261591.6974   24261593.1784   24261591.5914
        43.000          38.000
 124828630.65547  97269039.56147  23754116.5444   23754122.1494   23754117.2474
        45.000          39.000
 130817102.25547 101935373.96147  24893690.4944   24893696.0804   24893690.7764
        41.000          35.000
 124117348.61947  96714799.90647  23618757.9114   23618760.2534   23618758.1944
        46.000          40.000
 112832337.71347  87921287.60847  21471291.4904   21471296.2084   21471291.6164
        53.000          46.000
 128174102.93547  99875899.34447  24390740.5924   24390745.6914   24390740.1804
        43.000          38.000
 115149036.88447  89726513.10247  21912139.6454   21912142.7064   21912139.9394
        51.000          45.000
 123096391.72647  95919250.86947  23424475.2384   23424480.1894   23424475.0404
        47.000          41.000
 116213057.59047  90555618.74247  22114616.1544   22114619.7424   22114615.6474
        50.000          45.000
 125706794.28047  97953314.13747  23921231.7554   23921235.6654   23921230.9354
        44.000          39.000
 107858183.84047  84045331.42947  20524732.6504   20524735.0224   20524732.9654
        55.000          49.000
 09  1 14  0  2  0.0000000  0 12G 9G22G 5G 6G18G24G12G14G30G29G31G21
 115748450.34747  90193592.53247  22026201.4994   22026205.6054   22026201.5564
        51.000          44.000
 127478608.84147  99333982.78047  24258370.1844   24258372.5904   24258370.5174
        43.000          37.000
 124814904.36647  97258343.76647  23751504.5824   23751509.9734   23751504.9404
        46.000          39.000
 130759456.36047 101890455.08947  24882720.2654   24882725.1454   24882720.7114
        40.000          35.000
 124098533.44547  96700138.73847  23615177.0294   23615179.8094   23615177.9074
        46.000          40.000
 112856880.74147  87940412.05147  21475961.7244   21475966.7984   21475961.8784
        53.000          46.000
 128175246.19747  99876790.18747  24390957.6864   24390963.9894   24390957.6974
        43.000          38.000
 115149590.23547  89726944.31347  21912245.2184   21912248.1934   21912245.3354
        51.000          45.000
 123076841.46547  95904016.92947  23420754.5984   23420759.8874   23420754.2604
        47.000          41.000
 116286956.41447  90613202.22647  22128678.3814   22128682.3264   22128678.3624
        50.000          45.000
 125603031.60647  97872460.21447  23901486.2434   23901490.0914   23901485.5594
        45.000          39.000
 107802551.94847  84001981.92647  20514146.1704   20514148.5824   20514146.5454
        55.000          49.000
 09  1 14  0  2 30.0000000  0 12G 9G22G 5G 6G18G24G12G14G30G29G31G21
 115805609.50347  90238132.15147  22037078.8114   22037082.3654   22037079.1224
        50.000          44.000
 127461470.28347  99320628.17747  24255109.7114   24255110.9824   24255109.5844
        44.000          38.000
 124801141.19247  97247619.24647  23748885.6854   23748890.6144   23748886.2714
        45.000          39.000
 130702109.51347 101845769.24547  24871808.5094   24871812.6704   24871807.6854
        41.000          35.000
 124079507.65947  96685313.47847  23611557.1524   23611559.2354   23611557.5534
        46.000          40.000
 112881897.70047  87959905.78547  21480722.3204   21480727.2114   21480722.4454
        53.000          46.000
 128176355.34347  99877654.45247  24391168.9474   24391174.6574   24391169.1114
        43.000          38.000
 115150568.22847  89727706.41147  21912431.4334   21912434.5914   21912431.6384
        51.000          45.000
 123057133.46547  95888660.09347  23417004.3664   23417009.6834   23417003.8444
        47.000          41.000
 116360949.27547  90670858.98847  22142759.0024   22142762.5634   22142758.7354
        50.000          45.000
 125499289.47147  97791622.30147  23881745.1294   23881748.3494   23881744.8384
        45.000          39.000
 107747353.00747  83958969.77647  20503642.4114   20503644.4684   20503642.7634
        55.000          49.000
 09  1 14  0  3  0.0000000  0 12G 9G22G 5G 6G18G24G12G14G30G29G31G21
 115863266.69147  90283059.83647  22048050.4514   22048054.3524   22048050.6384
        50.000          44.000
 127444117.94547  99307106.91547  24251807.1884   24251809.0784   24251807.3314
        44.000          38.000
 124787343.51147  97236867.82047  23746259.9764   23746265.4174   23746260.1714
        45.000          39.000
 130645062.68847 101801317.18147  24860952.2454   24860957.0744   24860952.0184
        42.000          35.000
 124060271.99247  96670324.66547  23607896.7204   23607899.1964   23607896.6454
        46.000          40.000
 112907389.01147  87979769.14847  21485573.0084   21485577.9484   21485573.0924
        53.000          46.000
 128177433.28547  99878494.41447  24391374.3914   24391378.9474   24391374.3364
        43.000          38.000
 115151969.63647  89728798.44647  21912697.9644   21912701.1344   21912698.1794
        51.000          45.000
 123037269.50447  95873181.71547  23413224.5874   23413229.0334   23413224.1014
        47.000          41.000
 116435033.97347  90728587.32947  22156856.6554   22156860.4644   22156856.1564
        50.000          45.000
 125395570.56147  97710802.48747  23862008.1224   23862011.2484   23862008.1464
        45.000          39.000
 107692590.20747  83916297.48447  20493221.3214   20493223.4664   20493221.7454
        55.000          49.000
 09  1 14  0  3 30.0000000  0 12G 9G22G 5G 6G18G24G12G14G30G29G31G21
 115921418.61847  90328373.04147  22059116.5214   22059120.1414   22059116.5254
        50.000          44.000
 127426548.29047  99293416.23847  24248464.1714   24248465.4584   24248463.8034
        43.000          38.000
 124773510.89147  97226089.18447  23743627.9254   23743632.8164   23743628.5684
        46.000          39.000
 130588313.97447 101757097.43447  24850154.1604   24850159.0774   24850153.1184
        41.000          35.000
 124040824.70447  96655170.95147  23604195.8894   23604198.3414   23604196.0764
        46.000          40.000
 112933352.44747  88000000.39847  21490513.7184   21490518.8704   21490513.9114
        53.000          46.000
 128178479.67447  99879309.79747  24391573.3414   24391578.3594   24391573.1814
        43.000          38.000
 115153790.84547  89730217.59847  21913044.2204   21913047.7534   21913044.5554
        51.000          45.000
 123017249.02147  95857581.38447  23409414.8704   23409419.2724   23409414.6504
        47.000          41.000
 116509205.64047  90786383.43147  22170971.1164   22170974.8864   22170970.9924
        50.000          45.000
 125291874.98547  97630000.84547  23842275.3774   23842278.7704   23842275.1684
        45.000          40.000
 107638263.98347  83873965.37747  20482883.4224   20482885.5714   20482883.8434
        55.000          49.000
 09  1 14  0  4  0.0000000  0 12G 9G22G 5G 6G18G24G12G14G30G29G31G21
 115980063.45347  90374070.34147  22070276.1944   22070279.6974   22070276.1674
        50.000          44.000
 127408761.14147  99279556.11547  24245079.1454   24245081.2474   24245078.8734
        43.000          37.000
 124759644.87947  97215284.51247  23740988.5894   23740994.4834   23740989.0814
        45.000          39.000
 130531863.44447 101713110.04047  24839411.9484   24839416.2014   24839411.3444
        41.000          35.000
 124021166.25947  96639852.68847  23600455.1564   23600457.4674   23600455.5804
        46.000          39.000
 112959787.62647  88020599.23547  21495544.1484   21495548.9704   21495544.3104
        52.000          46.000
 128179495.70147  99880101.51447  24391767.1414   24391771.9094   24391766.6644
        43.000          38.000
 115156029.51547  89731962.04747  21913470.5844   21913473.4994   21913470.8404
        51.000          45.000
 122997072.60847  95841859.52947  23405575.4754   23405579.8724   23405575.1684
        47.000          41.000
 116583461.26747  90844244.95147  22185101.6024   22185105.4114   22185101.2434
        50.000          45.000
 125188205.73847  97549219.73447  23822547.7924   23822551.6054   23822547.2384
        45.000          40.000
 107584376.91847  83831975.46847  20472628.9884   20472631.1034   20472629.3574
        55.000          49.000
 09  1 14  0  4 30.0000000  0 12G 9G22G 5G 6G18G24G12G14G30G29G31G21
 116039201.67047  90420152.08647  22081529.5514   22081533.2844   22081529.6524
        50.000          44.000
 127390758.18647  99265528.00647  24241653.9014   24241654.6954   24241653.6124
        44.000          38.000
 124745749.32147  97204456.82347  23738344.6484   23738350.3974   23738345.0054
        45.000          39.000
 130475713.53347 101669356.89147  24828725.9214   24828731.2704   24828726.0134
        41.000          35.000
 124001299.24647  96624371.90847  23596674.5184   23596676.7004   23596674.9314
        46.000          39.000
 112986696.47347  88041567.16847  21500664.5374   21500669.5324   21500664.7314
        52.000          46.000
 128180485.57847  99880872.84947  24391954.8514   24391960.9724   24391955.0234
        43.000          38.000
 115158686.57647  89734032.51147  21913975.9014   21913979.2254   21913976.0704
        51.000          45.000
 122976743.59247  95826018.77847  23401706.6954   23401711.3234   23401706.3314
        47.000          41.000
 116657800.63047  90902171.72047  22199247.9714   22199251.5294   22199247.3914
        50.000          45.000
 125084567.37547  97468462.67047  23802825.6704   23802829.6164   23802825.5974
        45.000          40.000
 107530933.67647  83790331.39947  20462458.8934   20462461.2754   20462459.2224
        54.000          49.000
 09  1 14  0  5  0.0000000  0 12G 9G22G 5G 6G18G24G12G14G30G29G31G21
 116098830.70447  90466616.30347  22092876.5784   22092880.4474   22092876.5824
        50.000          44.000
 127372537.36947  99251330.05647  24238186.4224   24238187.6554   24238186.6154
        44.000          38.000
 124731824.99947  97193606.71747  23735694.9694   23735700.6864   23735695.5684
        45.000          39.000
 130419863.63647 101625837.52847  24818098.6894   24818103.0624   24818098.1174
        42.000          36.000
 123981223.00147  96608728.08747  23592854.3904   23592856.1724   23592855.0484
        47.000          40.000
 113014078.28847  88062903.63747  21505875.3504   21505880.3494   21505875.4994
        52.000          46.000
 128181449.15247  99881623.69647  24392138.3384   24392143.5084   24392138.0194
        44.000          38.000
 115161759.30947  89736426.88147  21914560.7314   21914563.7914   21914560.7364
        51.000          45.000
 122956262.38847  95810059.43547  23397809.8184   23397813.9214   23397809.4754
        48.000          41.000
 116732219.20447  90960160.22547  22213409.3364   22213412.7654   22213408.9374
        51.000          45.000
 124980961.32047  97387730.80547  23783110.0294   23783113.8164   23783109.8104
        44.000          40.000
 107477935.81047  83749034.37547  20452373.7264   20452376.1394   20452374.0624
        55.000          49.000
 09  1 14  0  5 30.0000000  0 12G 9G22G 5G 6G18G24G12G14G30G29G31G21
 116158950.54847  90513462.95047  22104316.9824   22104321.1594   22104317.0554
        50.000          44.000
 127354099.07747  99236962.45847  24234677.3684   24234678.8834   24234677.4114
        43.000          38.000
 124717875.17647  97182736.75547  23733039.9844   23733045.7704   23733040.4814
        45.000          39.000
 130364315.22347 101582553.07847  24807527.9944   24807532.9864   24807528.2524
        42.000          36.000
 123960939.13747  96592922.50047  23588994.1674   23588996.3724   23588994.6644
        47.000          40.000
 113041933.85147  88084609.26947  21511176.1224   21511180.8624   21511176.3434
        53.000          46.000
 128182389.89547  99882356.76647  24392317.0064   24392323.0684   24392316.9044
        43.000          38.000
 115165247.03247  89739144.61147  21915224.2794   21915227.3984   21915224.5444
        51.000          45.000
 122935631.47847  95793983.42847  23393884.0694   23393887.6694   23393883.9254
        47.000          41.000
 116806715.90947  91018209.59947  22227585.8404   22227589.0324   22227585.8804
        50.000          45.000
 124877391.35447  97307027.05547  23763401.2174   23763405.2244   23763400.6424
        45.000          40.000
 107425387.17647  83708087.40547  20442374.0364   20442376.2794   20442374.3994
        54.000          49.000
 09  1 14  0  6  0.0000000  0 12G 9G22G 5G 6G18G24G12G14G30G29G31G21
 116219558.02547  90560689.57447  22115850.2294   22115854.2644   22115850.3554
        50.000          44.000
 127335441.99847  99222424.52347  24231126.9184   24231128.1624   24231127.0084
        43.000          38.000
 124703899.88847  97171846.94347  23730380.8934   23730386.3224   23730380.9734
        45.000          39.000
 130309066.98147 101539502.54047  24797014.3704   24797020.2994   24797014.1464
        41.000          36.000
 123940446.54147  96576954.24747  23585094.4334   23585097.1054   23585094.7884
        47.000          40.000
 113070261.59247  88106682.83647  21516566.4634   21516571.5854   21516566.5714
        53.000          46.000
 128183307.77047  99883071.99247  24392492.1224   24392497.4534   24392491.6824
        43.000          38.000
 115169146.52047  89742183.21147  21915966.3904   21915969.4624   21915966.6714
        51.000          45.000
 122914850.34747  95777790.36347  23389929.2834   23389932.8074   23389928.9134
        47.000          41.000
 116881286.66447  91076316.68247  22241776.0644   22241779.4244   22241776.0234
        50.000          45.000
 124773858.51447  97226352.22647  23743699.4064   23743703.3304   23743698.8424
        45.000          40.000
 107373288.87847  83667491.34047  20432460.0744   20432462.4764   20432460.4544
        55.000          49.000
 09  1 14  0  6 30.0000000  0 12G 9G22G 5G 6G18G24G12G14G30G29G31G21
 116280652.03447  90608295.32247  22127476.1804   22127479.7574   22127476.2474
        50.000          44.000
 127316565.76747  99207715.97647  24227534.8774   24227536.1134   24227534.3604
        43.000          38.000
 124689901.62247  97160939.25547  23727717.1324   23727722.9934   23727717.9354
        45.000          39.000
 130254119.73247 101496686.54147  24786558.1624   24786563.4194   24786557.8754
        41.000          35.000
 123919746.42047  96560824.29447  23581155.7054   23581158.0734   23581156.0694
        47.000          40.000
 113099061.76647  88129124.52447  21522047.0914   21522052.0554   21522047.3944
        53.000          46.000
 128184205.18247  99883771.29447  24392662.7924   24392668.2744   24392662.6914
        44.000          38.000
 115173456.44047  89745541.62447  21916786.4924   21916789.6154   21916786.6774
        51.000          45.000
 122893920.46547  95761481.37847  23385946.3284   23385950.5304   23385945.7664
        47.000          41.000
 116955929.14047  91134479.65147  22255980.0844   22255983.3094   22255979.7834
        50.000          45.000
 124670365.83447  97145708.69947  23724005.7224   23724009.2254   23724005.5034
        46.000          40.000
 107321644.22747  83627248.76847  20422632.6014   20422634.7424   20422633.0144
        55.000          49.000
 09  1 14  0  7  0.0000000  0 12G 9G22G 5G 6G18G24G12G14G30G29G31G21
 116342232.92647  90656280.45347  22139194.3404   22139198.2314   22139194.5274
        50.000          44.000
 127297471.03147  99192836.96547  24223900.6324   24223902.7704   24223900.4274
        43.000          37.000
 124675883.77547  97150016.29247  23725049.6314   23725055.0974   23725050.0624
        45.000          39.000
 130199475.48947 101454106.63547  24776160.0144   24776164.2334   24776159.6974
        42.000          36.000
 123898841.13047  96544534.47247  23577177.2024   23577179.8554   23577177.8284
        47.000          40.000
 113128336.08547  88151935.68847  21527617.8204   21527622.8234   21527617.9954
        52.000          46.000
 128185085.75147  99884457.45347  24392830.4664   24392835.3684   24392830.1294
        44.000          39.000
 115178176.61747  89749219.71747  21917684.6614   21917687.6874   21917684.9744
        51.000          45.000
 122872844.68147  95745058.70547  23381935.4744   23381939.8304   23381935.5844
        47.000          41.000
 117030642.25847  91192697.65747  22270197.7084   22270200.8394   22270197.3864
        50.000          45.000
 124566917.34047  97065099.59847  23704320.1374   23704323.6594   23704319.8034
        46.000          41.000
 107270457.42047  83587362.96347  20412891.9324   20412894.2174   20412892.3544
        55.000          49.000
 09  1 14  0  7 30.0000000  0 12G 9G22G 5G 6G18G24G12G14G30G29G31G21
 116404298.14347  90704642.97947  22151005.2344   22151009.0024   22151005.2004
        50.000          44.000
 127278156.51947  99177786.74847  24220226.1274   24220227.1174   24220226.0324
        44.000          38.000
 124661847.21147  97139078.74747  23722378.1754   23722384.1134   23722379.0364
        45.000          39.000
 130145133.41347 101411762.20947  24765818.5874   24765823.9334   24765818.8744
        42.000          36.000
 123877730.08647  96528084.33047  23573159.9394   23573162.5444   23573160.5124
        46.000          40.000
 113158083.18747  88175115.24647  21533278.6744   21533283.5564   21533278.9254
        53.000          46.000
 128185949.70147  99885130.67347  24392995.3334   24393000.2414   24392994.5524
        43.000          39.000
 115183304.38947  89753215.42047  21918660.3704   21918663.3854   21918660.6094
        51.000          45.000
 122851623.28347  95728522.56647  23377897.2294   23377901.4234   23377896.9654
        47.000          41.000
 117105422.22647  91250967.75747  22284427.7534   22284431.2874   22284427.1884
        50.000          45.000
 124463515.00147  96984526.44947  23684643.3574   23684646.7454   23684643.0214
        46.000          41.000
 107219729.60547  83547834.80147  20403238.7324   20403240.9884   20403239.0174
        55.000          49.000
 09  1 14  0  8  0.0000000  0 12G 9G22G 5G 6G18G24G12G14G30G29G31G21
 116466836.50747  90753374.19847  22162905.7434   22162909.8864   22162906.0184
        50.000          44.000
 127258612.22447  99162557.48147  24216506.5644   24216507.7084   24216506.4154
        43.000          38.000
 124647784.33547  97128120.69547  23719702.3554   23719708.2674   23719702.8244
        45.000          39.000
 130091084.15947 101369645.94547  24755533.9534   24755538.6204   24755533.6854
        42.000          36.000
 123856404.29847  96511466.85347  23569101.8154   23569104.4174   23569102.2644
        46.000          40.000
 113188293.48447  88198655.73747  21539027.6504   21539032.3894   21539027.8654
        53.000          46.000
 128186789.64647  99885785.20247  24393155.0814   24393160.3164   24393154.9844
        44.000          39.000
 115188828.31647  89757519.82547  21919711.4324   21919714.7434   21919711.7244
        51.000          45.000
 122830248.38147  95711866.83847  23373829.4954   23373834.1084   23373829.2514
        47.000          41.000
 117180256.96647  91309280.53747  22298668.2884   22298671.8154   22298668.3164
        50.000          45.000
 124360151.97847  96903983.93547  23664973.9444   23664977.1394   23664973.5424
        47.000          41.000
 107169454.24247  83508659.20147  20393671.5674   20393673.7684   20393671.9264
        54.000          49.000
 09  1 14  0  8 30.0000000  0 12G 9G22G 5G 6G18G24G12G14G30G29G31G21
 116529863.85747  90802486.44047  22174899.4184   22174903.7594   22174899.4624
        50.000          44.000
 127238855.32547  99147162.55547  24212746.4434   24212747.8864   24212746.3114
        44.000          38.000
 124633714.70847  97117157.38947  23717024.8444   23717030.5144   23717025.4374
        45.000          39.000
 130037345.79547 101327771.92547  24745307.8904   24745312.5164   24745307.7914
        43.000          37.000
 123834882.03647  96494696.30047  23565006.2354   23565008.4234   23565006.8474
        47.000          40.000
 113218984.27947  88222570.64947  21544867.6974   21544872.8374   21544867.9364
        52.000          46.000
 128187624.92647  99886436.09947  24393314.3874   24393319.0784   24393313.8914
        43.000          39.000
 115194764.29547  89762145.30347  21920840.7894   21920844.2554   21920840.9924
        51.000          45.000
 122808738.81947  95695106.16947  23369736.8014   23369740.7054   23369736.4154
        48.000          41.000
 117255161.73447  91367647.88047  22312922.4414   22312925.7704   22312922.3254
        50.000          45.000
 124256848.29747  96823487.65847  23645315.8174   23645318.9764   23645315.5164
        47.000          41.000
 107119651.54847  83469851.92247  20384194.3994   20384196.6854   20384194.7534
        55.000          49.000
 09  1 14  0  9  0.0000000  0 12G 9G22G 5G 6G18G24G12G14G30G29G31G21
 116593372.57447  90851973.78447  22186984.8084   22186988.5774   22186984.6504
        50.000          44.000
 127218878.96347  99131596.64147  24208945.4784   24208946.4564   24208945.5174
        44.000          38.000
 124619634.03547  97106185.46047  23714345.6264   23714351.2254   23714346.0194
        45.000          39.000
 129983912.16847 101286135.34647  24735139.8144   24735144.2334   24735139.6034
        42.000          37.000
 123813157.71047  96477768.27447  23560872.5854   23560874.3994   23560872.8324
        47.000          40.000
 113250149.13347  88246854.95147  21550798.0904   21550803.0484   21550798.3474
        52.000          46.000
 128188450.87447  99887079.70847  24393471.4084   24393476.3914   24393470.8674
        44.000          39.000
 115201104.49647  89767085.75947  21922047.4934   21922050.7434   21922047.6354
        51.000          45.000
 122787090.21447  95678237.16847  23365617.0074   23365621.3444   23365616.7474
        48.000          41.000
 117330127.22347  91426062.54347  22327187.6354   22327191.3634   22327187.2424
        50.000          45.000
 124153600.62247  96743035.02347  23625668.4334   23625671.0144   23625668.2074
        46.000          41.000
 107070317.89147  83431410.12747  20374806.5914   20374808.7444   20374806.9924
        54.000          49.000
 09  1 14  0  9 30.0000000  0 12G 9G22G 5G 6G18G24G12G14G30G29G31G21
 116657358.19247  90901832.74747  22199160.5644   22199164.3494   22199160.7804
        50.000          44.000
 127198680.05847  99115857.20547  24205101.7424   24205102.8484   24205101.8304
        43.000          37.000
 124605541.40147  97095204.19747  23711663.7104   23711669.3654   23711664.3364
        46.000          39.000
 129930780.88347 101244734.39047  24725028.9284   24725034.1494   24725028.5924
        41.000          36.000
 123791229.31047  96460681.23447  23556699.3904   23556701.8404   23556699.9084
        47.000          40.000
 113281785.15547  88271506.40647  21556818.2664   21556823.1544   21556818.3644
        52.000          46.000
 128189266.76147  99887715.48447  24393626.1754   24393631.4664   24393626.1734
        43.000          38.000
 115207844.13347  89772337.46747  21923330.0694   21923332.9914   21923330.3874
        51.000          45.000
 122765300.79247  95661258.43947  23361470.8014   23361474.6664   23361470.6934
        48.000          41.000
 117405148.36347  91484520.57847  22341463.5704   22341467.2914   22341463.1544
        50.000          45.000
 124050409.13547  96662626.16347  23606031.0774   23606034.4604   23606030.9434
        46.000          40.000
 107021452.94047  83393333.54947  20365507.7644   20365510.0524   20365508.1564
        55.000          49.000
 09  1 14  0 10  0.0000000  0 12G 9G22G 5G 6G18G24G12G14G30G29G31G21
 116721819.45647  90952062.32347  22211427.2344   22211431.2704   22211427.4344
        50.000          43.000
 127178258.68547  99099944.44347  24201215.0944   24201216.6924   24201215.5444
        44.000          38.000
 124591439.27247  97084215.55747  23708979.9044   23708986.2384   23708980.4404
        45.000          39.000
 129877952.65747 101203569.55947  24714976.2484   24714982.0514   24714976.4114
        42.000          37.000
 123769098.02847  96443436.09147  23552487.7874   23552490.1914   23552488.2634
        47.000          40.000
 113313892.56547  88296525.17147  21562928.1594   21562933.2124   21562928.3544
        53.000          46.000
 128190074.83747  99888345.14847  24393779.9304   24393785.6864   24393779.8684
        44.000          39.000
 115214981.97847  89777899.45947  21924688.3364   21924691.3144   21924688.6274
        51.000          45.000
 122743372.45247  95644171.45847  23357298.0664   23357301.7024   23357297.8424
        48.000          41.000
 117480223.22247  91543020.46947  22355749.9684   22355753.6814   22355749.8194
        50.000          45.000
 123947276.46447  96582263.13747  23586405.2974   23586408.7754   23586404.9794
        44.000          40.000
 106973059.92947  83355624.71547  20356299.0524   20356301.2104   20356299.3604
        55.000          49.000
 09  1 14  0 10 30.0000000  0 12G 9G22G 5G 6G18G24G12G14G30G29G31G21
 116786756.02347  91002662.28347  22223784.2024   22223787.7944   22223784.3504
        49.000          43.000
 127157615.80547  99083859.16547  24197287.3964   24197288.6324   24197287.8034
        44.000          38.000
 124577331.00247  97073222.13047  23706295.0214   23706301.2874   23706295.4314
        45.000          39.000
 129825429.04747 101162642.09747  24704981.2074   24704985.8014   24704981.1404
        43.000          37.000
 123746765.90347  96426034.45747  23548238.4334   23548240.4744   23548238.6774
        47.000          40.000
 113346472.50947  88321912.15147  21569128.0134   21569132.9084   21569128.2094
        52.000          46.000
 128190878.16647  99888971.12947  24393933.6354   24393938.9504   24393932.9734
        45.000          39.000
 115222517.54447  89783771.36147  21926122.2764   21926125.3374   21926122.3484
        51.000          45.000
 122721307.87447  95626978.31547  23353099.1494   23353103.3624   23353098.8134
        48.000          41.000
 117555350.43647  91601561.15247  22370046.3174   22370049.8954   22370046.1144
        50.000          45.000
 123844207.04547  96501949.40147  23566791.7614   23566795.4024   23566790.3254
        45.000          40.000
 106925142.52247  83318286.49447  20347180.5604   20347182.8464   20347180.9564
        55.000          49.000
 09  1 14  0 11  0.0000000  0 12G 9G22G 5G 6G18G24G12G14G30G29G31G21
 116852166.38647  91053631.42847  22236231.5624   22236235.0024   22236231.3294
        50.000          44.000
 127136751.01547  99067600.97847  24193316.4714   24193318.0654   24193316.8314
        44.000          38.000
 124563218.49747  97062225.41447  23703609.7334   23703615.6634   23703610.3004
        44.000          39.000
 129773210.24547 101121952.15547  24695043.8684   24695048.7844   24695043.7964
        42.000          37.000
 123724233.55247  96408476.78647  23543950.4954   23543952.7284   23543950.9514
        47.000          40.000
 113379524.61347  88347667.04047  21575417.3784   21575422.4404   21575417.4204
        52.000          46.000
 128191678.75047  99889594.96947  24394085.3504   24394090.2364   24394085.4384
        44.000          38.000
 115230448.94347  89789951.70947  21927631.1894   21927634.3624   21927631.4944
        51.000          45.000
 122699108.50447  95609680.14647  23348874.4144   23348878.8444   23348874.1314
        48.000          41.000
 117630527.38947  91660140.60147  22384352.0954   22384355.3994   22384351.8944
        50.000          44.000
 123741203.37547  96421686.88947  23547190.7174   23547194.1174   23547189.6684
        46.000          40.000
 106877703.63547  83281321.13547  20338153.3864   20338155.5314   20338153.7844
        55.000          49.000
 09  1 14  0 11 30.0000000  0 12G 9G22G 5G 6G18G24G12G14G30G29G31G21
 116918046.31347  91104966.47447  22248768.2234   22248771.7224   22248768.4064
        50.000          43.000
 127115661.16147  99051167.32847  24189303.5924   24189304.7884   24189303.3864
        44.000          38.000
 124549101.12647  97051224.87647  23700922.7544   23700929.3764   23700923.2194
        45.000          39.000
 129721293.90847 101081497.89347  24685164.3884   24685169.8504   24685164.9394
        43.000          37.000
 123701499.32247  96390761.82047  23539624.6884   23539626.9384   23539624.9034
        47.000          40.000
 113413046.21747  88373787.77647  21581796.5404   21581801.2364   21581796.6524
        53.000          46.000
 128192475.78647  99890216.05447  24394236.6834   24394242.4504   24394236.4654
        43.000          38.000
 115238771.89247  89796437.16247  21929215.0284   21929218.1694   21929215.1334
        50.000          45.000
 122676772.85847  95592275.78747  23344623.9164   23344628.5324   23344623.2614
        47.000          41.000
 117705749.06447  91718754.89247  22398666.1144   22398669.6114   22398665.9324
        50.000          44.000
 123638265.67347  96341475.78147  23527602.3414   23527605.9404   23527601.7744
        46.000          41.000
 106830742.97247  83244728.42347  20329216.9274   20329219.1064   20329217.2104
        54.000          49.000
 09  1 14  0 12  0.0000000  0 12G 9G22G 5G 6G18G24G12G14G30G29G31G21
 116984397.01747  91156668.36547  22261394.2164   22261397.7614   22261394.4184
        50.000          43.000
 127094349.26247  99034560.65247  24185248.3944   24185249.3104   24185247.8864
        44.000          38.000
 124534983.99147  97040224.54647  23698236.8504   23698242.4914   23698237.7404
        45.000          39.000
 129669683.29147 101041281.84247  24675343.6924   24675348.0224   24675343.6904
        42.000          37.000
 123678566.88747  96372892.40047  23535260.4844   23535262.9644   23535261.0884
        47.000          40.000
 113447039.90047  88400276.36647  21588265.3434   21588270.0854   21588265.5334
        52.000          46.000
 128193274.05147  99890838.08247  24394388.3974   24394394.3244   24394388.5684
        44.000          38.000
 115247487.79747  89803228.80447  21930873.7564   21930876.9814   21930874.0404
        51.000          45.000
 122654305.62147  95574768.87247  23340348.4564   23340353.4174   23340348.0124
        47.000          41.000
 117781015.66947  91777404.19547  22412988.9604   22412992.0364   22412988.6074
        50.000          44.000
 123535399.84647  96261320.68647  23508027.1744   23508031.2884   23508027.0504
        46.000          41.000
 106784266.12047  83208512.70747  20320372.5834   20320374.8274   20320373.0014
        54.000          49.000
 09  1 14  0 12 30.0000000  0 12G 9G22G 5G 6G18G24G12G14G30G29G31G21
 117051216.85547  91208735.80947  22274109.2774   22274113.2234   22274109.1754
        49.000          43.000
 127072814.89947  99017780.69547  24181150.0724   24181151.5274   24181150.4204
        44.000          38.000
 124520869.03747  97029225.92347  23695550.8584   23695556.5964   23695551.2564
        45.000          39.000
 129618378.58047 101001304.16147  24665580.4724   24665585.5484   24665580.5574
        43.000          37.000
 123655436.91347  96354869.07047  23530858.6694   23530861.2924   23530858.9584
        47.000          40.000
 113481505.39047  88427132.59947  21594823.7884   21594828.7714   21594823.8634
        52.000          46.000
 128194075.43447  99891462.55047  24394541.7734   24394546.5284   24394541.4024
        43.000          38.000
 115256594.29247  89810324.80947  21932606.7314   21932609.6504   21932606.9644
        51.000          45.000
 122631708.41747  95557160.69047  23336048.4214   23336052.7714   23336048.5094
        47.000          41.000
 117856324.97947  91836086.77247  22427319.5834   22427322.7164   22427319.2704
        49.000          44.000
 123432608.67747  96181223.76147  23488466.9504   23488470.5374   23488466.1234
        45.000          41.000
 106738275.42547  83172675.81747  20311620.7634   20311623.1304   20311621.1084
        55.000          49.000
 09  1 14  0 13  0.0000000  0 12G 9G22G 5G 6G18G24G12G14G30G29G31G21
 117118501.59547  91261165.52447  22286913.4214   22286917.0854   22286913.5204
        49.000          43.000
 127051055.46247  99000825.40847  24177009.6284   24177010.2094   24177010.1184
        44.000          38.000
 124506755.66047  97018228.52647  23692865.0734   23692871.1594   23692865.9604
        45.000          39.000
 129567377.25247 100961562.87547  24655875.2834   24655880.4584   24655875.5744
        42.000          37.000
 123632107.65647  96336690.44147  23526419.4344   23526421.9184   23526419.6324
        47.000          40.000
 113516439.74047  88454354.17547  21601471.4114   21601476.5754   21601471.6364
        52.000          46.000
 128194879.28347  99892088.93647  24394694.0624   24394699.7894   24394693.8614
        43.000          38.000
 115266087.02447  89817721.77547  21934413.0194   21934416.3234   21934413.3984
        51.000          45.000
 122608980.13447  95539450.36547  23331723.6804   23331727.9734   23331723.5504
        48.000          41.000
 117931671.94347  91894798.69147  22441657.8774   22441661.1354   22441657.6054
        50.000          44.000
 123329892.28847  96101185.10547  23468920.8704   23468923.9724   23468920.1174
        46.000          41.000
 106692770.95347  83137217.80147  20302961.8014   20302963.9494   20302962.2524
        55.000          49.000
 09  1 14  0 13 30.0000000  0 12G 9G22G 5G 6G18G24G12G14G30G29G31G21
 117186251.23547  91313957.46347  22299805.3244   22299809.9644   22299805.5584
        49.000          43.000
 127029071.67147  98983695.17947  24172826.1834   24172827.0844   24172826.3584
        44.000          38.000
 124492647.53947  97007235.21547  23690180.2204   23690186.1674   23690180.6364
        46.000          39.000
 129516681.15747 100922059.43647  24646228.4664   24646233.4314   24646228.3574
        42.000          37.000
 123608581.51547  96318358.41247  23521942.6334   23521944.9644   23521943.0264
        47.000          39.000
 113551843.99947  88481941.91947  21608208.7094   21608213.4684   21608208.7664
        52.000          46.000
 128195688.99047  99892719.87847  24394848.1644   24394853.3644   24394847.9254
        42.000          38.000
 115275965.77147  89825419.53247  21936292.9634   21936295.9134   21936293.1244
        51.000          45.000
 122586124.17047  95521640.55147  23327373.9524   23327378.3104   23327373.5754
        47.000          41.000
 118007055.46347  91953539.08747  22456002.7384   22456005.9804   22456002.9834
        50.000          44.000
 123227255.09147  96021208.16947  23449389.5764   23449392.7604   23449389.2964
        46.000          41.000
 106647756.67847  83102141.75347  20294395.7594   20294397.9694   20294396.1514
        55.000          49.000
 09  1 14  0 14  0.0000000  0 12G 9G22G 5G 6G18G24G12G14G30G29G31G21
 117254463.75747  91367110.10247  22312785.9814   22312790.1434   22312786.1704
        49.000          43.000
 127006863.12247  98966389.85847  24168599.7034   24168601.1764   24168599.8124
        44.000          38.000
 124478546.28347  96996247.24547  23687496.8444   23687502.5564   23687497.2884
        45.000          39.000
 129466290.34047 100882793.87647  24636639.0704   24636644.7414   24636639.0364
        42.000          37.000
 123584859.11747  96299873.45147  23517428.4144   23517430.7664   23517429.1284
        47.000          39.000
 113587717.70447  88509895.47547  21615035.3424   21615040.1614   21615035.5264
        53.000          46.000
 128196506.57447  99893356.97847  24395003.5494   24395009.4124   24395003.4584
        43.000          38.000
 115286228.28547  89833416.32947  21938245.7004   21938248.6804   21938246.0404
        51.000          45.000
 122563141.31547  95503731.88147  23323000.8664   23323005.0404   23323000.4284
        47.000          41.000
 118082472.91247  92012305.93147  22470354.3984   22470357.2424   22470353.9904
        50.000          44.000
 123124699.69447  95941294.96447  23429873.8734   23429876.6684   23429873.9284
        46.000          41.000
 106603235.06347  83067449.60347  20285923.5504   20285925.8394   20285923.8964
        54.000          49.000
 09  1 14  0 14 30.0000000  0 12G 9G22G 5G 6G18G24G12G14G30G29G31G21
 117323138.14247  91420622.65147  22325854.6434   22325858.2314   22325854.7904
        50.000          43.000
 126984430.54147  98948909.95347  24164331.0964   24164331.9784   24164331.5314
        45.000          38.000
 124464455.16147  96985267.18247  23684815.7804   23684820.9654   23684816.1664
        45.000          39.000
 129416205.78347 100843766.97347  24627107.7284   24627113.3674   24627107.7704
        41.000          36.000
 123560942.49847  96281237.13647  23512876.8174   23512879.6224   23512877.3704
        47.000          39.000
 113624061.47147  88538215.30247  21621951.3514   21621956.5514   21621951.4014
        52.000          46.000
 128197334.44447  99894002.09347  24395161.3374   24395166.8134   24395160.9954
        44.000          38.000
 115296873.89447  89841711.64847  21940271.5044   21940274.5994   21940271.7744
        51.000          45.000
 122540034.17147  95485726.37147  23318603.7074   23318607.9594   23318604.0384
        48.000          41.000
 118157922.48747  92071097.81647  22484712.0674   22484715.0674   22484711.6404
        49.000          44.000
 123022229.64547  95861448.26747  23410374.4204   23410377.2504   23410374.5804
        46.000          41.000
 106559209.50947  83033143.98847  20277545.7164   20277548.0684   20277546.0314
        55.000          49.000
 09  1 14  0 15  0.0000000  0 12G 9G22G 5G 6G18G24G12G14G30G29G31G21
 117392269.57047  91474491.32947  22339009.6424   22339013.1034   22339009.7144
        49.000          43.000
 126961771.04847  98931253.18647  24160019.5664   24160019.5574   24160019.5304
        45.000          38.000
 124450373.11347  96974294.21347  23682136.0654   23682141.4344   23682136.5924
        45.000          39.000
 129366424.59947 100804976.44447  24617635.6514   24617640.4574   24617635.4294
        41.000          36.000
 123536829.30947  96262447.65447  23508288.3914   23508290.7984   23508288.8764
        46.000          39.000
 113660871.69347  88566898.59547  21628956.0694   21628961.0844   21628956.2224
        52.000          46.000
 128198171.72347  99894654.53947  24395320.3814   24395325.9954   24395320.4794
        43.000          38.000
 115307897.70347  89850301.66747  21942369.0264   21942372.0524   21942369.1474
        50.000          45.000
 122516801.70347  95467623.19647  23314182.8224   23314186.5904   23314182.3354
        48.000          41.000
 118233399.22247  92129910.85247  22499074.3254   22499077.8804   22499073.7924
        49.000          44.000
 122919845.14347  95781668.23147  23390891.0584   23390894.1254   23390891.0094
        47.000          41.000
 106515679.20747  82999224.28947  20269262.0664   20269264.4654   20269262.4484
        54.000          49.000
 09  1 14  0 15 30.0000000  0 12G 9G22G 5G 6G18G24G12G14G30G29G31G21
 117461861.34447  91528718.72047  22352252.2854   22352256.1184   22352252.6284
        49.000          43.000
 126938889.06547  98913423.14747  24155665.0994   24155665.1934   24155664.6864
        44.000          38.000
 124436307.01947  96963333.63747  23679458.8314   23679465.2024   23679459.4924
        45.000          39.000
 129316951.95847 100766426.35647  24608220.7394   24608226.1414   24608220.9514
        42.000          36.000
 123512524.88947  96243509.17247  23503663.4914   23503665.9814   23503664.0634
        47.000          40.000
 113698153.06247  88595949.02047  21636050.4994   21636055.3834   21636050.5874
        52.000          46.000
 128199024.95247  99895319.40447  24395483.4724   24395488.1034   24395483.2444
        44.000          38.000
 115319302.58247  89859188.62847  21944539.3274   21944542.5304   21944539.6544
        50.000          45.000
 122493450.04947  95449427.13447  23309739.2944   23309742.7734   23309738.9604
        48.000          41.000
 118308905.34347  92188746.78347  22513442.7964   22513446.2794   22513442.6744
        50.000          44.000
 122817553.71547  95701960.72247  23371425.5764   23371428.6004   23371425.4704
        46.000          41.000
 106472651.77747  82965696.44247  20261074.2784   20261076.5884   20261074.6864
        54.000          49.000
 09  1 14  0 16  0.0000000  0 12G 9G22G 5G 6G18G24G12G14G30G29G31G21
 117531907.05847  91583299.81847  22365581.8114   22365585.3954   22365581.9814
        49.000          43.000
 126915779.61247  98895415.86547  24151267.6514   24151268.0224   24151267.1464
        44.000          38.000
 124422254.63047  96952383.77147  23676784.9224   23676790.7834   23676785.4134
        45.000          39.000
 129267783.57147 100728113.35847  24598863.9904   24598869.5834   24598863.8554
        41.000          36.000
 123488026.26347  96224419.35047  23499001.1734   23499003.8454   23499001.6744
        47.000          40.000
 113735900.89347  88625362.91847  21643233.5894   21643238.6584   21643233.7434
        52.000          46.000
 128199891.90347  99895994.97047  24395648.2764   24395653.1824   24395648.3024
        44.000          38.000
 115331082.19847  89868367.59547  21946780.7284   21946783.9914   21946780.8054
        51.000          45.000
 122469976.32147  95431135.96147  23305272.3874   23305275.6974   23305272.0094
        48.000          41.000
 118384434.02447  92247600.28947  22527815.8694   22527819.1244   22527815.8784
        50.000          44.000
 122715353.98747  95622324.66747  23351977.5614   23351980.7074   23351976.9894
        46.000          41.000
 106430125.02947  82932558.73647  20252981.6024   20252983.9214   20252981.9564
        55.000          49.000
 09  1 14  0 16 30.0000000  0 12G 9G22G 5G 6G18G24G12G14G30G29G31G21
 117602407.07447  91638234.91747  22378997.2694   22379000.9534   22378997.3414
        49.000          43.000
 126892444.36147  98877232.52047  24146826.3814   24146827.7224   24146826.2534
        44.000          38.000
 124408219.98447  96941447.71247  23674114.1574   23674119.9554   23674114.5644
        45.000          39.000
 129218921.26347 100690038.84547  24589566.3784   24589571.5064   24589566.5274
        42.000          37.000
 123463336.14547  96205180.31747  23494303.4414   23494305.2794   23494303.9174
        47.000          40.000
 113774116.30547  88655141.16447  21650505.7824   21650510.5284   21650505.8664
        52.000          46.000
 128200776.28147  99896684.12247  24395816.4314   24395821.9554   24395816.5904
        44.000          39.000
 115343236.41847  89877838.45547  21949093.8114   21949096.6574   21949094.0824
        50.000          45.000
 122446383.81247  95412752.23747  23300782.3114   23300786.5464   23300782.2374
        47.000          41.000
 118459985.01447  92306471.19047  22542192.9334   22542196.1344   22542192.5964
        50.000          44.000
 122613250.52447  95542763.62747  23332548.0134   23332551.1154   23332547.5434
        46.000          41.000
 106388103.42247  82899814.64347  20244985.3404   20244987.4664   20244985.7214
        55.000          49.000
 09  1 14  0 17  0.0000000  0 12G 9G22G 5G 6G18G24G12G14G30G29G31G21
 117673359.25247  91693522.36847  22392499.0804   22392502.6714   22392499.2924
        50.000          43.000
 126868883.27447  98858873.22547  24142343.0134   24142344.5704   24142343.3694
        45.000          38.000
 124394204.71447  96930526.74947  23671447.2854   23671452.4884   23671447.7194
        45.000          39.000
 129170364.96347 100652202.78747  24580326.3174   24580331.7994   24580326.2544
        42.000          37.000
 123438455.40547  96185792.76147  23489568.7994   23489570.4934   23489569.0254
        48.000          40.000
 113812798.80847  88685283.37347  21657866.6784   21657871.7394   21657866.9934
        52.000          46.000
 128201679.65647  99897388.05547  24395988.2674   24395993.7824   24395988.6854
        43.000          38.000
 115355762.72947  89887599.25747  21951477.4704   21951480.5444   21951477.6164
        50.000          45.000
 122422673.95047  95394277.06347  23296270.2894   23296274.7214   23296269.6104
        47.000          41.000
 118535555.38447  92365357.20147  22556573.3614   22556576.5874   22556573.0074
        50.000          44.000
 122511245.73947  95463279.47147  23313137.3244   23313140.2044   23313136.6934
        47.000          41.000
 106346588.92347  82867465.70647  20237085.3714   20237087.5824   20237085.7904
        54.000          49.000
 09  1 14  0 17 30.0000000  0 12G 9G22G 5G 6G18G24G12G14G30G29G31G21
 117744760.40047  91749159.66547  22406086.6784   22406089.5454   22406086.7974
        50.000          43.000
 126845095.05847  98840337.03347  24137816.5294   24137817.6144   24137816.6504
        45.000          38.000
 124380209.80647  96919621.63547  23668784.2044   23668789.3804   23668784.4364
        44.000          39.000
 129122113.69947 100614604.43247  24571143.2324   24571149.8784   24571143.7054
        42.000          37.000
 123413383.46847  96166256.20647  23484797.8014   23484799.4834   23484798.2644
        47.000          39.000
 113851946.61347  88715788.15947  21665316.3024   21665321.2324   21665316.4034
        52.000          46.000
 128202602.91447  99898107.53047  24396163.8024   24396169.3724   24396163.4194
        44.000          38.000
 115368658.45847  89897647.92247  21953931.0704   21953934.3814   21953931.3074
        50.000          44.000
 122398847.51747  95375711.06747  23291735.9554   23291740.4684   23291735.8104
        47.000          41.000
 118611141.79847  92424255.70847  22570956.9964   22570960.3804   22570956.8554
        49.000          44.000
 122409341.62747  95383873.76047  23293745.5274   23293748.2664   23293745.0794
        47.000          41.000
 106305582.44847  82835512.62947  20229282.0464   20229284.1034   20229282.4134
        55.000          49.000
 09  1 14  0 18  0.0000000  0 12G 9G22G 5G 6G18G24G12G14G30G29G31G21
 117816611.49747  91805147.56547  22419759.4184   22419762.4754   22419759.2844
        50.000          43.000
 126821082.69947  98821626.11647  24133246.4364   24133247.9204   24133246.6124
        44.000          38.000
 124366240.32847  96908736.36247  23666125.5544   23666131.1274   23666126.1544
        45.000          39.000
 129074170.45247 100577246.08247  24562021.0884   24562026.1394   24562021.2224
        42.000          37.000
 123388124.38147  96146573.84247  23479991.0044   23479992.6314   23479991.3164
        47.000          39.000
 113891562.17647  88746657.43447  21672855.1404   21672859.6964   21672855.1594
        52.000          46.000
 128203551.26447  99898846.52247  24396344.5114   24396349.5244   24396343.9324
        44.000          39.000
 115381924.56647  89907985.18847  21956455.8844   21956458.4874   21956456.1904
        51.000          45.000
 122374909.06847  95357057.76847  23287180.9564   23287185.3544   23287180.8804
        48.000          41.000
 118686744.52047  92483166.91347  22585343.7174   22585347.3214   22585343.5234
        49.000          44.000
 122307544.01147  95304551.02147  23274374.4014   23274376.8714   23274373.8584
        48.000          42.000
 106265090.13447  82803960.19447  20221576.7634   20221578.7484   20221577.2444
        55.000          49.000
 09  1 14  0 18 30.0000000  0 12G 9G22G 5G 6G18G24G12G14G30G29G31G21
 117888907.85947  91861482.42647  22433516.4144   22433519.5164   22433516.4624
        49.000          43.000
 126796842.46047  98802737.65147  24128634.0224   24128634.9184   24128633.2314
        44.000          39.000
 124352295.37747  96897870.18747  23663472.0504   23663477.9064   23663472.5794
        45.000          39.000
 129026532.14647 100540125.36947  24552955.3174   24552961.1714   24552955.7624
        42.000          37.000
 123362676.10147  96126744.02147  23475148.3294   23475150.0224   23475148.7404
        47.000          39.000
 113931641.79247  88777888.31447  21680481.9074   21680486.6174   21680481.9994
        52.000          46.000
 128204523.34647  99899604.01947  24396529.5054   24396534.7394   24396529.3814
        44.000          38.000
 115395556.10047  89918607.19547  21959049.9504   21959052.4804   21959050.3004
        51.000          45.000
 122350856.83347  95338315.79947  23282604.2294   23282608.4394   23282603.7554
        48.000          41.000
 118762358.20047  92542086.65747  22599732.4184   22599735.9164   22599732.3474
        49.000          44.000
 122205852.41347  95225310.89447  23255022.9634   23255025.4864   23255022.9894
        48.000          42.000
 106225110.67047  82772807.38747  20213968.7474   20213970.8394   20213969.1864
        55.000          49.000
 09  1 14  0 19  0.0000000  0 12G 9G22G 5G 6G18G24G12G14G30G29G31G21
 117961646.29847  91918161.75847  22447357.9324   22447361.4864   22447357.8304
        49.000          42.000
 126772373.32547  98783670.81347  24123977.9294   24123978.3194   24123977.7084
        45.000          39.000
 124338376.18647  96887024.09747  23660823.2484   23660829.1714   23660823.4524
        45.000          39.000
 128979198.04947 100503241.69747  24543948.5854   24543953.0364   24543948.6544
        43.000          37.000
 123337038.97047  96106767.05847  23470269.3254   23470271.3774   23470269.9384
        47.000          39.000
 113972184.20047  88809479.80547  21688196.7204   21688201.6564   21688196.8274
        52.000          45.000
 128205520.23047  99900380.81947  24396718.7274   24396723.9394   24396718.2764
        44.000          38.000
 115409549.81247  89929511.42747  21961712.6834   21961715.4894   21961713.0074
        51.000          45.000
 122326691.82847  95319485.95847  23278005.5454   23278009.9574   23278005.2594
        47.000          41.000
 118837979.73947  92601012.53047  22614122.2874   22614126.0294   22614122.0454
        49.000          43.000
 122104269.20447  95146155.22547  23235692.2014   23235694.5714   23235691.9814
        47.000          42.000
 106185645.47447  82742055.29847  20206458.8874   20206460.8074   20206459.2754
        55.000          49.000
 09  1 14  0 19 30.0000000  0 12G 9G22G 5G 6G18G24G12G14G30G29G31G21
 118034829.69047  91975187.80147  22461284.0624   22461287.8694   22461284.3864
        49.000          42.000
 126747679.89447  98764429.18047  24119278.7384   24119279.9154   24119279.1904
        45.000          39.000
 124324489.08047  96876202.99547  23658180.4564   23658186.1944   23658180.9344
        45.000          39.000
 128932172.46547 100466598.42947  24534999.1594   24535004.4784   24534999.0894
        42.000          37.000
 123311217.79647  96086646.69347  23465355.7534   23465358.0614   23465356.2994
        47.000          40.000
 114013192.94347  88841434.67447  21696000.5464   21696005.2904   21696000.8364
        52.000          46.000
 128206547.84747  99901181.55947  24396914.5434   24396919.5684   24396914.1334
        44.000          38.000
 115423908.08847  89940699.72547  21964444.9994   21964447.8414   21964445.2214
        51.000          45.000
 122302420.10347  95300572.96047  23273386.6044   23273391.0334   23273386.2694
        48.000          41.000
 118913611.08547  92659946.04247  22628514.6774   22628518.0854   22628513.8784
        48.000          44.000
 122002801.32847  95067089.41647  23216383.0114   23216386.1064   23216382.6224
        47.000          42.000
 106146700.89947  82711708.89747  20199047.8314   20199050.0144   20199048.1854
        55.000          49.000
 09  1 14  0 20  0.0000000  0 12G 9G22G 5G 6G18G24G12G14G30G29G31G21
 118108452.78547  92032556.47247  22475294.2864   22475297.8374   22475294.5174
        49.000          42.000
 126722758.71947  98745010.12347  24114536.2084   24114537.6424   24114536.7494
        45.000          38.000
 124310632.72147  96865405.85947  23655543.8784   23655549.0704   23655544.1514
        45.000          39.000
 128885451.91447 100430192.83547  24526108.8954   24526113.8334   24526109.1284
        43.000          37.000
 123285210.35947  96066381.18947  23460406.8804   23460408.6014   23460407.3164
        48.000          40.000
 114054664.18147  88873749.93147  21703892.3424   21703897.0144   21703892.5544
        52.000          45.000
 128207604.92747  99902005.27447  24397115.8414   24397121.5824   24397115.3924
        45.000          39.000
 115438625.66147  89952167.99647  21967245.8084   21967248.7184   21967246.0254
        51.000          45.000
 122278039.88547  95281575.41347  23268747.4804   23268751.6904   23268747.1684
        47.000          41.000
 118989246.31847  92718882.58347  22642907.4574   22642911.0084   22642906.8594
        49.000          44.000
 121901448.46247  94988113.24047  23197096.0534   23197099.1354   23197095.6204
        47.000          42.000
 106108276.68147  82681767.96147  20191736.1074   20191737.8664   20191736.4544
        55.000          49.000
 09  1 14  0 20 30.0000000  0 12G 9G22G 5G 6G18G24G12G14G30G29G31G21
 118182513.84547  92090266.43047  22489387.7754   22489391.2494   22489388.1134
        48.000          42.000
 126697609.74847  98725413.56247  24109750.2694   24109751.7014   24109750.6394
        45.000          38.000
 124296809.87047  96854634.82447  23652913.4274   23652919.0774   23652914.0174
        45.000          39.000
 128839037.10847 100394025.47847  24517276.2754   24517280.9834   24517276.3704
        42.000          36.000
 123259018.26547  96045971.79147  23455422.2944   23455424.7554   23455422.7774
        48.000          40.000
 114096597.75447  88906425.45247  21711871.9374   21711876.6654   21711872.1594
        52.000          45.000
 128208694.02647  99902853.94047  24397322.9654   24397327.8044   24397323.0174
        43.000          39.000
 115453700.91647  89963914.98647  21970114.4434   21970117.1844   21970114.5284
        51.000          45.000
 122253553.05447  95262494.80347  23264087.6514   23264091.9834   23264087.4564
        48.000          41.000
 119064883.79847  92777820.87147  22657300.7184   22657304.5714   22657300.7614
        49.000          44.000
 121800213.95147  94909229.29847  23177831.5004   23177834.8214   23177831.5884
        47.000          42.000
 106070375.13447  82652234.30747  20184523.5764   20184525.5054   20184524.0184
        54.000          49.000
 09  1 14  0 21  0.0000000  0 12G 9G22G 5G 6G18G24G12G14G30G29G31G21
 118257011.70347  92148316.73747  22503564.0984   22503567.7694   22503564.2794
        48.000          42.000
 126672233.84947  98705640.16647  24104921.3114   24104922.8974   24104921.4854
        45.000          39.000
 124283023.35447  96843892.09947  23650289.9974   23650295.5524   23650290.4794
        46.000          39.000
 128792928.65347 100358096.86047  24508501.4344   24508507.2674   24508501.5394
        42.000          37.000
 123232643.09447  96025419.73947  23450403.4084   23450405.6014   23450403.8974
        48.000          40.000
 114138994.06147  88939461.54147  21719939.9784   21719944.3934   21719940.1114
        52.000          46.000
 128209817.84647  99903729.65547  24397536.7914   24397541.9934   24397536.3644
        44.000          39.000
 115469132.50347  89975939.63547  21973051.0454   21973053.8694   21973051.1924
        51.000          45.000
 122228962.58247  95243333.44047  23259407.7964   23259412.2454   23259407.4004
        47.000          41.000
 119140521.95547  92836759.68947  22671694.4504   22671698.2074   22671694.3314
        49.000          44.000
 121699101.57447  94830440.50447  23158590.3014   23158593.7594   23158590.1184
        47.000          42.000
 106032999.17747  82623110.20247  20177411.1764   20177413.1684   20177411.6124
        55.000          49.000
 09  1 14  0 21 30.0000000  0 12G 9G22G 5G 6G18G24G12G14G30G29G31G21
 118331944.35747  92206705.84047  22517823.3584   22517827.0684   22517823.5684
        49.000          42.000
 126646631.25347  98685690.14247  24100049.6154   24100050.9944   24100049.8424
        46.000          39.000
 124269275.46947  96833179.48247  23647673.7104   23647679.2714   23647674.3084
        45.000          39.000
 128747126.73847 100322407.08047  24499786.5484   24499791.3794   24499786.4574
        42.000          37.000
 123206086.43847  96004726.26447  23445350.0704   23445351.9784   23445350.4624
        48.000          40.000
 114181852.11447  88972857.43547  21728095.4574   21728100.0394   21728095.6204
        52.000          45.000
 128210978.52247  99904634.09047  24397757.6264   24397763.1564   24397757.4234
        44.000          39.000
 115484918.53247  89988240.46647  21976054.9264   21976057.7044   21976055.0804
        51.000          45.000
 122204270.03947  95224092.52947  23254708.9964   23254713.4694   23254708.5564
        48.000          41.000
 119216158.48747  92895697.23547  22686087.4364   22686091.3214   22686087.0954
        49.000          44.000
 121598114.23747  94751749.13047  23139373.2064   23139376.1614   23139372.5014
        48.000          42.000
 105996151.40547  82594397.66347  20170399.3224   20170401.3234   20170399.7174
        55.000          49.000
 09  1 14  0 22  0.0000000  0 12G 9G22G 5G 6G18G24G12G14G30G29G31G21
 118407308.85047  92265431.43747  22532164.7384   22532168.5394   22532165.0304
        48.000          42.000
 126620800.77947  98665562.57447  24095134.6634   24095135.1344   24095134.6834
        45.000          39.000
 124255567.39347  96822497.88447  23645065.0094   23645071.0024   23645065.2804
        45.000          39.000
 128701630.17847 100286955.26747  24491128.9284   24491133.9584   24491128.0704
        42.000          37.000
 123179348.28447  95983891.36547  23440261.9404   23440263.9984   23440262.1434
        48.000          40.000
 114225170.67447  89006612.16547  21736338.6044   21736343.3004   21736338.6594
        52.000          45.000
 128212176.85147  99905567.83247  24397986.0764   24397990.9394   24397985.6824
        45.000          39.000
 115501055.86347  90000815.04547  21979125.6024   21979128.2254   21979125.6954
        51.000          45.000
 122179475.87147  95204772.43647  23249990.6494   23249995.4744   23249990.6734
        48.000          41.000
 119291790.19547  92954631.02747  22700479.5964   22700483.4184   22700479.1324
        48.000          44.000
 121497254.13747  94673156.91047  23120180.4344   23120182.9074   23120180.1194
        48.000          42.000
 105959832.77847  82566097.45247  20163487.8864   20163489.9684   20163488.2014
        55.000          49.000
 09  1 14  0 22 30.0000000  0 12G 9G22G 5G 6G18G24G12G14G30G29G31G21
 118483103.35447  92324492.10547  22546587.7704   22546591.3844   22546587.9084
        49.000          42.000
 126594742.33247  98645257.32547  24090175.5764   24090176.7284   24090175.7134
        45.000          39.000
 124241901.22347  96811848.93347  23642464.7764   23642470.6744   23642465.3734
        45.000          40.000
 128656439.13547 100251741.49247  24482529.9734   24482534.6334   24482529.8004
        42.000          37.000
 123152429.90347  95962916.03947  23435139.4744   23435141.5564   23435139.9654
        47.000          40.000
 114268948.77747  89040724.97847  21744669.2794   21744674.2004   21744669.4014
        52.000          45.000
 128213414.94847  99906532.57247  24398221.9464   24398226.2794   24398221.3834
        45.000          39.000
 115517542.14047  90013661.52747  21982262.8314   21982265.6984   21982263.1264
        51.000          45.000
 122154581.93647  95185374.60847  23245253.7044   23245258.1904   23245253.4274
        47.000          42.000
 119367414.72347  93013559.22547  22714870.6154   22714874.3954   22714870.1344
        49.000          44.000
 121396523.95547  94594665.92047  23101012.1914   23101014.5974   23101012.1134
        48.000          42.000
 105924045.65547  82538211.39547  20156678.0054   20156679.9144   20156678.4054
        54.000          49.000
 09  1 14  0 23  0.0000000  0 12G 9G22G 5G 6G18G24G12G14G30G29G31G21
 118559325.06047  92383885.67747  22561092.6164   22561095.6854   22561092.3794
        49.000          42.000
 126568455.44747  98624774.04247  24085173.3584   24085174.4944   24085173.3754
        45.000          39.000
 124228278.45747  96801233.78947  23639872.5484   23639877.9114   23639872.9374
        46.000          39.000
 128611552.81847 100216765.18347  24473987.3624   24473992.1504   24473986.9874
        42.000          37.000
 123125331.26747  95941800.24247  23429982.5214   23429984.8284   23429982.7324
        47.000          40.000
 114313185.31347  89075195.01347  21753087.1144   21753091.8824   21753087.3534
        52.000          45.000
 128214693.99647  99907529.22447  24398465.1364   24398469.5684   24398464.8574
        44.000          38.000
 115534375.16747  90026778.20447  21985465.9754   21985468.9454   21985466.1014
        51.000          45.000
 122129589.79947  95165900.24447  23240497.7844   23240502.4744   23240497.4754
        47.000          41.000
 119443029.44347  93072479.78147  22729259.7674   22729263.4374   22729259.6844
        49.000          43.000
 121295925.94447  94516277.91647  23081869.0534   23081871.2624   23081868.6094
        48.000          42.000
 105888791.17247  82510740.38647  20149969.0734   20149971.2854   20149969.5294
        54.000          49.000
 09  1 14  0 23 30.0000000  0 12G 9G22G 5G 6G18G24G12G14G30G29G31G21
 118635973.19047  92443611.52347  22575678.2054   22575681.4284   22575678.2174
        48.000          42.000
 126541941.33347  98604113.76647  24080128.0794   24080128.9114   24080127.8574
        45.000          39.000
 124214702.60747  96790655.23747  23637289.2434   23637294.3264   23637289.8834
        45.000          39.000
 128566972.51747 100182027.31447  24465504.6874   24465508.6214   24465504.6514
        43.000          37.000
 123098055.22647  95920546.20447  23424792.0684   23424794.1774   23424792.3964
        47.000          40.000
 114357880.84647  89110022.70947  21761592.2484   21761597.1464   21761592.3154
        52.000          45.000
 128216017.63847  99908560.64647  24398716.6804   24398721.2464   24398716.7434
        44.000          38.000
 115551554.01547  90040164.35047  21988735.0364   21988737.7174   21988735.1914
        51.000          45.000
 122104502.34847  95146351.60947  23235723.6474   23235728.3224   23235723.4104
        47.000          41.000
 119518633.05847  93131391.67547  22743646.8074   22743650.3494   22743646.7654
        48.000          43.000
 121195464.50347  94437996.32747  23062751.9364   23062754.0824   23062751.1924
        48.000          42.000
 105854073.26947  82483687.48547  20143362.6894   20143364.6484   20143363.0984
        54.000          49.000
 09  1 14  0 24  0.0000000  0 12G 9G22G 5G 6G18G24G12G14G30G29G31G21
 118713046.83147  92503668.92447  22590344.3574   22590348.0874   22590344.2644
        48.000          42.000
 126515200.61447  98583276.88947  24075039.2514   24075040.1654   24075039.3164
        45.000          39.000
 124201176.61247  96780115.51647  23634715.0114   23634720.7144   23634715.3834
        46.000          39.000
 128522698.83947 100147528.39947  24457079.5114   24457084.3934   24457079.4814
        42.000          37.000
 123070603.35747  95899155.15047  23419568.1524   23419570.5964   23419568.9794
        48.000          40.000
 114403035.32247  89145208.01747  21770185.0004   21770189.6934   21770185.0034
        52.000          45.000
 128217388.52447  99909628.87647  24398977.0594   24398982.5544   24398977.1254
        44.000          38.000
 115569077.34147  90053818.92547  21992069.6254   21992072.4404   21992069.9504
        51.000          45.000
 122079321.79947  95126730.42147  23230932.2064   23230936.6184   23230931.6584
        47.000          41.000
 119594224.09847  93190293.78547  22758031.2354   22758034.4384   22758030.8054
        49.000          43.000
 121095143.24947  94359823.98247  23043661.2234   23043663.3224   23043661.2184
        49.000          42.000
 105819894.40847  82457054.62847  20136858.2734   20136860.8454   20136858.6074
        54.000          49.000
 09  1 14  0 24 30.0000000  0 12G 9G22G 5G 6G18G24G12G14G30G29G31G21
 118790541.37947  92564054.30247  22605091.0474   22605095.0074   22605090.7714
        48.000          42.000
 126488230.78847  98562261.40147  24069907.3844   24069907.7434   24069907.6414
        45.000          39.000
 124187700.19847  96769614.44647  23632150.6944   23632156.6264   23632151.0924
        45.000          40.000
 128478729.27947 100113266.44047  24448712.3994   24448716.4474   24448712.4674
        41.000          37.000
 123042974.54047  95877626.22947  23414310.3754   23414313.1064   23414310.8044
        48.000          40.000
 114448645.64747  89180748.53847  21778864.4414   21778869.0714   21778864.6244
        52.000          45.000
 128218805.92147  99910733.35047  24399247.0514   24399252.0644   24399246.7284
        44.000          38.000
 115586940.68347  90067738.44947  21995468.9424   21995471.5794   21995469.1384
        51.000          45.000
 122054047.95247  95107036.54747  23226122.6804   23226127.0284   23226122.7754
        48.000          41.000
 119669798.76247  93249183.13347  22772412.4144   22772415.5924   22772411.7924
        48.000          43.000
 120994962.85347  94281761.40147  23024597.3084   23024599.6734   23024597.4694
        48.000          42.000
 105786254.58347  82430841.79047  20130457.0364   20130459.2814   20130457.4674
        54.000          50.000
 09  1 14  0 25  0.0000000  0 12G 9G22G 5G 6G18G24G12G14G30G29G31G21
 118868455.50047  92624766.62547  22619917.7124   22619921.3904   22619917.5714
        48.000          42.000
 126461033.55047  98541068.81747  24064731.7454   24064732.3584   24064731.8114
        46.000          39.000
 124174276.96347  96759154.80547  23629596.1694   23629602.0294   23629596.3914
        45.000          40.000
 128435065.20447 100079242.51347  24440402.3394   24440408.4594   24440402.7974
        42.000          36.000
 123015171.34747  95855961.41247  23409020.1454   23409021.8804   23409020.4854
        48.000          40.000
 114494712.35047  89216644.67547  21787630.5134   21787635.2884   21787630.7614
        52.000          45.000
 128220273.50347  99911876.91547  24399526.3964   24399531.2024   24399526.5344
        43.000          38.000
 115605143.04447  90081922.14147  21998932.7864   21998935.3754   21998932.8894
        51.000          45.000
 122028683.82047  95087272.31247  23221295.9994   23221300.2874   23221295.8884
        48.000          41.000
 119745355.17947  93308058.26047  22786790.2774   22786793.5804   22786790.1314
        48.000          43.000
 120894927.83947  94203812.08647  23005561.3454   23005563.7464   23005560.3234
        48.000          42.000
 105753157.25647  82405051.67947  20124158.7354   20124160.9684   20124159.0544
        54.000          50.000
 09  1 14  0 25 30.0000000  0 12G 9G22G 5G 6G18G24G12G14G30G29G31G21
 118946785.87947  92685803.30547  22634823.8014   22634827.0134   22634823.9804
        49.000          42.000
 126433607.33447  98519697.75147  24059512.4434   24059513.7724   24059512.1994
        45.000          39.000
 124160907.22647  96748736.86347  23627051.7864   23627057.6184   23627052.1914
        44.000          39.000
 128391704.71547 100045455.13347  24432151.5804   24432156.7054   24432152.1054
        43.000          36.000
 122987192.97647  95834160.10547  23403695.6424   23403698.2284   23403696.1054
        47.000          40.000
 114541232.87647  89252894.43747  21796483.2174   21796488.0224   21796483.5114
        52.000          45.000
 128221791.14747  99913059.50547  24399815.1564   24399820.5174   24399815.1254
        44.000          38.000
 115623680.67447  90096367.08747  22002460.3494   22002463.0314   22002460.7214
        51.000          45.000
 122003229.46647  95067437.77147  23216452.1054   23216456.5194   23216451.5984
        47.000          41.000
 119820889.65247  93366916.28147  22801164.0294   22801167.4764   22801163.8074
        48.000          43.000
 120795039.43547  94125977.01847  22986553.3554   22986555.7964   22986552.8174
        48.000          42.000
 105720602.68847  82379684.49747  20117963.9844   20117966.0574   20117964.4174
        55.000          50.000
 09  1 14  0 26  0.0000000  0 12G 9G22G 5G 6G18G24G12G14G30G29G31G21
 119025534.46747  92747165.88347  22649809.2324   22649812.2654   22649809.1244
        49.000          42.000
 126405956.15547  98498151.30347  24054251.1044   24054251.7754   24054251.3834
        45.000          39.000
 124147597.31047  96738365.52747  23624518.5254   23624525.0884   23624519.0594
        45.000          39.000
 128348651.57447 100011907.22547  24423959.2874   24423963.2624   24423959.5594
        42.000          37.000
 122959045.00547  95812226.63347  23398339.2414   23398341.5944   23398339.7664
        47.000          40.000
 114588210.49547  89289500.37647  21805422.5114   21805427.5824   21805422.6294
        51.000          45.000
 128223365.16047  99914286.02647  24400115.1614   24400120.2544   24400114.7444
        44.000          38.000
 115642555.34947  90111074.64947  22006052.0574   22006054.6504   22006052.3194
        51.000          45.000
 121977690.81547  95047537.54547  23211592.3434   23211596.5784   23211591.9844
        47.000          41.000
 119896403.98847  93425758.61547  22815534.0014   22815537.5424   22815533.8114
        48.000          43.000
 120695304.03547  94048261.17347  22967574.0284   22967576.6054   22967573.8144
        48.000          43.000
 105688596.96847  82354744.98747  20111873.5054   20111875.4394   20111873.9184
        54.000          49.000
 09  1 14  0 26 30.0000000  0 12G 9G22G 5G 6G18G24G12G14G30G29G31G21
 119104692.82547  92808847.75547  22664872.5874   22664875.8274   22664872.7974
        48.000          42.000
 126378074.08847  98476425.12347  24048945.0554   24048945.5544   24048945.1634
        46.000          39.000
 124134343.28747  96728037.74647  23621996.9624   23622002.3494   23621997.2384
        45.000          40.000
 128305899.70847  99978594.12447  24415823.2594   24415827.9854   24415823.2784
        43.000          37.000
 122930722.46847  95790157.14047  23392949.4864   23392952.1334   23392949.8474
        47.000          40.000
 114635638.22247  89326457.04647  21814447.6064   21814452.8984   21814447.6534
        51.000          45.000
 128224991.64447  99915553.43547  24400424.0624   24400428.5864   24400423.9344
        42.000          38.000
 115661758.91347  90126038.50647  22009706.3004   22009709.0264   22009706.4104
        50.000          45.000
 121952063.53447  95027568.26947  23206715.6924   23206719.6804   23206715.6604
        48.000          41.000
 119971890.13947  93484578.99247  22829898.6874   22829901.9334   22829898.3174
        48.000          43.000
 120595718.83447  93970662.36447  22948623.6614   22948626.2454   22948623.1614
        49.000          43.000
 105657135.95047  82330229.92547  20105886.5104   20105888.6524   20105886.9324
        54.000          50.000
 09  1 14  0 27  0.0000000  0 12G 9G22G 5G 6G18G24G12G14G30G29G31G21
 119184264.53347  92870851.71347  22680014.1864   22680017.7164   22680014.4174
        47.000          41.000
 126349966.49347  98454523.21247  24043595.8714   24043596.7744   24043595.8344
        45.000          39.000
 124121152.63547  96717759.35647  23619487.0774   23619492.4064   23619487.3434
        45.000          39.000
 128263454.28947  99945519.78947  24407746.2324   24407750.9634   24407746.5144
        43.000          37.000
 122902231.81347  95767956.65147  23387528.0544   23387530.0044   23387528.4334
        47.000          40.000
 114683520.45247  89363767.88047  21823559.3654   21823564.3374   21823559.6604
        51.000          45.000
 128226677.52247  99916867.11147  24400744.6614   24400749.9744   24400744.3754
        42.000          38.000
 115681294.42547  90141261.01447  22013423.3544   22013426.2294   22013423.7064
        50.000          45.000
 121926354.97247  95007535.64147  23201823.4694   23201827.0734   23201823.1934
        48.000          41.000
 120047351.10747  93543379.74047  22844258.4414   22844261.8644   22844257.9874
        48.000          43.000
 120496292.46347  93893187.31747  22929703.3154   22929705.8224   22929702.9184
        48.000          43.000
 105626227.41947  82306145.36747  20100004.9344   20100006.8804   20100005.3044
        54.000          49.000
 09  1 14  0 27 30.0000000  0 12G 9G22G 5G 6G18G24G12G14G30G29G31G21
 119264243.80247  92933173.24547  22695233.4434   22695237.4914   22695233.4614
        47.000          41.000
 126321629.70847  98432442.60547  24038203.6514   24038204.7954   24038203.4984
        46.000          39.000
 124108024.21647  96707529.46047  23616988.1894   23616994.3144   23616988.7394
        45.000          40.000
 128221311.57547  99912681.31847  24399726.9814   24399731.5244   24399727.3364
        42.000          37.000
 122873570.80047  95745623.39247  23382074.2554   23382076.4504   23382074.9174
        47.000          40.000
 114731853.05047  89401429.65347  21832756.7414   21832761.9154   21832756.7454
        51.000          45.000
 128228421.37547  99918225.95247  24401076.5614   24401082.7144   24401076.3294
        42.000          38.000
 115701156.44647  90156737.94547  22017203.3234   22017206.2444   22017203.5184
        50.000          45.000
 121900563.44247  94987438.38447  23196915.9024   23196919.5294   23196915.1064
        48.000          42.000
 120122781.40047  93602156.59347  22858612.2954   22858615.7694   22858611.7754
        49.000          43.000
 120397024.25047  93815835.51947  22910813.0014   22910815.4904   22910812.7524
        48.000          43.000
 105595869.21747  82282489.64647  20094227.8314   20094229.9434   20094228.2384
        55.000          50.000
 09  1 14  0 28  0.0000000  0 12G 9G22G 5G 6G18G24G12G14G30G29G31G21
 119344629.45447  92995811.42347  22710530.2304   22710534.1424   22710530.2304
        46.000          41.000
 126293064.75647  98410184.18447  24032768.2414   24032768.9464   24032768.3014
        45.000          39.000
 124094961.28147  96697350.58447  23614502.8444   23614508.3044   23614503.4664
        46.000          39.000
 128179472.73047  99880079.65847  24391764.5784   24391770.4004   24391764.2934
        42.000          37.000
 122844741.91747  95723159.34647  23376588.5654   23376589.8644   23376588.5804
        47.000          40.000
 114780636.24447  89439442.52547  21842039.7814   21842045.0424   21842039.8544
        51.000          45.000
 128230226.45347  99919632.51947  24401420.8574   24401425.4634   24401420.2694
        44.000          38.000
 115721344.01947  90172468.55947  22021044.6184   22021047.6964   22021044.8774
        50.000          44.000
 121874691.83947  94967278.71547  23191992.2434   23191996.5814   23191991.8524
        48.000          42.000
 120198179.92347  93660908.68047  22872960.2084   22872963.5924   22872959.9324
        48.000          43.000
 120297918.35547  93738610.19947  22891953.6134   22891956.2434   22891953.3974
        48.000          43.000
 105566064.89947  82259265.51347  20088556.3994   20088558.4524   20088556.8384
        54.000          50.000
 09  1 14  0 28 30.0000000  0 12G 9G22G 5G 6G18G24G12G14G30G29G31G21
 119425419.34747  93058764.61847  22725904.1834   22725907.8034   22725904.1014
        47.000          41.000
 126264272.95347  98387749.04847  24027289.0444   24027289.9864   24027289.2254
        46.000          39.000
 124081966.13647  96687224.52247  23612029.6494   23612035.3914   23612029.8224
        46.000          39.000
 128137937.48347  99847714.53447  24383861.6874   24383866.2964   24383861.7824
        42.000          37.000
 122815746.37547  95700565.42447  23371070.6244   23371072.1884   23371070.9144
        48.000          40.000
 114829869.06747  89477805.76647  21851408.8264   21851413.6124   21851408.9114
        52.000          45.000
 128232095.07747  99921088.59947  24401775.8194   24401781.5054   24401775.6244
        43.000          38.000
 115741854.96347  90188451.14347  22024947.5454   22024950.6194   22024947.6584
        50.000          44.000
 121848742.30447  94947058.35447  23187054.0974   23187058.4914   23187054.3074
        48.000          41.000
 120273544.49647  93719634.31947  22887301.6014   22887304.9824   22887301.3774
        48.000          43.000
 120198977.83747  93661513.72847  22873125.8354   22873128.2084   22873124.9764
        48.000          43.000
 105536816.48047  82236474.55047  20082990.4064   20082992.6594   20082990.8404
        54.000          50.000
 09  1 14  0 29  0.0000000  0 12G 9G22G 5G 6G18G24G12G14G30G29G31G21
 119506612.07647  93122031.71547  22741354.4294   22741358.0974   22741354.7594
        46.000          41.000
 126235254.30547  98365137.13047  24021766.9714   24021767.9754   24021766.9084
        45.000          40.000
 124069041.53647  96677153.43547  23609570.3304   23609575.6004   23609571.0594
        46.000          40.000
 128096706.24247  99815586.31547  24376014.4824   24376020.0144   24376014.4894
        41.000          37.000
 122786586.30747  95677843.32247  23365521.6764   23365523.3934   23365522.0174
        47.000          40.000
 114879551.16047  89516519.08347  21860863.0004   21860867.8464   21860863.1224
        51.000          45.000
 128234029.68047  99922596.05247  24402144.3404   24402149.5534   24402143.9184
        44.000          37.000
 115762687.25447  90204684.13747  22028911.5954   22028914.7544   22028911.6804
        50.000          44.000
 121822717.07147  94926778.97947  23182101.4234   23182105.8394   23182100.9974
        47.000          41.000
 120348873.71547  93778332.39947  22901636.0214   22901639.8084   22901635.9124
        48.000          43.000
 120100206.21547  93584548.87047  22854330.6194   22854332.4964   22854330.3564
        49.000          43.000
 105508126.23247  82214118.52447  20077531.0004   20077533.0304   20077531.4664
        54.000          49.000
 09  1 14  0 29 30.0000000  0 12G 9G22G 5G 6G18G24G12G14G30G29G31G21
 119588203.36447  93185609.37147  22756880.8354   22756884.6014   22756880.9014
        47.000          41.000
 126206006.81547  98342346.95347  24016201.0764   24016202.2844   24016200.9884
        45.000          39.000
 124056187.55747  96667137.35847  23607124.2114   23607129.6794   23607124.6124
        46.000          40.000
 128055776.78347  99783693.26047  24368226.7404   24368231.7654   24368226.6434
        43.000          37.000
 122757260.66347  95654992.18547  23359941.0894   23359943.3144   23359941.9174
        48.000          40.000
 114929679.56447  89555580.17047  21870402.1144   21870406.9084   21870402.2384
        52.000          45.000
 128236030.09147  99924154.79847  24402525.2044   24402529.6544   24402524.6864
        43.000          38.000
 115783836.70347  90221164.26047  22032936.3074   22032939.4384   22032936.6214
        50.000          44.000
 121796616.09647  94906440.59547  23177134.8154   23177138.9794   23177134.3474
        48.000          41.000
 120424163.61247  93836999.85647  22915963.1674   22915966.8384   22915962.9944
        48.000          43.000
 120001604.45547  93507716.37547  22835567.4084   22835568.9614   22835567.4994
        49.000          43.000
 105479993.81147  82192197.17847  20072177.1864   20072179.6204   20072177.5714
        54.000          49.000
 09  1 14  0 30  0.0000000  0 12G 9G22G 5G 6G18G24G12G14G30G29G31G21
 119670192.71147  93249497.20647  22772483.0974   22772486.5644   22772482.9164
        48.000          41.000
 126176532.88547  98319380.28147  24010592.4974   24010593.2154   24010592.0504
        45.000          39.000
 124043408.39747  96657179.60547  23604692.3774   23604698.0614   23604693.2784
        46.000          39.000
 128015150.68047  99752036.57947  24360495.3634   24360500.7034   24360495.3174
        41.000          37.000
 122727772.76747  95632014.63047  23354329.7264   23354331.9584   23354330.1764
        47.000          40.000
 114980255.37147  89594989.89047  21880026.2894   21880030.9414   21880026.5144
        51.000          45.000
 128238100.63747  99925768.22547  24402918.6454   24402923.6674   24402918.4204
        44.000          38.000
 115805303.14147  90237891.38247  22037021.4134   22037024.5324   22037021.7564
        50.000          45.000
 121770443.28747  94886046.22647  23172154.1064   23172158.3914   23172153.7964
        48.000          41.000
 120499413.62447  93895636.22947  22930282.8224   22930286.4864   22930282.1234
        48.000          43.000
 119903177.55047  93431020.12647  22816837.7754   22816839.0634   22816837.3814
        50.000          43.000
 105452423.33447  82170713.69947  20066930.9794   20066933.1724   20066931.3114
        54.000          50.000
 09  1 14  0 30 30.0000000  0 12G 9G22G 5G 6G18G24G12G14G30G29G31G21
 119752576.67847  93313692.54647  22788160.1274   22788163.4684   22788160.2694
        47.000          41.000
 126146830.89147  98296235.93047  24004940.0984   24004941.5364   24004939.9024
        45.000          39.000
 124030704.77947  96647280.71247  23602275.2084   23602280.1594   23602275.4184
        46.000          39.000
 127974826.11947  99720614.87347  24352822.1374   24352827.4214   24352822.0114
        43.000          37.000
 122698122.34347  95608910.40547  23348687.3244   23348689.2314   23348687.6504
        48.000          40.000
 115031276.07347  89634746.28347  21889734.9944   21889740.0854   21889735.1774
        51.000          45.000
 128240241.09547  99927436.12547  24403325.9014   24403331.1254   24403325.1024
        43.000          38.000
 115827082.71347  90254862.52347  22041165.9854   22041168.7094   22041166.2714
        50.000          44.000
 121744198.84547  94865596.03647  23167159.7484   23167163.8254   23167159.4234
        47.000          41.000
 120574620.24547  93954238.78847  22944594.0904   22944597.5674   22944593.6504
        48.000          43.000
 119804927.00447  93354461.30147  22798140.9444   22798142.6994   22798140.4004
        49.000          43.000
 105425415.02147  82149668.27347  20061791.4394   20061793.5264   20061791.8394
        54.000          50.000
 09  1 14  0 31  0.0000000  0 12G 9G22G 5G 6G18G24G12G14G30G29G31G21
 119835353.39547  93378193.92947  22803912.0194   22803915.6974   22803911.8344
        47.000          41.000
 126116901.74347  98272914.55147  23999244.9584   23999246.1924   23999245.4684
        46.000          39.000
 124018079.51347  96637442.87847  23599872.5814   23599877.5944   23599873.1954
        46.000          40.000
 127934803.72647  99689428.62647  24345206.3054   24345210.9444   24345206.1914
        42.000          37.000
 122668311.33947  95585681.07247  23343014.7234   23343016.6474   23343015.1424
        48.000          40.000
 115082741.06747  89674848.87847  21899528.8684   21899533.3514   21899528.9434
        51.000          45.000
 128242454.43147  99929160.81147  24403747.5344   24403752.3204   24403747.0074
        44.000          38.000
 115849174.34247  90272076.82247  22045369.7554   22045372.6394   22045370.0144
        50.000          44.000
 121717885.31847  94845092.01347  23162152.3764   23162157.1484   23162151.9324
        48.000          41.000
 120649782.01847  94012806.40247  22958897.0904   22958900.8194   22958896.7284
        48.000          43.000
 119706856.46047  93278042.74247  22779478.8474   22779480.3854   22779478.2124
        49.000          43.000
 105398971.05847  82129062.60147  20056759.2764   20056761.5204   20056759.6254
        54.000          50.000
 09  1 14  0 31 30.0000000  0 12G 9G22G 5G 6G18G24G12G14G30G29G31G21
 119918521.50547  93443000.27847  22819738.3704   22819741.9364   22819738.4824
        47.000          41.000
 126086746.42947  98249416.87747  23993506.6784   23993507.6704   23993506.7724
        45.000          39.000
 124005535.56647  96627668.38747  23597485.4484   23597490.8124   23597485.6384
        46.000          39.000
 127895083.55547  99658477.87747  24337647.1654   24337652.4364   24337647.5214
        43.000          37.000
 122638341.89547  95562328.28547  23337311.5714   23337313.7414   23337311.7214
        49.000          40.000
 115134650.44747  89715297.74747  21909406.9354   21909411.3324   21909407.0314
        51.000          45.000
 128244743.33047  99930944.36247  24404183.1204   24404187.7584   24404182.5864
        43.000          38.000
 115871575.98947  90289532.67247  22049632.8684   22049635.2424   22049632.8714
        50.000          44.000
 121691505.22347  94824536.11847  23157132.8654   23157136.8494   23157132.6834
        48.000          41.000
 120724897.59747  94071338.01647  22973191.2894   22973194.7974   22973190.9044
        48.000          43.000
 119608969.79647  93201767.45947  22760851.2604   22760853.4324   22760850.6954
        49.000          43.000
 105373094.57447  82108899.11947  20051835.2424   20051837.3734   20051835.5214
        54.000          50.000
 09  1 14  0 32  0.0000000  0 12G 9G22G 5G 6G18G24G12G14G30G29G31G21
 120002077.16447  93508108.61347  22835638.7074   22835642.1164   22835638.9414
        48.000          41.000
 126056363.95447  98225742.23847  23987725.1804   23987725.6424   23987725.3674
        45.000          39.000
 123993073.65247  96617957.82447  23595114.1644   23595119.4424   23595114.5894
        46.000          40.000
 127855664.05947  99627761.39347  24330146.7424   24330150.5144   24330146.5924
        42.000          37.000
 122608213.90247  95538851.94947  23331578.5094   23331580.2924   23331579.0354
        47.000          40.000
 115187001.44247  89756090.72947  21919368.7774   21919373.4314   21919368.9854
        51.000          45.000
 128247108.43047  99932787.31447  24404633.1514   24404637.8174   24404632.8134
        45.000          38.000
 115894284.04747  90307227.27947  22053953.8164   22053956.6414   22053954.2044
        50.000          44.000
 121665059.29147  94803928.90347  23152100.3354   23152104.4464   23152099.7654
        48.000          41.000
 120799963.48347  94129830.91147  22987475.8154   22987479.5714   22987475.9464
        48.000          42.000
 119511268.32147  93125636.48747  22742258.9924   22742261.1994   22742258.5904
        48.000          43.000
 105347785.32047  82089177.63447  20047019.0444   20047021.1464   20047019.3864
        54.000          50.000
 09  1 14  0 32 30.0000000  0 12G 9G22G 5G 6G18G24G12G14G30G29G31G21
 120086018.43847  93573517.42947  22851612.3644   22851615.2424   22851612.5434
        48.000          41.000
 126025754.74347  98201890.99747  23981900.4864   23981900.8694   23981900.2164
        45.000          39.000
 123980696.40347  96608313.23947  23592758.9464   23592764.0544   23592759.4664
        46.000          39.000
 127816545.36047  99597279.34347  24322702.0454   24322707.1804   24322701.9644
        42.000          37.000
 122577929.36947  95515253.64647  23325815.5644   23325817.4274   23325816.2904
        47.000          40.000
 115239793.45247  89797227.36147  21929414.7094   21929419.6134   21929414.8374
        51.000          45.000
 128249552.30947  99934691.61047  24405098.3494   24405103.0694   24405098.0734
        44.000          38.000
 115917296.58247  90325159.16047  22058333.1034   22058335.7904   22058333.4234
        51.000          44.000
 121638550.00847  94783272.34547  23147055.9064   23147059.4514   23147055.7114
        48.000          42.000
 120874978.11847  94188283.87547  23001750.4494   23001754.1274   23001750.4374
        48.000          42.000
 119413755.60947  93049652.59347  22723702.8294   22723705.0904   22723702.1514
        49.000          43.000
 105323045.50947  82069899.87147  20042311.0694   20042313.3534   20042311.4424
        54.000          50.000
 09  1 14  0 33  0.0000000  0 12G 9G22G 5G 6G18G24G12G14G30G29G31G21
 120170343.04647  93639224.94747  22867658.9044   22867662.1394   22867658.9544
        47.000          41.000
 125994919.24647  98177863.35847  23976032.9784   23976033.3714   23976033.2764
        46.000          39.000
 123968406.25047  96598736.52047  23590419.7044   23590425.4674   23590420.4394
        45.000          39.000
 127777727.20147  99567031.44647  24315315.4644   24315320.1574   24315314.9174
        42.000          37.000
 122547489.42247  95491534.22647  23320022.7414   23320024.9144   23320023.1674
        47.000          40.000
 115293025.63347  89838706.98047  21939544.4144   21939549.5454   21939544.3974
        51.000          45.000
 128252076.74747  99936658.70247  24405578.5094   24405583.8474   24405578.3284
        43.000          38.000
 115940611.47547  90343326.64447  22062769.6854   22062772.3524   22062769.8644
        50.000          44.000
 121611979.44447  94762568.03047  23141999.4564   23142003.0994   23141999.1594
        48.000          42.000
 120949939.74547  94246695.54147  23016015.2684   23016018.9694   23016014.9854
        48.000          43.000
 119316434.67647  92973818.14347  22705183.3634   22705185.5044   22705182.8734
        49.000          43.000
 105298877.16547  82051067.40847  20037712.1004   20037714.0514   20037712.5074
        54.000          50.000
 09  1 14  0 33 30.0000000  0 12G 9G22G 5G 6G18G24G12G14G30G29G31G21
 120255047.52647  93705228.44547  22883777.3064   22883781.1584   22883777.3844
        47.000          41.000
 125963856.02247  98153658.15047  23970121.2664   23970122.3544   23970121.3724
        45.000          39.000
 123956203.92147  96589228.24547  23588097.9754   23588103.1464   23588098.4014
        46.000          40.000
 127739207.78547  99537016.35547  24307985.2264   24307990.1374   24307984.3854
        43.000          37.000
 122516893.86847  95467693.53647  23314200.6974   23314202.3854   23314201.4744
        48.000          40.000
 115346695.28247  89880527.49047  21949757.4474   21949762.6364   21949757.5444
        51.000          45.000
 128254682.59147  99938689.21947  24406074.2664   24406079.6574   24406073.6984
        43.000          38.000
 115964224.91747  90361726.75547  22067263.0274   22067266.0844   22067263.2104
        50.000          44.000
 121585348.10247  94741816.33147  23136931.6174   23136935.6004   23136931.5984
        48.000          42.000
 121024844.48847  94305062.87947  23030269.2564   23030272.8674   23030268.7774
        47.000          43.000
 119219307.42647  92898134.62347  22686700.3854   22686702.8684   22686700.4134
        49.000          43.000
 105275280.40047  82032680.33047  20033221.7034   20033223.6854   20033222.1544
        54.000          50.000
 09  1 14  0 34  0.0000000  0 12G 9G22G 5G 6G18G24G12G14G30G29G31G21
 120340133.08947  93771528.93047  22899968.6934   22899971.7014   22899968.8694
        47.000          41.000
 125932569.65047  98129279.18847  23964167.7144   23964168.2494   23964167.5954
        45.000          39.000
 123944095.41947  96579793.07747  23585793.5244   23585799.5074   23585794.0224
        46.000          40.000
 127700990.61247  99507236.78647  24300712.8774   24300717.8464   24300712.5684
        42.000          37.000
 122486148.39947  95443736.06247  23308350.1624   23308351.9934   23308350.2904
        46.000          40.000
 115400805.34747  89922691.18247  21960054.2434   21960059.3314   21960054.3674
        51.000          45.000
 128257375.58847  99940787.66647  24406586.4374   24406591.6134   24406586.0834
        43.000          38.000
 115988138.39847  90380360.66447  22071813.6914   22071816.4914   22071813.9774
        51.000          45.000
 121558661.64947  94721021.70847  23131853.4764   23131857.4284   23131853.4884
        48.000          42.000
 121099694.35547  94363387.44447  23044512.6994   23044516.3874   23044512.2934
        48.000          43.000
 119122380.28147  92822607.01247  22668256.0084   22668258.4384   22668254.9784
        49.000          43.000
 105252260.77547  82014742.97547  20028841.3474   20028843.3924   20028841.6994
        54.000          50.000
 09  1 14  0 34 30.0000000  0 12G 9G22G 5G 6G18G24G12G14G30G29G31G21
 120425592.75847  93838120.90247  22916231.2354   22916234.1114   22916231.0204
        47.000          41.000
 125901055.56247  98104722.86447  23958171.2214   23958170.7784   23958171.1004
        45.000          39.000
 123932078.05247  96570428.92547  23583506.3274   23583512.4694   23583506.8624
        45.000          39.000
 127663070.37747  99477688.59647  24293496.5714   24293501.4424   24293496.8014
        43.000          37.000
 122455249.23547  95419658.81247  23302469.8964   23302471.9574   23302470.3714
        47.000          40.000
 115455349.43247  89965193.07047  21970433.7704   21970438.6934   21970433.9494
        51.000          45.000
 128260152.62547  99942951.57247  24407115.2684   24407120.3764   24407114.7314
        44.000          38.000
 116012344.80747  90399222.80647  22076420.3814   22076422.8974   22076420.6544
        51.000          44.000
 121531917.05747  94700181.79547  23126764.3724   23126768.1314   23126764.0324
        49.000          41.000
 121174482.39747  94421663.82747  23058744.5964   23058748.2994   23058744.5444
        48.000          42.000
 119025651.51247  92747234.00347  22649848.9454   22649851.5664   22649848.7134
        49.000          43.000
 105229814.89647  81997252.69147  20024569.9984   20024571.9124   20024570.3984
        54.000          50.000
 09  1 14  0 35  0.0000000  0 12G 9G22G 5G 6G18G24G12G14G30G29G31G21
 120511425.66747  93905003.71847  22932564.2354   22932567.5664   22932564.5694
        47.000          40.000
 125869315.17447  98079990.12047  23952130.7214   23952130.8794   23952130.6574
        45.000          39.000
 123920155.68547  96561138.80347  23581238.0124   23581243.2584   23581238.5244
        46.000          40.000
 127625448.30647  99448372.74547  24286337.1704   24286342.4184   24286337.1194
        42.000          37.000
 122424199.50747  95395464.24747  23296561.4164   23296563.5564   23296561.9334
        47.000          40.000
 115510328.25447  90008033.72547  21980895.7444   21980900.5774   21980895.7664
        51.000          44.000
 128263017.44647  99945183.89147  24407660.5654   24407666.1024   24407660.3724
        45.000          39.000
 116036843.44547  90418312.69247  22081081.8904   22081084.6384   22081082.1894
        50.000          44.000
 121505118.29147  94679299.65047  23121664.9024   23121668.0494   23121664.1994
        48.000          41.000
 121249208.15547  94479891.68047  23072964.3604   23072967.9774   23072964.0804
        48.000          42.000
 118929125.61247  92672019.06447  22631480.7674   22631483.1054   22631480.2574
        49.000          44.000
 105207946.09847  81980212.08547  20020408.5284   20020410.5564   20020408.8924
        54.000          50.000
 09  1 14  0 35 30.0000000  0 12G 9G22G 5G 6G18G24G12G14G30G29G31G21
 120597632.64047  93972178.01847  22948968.9334   22948972.4474   22948969.0054
        47.000          41.000
 125837352.50947  98055084.15247  23946048.4484   23946048.9364   23946048.6784
        45.000          39.000
 123908333.73147  96551926.94047  23578988.5084   23578993.8414   23578989.0564
        46.000          40.000
 127588127.09647  99419291.31147  24279236.0624   24279240.2934   24279235.8024
        42.000          37.000
 122393003.69347  95371155.83547  23290625.0054   23290626.9994   23290625.3614
        47.000          40.000
 115565743.84247  90051214.70847  21991440.8564   21991445.8284   21991440.9744
        51.000          44.000
 128265975.37147  99947488.75547  24408223.2534   24408228.6224   24408223.0954
        44.000          38.000
 116061635.15047  90437630.91747  22085799.6084   22085802.4224   22085799.8274
        51.000          44.000
 121478270.18647  94658379.07347  23116555.2564   23116559.3934   23116555.1544
        48.000          42.000
 121323872.81547  94538071.92447  23087172.4934   23087175.8894   23087172.1354
        48.000          42.000
 118832809.22347  92596967.38847  22613152.4144   22613154.6604   22613152.0454
        49.000          44.000
 105186659.18947  81963624.90047  20016357.5054   20016359.6564   20016357.7824
        54.000          50.000
 09  1 14  0 36  0.0000000  0 12G 9G22G 5G 6G18G24G12G14G30G29G31G21
 120684206.10147  94039637.87347  22965443.2084   22965447.3254   22965443.4424
        47.000          41.000
 125805162.16547  98030000.87647  23939922.7854   23939924.1144   23939922.9984
        45.000          39.000
 123896609.27447  96542791.02647  23576757.3624   23576762.5144   23576757.6724
        46.000          39.000
 127551101.28347  99390440.08247  24272189.2064   24272194.1654   24272189.0984
        42.000          37.000
 122361658.05547  95346730.67947  23284660.5024   23284662.4794   23284661.1314
        47.000          40.000
 115621589.66147  90094730.94047  22002068.2294   22002072.8884   22002068.3764
        51.000          45.000
 128269022.90647  99949863.44247  24408803.2684   24408808.5724   24408803.0594
        44.000          38.000
 116086712.48747  90457171.70847  22090571.8514   22090574.5724   22090571.9884
        51.000          44.000
 121451369.59047  94637417.59247  23111436.3514   23111440.4514   23111436.1444
        48.000          41.000
 121398469.30247  94596199.05047  23101367.9174   23101371.0664   23101367.2414
        48.000          42.000
 118736699.98347  92522077.11447  22594863.5054   22594865.5164   22594862.6494
        49.000          44.000
 105165950.36547  81947488.16947  20012416.7734   20012418.8294   20012417.1694
        54.000          50.000
 09  1 14  0 36 30.0000000  0 12G 9G22G 5G 6G18G24G12G14G30G29G31G21
 120771145.92647  94107383.22647  22981987.5024   22981990.6824   22981987.8974
        47.000          40.000
 125772746.80547  98004742.20147  23933754.0344   23933755.0724   23933754.1524
        45.000          39.000
 123884986.74347  96533734.54747  23574545.6574   23574551.0954   23574546.3044
        46.000          40.000
 127514372.71947  99361820.45847  24265200.2204   24265205.2314   24265200.1944
        42.000          37.000
 122330166.42047  95322191.77347  23278667.5874   23278669.4344   23278667.7654
        47.000          40.000
 115677866.96147  90138583.39547  22012777.3624   22012782.1784   22012777.5054
        51.000          45.000
 128272165.03747  99952311.82047  24409401.5714   24409406.2334   24409401.1944
        44.000          38.000
 116112075.34947  90476934.98447  22095398.1874   22095400.6844   22095398.7174
        51.000          44.000
 121424421.07047  94616418.76447  23106308.4044   23106312.3754   23106308.0344
        48.000          42.000
 121472998.04147  94654273.39447  23115550.1624   23115553.4794   23115549.8674
        48.000          42.000
 118640803.11247  92447352.33347  22576614.7224   22576616.7524   22576614.6784
        50.000          44.000
 105145823.71547  81931805.08247  20008586.8624   20008588.9294   20008587.2474
        54.000          50.000
 09  1 14  0 37  0.0000000  0 12G 9G22G 5G 6G18G24G12G14G30G29G31G21
 120858450.87047  94175413.08547  22998600.8014   22998604.1514   22998601.0634
        47.000          41.000
 125740108.41447  97979309.69347  23927543.4844   23927544.2234   23927543.5214
        46.000          39.000
 123873469.69747  96524760.26647  23572353.9664   23572359.3634   23572354.2364
        46.000          40.000
 127477942.18947  99333433.07247  24258267.7554   24258272.7694   24258267.5564
        42.000          37.000
 122298531.56947  95297541.25447  23272647.4514   23272649.6844   23272647.9264
        47.000          41.000
 115734575.77647  90182772.09347  22023568.9054   22023573.5554   22023568.8494
        51.000          44.000
 128275404.14047  99954835.78747  24410017.2364   24410022.2424   24410017.0264
        43.000          38.000
 116137722.47847  90496919.78947  22100278.5064   22100281.1964   22100278.6844
        50.000          44.000
 121397427.79347  94595385.05947  23101171.8614   23101175.4184   23101171.7434
        48.000          41.000
 121547458.29247  94712294.35747  23129719.4734   23129722.7274   23129719.1204
        48.000          42.000
 118545122.86647  92372796.35947  22558407.3024   22558409.2724   22558407.0174
        50.000          44.000
 105126281.70447  81916577.55547  20004868.1964   20004870.1364   20004868.5144
        54.000          50.000
 09  1 14  0 37 30.0000000  0 12G 9G22G 5G 6G18G24G12G14G30G29G31G21
 120946115.80347  94243723.43547  23015283.3174   23015286.5454   23015283.2554
        48.000          41.000
 125707244.34347  97953701.29047  23921290.1134   23921290.7864   23921289.9204
        45.000          39.000
 123862057.42447  96515867.63147  23570181.9084   23570187.5894   23570182.4804
        45.000          40.000
 127441806.52447  99305275.42647  24251391.4844   24251395.7904   24251391.6674
        43.000          37.000
 122266752.28447  95272778.19547  23266599.9394   23266602.2024   23266600.4734
        47.000          41.000
 115791711.75447  90227293.64447  22034441.3614   22034446.2434   22034441.6294
        52.000          45.000
 128278739.83747  99957435.01347  24410652.3424   24410657.6544   24410652.1054
        44.000          39.000
 116163648.65247  90517122.02647  22105212.2814   22105214.7604   22105212.3124
        51.000          44.000
 121370389.12347  94574315.96947  23096026.1814   23096030.1074   23096025.8824
        48.000          42.000
 121621845.12147  94770258.10747  23143874.8474   23143878.0494   23143874.6534
        48.000          42.000
 118449659.51047  92298409.39347  22540241.0564   22540243.3134   22540240.6724
        49.000          44.000
 105107323.12447  81901804.65647  20001260.4244   20001262.3754   20001260.8614
        54.000          50.000
 09  1 14  0 38  0.0000000  0 12G 9G22G 5G 6G18G24G12G14G30G29G31G21
 121034141.70847  94312315.08347  23032033.8034   23032036.9774   23032033.6954
        46.000          40.000
 125674158.13747  97927919.85447  23914993.9124   23914994.7034   23914994.0664
        46.000          39.000
 123850755.37047  96507060.86047  23568031.0694   23568036.5704   23568031.5594
        45.000          39.000
 127405968.21947  99277349.53447  24244570.9944   24244576.2854   24244571.1674
        42.000          37.000
 122234833.07447  95247906.09147  23260526.3654   23260528.3434   23260526.9664
        48.000          41.000
 115849276.72847  90272149.48347  22045395.7854   22045400.3814   22045395.8624
        51.000          45.000
 128282176.98147  99960113.30247  24411306.0884   24411311.5914   24411306.0814
        43.000          38.000
 116189854.75347  90537542.38747  22110199.1094   22110201.5584   22110199.2774
        50.000          44.000
 121343310.07447  94553215.42147  23090873.1244   23090877.0174   23090873.1394
        48.000          41.000
 121696159.68747  94828165.55247  23158016.4554   23158019.4534   23158016.6844
        48.000          42.000
 118354419.19147  92224196.22447  22522117.1554   22522119.6394   22522116.5174
        49.000          44.000
 105088952.56347  81887489.95047  19997764.7624   19997766.6084   19997765.1844
        54.000          50.000
 09  1 14  0 38 30.0000000  0 12G 9G22G 5G 6G18G24G12G14G30G29G31G21
 121122523.39547  94381183.96647  23048852.2374   23048855.8104   23048852.2644
        47.000          40.000
 125640847.79347  97901963.79147  23908654.9054   23908655.4784   23908655.0334
        45.000          39.000
 123839563.32747  96498339.82047  23565901.0624   23565906.4324   23565901.4944
        45.000          39.000
 127370424.52547  99249653.19347  24237807.3784   24237812.4654   24237808.1944
        42.000          37.000
 122202772.98247  95222924.22847  23254425.3974   23254427.7214   23254425.9174
        48.000          41.000
 115907267.46747  90317337.07947  22056431.0584   22056435.6734   22056431.1834
        51.000          44.000
 128285715.53047  99962870.58847  24411980.1924   24411985.0524   24411979.4734
        44.000          38.000
 116216336.48647  90558177.52547  22115238.2954   22115241.0234   22115238.5334
        50.000          44.000
 121316190.40547  94532083.25047  23085712.3974   23085716.2554   23085712.3134
        48.000          42.000
 121770397.91947  94886013.51547  23172143.4774   23172146.3154   23172143.5094
        47.000          42.000
 118259402.63247  92150157.42547  22504036.0344   22504038.8244   22504035.6904
        50.000          44.000
 105071168.90147  81873632.56647  19994380.5954   19994382.4824   19994381.0254
        54.000          50.000
 09  1 14  0 39  0.0000000  0 12G 9G22G 5G 6G18G24G12G14G30G29G31G21
 121211257.90547  94450327.78547  23065737.4304   23065740.8024   23065737.6854
        47.000          40.000
 125607313.11047  97875832.91747  23902273.7454   23902273.9564   23902273.7864
        46.000          40.000
 123828483.02947  96489705.85047  23563793.1434   23563798.4054   23563793.5234
        45.000          40.000
 127335174.21247  99222185.49047  24231099.7084   24231104.1624   24231099.2214
        42.000          37.000
 122170572.72947  95197833.12947  23248297.9654   23248299.9474   23248298.3254
        48.000          41.000
 115965681.89147  90362854.81347  22067547.0204   22067551.4494   22067547.1594
        51.000          44.000
 128289356.76747  99965707.88847  24412672.4784   24412678.1184   24412672.1364
        44.000          38.000
 116243090.33547  90579024.69747  22120329.4704   22120331.9924   22120329.6794
        50.000          44.000
 121289031.43047  94510920.44147  23080544.2044   23080548.1044   23080543.8734
        48.000          42.000
 121844557.16747  94943799.93647  23186255.4284   23186258.6174   23186255.1624
        47.000          42.000
 118164612.46647  92076295.03147  22485998.3354   22486000.8174   22485997.8394
        50.000          44.000
 105053973.01147  81860233.18947  19991108.2214   19991110.2834   19991108.5454
        54.000          50.000
 09  1 14  0 39 30.0000000  0 12G 9G22G 5G 6G18G24G12G14G30G29G31G21
 121300344.06647  94519745.60947  23082690.4174   23082693.5294   23082690.5244
        46.000          40.000
 125573556.10447  97849528.83847  23895849.7344   23895850.5384   23895849.8974
        46.000          40.000
 123817517.84847  96481161.58247  23561706.2844   23561711.8474   23561706.5024
        45.000          39.000
 127300218.09747  99194946.99847  24224448.1754   24224452.9624   24224448.4164
        42.000          37.000
 122138235.53047  95172635.34647  23242144.1324   23242146.1844   23242144.6154
        48.000          41.000
 116024520.09247  90408702.76747  22078743.4554   22078748.1474   22078743.6194
        51.000          44.000
 128293103.71547  99968627.58547  24413386.0194   24413390.8164   24413385.7584
        44.000          38.000
 116270115.04047  90600082.89947  22125472.0484   22125474.8134   22125472.0904
        50.000          44.000
 121261836.34247  94489729.48647  23075369.3474   23075373.2014   23075369.3974
        48.000          42.000
 121918636.91747  95001524.40547  23200352.0684   23200355.9864   23200351.6664
        46.000          42.000
 118070052.58547  92002612.07347  22468004.2594   22468006.5474   22468003.8394
        50.000          44.000
 105037367.45847  81847293.81647  19987948.2624   19987950.3134   19987948.5954
        54.000          50.000
 09  1 14  0 40  0.0000000  0 12G 9G22G 5G 6G18G24G12G14G30G29G31G21
 121389778.21347  94589434.58847  23099709.1634   23099712.5044   23099709.3874
        46.000          40.000
 125539575.35947  97823050.40947  23889383.3864   23889383.8364   23889383.1034
        45.000          39.000
 123806668.92747  96472707.93047  23559641.6104   23559647.4544   23559642.1494
        45.000          39.000
 127265554.54447  99167936.47947  24217851.6724   24217856.6894   24217851.9674
        42.000          37.000
 122105761.66147  95147331.03947  23235964.4324   23235966.6374   23235964.9204
        48.000          41.000
 116083779.54247  90454878.97047  22090019.9544   22090024.8474   22090020.0684
        51.000          44.000
 128296957.47947  99971630.49847  24414118.7654   24414124.4814   24414118.6054
        43.000          38.000
 116297407.49947  90621349.78247  22130665.6044   22130668.1724   22130665.6494
        50.000          44.000
 121234606.18347  94468511.20047  23070187.8164   23070191.3984   23070187.1744
        48.000          42.000
 121992633.90747  95059184.37447  23214433.2764   23214437.1254   23214432.9234
        47.000          42.000
 117975724.87647  91929110.03047  22450053.7924   22450056.5614   22450053.7114
        50.000          44.000
 105021352.74547  81834814.83647  19984900.7974   19984902.6714   19984901.1834
        54.000          50.000
 09  1 14  0 40 30.0000000  0 12G 9G22G 5G 6G18G24G12G14G30G29G31G21
 121479560.89847  94659395.15447  23116794.3154   23116797.4404   23116794.1344
        46.000          40.000
 125505374.76747  97796400.63647  23882874.8874   23882875.3074   23882875.0974
        45.000          40.000
 123795941.58547  96464348.99447  23557600.3754   23557605.6834   23557600.7854
        46.000          39.000
 127231186.03747  99141155.88947  24211311.4824   24211316.1934   24211312.1614
        43.000          37.000
 122073155.41347  95121923.57147  23229760.0544   23229762.0104   23229760.4194
        48.000          41.000
 116143461.77447  90501384.60947  22101377.0084   22101382.1524   22101377.0934
        51.000          44.000
 128300922.95747  99974720.48347  24414873.3504   24414878.9424   24414873.3174
        43.000          38.000
 116324968.21847  90642825.68047  22135910.3244   22135912.9784   22135910.3504
        50.000          44.000
 121207346.27147  94447269.71647  23065000.2254   23065004.3604   23065000.0634
        48.000          42.000
 122066549.54047  95116780.96447  23228498.9524   23228502.6804   23228498.5234
        47.000          42.000
 117881635.63247  91855793.81247  22432149.3614   22432151.8544   22432148.7694
        50.000          44.000
 105005932.85347  81822799.35547  19981966.5564   19981968.3684   19981966.9444
        54.000          50.000
 09  1 14  0 41  0.0000000  0 12G 9G22G 5G 6G18G24G12G14G30G29G31G21
 121569686.15347  94729622.65247  23133944.0744   23133948.0304   23133944.1794
        46.000          40.000
 125470951.51947  97769577.36847  23876324.5094   23876324.9164   23876324.7294
        46.000          39.000
 123785334.56147  96456083.82547  23555582.5744   23555587.2334   23555583.2294
        46.000          40.000
 127197108.73447  99114602.20347  24204827.2984   24204831.0994   24204827.0314
        42.000          37.000
 122040415.33947  95096411.83347  23223529.9154   23223531.5154   23223530.3234
        48.000          41.000
 116203562.28847  90548216.18647  22112814.0214   22112818.6604   22112814.2134
        51.000          44.000
 128304998.95847  99977896.56947  24415648.7184   24415654.5644   24415648.5194
        44.000          38.000
 116352791.41647  90664506.12247  22141204.6974   22141207.5104   22141204.8544
        50.000          44.000
 121180055.27647  94426004.02947  23059806.8474   23059810.6574   23059806.6514
        49.000          42.000
 122140378.44447  95174309.96047  23242548.2564   23242551.8814   23242548.1764
        47.000          42.000
 117787784.60847  91782663.21247  22414290.2874   22414292.5724   22414289.4984
        50.000          44.000
 104991105.90247  81811245.90647  19979145.1494   19979146.8734   19979145.4804
        54.000          50.000
 09  1 14  0 41 30.0000000  0 12G 9G22G 5G 6G18G24G12G14G30G29G31G21
 121660152.32747  94800115.79547  23151159.2714   23151163.0924   23151159.5374
        46.000          40.000
 125436306.35047  97742581.16347  23869731.2274   23869732.5694   23869731.3874
        45.000          39.000
 123774850.76047  96447914.68147  23553587.3344   23553592.2094   23553588.0154
        45.000          39.000
 127163322.46947  99088275.29047  24198397.6234   24198401.5494   24198397.1754
        41.000          36.000
 122007543.63247  95070797.50547  23217274.1574   23217276.4854   23217274.4164
        47.000          41.000
 116264080.10147  90595372.93247  22124329.8074   22124334.8134   22124329.9964
        51.000          44.000
 128309187.91447  99981160.68847  24416446.6804   24416451.1444   24416446.6554
        44.000          39.000
 116380875.09347  90686389.53247  22146548.7524   22146551.4094   22146549.0704
        50.000          44.000
 121152736.13547  94404716.41247  23054608.1314   23054612.1374   23054607.8704
        48.000          42.000
 122214119.40047  95231770.42447  23256580.5894   23256584.4894   23256580.3724
        47.000          42.000
 117694175.25447  91709720.94047  22396476.9434   22396479.2984   22396476.9034
        50.000          44.000
 104976873.76547  81800155.94647  19976436.8014   19976438.5994   19976437.2224
        54.000          50.000
 09  1 14  0 42  0.0000000  0 12G 9G22G 5G 6G18G24G12G14G30G29G31G21
 121750957.52347  94870873.11547  23168439.0094   23168442.7274   23168438.7894
        45.000          40.000
 125401440.65947  97715413.10547  23863096.0734   23863097.5874   23863096.5154
        45.000          39.000
 123764492.98647  96439843.74847  23551616.1144   23551620.8124   23551616.2844
        45.000          39.000
 127129827.43547  99062175.31647  24192023.3124   24192027.7734   24192023.0844
        42.000          37.000
 121974542.50447  95045082.34847  23210994.3064   23210996.5814   23210994.5524
        48.000          41.000
 116325014.48547  90642854.27347  22135925.4594   22135930.0204   22135925.6914
        51.000          44.000
 128313492.28447  99984514.73047  24417265.2344   24417270.6734   24417265.3574
        43.000          38.000
 116409217.60847  90708474.61547  22151942.2584   22151944.7584   22151942.4684
        50.000          44.000
 121125391.40047  94383408.84747  23049404.4454   23049408.2684   23049403.9604
        48.000          42.000
 122287771.27847  95289161.49047  23270596.3134   23270599.8254   23270596.1524
        47.000          42.000
 117600811.30047  91636969.88647  22378709.9844   22378712.6584   22378709.6794
        49.000          44.000
 104963238.08347  81789530.75647  19973841.8034   19973843.8024   19973842.1514
        54.000          50.000
 09  1 14  0 42 30.0000000  0 12G 9G22G 5G 6G18G24G12G14G30G29G31G21
 121842098.21847  94941891.84247  23185782.4574   23185785.9154   23185782.6644
        45.000          40.000
 125366353.89347  97688072.78447  23856419.7714   23856420.2694   23856419.3314
        45.000          39.000
 123754262.59047  96431872.03547  23549669.0934   23549674.6434   23549669.8194
        46.000          39.000
 127096622.00447  99036300.98647  24185703.9164   24185708.6844   24185704.5694
        41.000          37.000
 121941412.58247  95019266.83947  23204689.8494   23204692.3104   23204690.3254
        48.000          41.000
 116386363.02047  90690658.33447  22147599.9164   22147604.4554   22147600.1134
        51.000          44.000
 128317913.29447  99987959.65047  24418106.9984   24418111.9464   24418107.0524
        43.000          39.000
 116437815.70247  90730758.86547  22157384.2394   22157387.1324   22157384.5264
        50.000          44.000
 121098022.24647  94362082.27547  23044196.4364   23044200.5034   23044196.5194
        48.000          42.000
 122361331.23747  95346480.91747  23284594.1374   23284597.6624   23284594.0124
        47.000          42.000
 117507694.61347  91564411.49747  22360990.3564   22360992.7434   22360989.9094
        50.000          44.000
 104950199.42147  81779370.77347  19971360.6204   19971362.5814   19971361.0074
        54.000          50.000
 09  1 14  0 43  0.0000000  0 12G 9G22G 5G 6G18G24G12G14G30G29G31G21
 121933571.99647  95013170.13547  23203189.2794   23203192.1614   23203189.7274
        45.000          40.000
 125331046.45347  97660560.52847  23849701.1774   23849701.8504   23849701.1044
        45.000          39.000
 123744161.99747  96424001.51647  23547746.9444   23547752.1814   23547747.5024
        45.000          39.000
 127063706.04747  99010652.24447  24179440.3884   24179445.8314   24179440.4644
        42.000          37.000
 121908155.68047  94993352.37747  23198361.9144   23198363.5254   23198362.0754
        48.000          41.000
 116448124.59347  90738784.23847  22159352.6364   22159357.2894   22159352.9584
        51.000          44.000
 128322453.16247  99991497.20747  24418970.5814   24418976.5264   24418970.3644
        43.000          38.000
 116466666.98347  90753240.39847  22162874.2544   22162877.2744   22162874.4694
        50.000          44.000
 121070631.05347  94340738.52147  23038984.0364   23038988.1674   23038983.5064
        49.000          42.000
 122434798.06747  95403727.78547  23298574.4964   23298578.1494   23298574.3964
        47.000          42.000
 117414828.80547  91492048.59247  22343318.7084   22343320.7774   22343317.9214
        50.000          44.000
 104937758.82947  81769676.81847  19968993.2534   19968995.1844   19968993.6804
        54.000          50.000
 09  1 14  0 43 30.0000000  0 12G 9G22G 5G 6G18G24G12G14G30G29G31G21
 122025377.05447  95084706.57147  23220659.0994   23220662.4934   23220659.2804
        45.000          39.000
 125295519.97847  97632877.58547  23842940.6614   23842941.4334   23842941.1694
        45.000          39.000
 123734194.03447  96416234.33547  23545850.0924   23545855.4904   23545850.6724
        46.000          39.000
 127031079.22747  98985228.80547  24173231.6554   24173236.4154   24173232.1754
        43.000          37.000
 121874773.86847  94967340.58547  23192009.5184   23192011.1854   23192009.7574
        48.000          41.000
 116510298.32047  90787231.31247  22171183.8884   22171188.6564   22171184.0994
        51.000          44.000
 128327114.40047  99995129.33747  24419857.7824   24419863.0164   24419857.5054
        43.000          38.000
 116495769.86847  90775918.00347  22168412.5044   22168415.0904   22168412.5354
        51.000          44.000
 121043220.38747  94319379.59847  23033768.1014   23033772.0534   23033767.7884
        49.000          42.000
 122508169.81747  95460900.57047  23312536.9354   23312540.2954   23312536.7494
        47.000          42.000
 117322217.29147  91419883.83847  22325695.2974   22325697.3634   22325694.8754
        50.000          45.000
 104925918.03747  81760450.23947  19966740.0964   19966742.0054   19966740.4884
        54.000          50.000
 09  1 14  0 44  0.0000000  0 12G 9G22G 5G 6G18G24G12G14G30G29G31G21
 122117508.75347  95156497.51647  23238191.3834   23238194.3204   23238191.3374
        45.000          39.000
 125259772.40147  97605022.33647  23836138.3374   23836138.7514   23836138.3664
        46.000          39.000
 123724358.90747  96408570.64647  23543978.4544   23543983.4214   23543979.0194
        46.000          39.000
 126998739.05747  98960028.74547  24167077.9954   24167082.3504   24167078.5844
        43.000          37.000
 121841266.93647  94941231.30047  23185632.8434   23185635.0034   23185633.4994
        47.000          41.000
 116572881.00547  90835997.03847  22183093.2184   22183097.6744   22183093.4624
        51.000          44.000
 128331897.02647  99998856.03447  24420767.9364   24420772.6864   24420767.5254
        43.000          38.000
 116525119.92547  90798788.20747  22173997.6814   22174000.3004   22173997.8304
        50.000          44.000
 121015790.52147  94298005.71147  23028548.4244   23028552.0104   23028547.9614
        49.000          42.000
 122581443.14647  95517996.65447  23326480.4714   23326484.1194   23326480.3744
        47.000          41.000
 117229861.01647  91347917.95747  22308120.3114   22308122.5604   22308119.6734
        50.000          45.000
 104914676.41147  81751690.54147  19964600.9444   19964602.8364   19964601.3704
        54.000          50.000
 09  1 14  0 44 30.0000000  0 12G 9G22G 5G 6G18G24G12G14G30G29G31G21
 122209968.81147  95228544.33347  23255786.3034   23255788.5714   23255786.1064
        45.000          39.000
 125223809.06147  97576998.98547  23829294.6244   23829295.4244   23829294.5294
        46.000          39.000
 123714662.97047  96401015.42847  23542133.6924   23542138.4984   23542134.3114
        46.000          39.000
 126966688.89747  98935054.65147  24160979.2824   24160983.3194   24160979.3794
        43.000          38.000
 121807640.49647  94915028.88847  23179234.0314   23179235.7594   23179234.2724
        47.000          40.000
 116635874.77147  90885083.10047  22195080.4814   22195085.1104   22195080.4884
        51.000          44.000
 128336807.01547 100002682.01047  24421702.1674   24421707.5574   24421701.9924
        43.000          39.000
 116554718.45747  90821852.02747  22179629.9514   22179632.4914   22179630.1884
        50.000          44.000
 120988347.77047  94276621.79647  23023326.3164   23023329.7304   23023325.6404
        49.000          42.000
 122654620.15447  95575017.68947  23340405.6884   23340408.9874   23340405.6634
        47.000          41.000
 117137766.91547  91276156.38647  22290595.2904   22290597.6814   22290595.3334
        50.000          45.000
 104904039.11947  81743401.75147  19962576.6404   19962578.4344   19962577.0314
        54.000          50.000
 09  1 14  0 45  0.0000000  0 12G 9G22G 5G 6G18G24G12G14G30G29G31G21
 122302750.28747  95300841.59747  23273441.8234   23273444.5714   23273441.7904
        45.000          39.000
 125187626.11647  97548804.51747  23822408.9744   23822409.5514   23822409.5444
        46.000          39.000
 123705104.12647  96393567.03947  23540314.4614   23540319.2264   23540315.3624
        45.000          39.000
 126934923.92347  98910302.77947  24154933.7714   24154938.6544   24154934.2334
        43.000          38.000
 121773892.19947  94888731.52547  23172811.4044   23172813.6134   23172811.8864
        48.000          40.000
 116699274.15447  90934485.21747  22207144.7574   22207149.7384   22207144.9264
        51.000          44.000
 128341842.01447 100006605.39947  24422660.1344   24422666.1384   24422659.6974
        43.000          39.000
 116584558.88747  90845104.32647  22185308.4114   22185310.7824   22185308.6904
        50.000          44.000
 120960889.79047  94255225.99747  23018101.0424   23018104.3604   23018100.4424
        49.000          42.000
 122727695.16447  95631959.23147  23354311.0364   23354314.8354   23354311.1294
        46.000          41.000
 117045934.19847  91204598.46947  22273120.0384   22273122.3874   22273119.5544
        50.000          45.000
 104894002.89547  81735581.32647  19960666.7364   19960668.6474   19960667.1424
        54.000          50.000
 09  1 14  0 45 30.0000000  0 12G 9G22G 5G 6G18G24G12G14G30G29G31G21
 122395852.04747  95373388.43347  23291157.9554   23291160.9814   23291158.1544
        45.000          39.000
 125151225.35447  97520440.29147  23815482.2764   23815482.4614   23815482.3224
        46.000          39.000
 123695686.11347  96386228.38847  23538522.3084   23538526.7244   23538522.9634
        45.000          39.000
 126903444.97647  98885773.76047  24148943.7054   24148949.0354   24148943.8514
        42.000          38.000
 121740025.00447  94862341.51847  23166367.4124   23166369.3134   23166367.6134
        48.000          41.000
 116763079.15447  90984203.39547  22219286.4944   22219291.2064   22219286.6644
        50.000          44.000
 128347005.41447 100010628.83447  24423642.4614   24423647.8254   24423642.1414
        44.000          39.000
 116614640.25247  90868544.37147  22191032.6194   22191035.0784   22191032.8654
        50.000          44.000
 120933420.37047  94233821.29847  23012873.8584   23012877.4494   23012873.7204
        49.000          42.000
 122800667.63747  95688820.87747  23368197.2774   23368201.0024   23368197.2194
        46.000          41.000
 116954367.28847  91133247.67547  22255695.7344   22255697.7884   22255695.2994
        50.000          45.000
 104884570.19247  81728231.17747  19958871.8204   19958873.7364   19958872.1714
        54.000          50.000
 09  1 14  0 46  0.0000000  0 12G 9G22G 5G 6G18G24G12G14G30G29G31G21
 122489271.49947  95446182.83947  23308935.3294   23308938.4994   23308935.3944
        46.000          39.000
 125114607.67047  97491907.05947  23808514.0934   23808514.7254   23808514.2664
        45.000          39.000
 123686411.11547  96379001.16747  23536756.5544   23536762.1694   23536757.3094
        45.000          39.000
 126872251.25847  98861467.00747  24143007.8134   24143012.4064   24143007.6574
        43.000          38.000
 121706040.49347  94835860.08147  23159900.2694   23159901.9684   23159901.0434
        48.000          41.000
 116827288.23547  91034236.44547  22231505.0044   22231509.7504   22231505.1584
        51.000          44.000
 128352299.46747 100014754.06847  24424650.2744   24424654.9214   24424649.6304
        45.000          39.000
 116644960.44947  90892170.53547  22196802.6904   22196804.8834   22196803.0004
        51.000          44.000
 120905941.65547  94212409.35247  23007644.6394   23007648.4724   23007644.0744
        49.000          42.000
 122873535.80147  95745601.26447  23382063.6534   23382066.7694   23382063.4944
        46.000          41.000
 116863069.16447  91062106.34147  22238322.4474   22238324.4044   22238322.3754
        51.000          45.000
 104875741.97547  81721352.05747  19957191.8604   19957193.6314   19957192.2214
        54.000          50.000
 09  1 14  0 46 30.0000000  0 12G 9G22G 5G 6G18G24G12G14G30G29G31G21
 122583005.88247  95519222.63247  23326772.4484   23326775.8754   23326772.7034
        46.000          40.000
 125077772.99147  97463204.73247  23801504.0644   23801505.2054   23801504.1644
        46.000          39.000
 123677281.04347  96371886.88947  23535019.3664   23535024.5674   23535020.1304
        45.000          39.000
 126841341.76047  98837381.72847  24137126.0464   24137130.4314   24137125.8704
        42.000          37.000
 121671940.26147  94809288.47647  23153411.3794   23153412.8444   23153411.7254
        48.000          41.000
 116891899.56447  91084582.93447  22243800.1864   22243804.7674   22243800.6344
        50.000          43.000
 128357726.01447 100018982.56047  24425683.3594   24425687.8724   24425683.3144
        44.000          39.000
 116675516.09147  90915980.15147  22202617.1364   22202619.3384   22202617.4804
        50.000          44.000
 120878455.46847  94190991.59447  23002414.0274   23002418.2804   23002414.0674
        49.000          42.000
 122946297.53147  95802298.70347  23395909.7144   23395912.9734   23395909.5804
        47.000          41.000
 116772042.45547  90991176.48547  22221000.4904   22221002.6824   22221000.2884
        51.000          45.000
 104867519.28647  81714944.77747  19955627.1044   19955629.0614   19955627.5144
        54.000          50.000
 09  1 14  0 47  0.0000000  0 12G 9G22G 5G 6G18G24G12G14G30G29G31G21
 122677053.21047  95592506.27547  23344669.3984   23344672.7504   23344669.4144
        45.000          40.000
 125040722.75747  97434334.43347  23794453.4484   23794454.9524   23794453.4824
        46.000          39.000
 123668298.84247  96364887.83647  23533310.0094   23533315.1844   23533310.9934
        45.000          39.000
 126810716.59247  98813518.01747  24131297.1754   24131302.6784   24131297.2764
        42.000          37.000
 121637726.75247  94782628.62347  23146900.3594   23146902.5314   23146900.9714
        48.000          41.000
 116956911.98647  91135241.96647  22256171.5344   22256176.0944   22256171.4784
        50.000          43.000
 128363286.89547 100023315.74947  24426741.2754   24426745.7674   24426740.7784
        44.000          39.000
 116706305.67247  90939972.06747  22208475.9784   22208478.8154   22208476.2524
        50.000          44.000
 120850964.82347  94169570.35747  22997183.0644   22997186.8474   22997182.6844
        49.000          42.000
 123018952.11347  95858912.63647  23409735.5554   23409738.9724   23409735.4804
        47.000          41.000
 116681290.70547  90920460.88147  22203730.9244   22203733.1014   22203730.4814
        51.000          45.000
 104859903.46547  81709010.37847  19954177.8504   19954179.7764   19954178.2824
        54.000          50.000
 09  1 14  0 47 30.0000000  0 12G 9G22G 5G 6G18G24G12G14G30G29G31G21
 122771409.31447  95666030.52847  23362624.5064   23362627.8254   23362625.0644
        45.000          40.000
 125003455.95447  97405295.38047  23787362.0954   23787363.3534   23787362.3584
        46.000          39.000
 123659465.24947  96358004.57147  23531629.5164   23531634.5284   23531629.9984
        46.000          40.000
 126780373.55647  98789874.15047  24125523.4984   24125528.5354   24125524.1854
        42.000          37.000
 121603400.20547  94755880.68447  23140368.5084   23140370.3864   23140369.0234
        48.000          41.000
 117022322.74247  91186211.38847  22268618.5644   22268623.3594   22268619.0854
        50.000          43.000
 128368982.75147 100027754.13947  24427824.4964   24427830.2954   24427824.0384
        43.000          39.000
 116737325.17647  90964143.13747  22214378.9494   22214381.5334   22214378.8814
        50.000          44.000
 120823470.49047  94148146.24447  22991950.6574   22991954.6294   22991950.2104
        49.000          42.000
 123091496.14547  95915440.44247  23423540.5554   23423543.2204   23423540.5494
        47.000          41.000
 116590815.56847  90849960.82447  22186513.8304   22186515.9964   22186513.4274
        51.000          45.000
 104852893.64647  81703548.18747  19952844.0194   19952845.8774   19952844.3444
        54.000          50.000
 09  1 14  0 48  0.0000000  0 12G 9G22G 5G 6G18G24G12G14G30G29G31G21
 122866072.17447  95739793.81047  23380638.4184   23380641.6724   23380638.2714
        45.000          40.000
 124965973.97147  97376088.67547  23780230.1204   23780230.4654   23780230.2754
        46.000          40.000
 123650782.85847  96351239.14047  23529977.5234   23529982.7064   23529978.1404
        46.000          40.000
 126750312.21947  98766449.77147  24119803.1774   24119808.4194   24119802.9694
        43.000          37.000
 121568962.58147  94729046.17047  23133815.2034   23133817.4884   23133815.6774
        48.000          41.000
 117088130.84047  91237490.43347  22281141.4144   22281146.2884   22281141.6454
        50.000          43.000
 128374816.47347 100032299.95247  24428934.5014   24428940.2264   24428934.3544
        44.000          39.000
 116768572.81047  90988491.96047  22220324.8314   22220327.4194   22220325.1064
        50.000          44.000
 120795975.04347  94126721.27447  22986718.3524   22986722.6434   22986718.0714
        49.000          42.000
 123163928.46247  95971881.18547  23437323.9084   23437326.8244   23437323.8214
        47.000          41.000
 116500620.95247  90779679.35747  22169350.1584   22169352.4174   22169349.8344
        51.000          45.000
 104846491.53047  81698559.53147  19951625.7454   19951627.6124   19951626.1224
        54.000          50.000
 09  1 14  0 48 30.0000000  0 12G 9G22G 5G 6G18G24G12G14G30G29G31G21
 122961040.10547  95813794.77247  23398709.7644   23398713.7024   23398710.2084
        44.000          39.000
 124928278.24247  97346715.39447  23773056.7494   23773057.1004   23773056.7094
        45.000          40.000
 123642254.79347  96344593.95347  23528354.0754   23528359.8404   23528354.7974
        46.000          40.000
 126720532.83547  98743245.09847  24114136.7224   24114140.6604   24114136.8774
        43.000          38.000
 121534416.68347  94702127.30847  23127241.2744   23127243.1564   23127241.9364
        48.000          41.000
 117154335.42347  91289078.41947  22293739.5814   22293744.6964   22293739.8064
        49.000          43.000
 128380790.97447 100036955.45347  24430072.0934   24430077.0134   24430071.8064
        44.000          39.000
 116800046.95247  91013017.29547  22226314.2614   22226316.7144   22226314.7994
        50.000          44.000
 120768481.40147  94105297.70047  22981486.4854   22981490.5694   22981485.8894
        49.000          42.000
 123236248.43847  96028234.39247  23451085.7414   23451088.8564   23451085.5744
        46.000          41.000
 116410710.17147  90709619.04747  22152240.6764   22152242.7174   22152240.2424
        51.000          45.000
 104840698.86347  81694045.77247  19950523.3504   19950525.1904   19950523.7904
        54.000          50.000
 09  1 14  0 49  0.0000000  0 12G 9G22G 5G 6G18G24G12G14G30G29G31G21
 123056310.01747  95888031.10347  23416838.7664   23416842.4094   23416839.3774
        44.000          39.000
 124890369.28647  97317175.96447  23765842.4144   23765843.4754   23765842.6534
        46.000          40.000
 123633883.17547  96338070.66447  23526761.8594   23526766.0044   23526762.2974
        46.000          40.000
 126691034.40547  98720259.36047  24108522.9384   24108527.9294   24108522.6844
        42.000          37.000
 121499764.22147  94675125.38147  23120647.4424   23120649.2684   23120647.6764
        48.000          41.000
 117220934.79347  91340974.03947  22306413.2594   22306418.1174   22306413.4014
        49.000          43.000
 128386907.51147 100041721.63347  24431235.6464   24431240.8784   24431235.2434
        45.000          39.000
 116831744.84547  91037716.98747  22232346.2244   22232348.5884   22232346.2604
        50.000          44.000
 120740991.78947  94083877.26547  22976255.2264   22976259.6714   22976255.1464
        49.000          42.000
 123308453.97447  96084498.44547  23464825.8924   23464829.5924   23464825.2784
        46.000          41.000
 116321086.34047  90639782.35147  22135185.7764   22135187.9604   22135185.4324
        51.000          45.000
 104835516.17247  81690007.32047  19949537.1864   19949538.9524   19949537.6154
        54.000          50.000
 09  1 14  0 49 30.0000000  0 12G 9G22G 5G 6G18G24G12G14G30G29G31G21
 123151877.16947  95962498.99947  23435024.3644   23435028.8074   23435024.2664
        44.000          39.000
 124852245.50447  97287469.13747  23758588.1874   23758588.9314   23758588.4324
        46.000          40.000
 123625667.82947  96331669.14447  23525197.9504   23525202.5274   23525198.5404
        45.000          40.000
 126661813.80447  98697490.10647  24102962.4784   24102966.6664   24102963.0844
        44.000          38.000
 121465004.37847  94648039.79347  23114032.1904   23114034.9594   23114032.6114
        48.000          41.000
 117287924.71747  91393173.97947  22319160.3624   22319165.7634   22319160.5394
        49.000          43.000
 128393165.84447 100046598.32447  24432426.9964   24432431.6784   24432426.5084
        44.000          39.000
 116863661.87647  91062587.41247  22238419.8904   22238422.3184   22238420.0374
        50.000          44.000
 120713505.98947  94062459.79747  22971024.7684   22971028.9434   22971024.5434
        48.000          42.000
 123380541.55647  96140670.58747  23478543.4634   23478547.3564   23478542.7594
        46.000          41.000
 116231750.08147  90570169.72947  22118185.4904   22118187.8604   22118185.0714
        51.000          45.000
 104830941.80547  81686442.88347  19948666.4844   19948668.4964   19948666.8284
        54.000          50.000
 09  1 14  0 50  0.0000000  0 12G 9G22G 5G 6G18G24G12G14G30G29G31G21
 123247741.40047  96037198.41947  23453266.9934   23453270.8524   23453266.7274
        45.000          39.000
 124813909.90547  97257597.26947  23751293.0514   23751293.6214   23751293.2784
        46.000          40.000
 123617613.53647  96325393.13947  23523665.0884   23523670.1484   23523665.4634
        46.000          40.000
 126632872.95347  98674938.84147  24097455.2024   24097459.5434   24097455.3404
        44.000          38.000
 121430141.63647  94620874.02847  23107398.2604   23107400.5304   23107398.7134
        48.000          41.000
 117355306.49847  91445679.26547  22331983.0364   22331988.1164   22331983.4244
        50.000          43.000
 128399570.67047 100051589.14547  24433645.3264   24433650.5974   24433644.8354
        44.000          39.000
 116895797.96247  91087628.53147  22244535.2334   22244537.9074   22244535.5064
        50.000          44.000
 120686029.06647  94041049.25447  22965796.4124   22965800.4814   22965796.3354
        49.000          42.000
 123452511.45847  96196751.02047  23492238.8584   23492242.9664   23492238.3634
        46.000          41.000
 116142706.81947  90500785.41847  22101241.2904   22101243.3644   22101240.7304
        51.000          45.000
 104826979.37147  81683355.28447  19947912.5524   19947914.3834   19947912.9484
        54.000          50.000
 09  1 14  0 50 30.0000000  0 12G 9G22G 5G 6G18G24G12G14G30G29G31G21
 123343898.51647  96112126.04147  23471565.1684   23471568.7924   23471565.5144
        45.000          39.000
 124775361.77447  97227559.79247  23743957.6294   23743958.0704   23743957.5914
        46.000          40.000
 123609720.75847  96319242.97047  23522162.7544   23522167.9254   23522163.3674
        46.000          40.000
 126604209.16647  98652603.47647  24092000.8814   24092004.9294   24092000.2904
        44.000          38.000
 121395176.29547  94593628.30147  23100744.5284   23100746.3124   23100745.2214
        48.000          41.000
 117423076.48947  91498487.06547  22344879.3894   22344884.3484   22344879.3954
        50.000          43.000
 128406121.74447 100056693.94647  24434891.6524   24434896.4864   24434891.4734
        44.000          39.000
 116928148.81447  91112837.02947  22250691.4164   22250693.9504   22250691.5384
        50.000          44.000
 120658561.31147  94019645.86347  22960569.4594   22960573.2184   22960569.0324
        48.000          42.000
 123524360.52747  96252737.31247  23505911.6104   23505915.1954   23505911.1654
        47.000          41.000
 116053957.77047  90431630.36947  22084353.0154   22084354.8884   22084352.5724
        51.000          45.000
 104823627.66747  81680743.57847  19947274.6354   19947276.7224   19947274.9844
        54.000          50.000
 09  1 14  0 51  0.0000000  0 12G 9G22G 5G 6G18G24G12G14G30G29G31G21
 123440346.71247  96187280.51047  23489918.7804   23489922.7084   23489918.6384
        45.000          39.000
 124736602.10847  97197357.48147  23736581.8674   23736582.5954   23736581.9934
        46.000          40.000
 123601992.28747  96313220.83047  23520692.2914   23520697.3634   23520692.8184
        46.000          40.000
 126575822.24947  98630483.83147  24086599.1474   24086603.0904   24086599.6574
        43.000          38.000
 121360110.27447  94566304.13547  23094071.5944   23094073.6324   23094072.1784
        48.000          41.000
 117491233.47647  91551596.39647  22357849.4914   22357854.3244   22357849.7504
        50.000          43.000
 128412821.71947 100061914.73347  24436167.1344   24436171.5894   24436166.9274
        45.000          39.000
 116960712.62447  91138211.46247  22256888.0484   22256890.5194   22256888.1154
        50.000          44.000
 120631105.81847  93998252.01147  22955344.6864   22955348.5434   22955344.4154
        49.000          42.000
 123596087.78147  96308628.67747  23519561.0014   23519564.5074   23519560.8174
        46.000          41.000
 115965506.55047  90362707.39247  22067521.1484   22067523.0754   22067520.7304
        51.000          45.000
 104820887.92347  81678608.71747  19946753.4474   19946755.4254   19946753.8114
        54.000          50.000
 09  1 14  0 51 30.0000000  0 12G 9G22G 5G 6G18G24G12G14G30G29G31G21
 123537081.44747  96262658.24247  23508326.8824   23508330.9854   23508327.4134
        46.000          39.000
 124697630.75047  97166990.21247  23729166.2484   23729166.3004   23729166.3424
        46.000          40.000
 123594429.15847  96307327.54047  23519253.3764   23519257.7634   23519253.7454
        46.000          40.000
 126547710.43047  98608578.58747  24081249.4334   24081254.0554   24081249.6934
        44.000          38.000
 121324944.64947  94538902.34847  23087379.7934   23087381.9294   23087380.1714
        47.000          41.000
 117559774.86647  91605005.28247  22370892.6534   22370896.8844   22370892.6494
        50.000          43.000
 128419671.66847 100067252.42747  24437470.7834   24437475.1824   24437470.6434
        44.000          39.000
 116993485.68547  91163748.94447  22263124.5914   22263127.0014   22263124.8524
        51.000          44.000
 120603663.50147  93976868.43347  22950122.7474   22950126.5014   22950122.3504
        49.000          42.000
 123667690.55447  96364423.03547  23533186.1614   23533190.2424   23533186.2404
        46.000          41.000
 115877355.43047  90294018.25947  22050746.5684   22050748.5024   22050746.0734
        51.000          46.000
 104818759.81147  81676950.45047  19946348.3444   19946350.3134   19946348.6664
        54.000          50.000
 09  1 14  0 52  0.0000000  0 12G 9G22G 5G 6G18G24G12G14G30G29G31G21
 123634101.99947  96338258.70547  23526789.4304   23526792.6354   23526789.7544
        45.000          39.000
 124658449.81447  97136459.63847  23721710.0994   23721710.4004   23721710.4864
        46.000          40.000
 123587034.96247  96301565.87547  23517846.6264   23517850.6724   23517846.9774
        45.000          40.000
 126519874.02947  98586887.92447  24075952.2744   24075956.9324   24075952.4264
        43.000          38.000
 121289682.39947  94511425.26447  23080669.9164   23080671.6674   23080670.0004
        48.000          41.000
 117628700.37647  91658713.47447  22384008.7794   22384013.1824   22384009.0264
        50.000          43.000
 128426674.84247 100072709.50347  24438803.5324   24438807.8984   24438803.0434
        44.000          39.000
 117026466.86547  91189448.56047  22269400.5964   22269403.0244   22269401.0524
        50.000          44.000
 120576237.95947  93955497.91847  22944903.9484   22944907.3904   22944903.6874
        49.000          42.000
 123739168.49047  96420120.10847  23546787.8194   23546792.1794   23546787.3674
        46.000          41.000
 115789508.09647  90225565.84347  22034029.6864   22034031.6804   22034029.4794
        51.000          46.000
 104817245.30147  81675770.31847  19946060.2794   19946062.1504   19946060.6214
        54.000          50.000
 09  1 14  0 52 30.0000000  0 12G 9G22G 5G 6G18G24G12G14G30G29G31G21
 123731406.43247  96414080.38047  23545305.8924   23545308.9814   23545306.0474
        45.000          39.000
 124619061.09847  97105767.15547  23714214.5694   23714215.2694   23714214.4844
        46.000          40.000
 123579812.76747  96295938.24847  23516471.8624   23516476.5224   23516472.1974
        45.000          40.000
 126492313.16247  98565411.96947  24070707.8454   24070712.5114   24070707.4864
        44.000          38.000
 121254326.20347  94483874.98647  23073941.4334   23073943.5824   23073942.0154
        48.000          41.000
 117698009.14247  91712720.30647  22397197.9164   22397202.3694   22397198.0204
        49.000          43.000
 128433833.87347 100078288.02547  24440165.2624   24440169.6044   24440165.3214
        44.000          39.000
 117059654.65447  91215309.22247  22275715.9754   22275718.3734   22275716.0834
        50.000          44.000
 120548832.20747  93934142.82847  22939688.7884   22939692.1334   22939688.4114
        49.000          42.000
 123810520.95347  96475719.43247  23560365.8964   23560369.8984   23560365.4264
        46.000          41.000
 115701968.64447  90157353.32247  22017371.4114   22017373.5764   22017371.2824
        51.000          46.000
 104816345.93147  81675069.52247  19945888.9434   19945890.9114   19945889.3304
        54.000          50.000
 09  1 14  0 53  0.0000000  0 12G 9G22G 5G 6G18G24G12G14G30G29G31G21
 123828990.80547  96490120.15047  23563875.5584   23563878.8304   23563875.5334
        44.000          39.000
 124579463.46147  97074911.87647  23706679.3334   23706679.9274   23706679.4644
        47.000          40.000
 123572763.12747  96290445.06547  23515130.3974   23515135.1244   23515130.7654
        45.000          39.000
 126465025.33947  98544148.78747  24065515.1974   24065519.2624   24065515.2494
        43.000          38.000
 121218876.43847  94456251.78947  23067195.4804   23067197.7364   23067195.9084
        47.000          41.000
 117767697.81847  91767023.17747  22410458.7964   22410463.6524   22410459.0464
        49.000          43.000
 128441149.07347 100083988.24547  24441557.7464   24441562.4324   24441557.4594
        44.000          39.000
 117093044.95347  91241327.65147  22282069.8684   22282072.3154   22282070.0794
        50.000          44.000
 120521447.10247  93912803.82347  22934476.7844   22934480.7754   22934476.6104
        49.000          42.000
 123881744.78947  96531218.51947  23573919.5144   23573923.4674   23573919.1794
        46.000          41.000
 115614738.81147  90089382.06547  22000772.0854   22000774.5314   22000771.3564
        51.000          46.000
 104816060.78747  81674847.33747  19945834.7384   19945836.6394   19945835.1644
        54.000          50.000
 09  1 14  0 53 30.0000000  0 12G 9G22G 5G 6G18G24G12G14G30G29G31G21
 123926851.22347  96566375.03247  23582497.6034   23582500.7974   23582497.6164
        44.000          38.000
 124539657.01647  97043893.88447  23699104.5164   23699105.0274   23699104.6594
        47.000          40.000
 123565887.41747  96285087.41547  23513821.8074   23513826.4504   23513822.2514
        46.000          40.000
 126438008.82447  98523097.00747  24060373.4434   24060378.2504   24060373.6384
        43.000          38.000
 121183334.13547  94428556.48747  23060432.2944   23060434.1714   23060432.7144
        48.000          41.000
 117837763.66947  91821619.95147  22423791.7954   22423796.7584   22423792.1674
        49.000          43.000
 128448621.53147 100089810.99147  24442979.4464   24442984.0334   24442978.8774
        43.000          39.000
 117126634.30847  91267501.19547  22288461.8034   22288464.1994   22288462.0394
        49.000          44.000
 120494084.16547  93891482.08347  22929270.3594   22929273.9524   22929269.7884
        49.000          42.000
 123952837.48647  96586615.42747  23587447.9404   23587451.7784   23587447.3844
        46.000          41.000
 115527820.33947  90021653.43547  21984232.0254   21984234.4074   21984231.6304
        52.000          46.000
 104816389.35547  81675103.37247  19945897.3494   19945899.1494   19945897.7964
        54.000          50.000
 09  1 14  0 54  0.0000000  0 12G 9G22G 5G 6G18G24G12G14G30G29G31G21
 124024986.22647  96642843.89847  23601171.8314   23601175.1504   23601171.8984
        44.000          38.000
 124499643.77147  97012714.75947  23691489.9304   23691490.7814   23691489.6224
        47.000          40.000
 123559188.90747  96279867.84547  23512547.0344   23512551.9454   23512547.7424
        45.000          40.000
 126411263.78647  98502256.75647  24055285.1694   24055288.6434   24055284.4324
        44.000          38.000
 121147702.02847  94400791.21447  23053651.2824   23053653.5074   23053651.9814
        47.000          41.000
 117908206.34847  91876510.35247  22437196.7154   22437201.6084   22437196.9604
        49.000          43.000
 128456254.25347 100095758.61347  24444431.4784   24444436.5504   24444430.6954
        43.000          39.000
 117160421.24147  91293828.69347  22294891.0204   22294893.7274   22294891.3194
        50.000          44.000
 120466746.79047  93870180.26847  22924068.1544   22924071.8134   22924068.0924
        49.000          42.000
 124023798.82347  96641909.97047  23600951.3374   23600955.4844   23600951.0954
        46.000          41.000
 115441217.35247  89954170.64447  21967752.2324   21967754.2344   21967751.8984
        52.000          46.000
 104817333.38947  81675838.99647  19946077.0204   19946078.8584   19946077.3884
        54.000          50.000
 09  1 14  0 54 30.0000000  0 12G 9G22G 5G 6G18G24G12G14G30G29G31G21
 124123391.34747  96719523.21347  23619897.9384   23619901.5264   23619897.9024
        44.000          39.000
 124459422.62847  96981373.61947  23683836.4304   23683836.5124   23683836.5824
        47.000          40.000
 123552668.19247  96274786.80647  23511305.9304   23511311.1294   23511306.5154
        45.000          40.000
 126384787.82047  98481626.18547  24050246.4134   24050250.4884   24050246.3454
        43.000          38.000
 121111980.64147  94372956.37047  23046854.2244   23046856.0954   23046854.4534
        48.000          41.000
 117979022.26347  91931691.58647  22450672.4754   22450677.3144   22450672.5384
        50.000          43.000
 128464047.27047 100101831.16947  24445913.9774   24445919.2614   24445913.9694
        43.000          39.000
 117194401.71447  91320306.98847  22301357.1514   22301360.1574   22301357.5584
        50.000          44.000
 120439435.26247  93848898.60247  22918870.6504   22918874.7884   22918870.2964
        49.000          42.000
 124094625.59047  96697099.65047  23614429.2874   23614432.8834   23614428.8674
        45.000          41.000
 115354931.30447  89886934.80847  21951332.5114   21951334.4134   21951332.2114
        52.000          46.000
 104818891.69747  81677053.26647  19946373.5654   19946375.3794   19946373.8884
        54.000          50.000
 09  1 14  0 55  0.0000000  0 12G 9G22G 5G 6G18G24G12G14G30G29G31G21
 124222066.95547  96796413.30947  23638675.5464   23638678.4884   23638675.2164
        44.000          39.000
 124418997.26047  96949873.35247  23676144.2714   23676143.7734   23676144.4314
        48.000          40.000
 123546330.50647  96269848.39547  23510099.9144   23510104.8174   23510100.3214
        45.000          39.000
 126358583.06447  98461206.93147  24045259.5614   24045263.5884   24045259.9644
        43.000          38.000
 121076175.18647  94345056.01747  23040040.9604   23040042.5414   23040041.3504
        48.000          41.000
 118050212.66547  91987164.62447  22464219.5644   22464224.4924   22464219.8184
        49.000          43.000
 128472005.75147 100108032.64447  24447429.0144   24447433.8624   24447428.7854
        44.000          39.000
 117228576.42647  91346936.64947  22307860.6834   22307863.2064   22307861.0124
        50.000          44.000
 120412155.23647  93827641.46947  22913679.2184   22913683.1744   22913678.6624
        49.000          42.000
 124165319.33047  96752185.67447  23627881.8324   23627885.3254   23627881.6244
        46.000          40.000
 115268968.12347  89819950.56147  21934974.4014   21934976.1894   21934974.3204
        52.000          46.000
 104821067.86547  81678748.99047  19946787.5654   19946789.3584   19946787.9684
        54.000          50.000
 09  1 14  0 55 30.0000000  0 12G 9G22G 5G 6G18G24G12G14G30G29G31G21
 124321007.37547  96873509.74047  23657502.8194   23657506.2574   23657502.7404
        44.000          39.000
 124378365.78147  96918212.47847  23668411.7114   23668411.9474   23668411.7504
        47.000          40.000
 123540174.94447  96265051.90247  23508928.2094   23508933.5524   23508928.7364
        44.000          39.000
 126332645.55147  98440995.93647  24040323.9524   24040327.7694   24040323.9744
        45.000          38.000
 121040284.08647  94317088.93547  23033210.9954   23033212.9484   23033211.2544
        47.000          41.000
 118121772.89147  92042925.85047  22477836.9014   22477842.1954   22477837.0414
        49.000          43.000
 128480128.69947 100114362.27747  24448974.4494   24448979.3094   24448974.6304
        43.000          39.000
 117262939.94047  91373713.46347  22314399.7804   22314402.2134   22314400.1804
        50.000          44.000
 120384905.92147  93806408.27847  22908494.1244   22908497.7434   22908493.8894
        49.000          42.000
 124235875.44847  96807164.46247  23641308.4914   23641311.9124   23641308.2264
        46.000          40.000
 115183327.82647  89753217.90547  21918677.6514   21918679.3794   21918676.8564
        52.000          46.000
 104823859.20547  81680924.06947  19947318.7374   19947320.5304   19947319.1114
        54.000          50.000
 09  1 14  0 56  0.0000000  0 12G 9G22G 5G 6G18G24G12G14G30G29G31G21
 124420210.23147  96950810.68747  23676380.1784   23676383.7614   23676380.2894
        44.000          39.000
 124337530.05047  96886392.44747  23660640.8244   23660641.2574   23660640.7094
        46.000          40.000
 123534204.04247  96260399.30047  23507791.7634   23507796.9634   23507792.3914
        45.000          39.000
 126306974.67447  98420992.68747  24035438.9854   24035442.6604   24035439.1604
        44.000          38.000
 121004309.77747  94289057.02447  23026364.9634   23026367.5114   23026365.4214
        48.000          41.000
 118193701.46547  92098974.08547  22491524.1664   22491529.5864   22491524.6194
        49.000          43.000
 128488418.21147 100120821.68647  24450551.9534   24450557.4994   24450551.6324
        44.000          39.000
 117297489.90747  91400635.54947  22320974.0144   22320976.8394   22320974.2974
        49.000          44.000
 120357690.10147  93785201.16947  22903315.3594   22903319.1294   22903314.8934
        49.000          42.000
 124306292.70547  96862035.04747  23654708.2834   23654712.1514   23654708.1394
        45.000          40.000
 115098013.65847  89686739.39347  21902442.7074   21902444.4764   21902442.2984
        52.000          46.000
 104827266.64547  81683579.23147  19947967.1844   19947968.9704   19947967.5674
        54.000          50.000
 09  1 14  0 56 30.0000000  0 12G 9G22G 5G 6G18G24G12G14G30G29G31G21
 124519674.78347  97028315.52147  23695307.7154   23695311.5604   23695307.8034
        44.000          38.000
 124296492.10247  96854414.84247  23652831.4364   23652832.0344   23652831.5674
        46.000          40.000
 123528422.00947  96255893.87947  23506692.1354   23506696.9234   23506692.5524
        46.000          40.000
 126281571.61447  98401198.12847  24030604.4784   24030609.0174   24030604.3004
        43.000          38.000
 120968256.17547  94260963.31847  23019504.4664   23019506.4384   23019504.8144
        48.000          41.000
 118265998.45347  92155309.40547  22505282.0634   22505287.6944   22505281.9484
        49.000          43.000
 128496878.04047 100127413.82847  24452162.0274   24452166.5624   24452161.5844
        44.000          39.000
 117332225.65847  91427702.39547  22327584.1134   22327586.9004   22327584.2024
        50.000          44.000
 120330512.03447  93764023.47947  22898143.5024   22898147.3434   22898143.0744
        49.000          42.000
 124376571.67847  96916797.87747  23668081.7134   23668085.8374   23668081.2834
        45.000          40.000
 115013030.35447  89620518.68547  21886270.6864   21886272.5734   21886270.5814
        52.000          46.000
 104831292.36447  81686716.16447  19948733.3134   19948735.0884   19948733.7344
        54.000          50.000
 09  1 14  0 57  0.0000000  0 12G 9G22G 5G 6G18G24G12G14G30G29G31G21
 124619396.27547  97106020.60847  23714284.0354   23714287.5954   23714284.1154
        43.000          38.000
 124255250.59247  96822278.60547  23644983.6804   23644983.8604   23644983.6364
        47.000          40.000
 123522828.98947  96251535.73947  23505627.8964   23505632.2254   23505628.4514
        46.000          40.000
 126256433.23247  98381609.82347  24025821.1044   24025825.0464   24025821.0504
        44.000          38.000
 120932123.14847  94232807.73347  23012628.4574   23012630.4664   23012629.0684
        48.000          41.000
 118338660.22547  92211928.97547  22519109.0624   22519114.4384   22519109.1984
        49.000          43.000
 128505508.10147 100134138.62547  24453804.2094   24453808.9994   24453803.6344
        44.000          39.000
 117367142.91447  91454910.65447  22334228.7424   22334231.4304   22334228.9724
        49.000          44.000
 120303372.15147  93742875.55947  22892978.9264   22892982.6894   22892978.5484
        49.000          42.000
 124446709.07847  96971450.37747  23681428.7004   23681432.8124   23681428.2984
        45.000          40.000
 114928379.10547  89554556.71047  21870162.1254   21870163.8854   21870161.2444
        52.000          46.000
 104835934.91247  81690333.74047  19949616.8894   19949618.4444   19949617.2924
        54.000          50.000
 09  1 14  0 57 30.0000000  0 12G 9G22G 5G 6G18G24G12G14G30G29G31G21
 124719370.74547  97183922.79647  23733308.4064   23733312.1584   23733308.1764
        43.000          38.000
 124213805.23147  96789983.53847  23637097.2214   23637096.8304   23637097.3544
        48.000          40.000
 123517425.61147  96247325.36547  23504599.8484   23504604.2924   23504600.3484
        46.000          40.000
 126231557.27547  98362225.99647  24021087.2724   24021091.5104   24021087.7044
        44.000          38.000
 120895911.24047  94204590.67447  23005737.5494   23005739.7564   23005738.0444
        48.000          41.000
 118411683.39347  92268830.14647  22533005.0304   22533010.2254   22533005.0584
        48.000          42.000
 128514308.49947 100140996.14447  24455478.3204   24455484.0424   24455478.1294
        44.000          39.000
 117402237.60847  91482257.19347  22340907.0874   22340909.5954   22340907.1984
        49.000          44.000
 120276271.00547  93721757.81947  22887821.9374   22887825.2074   22887821.4984
        49.000          42.000
 124516701.77147  97025990.12947  23694747.9854   23694751.9384   23694747.5274
        44.000          40.000
 114844060.96847  89488854.31147  21854116.6214   21854118.6244   21854116.4554
        52.000          46.000
 104841192.86347  81694430.86247  19950617.3354   19950619.0824   19950617.7644
        54.000          50.000
 09  1 14  0 58  0.0000000  0 12G 9G22G 5G 6G18G24G12G14G30G29G31G21
 124819599.64747  97262023.23347  23752381.5024   23752385.2714   23752381.3854
        43.000          38.000
 124172161.79047  96757534.11847  23629172.4274   23629172.8924   23629172.6654
        47.000          40.000
 123512218.57347  96243268.00047  23503608.6264   23503613.2424   23503609.2814
        46.000          40.000
 126206947.05447  98343049.24347  24016404.2524   24016408.7204   24016404.2844
        44.000          38.000
 120859626.95847  94176317.21447  22998832.7444   22998834.6934   22998833.2204
        48.000          41.000
 118485070.59447  92326014.97647  22546970.1024   22546975.0444   22546969.9714
        49.000          42.000
 128523286.01047 100147991.66947  24457187.0854   24457191.9814   24457186.7744
        43.000          38.000
 117437511.75047  91509743.56747  22347619.6394   22347621.9654   22347619.7684
        49.000          44.000
 120249215.76747  93700675.84647  22882673.5454   22882676.6774   22882673.1964
        49.000          42.000
 124586552.86947  97080419.55247  23708040.1624   23708043.8904   23708039.7024
        45.000          40.000
 114760083.67447  89423417.51647  21838136.3514   21838138.5764   21838135.8134
        52.000          46.000
 104847071.10647  81699011.32047  19951735.6604   19951737.6744   19951736.0884
        54.000          49.000
 09  1 14  0 58 30.0000000  0 12G 9G22G 5G 6G18G24G12G14G30G29G31G21
 124920076.64347  97340316.99747  23771501.9154   23771505.4164   23771501.8174
        44.000          38.000
 124130316.90547  96724927.72547  23621209.8074   23621210.0454   23621209.4294
        47.000          40.000
 123507205.97747  96239362.14647  23502654.5784   23502659.2284   23502655.3244
        46.000          40.000
 126182597.66447  98324075.74747  24011770.6084   24011774.8304   24011770.7894
        43.000          38.000
 120823268.05047  94147985.59847  22991914.0414   22991915.9814   22991914.5084
        49.000          41.000
 118558815.77647  92383478.74847  22561003.6144   22561008.2544   22561003.8994
        49.000          42.000
 128532438.41547 100155123.50147  24458928.1774   24458933.5774   24458927.7404
        43.000          38.000
 117472958.89347  91537364.73547  22354364.9774   22354367.6634   22354364.9264
        49.000          44.000
 120222204.50747  93679628.14647  22877533.0684   22877536.6844   22877532.6094
        49.000          42.000
 124656257.01047  97134734.46847  23721304.6714   23721308.1594   23721304.2454
        45.000          40.000
 114676446.13947  89358245.46347  21822220.5804   21822222.7154   21822220.1384
        52.000          46.000
 104853566.00447  81704072.28647  19952971.7004   19952973.6284   19952972.0524
        54.000          50.000
 09  1 14  0 59  0.0000000  0 12G 9G22G 5G 6G18G24G12G14G30G29G31G21
 125020799.99147  97418802.73147  23790668.8704   23790672.4824   23790669.1484
        44.000          38.000
 124088272.57647  96692165.91647  23613208.7094   23613209.1684   23613208.6454
        47.000          40.000
 123502391.12147  96235610.38247  23501737.9944   23501743.3194   23501738.6044
        46.000          40.000
 126158509.33847  98305305.65347  24007186.3684   24007191.0914   24007186.4924
        43.000          38.000
 120786837.80647  94119598.39747  22984981.4384   22984983.4764   22984981.8564
        49.000          42.000
 118632918.13747  92441220.85247  22575104.7994   22575109.6434   22575104.9024
        49.000          42.000
 128541768.67447 100162393.91347  24460703.4714   24460708.9414   24460703.4314
        43.000          38.000
 117508577.46447  91565119.50347  22361142.8914   22361145.0964   22361143.0594
        49.000          43.000
 120195240.78747  93658617.49247  22872401.8564   22872405.6104   22872401.5884
        49.000          42.000
 124725813.77147  97188934.52547  23734540.9054   23734544.3974   23734540.7744
        46.000          40.000
 114593152.45047  89293341.33847  21806370.5224   21806372.3074   21806370.1984
        52.000          46.000
 104860678.74647  81709614.69547  19954325.2514   19954327.0444   19954325.7164
        54.000          49.000
 09  1 14  0 59 30.0000000  0 12G 9G22G 5G 6G18G24G12G14G30G29G31G21
 125121766.88547  97497478.27147  23809882.4484   23809885.9024   23809882.6104
        44.000          38.000
 124046029.55747  96659249.29647  23605170.3974   23605170.8404   23605170.5414
        47.000          40.000
 123497776.11447  96232014.34747  23500860.0724   23500864.4154   23500860.3314
        46.000          40.000
 126134680.63947  98286737.86647  24002652.5294   24002656.2224   24002652.3444
        45.000          38.000
 120750338.22047  94091157.17047  22978036.2594   22978038.0094   22978036.5224
        49.000          42.000
 118707375.98947  92499239.96947  22589273.6864   22589278.2664   22589273.7404
        49.000          42.000
 128551278.54647 100169804.26747  24462513.4914   24462518.4474   24462513.1634
        43.000          38.000
 117544364.87147  91593005.80847  22367952.7324   22367955.2184   22367953.0734
        49.000          43.000
 120168326.80547  93637645.58447  22867279.9684   22867283.8624   22867279.9174
        49.000          42.000
 124795221.92147  97243018.79747  23747748.5444   23747752.1404   23747748.0954
        46.000          40.000
 114510205.40747  89228707.32347  21790586.2204   21790588.0294   21790585.8104
        52.000          46.000
 104868409.46347  81715638.63447  19955796.3704   19955798.0764   19955796.7904
        54.000          49.000
 09  1 14  1  0  0.0000000  0 12G 9G22G 5G 6G18G24G12G14G30G29G31G21
 125222974.37847  97576341.26747  23829141.3564   23829144.7624   23829141.6114
        44.000          37.000
 124003589.12647  96626178.86147  23597093.8744   23597094.3244   23597094.0124
        47.000          40.000
 123493362.98447  96228575.61747  23500020.0254   23500025.3904   23500020.7384
        45.000          40.000
 126111111.03247  98268371.98047  23998167.0144   23998171.0914   23998167.2044
        44.000          39.000
 120713771.14347  94062663.35647  22971077.5094   22971079.3234   22971077.9734
        49.000          42.000
 118782187.43347  92557534.58547  22603510.0544   22603514.3174   22603510.2294
        49.000          42.000
 128560969.78147 100177355.95047  24464358.1544   24464362.9874   24464357.8404
        44.000          38.000
 117580318.77147  91621021.81247  22374794.7104   22374797.4934   22374795.1314
        49.000          43.000
 120141464.84047  93616714.21047  22862168.5254   22862171.9274   22862168.5234
        48.000          42.000
 124864479.54247  97296985.77147  23760927.8834   23760931.7024   23760927.4474
        45.000          40.000
 114427607.58347  89164345.43847  21774868.2404   21774870.2074   21774867.9904
        52.000          46.000
 104876758.39747  81722144.31047  19957385.0904   19957386.8744   19957385.4574
        54.000          49.000
 09  1 14  1  0 30.0000000  0 12G 9G22G 5G 6G18G24G12G14G30G29G31G21
 125324419.27747  97655389.26547  23848445.4824   23848448.6094   23848445.9174
        44.000          37.000
 123960950.90047  96592954.28947  23588980.0324   23588980.1554   23588979.8784
        47.000          40.000
 123489152.80747  96225295.04247  23499218.8524   23499223.9654   23499219.1214
        46.000          40.000
 126087798.19947  98250206.16147  23993731.1474   23993734.8164   23993730.8244
        43.000          39.000
 120677137.60847  94034117.75747  22964106.4264   22964108.4214   22964106.9144
        49.000          42.000
 118857349.38247  92616102.35047  22617812.8324   22617817.3514   22617812.7824
        49.000          42.000
 128570842.98647 100185049.42847  24466236.3724   24466241.2104   24466236.3614
        42.000          38.000
 117616435.58647  91649164.81747  22381667.4514   22381669.8754   22381667.6494
        49.000          44.000
 120114656.53547  93595824.64247  22857067.0664   22857070.6024   22857066.5584
        48.000          42.000
 124933584.59547  97350833.86047  23774078.0104   23774081.5114   23774077.8424
        46.000          40.000
 114345360.82947  89100257.10247  21759217.3224   21759218.8944   21759217.0934
        52.000          46.000
 104885724.61647  81729130.98847  19959091.2314   19959093.2074   19959091.6394
        54.000          50.000
 09  1 14  1  1  0.0000000  0 12G 9G22G 5G 6G18G24G12G14G30G29G31G21
 125426100.27247  97734621.23447  23867795.4104   23867797.8144   23867795.2144
        44.000          37.000
 123918117.85747  96559577.90347  23580829.3014   23580829.7664   23580829.2584
        47.000          40.000
 123485149.47947  96222175.65247  23498457.3194   23498461.6954   23498457.5454
        46.000          40.000
 126064742.86247  98232240.99147  23989343.7724   23989347.2294   23989343.5854
        44.000          38.000
 120640441.39547  94005523.31147  22957123.2984   22957125.0574   22957123.8034
        49.000          42.000
 118932861.75347  92674943.15547  22632182.3584   22632186.8004   22632182.5944
        49.000          42.000
 128580901.81847 100192887.56447  24468150.8374   24468155.0264   24468150.8204
        44.000          39.000
 117652714.39347  91677434.04347  22388571.2514   22388573.7154   22388571.4534
        49.000          43.000
 120087905.52647  93574979.74147  22851976.5044   22851979.8414   22851976.3584
        49.000          42.000
 125002537.44047  97404563.34647  23787199.5184   23787202.6554   23787199.3544
        45.000          40.000
 114263469.91047  89036446.01947  21743634.0204   21743635.5764   21743633.2334
        52.000          47.000
 104895309.85847  81736600.01447  19960915.2474   19960917.1094   19960915.6284
        54.000          49.000
 09  1 14  1  1 30.0000000  0 12G 9G22G 5G 6G18G24G12G14G30G29G31G21
 125528014.02647  97814034.58347  23887188.7674   23887191.9224   23887188.6204
        44.000          37.000
 123875090.44247  96526050.06247  23572641.4994   23572642.1074   23572641.4554
        47.000          41.000
 123481354.69347  96219218.74447  23497735.0504   23497739.6624   23497735.2724
        46.000          40.000
 126041943.35247  98214475.15347  23985005.3264   23985009.1814   23985005.2494
        44.000          38.000
 120603683.90747  93976881.13547  22950128.2794   22950130.4884   22950128.5564
        49.000          42.000
 119008722.08647  92734055.10047  22646618.1024   22646622.5464   22646618.2184
        48.000          42.000
 128591147.62247 100200871.37247  24470100.2704   24470104.5524   24470100.4604
        43.000          39.000
 117689152.29147  91705827.23447  22395504.8124   22395507.4374   22395505.0704
        49.000          43.000
 120061214.01547  93554181.19847  22846897.5634   22846900.8834   22846896.9754
        49.000          42.000
 125071336.57347  97458173.05347  23800291.4254   23800294.6224   23800291.3054
        45.000          40.000
 114181937.22247  88972914.09147  21728118.5164   21728120.3304   21728118.3814
        52.000          46.000
 104905513.65647  81744551.03347  19962856.9134   19962858.8414   19962857.2494
        54.000          49.000
 09  1 14  1  2  0.0000000  0 12G 9G22G 5G 6G18G24G12G14G30G29G31G21
 125630155.99847  97893625.75047  23906625.5524   23906628.5634   23906625.6884
        43.000          37.000
 123831867.75947  96492370.05447  23564416.4934   23564417.0584   23564416.3654
        47.000          41.000
 123477768.76447  96216424.58847  23497052.2714   23497057.3334   23497052.9444
        46.000          40.000
 126019397.08047  98196906.66747  23980714.3934   23980717.9564   23980714.0334
        43.000          38.000
 120566865.65447  93948191.59547  22943122.3414   22943124.1194   22943122.6364
        49.000          42.000
 119084926.68947  92793435.30947  22661119.2554   22661123.9384   22661119.1734
        48.000          42.000
 128601580.62247 100209001.06447  24472085.4754   24472090.1124   24472085.5374
        43.000          39.000
 117725744.89847  91734340.97847  22402468.2844   22402470.8784   22402468.4774
        49.000          44.000
 120034582.57447  93533429.44847  22841830.1284   22841832.6474   22841829.4564
        49.000          42.000
 125139978.55247  97511660.29847  23813353.7394   23813356.7024   23813353.2224
        45.000          40.000
 114100764.17947  88909662.39147  21712671.7364   21712673.6434   21712671.1344
        52.000          46.000
 104916334.44147  81752982.82747  19964916.1054   19964918.0594   19964916.5194
        54.000          50.000
 09  1 14  1  2 30.0000000  0 12G 9G22G 5G 6G18G24G12G14G30G29G31G21
 125732524.28447  97973393.27047  23926105.3494   23926108.8014   23926105.9644
        42.000          37.000
 123788451.80747  96458539.45147  23556154.8414   23556155.0614   23556154.6384
        47.000          40.000
 123474394.68747  96213795.50847  23496410.2064   23496415.4364   23496410.4864
        45.000          40.000
 125997103.69947  98179535.22147  23976471.8824   23976476.2594   23976471.9634
        43.000          38.000
 120529989.62647  93919457.04547  22936105.0824   22936106.8594   22936105.4514
        49.000          42.000
 119161474.38247  92853082.86547  22675685.6064   22675690.3044   22675685.8754
        48.000          42.000
 128612203.52647 100217278.72847  24474106.6894   24474111.8964   24474107.0644
        42.000          38.000
 117762490.90447  91762974.26947  22409460.8574   22409463.4704   22409461.2294
        49.000          43.000
 120008014.42447  93512727.03247  22836773.7494   22836777.2444   22836773.5514
        49.000          42.000
 125208462.53447  97565024.41547  23826385.6414   23826389.1914   23826385.0294
        46.000          40.000
 114019954.24347  88846693.64847  21697294.2584   21697296.0024   21697293.9764
        52.000          47.000
 104927773.08547  81761896.07147  19967092.7994   19967094.6544   19967093.1954
        54.000          49.000
 09  1 14  1  3  0.0000000  0 12G 9G22G 5G 6G18G24G12G14G30G29G31G21
 125835116.72947  98053335.46347  23945628.4804   23945630.9054   23945628.2064
        43.000          37.000
 123744844.27347  96424559.56147  23547856.3774   23547856.9864   23547856.3934
        47.000          40.000
 123471235.13747  96211333.59647  23495809.0894   23495814.0244   23495809.4474
        46.000          40.000
 125975062.66347  98162360.42747  23972278.1974   23972282.0314   23972277.6204
        43.000          38.000
 120493058.25347  93890679.36347  22929077.1984   22929079.0014   22929077.5614
        49.000          42.000
 119238363.87947  92912996.75947  22690317.1834   22690321.7854   22690317.3444
        48.000          42.000
 128623018.52347 100225706.05847  24476164.3014   24476169.2034   24476163.8294
        43.000          38.000
 117799388.24747  91791725.48847  22416482.1624   22416484.6844   22416482.5264
        50.000          43.000
 119981512.42747  93492076.17047  22831730.4164   22831734.1034   22831730.3544
        49.000          42.000
 125276788.36347  97618265.30547  23839387.8364   23839391.2964   23839387.8664
        45.000          40.000
 113939510.76547  88784010.44447  21681986.3564   21681988.2044   21681985.9874
        52.000          47.000
 104939830.10647  81771291.15647  19969387.2614   19969388.7654   19969387.6714
        54.000          49.000
 09  1 14  1  3 30.0000000  0 12G 9G22G 5G 6G18G24G12G14G30G29G31G21
 125937930.32247  98133449.98047  23965192.7374   23965195.8724   23965192.7154
        42.000          37.000
 123701045.95847  96390431.03047  23539521.7624   23539522.2154   23539522.1094
        47.000          41.000
 123468291.92747  96209040.25147  23495248.8074   23495253.5704   23495249.2994
        46.000          40.000
 125953272.42847  98145381.07147  23968130.7944   23968135.6694   23968130.9464
        44.000          38.000
 120456073.48947  93861860.08247  22922039.1384   22922041.2524   22922039.5014
        49.000          42.000
 119315592.82647  92973175.16247  22705013.2014   22705018.2724   22705013.4064
        49.000          42.000
 128634026.98747 100234284.15547  24478259.4364   24478263.8054   24478258.7294
        44.000          38.000
 117836433.87347  91820592.23247  22423531.7854   22423534.0544   22423532.0364
        50.000          44.000
 119955078.69247  93471478.48947  22826700.4574   22826703.7164   22826700.2844
        49.000          42.000
 125344954.37847  97671381.66647  23852358.8894   23852362.5934   23852358.8954
        44.000          39.000
 113859436.19547  88721614.68447  21666748.6264   21666750.4534   21666748.1654
        53.000          47.000
 104952505.32247  81781167.95647  19971799.2024   19971801.0224   19971799.6424
        54.000          49.000
 09  1 14  1  4  0.0000000  0 12G 9G22G 5G 6G18G24G12G14G30G29G31G21
 126040964.23447  98213736.15647  23984799.1044   23984802.2734   23984799.1114
        41.000          37.000
 123657059.56547  96356155.94347  23531151.6014   23531152.2714   23531151.6384
        48.000          41.000
 123465569.00547  96206918.57747  23494730.6344   23494735.4344   23494731.1514
        46.000          40.000
 125931734.15047  98128598.02747  23964032.8344   23964036.7574   23964032.6084
        43.000          38.000
 120419039.11547  93833002.14047  22914991.8084   22914993.9634   22914991.9914
        49.000          42.000
 119393161.40347  93033618.20747  22719774.4174   22719778.8454   22719774.7394
        48.000          42.000
 128645232.70447 100243015.94947  24480392.0864   24480396.8604   24480391.7234
        44.000          39.000
 117873627.39947  91849574.21047  22430609.3524   22430611.7634   22430609.7294
        49.000          44.000
 119928717.46047  93450937.31847  22821683.9764   22821687.5464   22821683.6034
        49.000          42.000
 125412960.93847  97724373.78247  23865300.1664   23865303.5074   23865299.6914
        45.000          39.000
 113779735.56447  88659510.35347  21651581.9734   21651583.9334   21651581.8534
        53.000          47.000
 104965800.30047  81791527.68947  19974329.0514   19974330.8154   19974329.3274
        54.000          49.000
 09  1 14  1  4 30.0000000  0 12G 9G22G 5G 6G18G24G12G14G30G29G31G21
 126144210.60747  98294187.90047  24004446.4054   24004449.6324   24004446.1784
        41.000          37.000
 123612881.03647  96321731.12547  23522744.9004   23522744.9274   23522744.9324
        47.000          40.000
 123463063.33447  96204966.18947  23494253.9524   23494258.4794   23494254.6624
        46.000          40.000
 125910441.38147  98112006.28447  23959980.9594   23959984.5064   23959980.7704
        44.000          38.000
 120381952.33347  93804103.34147  22907934.2884   22907936.3664   22907934.7224
        48.000          42.000
 119471062.14647  93094320.08247  22734598.4194   22734602.8864   22734598.1814
        49.000          42.000
 128656632.31147 100251898.85447  24482561.1934   24482565.6654   24482560.9724
        44.000          38.000
 117910961.14647  91878665.46547  22437713.8784   22437716.1734   22437714.1974
        50.000          44.000
 119902426.25447  93430450.71947  22816680.9034   22816683.9854   22816680.4754
        49.000          42.000
 125480801.69647  97777236.69547  23878209.9544   23878213.1684   23878209.8204
        45.000          39.000
 113700406.34147  88597695.41547  21636485.9744   21636488.0124   21636485.4064
        52.000          47.000
 104979709.73147  81802366.22447  19976975.9494   19976977.7334   19976976.3824
        54.000          49.000
 09  1 14  1  5  0.0000000  0 12G 9G22G 5G 6G18G24G12G14G30G29G31G21
 126247669.71047  98374805.39347  24024133.7484   24024137.5414   24024134.4484
        42.000          37.000
 123568514.95447  96287160.15147  23514302.5364   23514302.2344   23514302.3624
        47.000          40.000
 123460780.14047  96203187.13347  23493819.6174   23493823.7884   23493820.4874
        46.000          40.000
 125889396.36947  98095607.61047  23955976.0574   23955980.0684   23955976.2384
        44.000          38.000
 120344817.98147  93775167.48347  22900867.6574   22900869.8094   22900868.1374
        48.000          42.000
 119549296.11547  93155281.61347  22749485.8944   22749490.5704   22749485.9884
        49.000          42.000
 128668230.84447 100260936.73147  24484768.5784   24484772.7464   24484767.9634
        44.000          38.000
 117948435.72947  91907866.46147  22444844.9524   22444846.9134   22444845.1394
        49.000          43.000
 119876210.31847  93410022.75447  22811691.8934   22811695.6084   22811691.1214
        49.000          42.000
 125548478.67947  97829971.99347  23891088.3884   23891091.7344   23891088.0384
        44.000          39.000
 113621454.21747  88536174.31647  21621462.0074   21621463.7654   21621461.9114
        53.000          47.000
 104994236.98247  81813686.17147  19979740.3134   19979742.2104   19979740.6334
        54.000          49.000
 09  1 14  1  5 30.0000000  0 12G 9G22G 5G 6G18G24G12G14G30G29G31G21
 126351337.61247  98455585.60547  24043861.9014   24043864.7504   24043862.0184
        42.000          38.000
 123523961.35347  96252443.07647  23505823.9734   23505823.9734   23505823.7534
        47.000          40.000
 123458720.16647  96201582.02847  23493427.6854   23493431.5254   23493428.2594
        45.000          40.000
 125868596.33247  98079399.80647  23952017.5554   23952021.4174   23952017.5574
        43.000          38.000
 120307637.34747  93746195.55847  22893792.5464   22893794.8464   22893793.0634
        48.000          42.000
 119627860.23847  93216500.40847  22764436.2974   22764440.7644   22764436.5584
        49.000          42.000
 128680028.57547 100270129.85047  24487012.9754   24487017.7674   24487013.0094
        43.000          38.000
 117986047.54047  91937174.39647  22452002.3644   22452004.5504   22452002.6424
        50.000          44.000
 119850070.96647  93389654.48547  22806717.7324   22806721.1844   22806717.7814
        49.000          42.000
 125615989.24047  97882577.59247  23903934.9564   23903938.8304   23903934.6154
        45.000          39.000
 113542880.85647  88474948.33447  21606510.0004   21606511.5564   21606509.2554
        53.000          47.000
 105009380.26347  81825486.13747  19982621.9944   19982623.8754   19982622.3794
        54.000          49.000
 09  1 14  1  6  0.0000000  0 12G 9G22G 5G 6G18G24G12G14G30G29G31G21
 126455213.41347  98536527.79547  24063629.0014   24063631.7694   24063628.9794
        44.000          38.000
 123479222.01247  96217581.26147  23497309.8364   23497310.6114   23497310.0914
        47.000          40.000
 123456887.06747  96200153.71947  23493078.5664   23493082.6414   23493079.1284
        45.000          40.000
 125848041.79347  98063383.31747  23948105.8434   23948110.5454   23948106.0984
        43.000          38.000
 120270414.09847  93717190.44747  22886709.4784   22886711.3254   22886709.5344
        48.000          41.000
 119706754.15347  93277976.18547  22779449.3404   22779453.7224   22779449.2894
        49.000          42.000
 128692028.80147 100279480.74747  24489295.8244   24489301.4404   24489295.4314
        43.000          38.000
 118023795.26747  91966588.23247  22459185.5024   22459187.8184   22459185.6514
        50.000          44.000
 119824012.14647  93369348.93347  22801759.0694   22801762.4424   22801758.5674
        49.000          43.000
 125683333.83247  97935053.88047  23916750.2984   23916754.0334   23916749.7224
        44.000          39.000
 113464691.10647  88414021.30447  21591631.0304   21591632.3994   21591630.6444
        53.000          47.000
 105025141.06447  81837767.29147  19985621.2024   19985622.9934   19985621.5694
        54.000          49.000
 09  1 14  1  6 30.0000000  0 12G 9G22G 5G 6G18G24G12G14G30G29G31G21
 126559291.20247  98617627.40047  24083434.0344   24083437.2554   24083434.5364
        43.000          38.000
 123434295.50847  96182573.61047  23488760.7694   23488761.1274   23488760.5794
        47.000          41.000
 123455280.18147  96198901.66047  23492773.1484   23492777.2334   23492773.3734
        45.000          40.000
 125827728.97847  98047555.18647  23944240.2454   23944245.0424   23944240.4854
        42.000          37.000
 120233147.34647  93688151.42147  22879617.5354   22879619.5574   22879617.8704
        48.000          42.000
 119785973.13247  93339705.25147  22794524.2664   22794528.6214   22794524.5374
        49.000          42.000
 128704230.61747 100288988.74047  24491618.1794   24491623.0574   24491617.7644
        43.000          38.000
 118061674.00347  91996104.16247  22466393.5254   22466396.0074   22466393.6954
        49.000          43.000
 119798033.22247  93349105.66247  22796815.4624   22796818.8644   22796815.3544
        49.000          42.000
 125750508.19147  97987397.50447  23929533.2874   23929536.9484   23929533.2324
        45.000          39.000
 113386884.60847  88353392.92547  21576824.9384   21576826.4574   21576824.8104
        53.000          47.000
 105041516.28347  81850527.21447  19988737.4244   19988738.9624   19988737.8224
        54.000          49.000
 09  1 14  1  7  0.0000000  0 12G 9G22G 5G 6G18G24G12G14G30G29G31G21
 126663570.68147  98698884.17947  24103277.8594   24103280.9854   24103277.8214
        44.000          38.000
 123389185.70047  96147423.12947  23480177.0134   23480177.3134   23480177.0344
        47.000          41.000
 123453903.89647  96197829.29747  23492510.3444   23492515.4814   23492510.8814
        45.000          40.000
 125807659.04247  98031916.31347  23940421.1434   23940425.5984   23940421.7164
        42.000          37.000
 120195841.68847  93659082.08747  22872518.5874   22872520.3074   22872518.9264
        49.000          42.000
 119865517.23947  93401687.67347  22809660.8974   22809665.9974   22809661.1744
        49.000          42.000
 128716638.05047 100298656.93247  24493979.2394   24493984.6744   24493978.4104
        43.000          38.000
 118099683.43047  92025721.92747  22473626.7184   22473628.7424   22473626.8004
        50.000          44.000
 119772139.52447  93328928.78347  22791887.5604   22791891.1174   22791887.3494
        49.000          42.000
 125817513.78947  98039609.64547  23942284.1254   23942287.2294   23942284.0144
        44.000          39.000
 113309466.60647  88293067.24747  21562092.6324   21562094.3414   21562092.1484
        53.000          47.000
 105058508.20247  81863767.68047  19991970.9024   19991972.4964   19991971.2264
        54.000          49.000
 09  1 14  1  7 30.0000000  0 12G 9G22G 5G 6G18G24G12G14G30G29G31G21
 126768049.07247  98780295.93847  24123159.5654   24123162.8214   24123159.3604
        44.000          38.000
 123343893.72747  96112130.68147  23471558.1594   23471558.2204   23471558.4764
        47.000          41.000
 123452760.18747  96196938.13847  23492293.0324   23492297.3134   23492293.0554
        46.000          40.000
 125787830.57147  98016465.60547  23936648.1504   23936652.4844   23936648.1054
        42.000          38.000
 120158499.13647  93629984.00647  22865412.4124   22865414.6164   22865413.0704
        48.000          41.000
 119945384.20947  93463921.67747  22824858.8264   22824863.8824   22824859.0434
        49.000          42.000
 128729252.85947 100308486.74047  24496380.1004   24496384.9554   24496379.8874
        43.000          38.000
 118137821.17247  92055439.65947  22480884.0574   22480886.2634   22480884.1334
        49.000          43.000
 119746333.06447  93308819.87947  22786977.4054   22786980.6104   22786977.1954
        49.000          43.000
 125884349.52447  98091689.42747  23955002.9044   23955006.2214   23955002.3004
        44.000          39.000
 113232439.48547  88233046.15547  21547434.6144   21547436.6474   21547434.2054
        52.000          47.000
 105076116.25247  81877488.25647  19995321.6034   19995323.2204   19995322.0814
        54.000          49.000
 09  1 14  1  8  0.0000000  0 12G 9G22G 5G 6G18G24G12G14G30G29G31G21
 126872724.65647  98861861.37347  24143078.5194   24143081.4744   24143078.3934
        44.000          38.000
 123298421.22847  96076697.58347  23462904.9784   23462905.4764   23462904.9264
        47.000          41.000
 123451851.97647  96196230.49347  23492120.1704   23492124.4304   23492120.4664
        45.000          40.000
 125768243.39847  98001202.91647  23932920.6964   23932925.1584   23932920.7704
        43.000          38.000
 120121122.98347  93600859.73147  22858300.0234   22858301.8824   22858300.4934
        49.000          41.000
 120025573.08347  93526406.51447  22840118.3684   22840123.3844   22840118.4614
        48.000          42.000
 128742077.51847 100318480.05247  24498820.2554   24498825.1084   24498819.9424
        43.000          38.000
 118176085.44147  92085256.01247  22488165.3404   22488167.1494   22488165.4664
        49.000          43.000
 119720617.19847  93288781.57947  22782083.4144   22782087.0784   22782083.3154
        49.000          43.000
 125951014.64347  98143636.27347  23967688.9444   23967692.0494   23967688.6464
        44.000          39.000
 113155807.19647  88173332.70947  21532852.1104   21532853.8924   21532851.3824
        53.000          47.000
 105094341.35647  81891689.64947  19998789.5654   19998791.3944   19998789.8524
        54.000          49.000
 09  1 14  1  8 30.0000000  0 12G 9G22G 5G 6G18G24G12G14G30G29G31G21
 126977589.30847  98943574.13147  24163033.6244   24163036.4264   24163033.7694
        44.000          38.000
 123252764.73047  96041121.09947  23454216.7284   23454217.2084   23454216.4564
        47.000          41.000
 123451176.24247  96195703.99947  23491991.6684   23491995.8764   23491992.1784
        45.000          40.000
 125748891.25447  97986123.35147  23929238.0424   23929242.3724   23929238.4664
        42.000          38.000
 120083710.14647  93571706.87647  22851180.4474   22851182.6094   22851180.8134
        48.000          42.000
 120106076.89347  93589136.75147  22855437.4194   22855442.7924   22855437.5734
        48.000          42.000
 128755108.79347 100328634.38047  24501300.3404   24501304.8984   24501299.8764
        44.000          38.000
 118214468.82347  92115165.16347  22495469.2374   22495471.5664   22495469.5564
        49.000          43.000
 119694989.37847  93268811.86847  22777206.6804   22777210.2874   22777206.1014
        49.000          42.000
 126017503.26647  98195445.56347  23980341.3794   23980344.5694   23980340.9334
        44.000          39.000
 113079567.16447  88113924.92347  21518344.2034   21518345.8624   21518344.2834
        53.000          47.000
 105113177.62847  81906367.27347  20002373.9874   20002375.8124   20002374.3974
        54.000          49.000
 09  1 14  1  9  0.0000000  0 12G 9G22G 5G 6G18G24G12G14G30G29G31G21
 127082647.74647  99025437.89447  24183025.4054   24183028.3724   24183025.6574
        43.000          37.000
 123206932.77847  96005407.91247  23445495.2074   23445495.5574   23445495.2324
        47.000          41.000
 123450742.50447  96195366.07447  23491909.2004   23491913.3674   23491909.8304
        45.000          40.000
 125729780.35947  97971231.78747  23925601.0264   23925606.4674   23925600.9614
        43.000          38.000
 120046270.58047  93542533.19947  22844055.9064   22844058.1774   22844056.3444
        48.000          42.000
 120186900.89747  93652116.49447  22870817.6944   22870822.8734   22870817.9194
        48.000          41.000
 128768355.97147 100338956.92247  24503821.6384   24503825.9824   24503821.1694
        44.000          38.000
 118252976.05147  92145170.82447  22502796.8934   22502799.4244   22502796.9514
        49.000          43.000
 119669459.15747  93248918.22647  22772348.7264   22772351.5534   22772348.7024
        49.000          42.000
 126083821.47947  98247122.05547  23992960.9804   23992964.5994   23992960.1024
        44.000          39.000
 113003729.81047  88054830.90547  21503912.7154   21503914.3124   21503912.0834
        53.000          47.000
 105132632.33847  81921526.79447  20006076.0474   20006077.8644   20006076.4194
        54.000          49.000
 09  1 14  1  9 30.0000000  0 12G 9G22G 5G 6G18G24G12G14G30G29G31G21
 127187890.26047  99107445.09147  24203052.5824   24203055.2104   24203052.4454
        42.000          37.000
 123160919.62747  95969553.50547  23436739.3204   23436739.6094   23436739.3274
        47.000          41.000
 123450545.74047  96195212.81147  23491871.2424   23491876.1684   23491871.7374
        46.000          40.000
 125710902.48547  97956521.77347  23922009.6094   23922013.3974   23922009.3264
        43.000          38.000
 120008799.25247  93513334.77247  22836925.3474   22836927.9884   22836925.5804
        49.000          42.000
 120268035.83547  93715338.51747  22886257.1144   22886262.2334   22886257.2124
        48.000          41.000
 128781813.46547 100349443.35647  24506382.1624   24506386.0574   24506381.7644
        43.000          38.000
 118291597.67947  92175265.62347  22510146.2594   22510148.3384   22510146.3514
        49.000          43.000
 119644022.02847  93229097.11347  22767507.9514   22767511.2634   22767507.6024
        49.000          43.000
 126149961.59547  98298659.79747  24005547.3114   24005550.9154   24005546.7484
        44.000          39.000
 112928290.52947  87996047.09447  21489557.2924   21489558.6164   21489557.0094
        53.000          47.000
 105152698.12147  81937162.47947  20009894.4114   20009896.2324   20009894.7564
        54.000          49.000
 09  1 14  1 10  0.0000000  0 12G 9G22G 5G 6G18G24G12G14G30G29G31G21
 127293316.84547  99189595.69547  24223114.1514   24223117.1954   24223114.3764
        42.000          37.000
 123114729.20247  95933560.98247  23427949.2904   23427950.0844   23427949.0914
        47.000          41.000
 123450590.78847  96195247.98647  23491879.9194   23491884.2734   23491880.4204
        44.000          39.000
 125692259.33147  97941994.68947  23918461.0184   23918465.8284   23918461.0624
        43.000          38.000
 119971301.01147  93484115.36447  22829789.9624   22829792.2714   22829790.4524
        49.000          42.000
 120349482.55747  93778803.48547  22901756.1814   22901760.9774   22901756.2474
        47.000          41.000
 128795486.02247 100360097.39247  24508983.4824   24508988.2574   24508982.9194
        43.000          38.000
 118330334.13647  92205449.90547  22517517.5774   22517519.4104   22517517.6194
        49.000          43.000
 119618683.67747  93209352.97447  22762686.4834   22762689.1744   22762686.4074
        49.000          43.000
 126215924.53647  98350059.46947  24018099.4174   24018103.2044   24018099.1424
        44.000          39.000
 112853255.21647  87937578.06447  21475278.3634   21475279.6844   21475277.9744
        53.000          47.000
 105173377.26947  81953276.10847  20013829.5004   20013831.4254   20013829.8704
        54.000          49.000
 09  1 14  1 10 30.0000000  0 12G 9G22G 5G 6G18G24G12G14G30G29G31G21
 127398923.25347  99271886.42347  24243210.4824   24243213.6154   24243210.9764
        40.000          36.000
 123068361.05647  95897429.97047  23419125.8204   23419126.1564   23419125.8044
        48.000          41.000
 123450877.94947  96195471.79447  23491934.1044   23491938.5334   23491934.5684
        44.000          39.000
 125673847.92747  97927648.18047  23914957.7244   23914961.8264   23914957.9844
        43.000          37.000
 119933776.47947  93454875.47347  22822649.3734   22822651.0684   22822649.9674
        50.000          42.000
 120431237.09147  93842508.30647  22917313.6854   22917318.3024   22917313.5524
        47.000          41.000
 128809373.30047 100370918.73147  24511625.8964   24511630.7434   24511625.5844
        43.000          38.000
 118369181.45547  92235720.56747  22524909.8504   22524912.1844   22524910.1724
        49.000          43.000
 119593444.58847  93189686.19947  22757883.6894   22757886.3104   22757883.2024
        49.000          43.000
 126281707.84347  98401319.17247  24030617.4384   24030620.8544   24030617.4794
        44.000          39.000
 112778624.71147  87879424.46047  21461076.6234   21461078.0484   21461076.0314
        53.000          47.000
 105194667.55047  81969865.95247  20017880.9814   20017882.8224   20017881.4994
        54.000          49.000
 09  1 14  1 11  0.0000000  0 12G 9G22G 5G 6G18G24G12G14G30G29G31G21
 127504708.53247  99354316.53247  24263340.3154   24263343.5404   24263340.7884
        41.000          36.000
 123021818.30947  95861162.88947  23410269.4074   23410269.6134   23410269.3444
        47.000          41.000
 123451411.16247  96195887.34747  23492035.6944   23492040.8714   23492036.0324
        45.000          39.000
 125655668.97347  97913482.79747  23911497.9474   23911502.5304   23911498.4684
        43.000          37.000
 119896229.77247  93425618.30147  22815504.4554   22815505.9854   22815504.9464
        50.000          42.000
 120513299.44447  93906452.99147  22932929.5004   22932934.1854   22932929.3504
        47.000          41.000
 128823479.17247 100381910.41347  24514310.1704   24514314.4664   24514309.9964
        43.000          38.000
 118408138.99547  92266077.10047  22532323.2424   22532325.5014   22532323.4314
        49.000          43.000
 119568309.11047  93170100.14747  22753100.4204   22753103.3924   22753100.1134
        50.000          43.000
 126347312.40347  98452439.58047  24043101.8724   24043105.0084   24043101.6714
        44.000          39.000
 112704403.57447  87821589.84447  21446952.6834   21446954.1034   21446952.5044
        53.000          47.000
 105216570.39247  81986933.10947  20022048.8124   20022050.7934   20022049.2044
        54.000          49.000
 09  1 14  1 11 30.0000000  0 12G 9G22G 5G 6G18G24G12G14G30G29G31G21
 127610668.76747  99436882.96447  24283504.2734   24283507.2514   24283504.4984
        40.000          35.000
 122975101.24647  95824759.99547  23401378.8604   23401379.7224   23401378.6814
        47.000          41.000
 123452191.31147  96196495.30847  23492184.4184   23492188.6084   23492184.7964
        45.000          39.000
 125637719.95247  97899496.58447  23908082.8924   23908086.8054   23908082.9814
        43.000          37.000
 119858662.19947  93396344.86747  22808355.7854   22808357.0844   22808356.0164
        49.000          42.000
 120595666.26847  93970634.90847  22948603.1414   22948608.0554   22948603.2034
        47.000          41.000
 128837803.87447 100393072.62247  24517035.2524   24517040.4874   24517034.4124
        42.000          38.000
 118447202.72047  92296516.39447  22539756.8224   22539758.9734   22539756.8914
        49.000          43.000
 119543278.33547  93150595.70047  22748337.5594   22748340.1734   22748337.0754
        49.000          43.000
 126412735.93347  98503418.94147  24055551.3444   24055554.6804   24055551.1944
        44.000          39.000
 112630593.43047  87764075.48647  21432907.0484   21432908.5434   21432906.6564
        53.000          47.000
 105239084.36547  82004476.47447  20026333.1124   20026335.2044   20026333.4844
        54.000          49.000
 09  1 14  1 12  0.0000000  0 12G 9G22G 5G 6G18G24G12G14G30G29G31G21
 127716802.02447  99519584.20147  24303700.2534   24303703.2614   24303700.4694
        38.000          35.000
 122928211.93647  95788222.88147  23392456.1644   23392456.5604   23392456.0714
        47.000          42.000
 123453221.40447  96197298.05147  23492380.1334   23492384.7384   23492380.7754
        45.000          39.000
 125620000.78747  97885689.48547  23904710.9824   23904715.1074   23904711.0404
        43.000          37.000
 119821076.90547  93367057.62747  22801203.3684   22801204.6754   22801203.7164
        50.000          42.000
 120678336.57647  94035053.32647  22964334.8994   22964339.5404   22964334.9854
        47.000          41.000
 128852350.38647 100404407.66547  24519804.5364   24519808.5394   24519804.2734
        43.000          38.000
 118486371.75847  92327037.75147  22547210.1494   22547212.6024   22547210.2454
        49.000          43.000
 119518355.81947  93131175.60147  22743594.0884   22743597.7234   22743593.6084
        49.000          43.000
 126477978.54647  98554257.31547  24067966.7804   24067970.4154   24067966.6394
        45.000          39.000
 112557198.01847  87706884.30047  21418940.3434   21418941.9794   21418939.8404
        53.000          47.000
 105262209.79947  82022496.30247  20030733.7654   20030735.8624   20030734.1634
        54.000          49.000
 09  1 14  1 12 30.0000000  0 12G 9G22G 5G 6G18G24G12G14G30G29G31G21
 127823104.86747  99602417.58447  24323929.2304   24323933.3424   24323929.2154
        40.000          35.000
 122881150.75547  95751551.85047  23383501.0734   23383501.2934   23383501.1454
        48.000          42.000
 123454502.41947  96198296.29147  23492623.9094   23492628.6964   23492624.5284
        45.000          39.000
 125602509.21247  97872059.71847  23901382.3494   23901386.4684   23901382.5724
        43.000          38.000
 119783475.85447  93337758.12047  22794047.9674   22794049.6484   22794048.4804
        49.000          42.000
 120761307.31647  94099705.84847  22980123.5794   22980128.4744   22980123.7504
        47.000          41.000
 128867119.43847 100415916.14247  24522614.1564   24522618.7064   24522614.1754
        42.000          37.000
 118525642.50747  92357638.35047  22554683.3434   22554685.8084   22554683.7694
        49.000          43.000
 119493543.50847  93111841.39147  22738872.5484   22738875.8904   22738872.3704
        49.000          43.000
 126543038.10147  98604953.05247  24080347.2514   24080351.1514   24080347.1694
        45.000          39.000
 112484218.88347  87650017.47847  21405052.9944   21405054.5004   21405052.6334
        53.000          47.000
 105285945.14747  82040991.38847  20035250.5214   20035252.4204   20035250.9094
        54.000          49.000
 09  1 14  1 13  0.0000000  0 12G 9G22G 5G 6G18G24G12G14G30G29G31G21
 127929573.02947  99685379.78647  24344188.7644   24344192.3724   24344190.0864
        40.000          35.000
 122833917.54247  95714746.76447  23374513.0094   23374513.1074   23374513.1154
        48.000          42.000
 123456034.83847  96199490.45247  23492915.2594   23492919.5354   23492915.9944
        45.000          39.000
 125585242.40347  97858605.10347  23898096.8424   23898100.2624   23898096.7534
        42.000          37.000
 119745858.78347  93308446.13047  22786889.5414   22786891.5534   22786889.8254
        49.000          42.000
 120844574.80747  94164589.60747  22995968.8794   22995973.6034   22995968.9754
        47.000          41.000
 128882111.01547 100427597.98747  24525467.1844   24525471.7244   24525466.9684
        43.000          37.000
 118565010.86547  92388315.00847  22562175.3014   22562177.1264   22562175.5334
        49.000          43.000
 119468841.94947  93092593.44547  22734172.0044   22734175.4894   22734171.5304
        49.000          43.000
 126607912.20447  98655504.29447  24092692.1994   24092696.1294   24092692.1014
        45.000          39.000
 112411657.22647  87593475.95147  21391244.8234   21391246.2544   21391244.2664
        53.000          47.000
 105310288.39347  82059960.16347  20039882.9224   20039884.7104   20039883.2884
        54.000          49.000
 09  1 14  1 13 30.0000000  0 12G 9G22G 5G 6G18G24G12G14G30G29G31G21
 128036207.72347  99768471.77947  24364481.7164   24364484.8774   24364482.0654
        39.000          35.000
 122786517.58147  95677811.74647  23365493.2374   23365493.3194   23365493.1884
        48.000          42.000
 123457824.48947  96200885.04647  23493256.3654   23493260.1744   23493256.7384
        46.000          39.000
 125568202.96347  97845327.67147  23894854.0824   23894858.3914   23894854.5394
        43.000          38.000
 119708232.13047  93279126.65347  22779729.4224   22779731.7484   22779729.8684
        49.000          42.000
 120928140.68247  94229705.85447  23011870.8744   23011875.9234   23011870.7834
        47.000          41.000
 128897330.52747 100439457.45747  24528363.1714   24528367.4914   24528363.2914
        43.000          37.000
 118604478.42347  92419068.97047  22569685.5144   22569687.7504   22569685.5954
        49.000          43.000
 119444257.54847  93073436.81247  22729493.8024   22729497.1724   22729493.5414
        49.000          43.000
 126672603.64347  98705913.21047  24105003.0684   24105006.4904   24105003.1534
        44.000          39.000
 112339520.09147  87537265.23947  21377517.4544   21377519.1174   21377516.9914
        53.000          47.000
 105335242.79047  82079405.15847  20044631.5004   20044633.3614   20044631.8774
        54.000          49.000
 09  1 14  1 14  0.0000000  0 12G 9G22G 5G 6G18G24G12G14G30G29G31G21
 128143001.13147  99851687.41047  24384804.0114   24384806.9564   24384803.7744
        40.000          35.000
 122738947.20947  95640743.92947  23356440.7674   23356440.7744   23356440.9924
        48.000          42.000
 123459868.44147  96202477.78847  23493645.3114   23493649.0694   23493646.0274
        45.000          39.000
 125551384.68247  97832222.56947  23891653.1884   23891657.9494   23891653.7494
        43.000          38.000
 119670593.24447  93249797.65247  22772567.0194   22772569.2754   22772567.4324
        48.000          42.000
 121011997.98247  94295049.20247  23027828.6754   23027833.4614   23027828.3534
        47.000          41.000
 128912774.73447 100451491.99447  24531302.1334   24531306.1544   24531301.9474
        43.000          37.000
 118644038.00547  92449894.65547  22577212.9404   22577215.7604   22577213.1304
        48.000          43.000
 119419787.67747  93054369.42247  22724837.2604   22724840.6794   22724837.0734
        49.000          43.000
 126737106.22247  98756174.93447  24117277.0704   24117281.2794   24117276.8624
        44.000          39.000
 112267804.36247  87481382.89447  21363870.5144   21363872.0254   21363870.2254
        53.000          47.000
 105360802.46847  82099321.79647  20049495.4534   20049497.1374   20049495.8634
        54.000          49.000
 09  1 14  1 14 30.0000000  0 12G 9G22G 5G 6G18G24G12G14G30G29G31G21
 128249954.10847  99935027.40247  24405156.6144   24405159.2204   24405155.9864
        41.000          35.000
 122691211.57147  95603547.34947  23347356.7504   23347357.0384   23347356.7604
        48.000          42.000
 123462172.37247  96204273.11947  23494083.1184   23494087.5004   23494083.9044
        45.000          39.000
 125534790.08147  97819291.75247  23888495.5684   23888499.6254   23888495.7554
        43.000          38.000
 119632948.54247  93220464.11947  22765403.3264   22765405.5204   22765403.8794
        48.000          42.000
 121096148.27147  94360620.84147  23043841.8664   23043847.0134   23043841.8754
        47.000          41.000
 128928449.48247 100463706.19147  24534285.3834   24534289.6434   24534285.4344
        43.000          37.000
 118683690.32547  92480792.59247  22584758.9904   22584761.1424   22584759.3174
        49.000          43.000
 119395438.86647  93035396.34047  22720203.7434   22720207.1104   22720203.4114
        49.000          43.000
 126801422.98147  98806291.86847  24129516.1264   24129519.9794   24129515.9914
        44.000          39.000
 112196516.30547  87425833.79647  21350304.8054   21350306.2354   21350304.6204
        53.000          48.000
 105386970.56347  82119712.52647  20054475.0544   20054476.6514   20054475.4334
        54.000          49.000
 09  1 14  1 15  0.0000000  0 12G 9G22G 5G 6G18G24G12G14G30G29G31G21
 128357062.82947 100018488.77647  24425538.7294   24425541.6864   24425538.2304
        40.000          35.000
 122643311.00347  95566222.23847  23338241.6414   23338241.9364   23338241.8364
        48.000          42.000
 123464737.08147  96206271.64947  23494570.8934   23494575.6664   23494571.1444
        45.000          39.000
 125518416.72147  97806533.33447  23885379.5694   23885384.0314   23885380.2454
        43.000          38.000
 119595299.17147  93191126.95347  22758239.0714   22758241.1724   22758239.5584
        49.000          42.000
 121180588.24247  94426418.21147  23059910.7454   23059915.5544   23059910.5824
        48.000          41.000
 128944354.53847 100476099.81747  24537311.7284   24537315.2314   24537311.2414
        43.000          37.000
 118723432.29247  92511760.35947  22592321.7394   22592323.9484   22592321.8864
        49.000          43.000
 119371212.53247  93016518.71047  22715593.9594   22715597.2034   22715593.7064
        50.000          43.000
 126865551.84847  98856262.40547  24141719.7164   24141723.2574   24141719.7574
        44.000          39.000
 112125657.79747  87370619.40047  21336820.8684   21336822.3554   21336820.1814
        53.000          48.000
 105413745.55847  82140576.16947  20059570.1354   20059571.8334   20059570.5414
        54.000          49.000
 09  1 14  1 15 30.0000000  0 12G 9G22G 5G 6G18G24G12G14G30G29G31G21
 128464320.33647 100102066.04947  24445948.6464   24445950.8954   24445948.8904
        40.000          35.000
 122595242.49047  95528766.26747  23329094.3504   23329095.1324   23329094.3804
        48.000          42.000
 123467560.20447  96208471.55147  23495108.3624   23495112.8514   23495109.1984
        46.000          40.000
 125502258.84447  97793942.82847  23882304.9194   23882308.9374   23882304.7814
        43.000          38.000
 119557642.89247  93161784.41947  22751073.3764   22751075.1304   22751073.7454
        49.000          42.000
 121265311.15247  94492436.05247  23076033.0294   23076037.4004   23076033.1054
        48.000          41.000
 128960487.52847 100488671.07147  24540381.3164   24540385.2444   24540381.0174
        44.000          37.000
 118763257.07647  92542792.68747  22599899.9384   22599902.3214   22599900.1214
        48.000          43.000
 119347106.67847  92997734.96247  22711006.7244   22711010.1574   22711006.1814
        50.000          43.000
 126929487.24247  98906082.17447  24153886.3104   24153889.7994   24153886.0904
        45.000          39.000
 112055227.09747  87315738.38147  21323418.3544   21323419.8064   21323418.2844
        53.000          48.000
 105441122.00547  82161908.47047  20064779.7474   20064781.4034   20064780.2014
        54.000          49.000
 09  1 14  1 16  0.0000000  0 12G 9G22G 5G 6G18G24G12G14G30G29G31G21
 128571730.86047 100185762.58547  24466387.8364   24466391.4464   24466388.3934
        40.000          34.000
 122547014.07547  95491185.71147  23319916.7984   23319917.1404   23319916.9434
        48.000          42.000
 123470650.58747  96210879.68247  23495696.7714   23495701.2664   23495697.4704
        46.000          40.000
 125486322.07347  97781524.58147  23879273.0034   23879276.7684   23879272.7804
        44.000          39.000
 119519988.79447  93132443.57047  22743908.2384   22743909.7244   22743908.5324
        49.000          42.000
 121350321.80547  94558678.10847  23092209.9694   23092214.7414   23092210.4354
        47.000          41.000
 128976856.68147 100501426.33447  24543497.0254   24543500.6954   24543496.6784
        43.000          38.000
 118803169.35847  92573893.19547  22607494.7734   22607497.2084   22607494.7784
        48.000          43.000
 119323130.54147  92979052.28547  22706444.0934   22706447.0024   22706443.6674
        50.000          43.000
 126993235.56947  98955756.18347  24166016.8084   24166020.7644   24166016.7804
        44.000          39.000
 111985233.80147  87261198.19747  21310098.8894   21310100.5304   21310098.2054
        53.000          48.000
 105469105.98047  82183714.17247  20070104.6824   20070106.6794   20070105.0824
        54.000          49.000
 09  1 14  1 16 30.0000000  0 12G 9G22G 5G 6G18G24G12G14G30G29G31G21
 128679287.33047 100269572.86247  24486854.9754   24486858.6904   24486855.1814
        39.000          34.000
 122498623.13347  95453478.48647  23310708.1384   23310708.5984   23310708.3534
        47.000          41.000
 123474006.01447  96213494.36647  23496335.2644   23496339.4204   23496336.0144
        46.000          40.000
 125470601.04647  97769274.48947  23876280.5994   23876285.1894   23876280.9064
        44.000          39.000
 119482335.31647  93103103.20647  22736742.6944   22736744.8574   22736743.2254
        49.000          42.000
 121435614.03147  94625139.58147  23108440.3374   23108445.4754   23108440.3774
        47.000          41.000
 128993459.79247 100514363.90347  24546655.9794   24546659.7814   24546655.7234
        42.000          37.000
 118843162.25547  92605056.50847  22615105.1354   22615107.5504   22615105.2364
        48.000          43.000
 119299282.52547  92960469.45247  22701905.8574   22701908.9954   22701905.9124
        50.000          43.000
 127056791.12147  99005279.98647  24178111.0614   24178115.1524   24178110.9504
        44.000          39.000
 111915676.11047  87206997.43947  21296862.5324   21296864.2184   21296862.2254
        53.000          48.000
 105497692.65747  82205989.51447  20075544.5794   20075546.5104   20075544.9764
        54.000          49.000
 09  1 14  1 17  0.0000000  0 12G 9G22G 5G 6G18G24G12G14G30G29G31G21
 138786980.73457  90353487.04557  24507350.2315   24507352.0455   24507349.5295
        39.000          34.000
 122450072.86147  95415647.11547  23301469.3654   23301470.0584   23301469.3064
        48.000          41.000
 123477629.97747  96216318.28247  23497024.4824   23497029.3174   23497025.2414
        46.000          40.000
 125455095.95347  97757192.64047  23873330.1864   23873334.4214   23873330.5064
        43.000          38.000
 119444686.57847  93073766.51947  22729578.2254   22729580.5554   22729578.7494
        49.000          42.000
 121521187.32947  94691820.06047  23124724.3964   23124729.1864   23124724.6924
        47.000          41.000
 129010299.93347 100527486.17247  24549859.9494   24549864.4074   24549860.3174
        43.000          37.000
 118883234.75247  92636281.84647  22622731.1294   22622733.3074   22622731.3844
        49.000          43.000
 119275566.47347  92941989.43947  22697392.6684   22697396.0374   22697392.5024
        49.000          43.000
 127120155.00047  99054654.41347  24190168.5834   24190172.2994   24190168.4754
        44.000          39.000
 111846558.09147  87153139.27647  21283709.6434   21283711.4524   21283709.3864
        53.000          48.000
 105526882.81647  82228735.09847  20081099.4214   20081101.1564   20081099.8614
        54.000          49.000
 09  1 14  1 17 30.0000000  0 11G22G 5G 6G18G24G12G14G30G29G31G21
 122401361.37747  95377690.11447  23292200.0524   23292200.6084   23292200.0624
        48.000          41.000
 123481521.36147  96219350.57547  23497765.6644   23497769.6484   23497766.3534
        46.000          40.000
 125439802.67547  97745275.83847  23870419.9304   23870423.9394   23870419.9584
        44.000          39.000
 119407041.74047  93044432.88047  22722414.6904   22722416.5254   22722415.0874
        49.000          42.000
 121607036.71647  94758715.66847  23141061.0134   23141065.8174   23141061.2234
        47.000          41.000
 129027375.60247 100540791.97047  24553109.4624   24553113.8904   24553109.5424
        42.000          37.000
 118923382.00947  92667565.44547  22630370.5884   22630372.8364   22630370.8404
        48.000          43.000
 119251982.19747  92923612.11147  22692904.9774   22692907.9124   22692904.7704
        50.000          43.000
 127183323.26547  99103876.42047  24202189.1634   24202192.7314   24202188.8094
        44.000          38.000
 111777879.62747  87099623.61647  21270640.6044   21270642.2394   21270640.0504
        53.000          48.000
 105556672.58347  82251947.90647  20086768.3644   20086769.8714   20086768.7254
        55.000          49.000
 09  1 14  1 18  0.0000000  0 11G22G 5G 6G18G24G12G14G30G29G31G21
 122352492.41547  95339610.41247  23282900.7594   23282900.7614   23282900.5944
        48.000          41.000
 123485684.14347  96222594.35847  23498557.2854   23498561.7004   23498557.7284
        46.000          40.000
 125424721.62747  97733524.41247  23867550.3944   23867554.1734   23867550.8324
        44.000          38.000
 119369405.13647  93015105.67047  22715252.6914   22715254.5404   22715253.3764
        49.000          42.000
 121693161.86047  94825826.15647  23157450.0454   23157455.0894   23157450.1804
        47.000          41.000
 129044690.36547 100554284.07747  24556403.9444   24556408.2234   24556403.6044
        42.000          37.000
 118963603.45947  92698906.85347  22638024.3924   22638026.5404   22638024.5514
        48.000          43.000
 119228534.17247  92905340.94647  22688442.9154   22688445.9004   22688442.5164
        50.000          43.000
 127246297.13147  99152946.93947  24214172.8894   24214176.4804   24214172.6184
        44.000          38.000
 111709645.07547  87046453.86947  21257655.8484   21257657.5514   21257655.8364
        53.000          48.000
 105587063.03147  82275628.78247  20092551.4544   20092552.9584   20092551.9414
        55.000          49.000
 09  1 14  1 18 30.0000000  0 11G22G 5G 6G18G24G12G14G30G29G31G21
 122303467.16347  95301408.93647  23273570.9494   23273571.5854   23273570.9474
        48.000          41.000
 123490119.35147  96226050.41347  23499401.2374   23499405.5174   23499401.5724
        46.000          40.000
 125409850.75047  97721936.75447  23864720.5574   23864724.2024   23864720.8934
        44.000          38.000
 119331778.26247  92985786.03247  22708092.7674   22708094.2594   22708093.2844
        49.000          42.000
 121779559.49447  94893148.97147  23173891.0134   23173895.7974   23173890.8744
        47.000          40.000
 129062245.21047 100567963.25547  24559744.4864   24559748.7324   24559744.4274
        42.000          37.000
 119003895.96247  92730303.63247  22645691.8134   22645693.7124   22645692.1104
        48.000          43.000
 119205224.13847  92887177.31247  22684007.2824   22684010.5364   22684007.0474
        50.000          43.000
 127309074.86447  99201864.63947  24226119.1214   24226123.0094   24226118.8764
        44.000          38.000
 111641856.21947  86993631.40447  21244756.0014   21244757.7834   21244755.3274
        53.000          48.000
 105618052.71647  82299776.59547  20098448.4594   20098450.0074   20098448.8164
        54.000          49.000
 09  1 14  1 19  0.0000000  0 11G22G 5G 6G18G24G12G14G30G29G31G21
 122254287.21147  95263086.90147  23264212.3664   23264213.0924   23264212.2774
        48.000          41.000
 123494829.99547  96229721.08047  23500297.7194   23500301.8444   23500298.0634
        46.000          40.000
 125395189.81147  97710512.69247  23861930.7194   23861934.7334   23861930.5934
        44.000          38.000
 119294164.77547  92956476.82747  22700935.3744   22700937.0144   22700935.5794
        49.000          42.000
 121866228.46847  94960683.20647  23190383.3894   23190388.7394   23190383.4734
        47.000          40.000
 129080042.46147 100581831.34447  24563130.7734   24563135.3744   24563130.6574
        41.000          36.000
 119044258.12947  92761754.68747  22653372.5234   22653374.3914   22653372.8174
        48.000          42.000
 119182055.51747  92869123.86647  22679598.3394   22679601.3034   22679598.0684
        50.000          43.000
 127371656.60147  99250629.61147  24238028.2234   24238031.9224   24238028.3554
        44.000          39.000
 111574516.30347  86941158.77647  21231941.8004   21231943.3314   21231941.7114
        53.000          48.000
 105649641.59647  82324391.32447  20104459.5634   20104461.1654   20104459.8984
        54.000          49.000
 09  1 14  1 19 30.0000000  0 11G22G 5G 6G18G24G12G14G30G29G31G21
 122204952.39247  95224644.19247  23254824.5194   23254824.8954   23254824.7024
        48.000          41.000
 123499815.90447  96233606.25447  23501246.5584   23501250.8044   23501246.8344
        46.000          40.000
 125380735.43347  97699249.55747  23859180.0784   23859183.6944   23859180.0844
        43.000          38.000
 119256564.89547  92927178.22447  22693780.1634   22693781.7764   22693780.7274
        50.000          42.000
 121953164.93147  95028425.88847  23206927.0744   23206932.2914   23206926.9134
        47.000          41.000
 129098081.85647 100595888.08247  24566563.8934   24566568.7384   24566563.1304
        42.000          37.000
 119084685.46447  92793256.51847  22661065.6064   22661067.6984   22661065.7624
        48.000          42.000
 119159028.91347  92851181.09947  22675216.3284   22675219.6344   22675215.9124
        49.000          43.000
 127434039.59347  99299239.70947  24249899.3704   24249903.1684   24249899.1884
        44.000          39.000
 111507626.10547  86889036.57147  21219212.9004   21219214.4294   21219212.4554
        53.000          48.000
 105681826.70747  82349470.64047  20110584.0734   20110585.9824   20110584.4814
        54.000          49.000
 09  1 14  1 20  0.0000000  0 11G22G 5G 6G18G24G12G14G30G29G31G21
 122155467.21747  95186084.32647  23245407.5734   23245408.0614   23245407.6854
        48.000          41.000
 123505081.52447  96237709.37747  23502248.2564   23502252.9034   23502248.7934
        46.000          40.000
 125366488.74947  97688148.25847  23856468.7604   23856472.5714   23856468.1934
        43.000          38.000
 119218983.84447  92897894.28847  22686628.8734   22686630.3804   22686629.4404
        50.000          42.000
 122040369.09647  95096377.17847  23223521.4254   23223526.0894   23223521.3074
        46.000          40.000
 129116367.13447 100610136.47847  24570043.4274   24570047.8844   24570043.2784
        42.000          37.000
 119125178.25447  92824809.37047  22668771.0864   22668773.1154   22668771.3374
        48.000          42.000
 119136148.86147  92833352.51747  22670862.5464   22670865.7024   22670862.0784
        50.000          43.000
 127496225.35947  99347696.15247  24261733.5214   24261736.6654   24261733.6844
        44.000          38.000
 111441190.46347  86837268.56647  21206570.6074   21206572.2464   21206570.3114
        53.000          48.000
 105714609.35047  82375015.56447  20116822.3584   20116824.2724   20116822.6874
        54.000          49.000
 09  1 14  1 20 30.0000000  0 11G22G 5G 6G18G24G12G14G30G29G31G21
 122105830.50647  95147406.36747  23235962.1294   23235962.4194   23235962.4394
        48.000          41.000
 123510626.21647  96242029.96547  23503303.1674   23503307.3014   23503303.4664
        46.000          40.000
 125352445.92047  97677205.81847  23853796.8114   23853800.4324   23853796.7834
        44.000          38.000
 119181421.33847  92868624.80347  22679480.8604   22679482.8934   22679481.4074
        49.000          42.000
 122127836.00747  95164533.18947  23240165.9434   23240170.8024   23240166.2844
        46.000          40.000
 129134897.80947 100624576.01747  24573570.4274   24573574.5314   24573569.7574
        43.000          37.000
 119165731.39847  92856409.23847  22676487.8064   22676490.6434   22676488.1564
        48.000          43.000
 119113415.78247  92815638.46347  22666536.1644   22666539.7434   22666535.9084
        49.000          43.000
 127558210.55047  99395996.28147  24273528.3854   24273532.0664   24273528.0944
        43.000          38.000
 111375209.43447  86785854.80947  21194014.8234   21194016.5204   21194014.5004
        53.000          48.000
 105747986.23747  82401023.53447  20123173.8374   20123175.6734   20123174.2444
        54.000          49.000
 09  1 14  1 21  0.0000000  0 11G22G 5G 6G18G24G12G14G30G29G31G21
 122056043.48747  95108611.30347  23226488.2294   23226488.2034   23226488.2704
        48.000          41.000
 123516452.19447  96246569.74147  23504411.6874   23504416.3784   23504412.0704
        45.000          40.000
 125338605.97047  97666421.46747  23851162.7124   23851166.4214   23851163.2304
        44.000          38.000
 119143880.42747  92839372.13647  22672336.6454   22672339.1194   22672337.0144
        49.000          42.000
 122215564.08447  95232892.71447  23256859.8594   23256865.1394   23256859.6054
        46.000          40.000
 129153675.72647 100639208.27347  24577143.1434   24577147.7164   24577143.0634
        43.000          37.000
 119206343.19747  92888054.80547  22684216.3024   22684218.6594   22684216.4764
        48.000          42.000
 119090832.68847  92798041.27947  22662238.5594   22662242.3004   22662238.6304
        49.000          43.000
 127619995.13647  99444140.12847  24285285.3914   24285289.0024   24285285.1284
        44.000          38.000
 111309685.97847  86734797.60947  21181546.1834   21181547.8614   21181545.9584
        54.000          48.000
 105781956.84147  82427494.14347  20129638.2384   20129639.8684   20129638.6774
        54.000          49.000
 09  1 14  1 21 30.0000000  0 11G22G 5G 6G18G24G12G14G30G29G31G21
 122006108.49447  95069700.93547  23216986.0504   23216985.7594   23216986.1214
        48.000          41.000
 123522561.38547  96251330.20247  23505574.6034   23505578.8524   23505575.0154
        45.000          39.000
 125324967.45147  97655794.07547  23848567.7644   23848571.4414   23848567.9334
        44.000          38.000
 119106363.37047  92810138.05247  22665197.7384   22665199.7424   22665198.2724
        50.000          42.000
 122303551.11747  95301454.02247  23273602.9624   23273608.2434   23273603.1354
        46.000          40.000
 129172702.17347 100654034.17847  24580763.4244   24580767.4144   24580763.2404
        43.000          37.000
 119247011.29147  92919744.24847  22691954.6664   22691957.2754   22691955.1874
        48.000          42.000
 119068401.99747  92780562.85047  22657970.0814   22657973.6034   22657969.6844
        49.000          43.000
 127681578.10847  99492126.85447  24297004.3844   24297007.7984   24297003.9864
        43.000          38.000
 111244622.47047  86684098.80547  21169165.2654   21169166.5304   21169164.7204
        54.000          48.000
 105816519.96247  82454426.44447  20136215.4234   20136217.1374   20136215.8214
        54.000          49.000
 09  1 14  1 22  0.0000000  0 11G22G 5G 6G18G24G12G14G30G29G31G21
 121956028.15047  95030677.30247  23207455.8054   23207455.9614   23207456.0494
        48.000          41.000
 123528956.73947  96256313.64047  23506791.4914   23506795.4344   23506791.8394
        45.000          39.000
 125311530.27347  97645323.57147  23846010.8164   23846014.0914   23846010.4874
        43.000          38.000
 119068873.78447  92780925.38347  22658063.8314   22658065.9044   22658064.3874
        50.000          42.000
 122391795.93347  95370216.18747  23290395.5634   23290400.8104   23290395.6144
        45.000          40.000
 129191979.57147 100669055.63347  24584431.8394   24584435.9794   24584432.0564
        43.000          37.000
 119287734.58747  92951476.69847  22699704.1964   22699706.7704   22699704.5074
        48.000          43.000
 119046127.29647  92763205.96047  22653731.9504   22653734.9644   22653731.5024
        50.000          43.000
 127742959.98947  99539956.87747  24308685.3014   24308688.3344   24308684.6564
        43.000          38.000
 111180022.33247  86633761.07247  21156872.2174   21156873.4834   21156872.0554
        54.000          48.000
 105851675.79447  82481820.59847  20142905.4874   20142907.1284   20142905.8524
        55.000          49.000
 09  1 14  1 22 30.0000000  0 11G22G 5G 6G18G24G12G14G30G29G31G21
 121905800.73247  94991539.06147  23197897.2334   23197898.0044   23197897.6454
        47.000          41.000
 123535637.27547  96261519.31147  23508062.5824   23508066.6034   23508063.1764
        46.000          39.000
 125298290.17547  97635006.63247  23843490.9854   23843494.3104   23843491.0344
        44.000          38.000
 119031411.28347  92751733.82047  22650934.8824   22650936.7424   22650935.3054
        49.000          42.000
 122480293.67047  95439175.43747  23307235.9874   23307241.4124   23307235.8444
        45.000          40.000
 129211507.11947 100684272.00347  24588147.9984   24588152.0234   24588148.3284
        43.000          37.000
 119328507.93147  92983248.14447  22707463.4454   22707465.8234   22707463.5654
        48.000          43.000
 119024008.44847  92745970.52547  22649522.7694   22649525.4914   22649522.3544
        50.000          43.000
 127804136.93447  99587627.21447  24320326.5414   24320330.3224   24320326.3464
        43.000          38.000
 111115885.23447  86583784.14247  21144667.2734   21144668.6174   21144666.7344
        54.000          48.000
 105887420.19947  82509673.39247  20149707.3344   20149708.9924   20149707.7684
        54.000          49.000
 09  1 14  1 23  0.0000000  0 11G22G 5G 6G18G24G12G14G30G29G31G21
 121855429.49147  94952288.75547  23188312.2114   23188312.5494   23188312.1004
        48.000          41.000
 123542606.21647  96266949.68847  23509388.8044   23509392.3754   23509389.3274
        45.000          39.000
 125285247.13247  97624843.24047  23841009.0684   23841012.1614   23841008.9484
        43.000          38.000
 118993979.84247  92722566.46747  22643811.8474   22643813.7574   22643812.5084
        49.000          42.000
 122569043.44947  95508331.09447  23324124.6464   23324129.3774   23324124.5064
        45.000          39.000
 129231287.56947 100699685.42247  24591911.8624   24591915.5364   24591912.0474
        43.000          37.000
 119369330.49347  93015057.95047  22715231.6504   22715234.0974   22715231.6184
        48.000          42.000
 119002049.24547  92728859.48347  22645344.1274   22645347.3564   22645343.6224
        50.000          43.000
 127865109.87047  99635138.59647  24331929.1064   24331933.4364   24331929.1094
        44.000          38.000
 111052215.09347  86534171.08347  21132551.3534   21132552.5714   21132551.0864
        54.000          48.000
 105923753.63347  82537985.16747  20156621.1054   20156623.1044   20156621.4724
        54.000          49.000
 09  1 14  1 23 30.0000000  0 11G22G 5G 6G18G24G12G14G30G29G31G21
 121804916.11347  94912927.69347  23178700.3224   23178700.1204   23178700.5544
        48.000          41.000
 123549865.16847  96272606.05547  23510770.3074   23510774.0714   23510770.8134
        45.000          39.000
 125272399.56547  97614832.19247  23838564.4934   23838568.3174   23838564.5814
        44.000          38.000
 118956581.86947  92693425.19347  22636695.1904   22636697.1584   22636695.5894
        49.000          42.000
 122658042.71447  95577681.15247  23341060.4234   23341065.6964   23341060.4714
        45.000          39.000
 129251322.04747 100715296.80347  24595724.3684   24595727.8684   24595724.2804
        42.000          37.000
 119410199.59347  93046904.02247  22723008.5484   22723010.7164   22723008.4344
        48.000          42.000
 118980251.69747  92711874.41147  22641196.1204   22641199.1454   22641195.8064
        50.000          43.000
 127925877.84747  99682490.27147  24343493.4654   24343496.9924   24343493.0634
        43.000          38.000
 110989013.82047  86484923.37547  21120524.5054   21120525.6744   21120523.8834
        54.000          48.000
 105960674.50947  82566754.68847  20163647.0384   20163648.9264   20163647.4524
        54.000          49.000
 09  1 14  1 24  0.0000000  0 11G22G 5G 6G18G24G12G14G30G29G31G21
 121754262.71447  94873457.52847  23169061.2684   23169061.3744   23169061.3854
        48.000          41.000
 123557416.62247  96278490.33547  23512207.1894   23512211.1334   23512207.3914
        45.000          39.000
 125259746.85947  97604972.96247  23836156.5074   23836160.1114   23836156.4464
        43.000          38.000
 118919220.20847  92664312.21947  22629585.6064   22629587.5164   22629586.0604
        49.000          42.000
 122747289.92147  95647224.40747  23358043.6154   23358048.9944   23358043.6114
        46.000          40.000
 129271612.44047 100731107.59347  24599585.1684   24599589.3004   24599584.9564
        43.000          37.000
 119451113.53647  93078785.02547  22730794.2104   22730796.3504   22730794.3264
        48.000          42.000
 118958619.22247  92695017.96647  22637079.5604   22637082.6164   22637079.1284
        50.000          43.000
 127986440.64347  99729682.05947  24355017.7374   24355021.6654   24355018.0854
        44.000          38.000
 110926284.66947  86436043.54747  21108587.4954   21108588.6704   21108587.1694
        54.000          48.000
 105998182.43247  82595981.64747  20170784.7174   20170786.3134   20170785.1214
        55.000          49.000
 09  1 14  1 24 30.0000000  0 11G22G 5G 6G18G24G12G14G30G29G31G21
 121703467.64447  94833876.97147  23159395.1024   23159395.2644   23159394.9204
        47.000          40.000
 123565259.25547  96284601.53547  23513699.5404   23513703.5234   23513699.9914
        46.000          39.000
 125247284.35047  97595261.93847  23833785.1764   23833788.7714   23833785.0824
        44.000          38.000
 118881894.47547  92635227.24047  22622482.5674   22622484.3704   22622482.8254
        49.000          42.000
 122836779.73447  95716956.71247  23375073.3724   23375078.1374   23375073.2944
        46.000          40.000
 129292157.42147 100747116.75647  24603495.0664   24603498.6784   24603494.7104
        42.000          37.000
 119492066.53347  93110696.45747  22738587.4914   22738589.7004   22738587.7264
        48.000          42.000
 118937151.29747  92678289.75647  22632994.4694   22632997.2064   22632994.2394
        50.000          43.000
 128046794.64347  99776711.16547  24366502.4984   24366505.8354   24366502.7084
        44.000          37.000
 110864026.74847  86387530.90447  21096739.8974   21096741.4474   21096739.5854
        54.000          48.000
 106036273.11747  82625662.71047  20178033.1674   20178034.8024   20178033.6144
        54.000          49.000
 09  1 14  1 25  0.0000000  0 11G22G 5G 6G18G24G12G14G30G29G31G21
 121652536.91747  94794190.70147  23149703.2484   23149703.3484   23149703.2754
        47.000          41.000
 123573399.14747  96290944.36847  23515248.0554   23515252.2414   23515248.5394
        45.000          39.000
 125235015.08547  97585701.50747  23831449.9934   23831453.9194   23831449.9284
        44.000          38.000
 118844611.45147  92606175.54247  22615387.8914   22615389.8164   22615388.5844
        50.000          42.000
 122926514.34847  95786879.78447  23392149.3114   23392154.1154   23392149.6074
        46.000          40.000
 129312962.90347 100763328.94047  24607454.1664   24607457.8464   24607454.1514
        42.000          37.000
 119533061.32447  93142640.46347  22746388.5604   22746390.6174   22746388.7444
        48.000          42.000
 118915854.55047  92661694.91647  22628941.5024   22628944.6264   22628940.9314
        50.000          43.000
 128106943.46347  99823580.39547  24377948.6864   24377951.4954   24377948.7514
        42.000          37.000
 110802246.90947  86339390.79547  21084983.7244   21084985.2524   21084983.3884
        54.000          48.000
 106074949.59947  82655800.23547  20185393.0224   20185394.6804   20185393.5474
        55.000          49.000
 09  1 14  1 25 30.0000000  0 11G22G 5G 6G18G24G12G14G30G29G31G21
 121601469.43047  94754397.86747  23139985.2634   23139985.5154   23139985.0254
        47.000          41.000
 123581835.06747  96297517.87847  23516853.6344   23516857.4684   23516854.1324
        45.000          39.000
 125222934.46647  97576288.06547  23829151.2594   23829155.0994   23829151.4094
        44.000          38.000
 118807370.64647  92577156.72347  22608301.4274   22608302.9734   22608302.0224
        50.000          42.000
 123016488.53547  95856989.51647  23409270.8364   23409275.7644   23409271.4024
        45.000          40.000
 129334027.02747 100779742.66047  24611462.2794   24611465.9234   24611462.6334
        41.000          37.000
 119574092.57447  93174612.88247  22754196.3444   22754198.5004   22754196.5354
        47.000          42.000
 118894728.90347  92645233.39647  22624920.9864   22624924.2704   22624921.0634
        49.000          43.000
 128166883.44347  99870286.89247  24389354.9754   24389358.1984   24389354.8084
        44.000          37.000
 110740944.38247  86291622.62447  21073317.9844   21073319.5714   21073317.5884
        54.000          48.000
 106114207.40047  82686390.74247  20192863.5234   20192865.1544   20192863.8094
        55.000          49.000
 09  1 14  1 26  0.0000000  0 11G22G 5G 6G18G24G12G14G30G29G31G21
 121550265.15547  94714498.44047  23130241.2024   23130241.6574   23130240.9874
        47.000          41.000
 123590567.17547  96304322.17547  23518514.9964   23518519.7674   23518515.2534
        45.000          39.000
 125211039.45147  97567019.26247  23826887.1924   23826891.2094   23826887.6354
        44.000          38.000
 118770172.91147  92548171.46247  22601222.6594   22601224.8284   22601223.4224
        49.000          42.000
 123106698.44947  95927282.94347  23426437.1344   23426442.5314   23426437.0994
        46.000          39.000
 129355349.76047 100796357.90447  24615520.3664   24615523.6234   24615519.8374
        42.000          37.000
 119615156.25047  93206610.56347  22762010.6594   22762012.7534   22762010.8544
        48.000          42.000
 118873775.08347  92628905.77147  22620933.7634   22620936.9994   22620933.4564
        50.000          43.000
 128226612.44047  99916828.96347  24400721.4094   24400724.8054   24400720.9544
        43.000          37.000
 110680119.82247  86244226.90247  21061743.5524   21061745.0254   21061743.1794
        54.000          48.000
 106154043.68747  82717432.00847  20200444.2064   20200445.6084   20200444.6624
        55.000          49.000
 09  1 14  1 26 30.0000000  0 11G22G 5G 6G18G24G12G14G30G29G31G21
 121498928.30747  94674495.70247  23120472.4864   23120472.7374   23120472.6124
        48.000          41.000
 123599599.61147  96311360.48947  23520233.9364   23520238.5624   23520234.4404
        46.000          39.000
 125199331.23847  97557896.00347  23824659.5204   23824663.6954   23824659.6864
        44.000          39.000
 118733023.06047  92519223.52847  22594153.1864   22594155.3584   22594153.7944
        49.000          42.000
 123197144.09747  95997760.06047  23443648.2114   23443653.5444   23443648.3534
        46.000          40.000
 129376934.88647 100813177.59047  24619627.6104   24619630.9224   24619627.5334
        42.000          37.000
 119656252.20647  93238633.40147  22769831.0654   22769832.9994   22769831.0644
        48.000          42.000
 118852997.92847  92612715.80747  22616980.1374   22616983.4684   22616979.8004
        50.000          43.000
 128286132.04847  99963207.90747  24412047.0944   24412050.7954   24412047.2494
        43.000          38.000
 110619777.69947  86197207.09847  21050260.6644   21050262.2654   21050260.3104
        54.000          48.000
 106194459.86047  82748925.14647  20208134.9584   20208136.4804   20208135.2654
        55.000          49.000
 09  1 14  1 27  0.0000000  0 11G22G 5G 6G18G24G12G14G30G29G31G21
 121447461.19447  94634391.46447  23110678.5094   23110678.6924   23110678.5394
        48.000          41.000
 123608934.95047  96318634.86047  23522010.4194   23522014.2314   23522010.7734
        46.000          39.000
 125187809.01947  97548917.68547  23822467.1814   23822471.0294   23822466.9354
        44.000          39.000
 118695924.53747  92490315.58847  22587093.7314   22587095.6404   22587094.1744
        49.000          42.000
 123287824.14447  96068419.82147  23460904.2634   23460909.4994   23460904.7174
        46.000          39.000
 129398784.68247 100830203.53647  24623785.6084   24623788.7124   24623785.4864
        42.000          37.000
 119697379.38547  93270680.56347  22777657.2944   22777659.1224   22777657.1484
        48.000          42.000
 118832400.72547  92596666.08047  22613060.9024   22613063.5864   22613060.7064
        50.000          43.000
 128345442.20547 100009423.63147  24423333.4224   24423337.2804   24423333.0904
        43.000          38.000
 110559921.31847  86150565.79347  21038870.5394   21038871.9364   21038870.0924
        54.000          48.000
 106235455.23947  82780869.59747  20215936.1404   20215937.6404   20215936.6474
        54.000          49.000
 09  1 14  1 27 30.0000000  0 11G22G 5G 6G18G24G12G14G30G29G31G21
 121395861.72147  94594184.09047  23100859.2584   23100859.7724   23100859.3504
        48.000          41.000
 123618571.10947  96326143.62047  23523843.5204   23523848.1424   23523843.8284
        45.000          39.000
 125176467.74647  97540080.35747  23820308.8334   23820312.8064   23820308.8214
        43.000          38.000
 118658876.14647  92461446.71247  22580044.0534   22580045.7614   22580044.2524
        50.000          43.000
 123378732.62947  96139257.58547  23478204.0664   23478208.8104   23478204.1754
        46.000          39.000
 129420896.77047 100847433.87547  24627992.7684   24627996.8004   24627992.4734
        42.000          37.000
 119738531.24347  93302746.96847  22785488.2264   22785490.1264   22785488.5484
        48.000          42.000
 118811982.23447  92580755.59247  22609175.2724   22609178.3904   22609174.9024
        50.000          43.000
 128404538.94647 100055473.02747  24434578.8264   24434583.0834   24434578.9914
        43.000          38.000
 110500548.91247  86104301.60747  21027572.3214   21027573.7994   21027571.9834
        54.000          48.000
 106277024.48647  82813261.22147  20223846.3044   20223848.2014   20223846.5974
        54.000          49.000
 09  1 14  1 28  0.0000000  0 11G22G 5G 6G18G24G12G14G30G29G31G21
 121344134.75347  94553877.36647  23091016.0634   23091016.4304   23091016.3304
        48.000          42.000
 123628512.87147  96333890.49547  23525735.6634   23525739.7724   23525735.8784
        46.000          39.000
 125165308.78447  97531385.08047  23818185.3724   23818189.4994   23818185.1224
        43.000          39.000
 118621883.71147  92432621.42947  22573004.3764   22573006.1564   22573004.9154
        50.000          42.000
 123469870.16547  96210273.82847  23495546.9214   23495551.6594   23495547.2084
        46.000          39.000
 129443275.33947 100864871.85447  24632251.3214   24632255.0684   24632250.8594
        41.000          37.000
 119779709.65047  93334834.04347  22793324.2204   22793326.2774   22793324.4264
        48.000          42.000
 118791748.35447  92564988.96047  22605324.6624   22605327.6644   22605324.3564
        50.000          43.000
 128463424.46747 100101357.84247  24445785.0194   24445788.2344   24445784.9854
        43.000          38.000
 110441665.93447  86058418.79847  21016367.1264   21016368.5014   21016366.9214
        54.000          48.000
 106319169.45447  82846101.45447  20231866.4034   20231868.3004   20231866.9484
        54.000          49.000
 09  1 14  1 28 30.0000000  0 11G22G 5G 6G18G24G12G14G30G29G31G21
 121292279.29347  94513470.51447  23081148.3854   23081148.7844   23081148.2154
        48.000          41.000
 123638759.00947  96341874.53947  23527685.3434   23527689.4564   23527685.8164
        45.000          39.000
 125154327.95647  97522828.61547  23816095.6444   23816099.5324   23816095.6794
        43.000          38.000
 118584946.55647  92403839.21347  22565975.5664   22565977.0034   22565976.0754
        50.000          42.000
 123561231.46447  96281464.43447  23512932.3324   23512937.1794   23512932.1654
        45.000          39.000
 129465918.77747 100882516.20747  24636558.9764   24636563.2624   24636558.8754
        42.000          36.000
 119820908.49447  93366937.05647  22801163.9684   22801165.9264   22801164.0484
        48.000          42.000
 118771698.50347  92549365.74147  22601509.4064   22601512.4454   22601509.0644
        50.000          43.000
 128522095.55347 100147075.55547  24456949.5654   24456953.5314   24456949.6414
        43.000          38.000
 110383271.77747  86012916.88447  21005254.9464   21005256.5464   21005254.4984
        54.000          48.000
 106361885.87647  82879386.98047  20239994.9804   20239996.8514   20239995.2904
        54.000          49.000
 09  1 14  1 29  0.0000000  0 11G22G 5G 6G18G24G12G14G30G29G31G21
 121240299.16347  94472966.51747  23071256.8804   23071257.2664   23071257.1104
        48.000          42.000
 123649313.56647  96350098.92347  23529693.7874   23529698.0134   23529694.3594
        45.000          39.000
 125143526.14747  97514411.64747  23814040.4924   23814044.0494   23814040.2954
        44.000          38.000
 118548069.61347  92375103.93747  22558957.9084   22558959.7954   22558958.5434
        49.000          42.000
 123652816.89947  96352829.69947  23530360.3004   23530365.3114   23530360.6514
        46.000          39.000
 129488831.04147 100900370.05347  24640918.9514   24640923.6464   24640919.0584
        41.000          37.000
 119862127.91847  93399056.12047  22809007.6604   22809009.6664   22809008.0274
        48.000          42.000
 118751837.29647  92533889.52647  22597730.2984   22597732.8884   22597729.7964
        50.000          43.000
 128580553.82647 100192627.45347  24468072.9154   24468076.8814   24468073.2274
        42.000          38.000
 110325370.84447  85967799.30047  20994237.0014   20994238.2854   20994236.6344
        54.000          48.000
 106405174.23347  82913118.17547  20248232.6404   20248234.3074   20248233.0824
        55.000          49.000
 09  1 14  1 29 30.0000000  0 11G22G 5G 6G18G24G12G14G30G29G31G21
 121188193.74747  94432364.89347  23061341.7144   23061342.1044   23061341.6254
        48.000          42.000
 123660175.88147  96358563.09947  23531760.9454   23531764.6334   23531761.3354
        46.000          39.000
 125132899.58247  97506131.23647  23812018.0344   23812021.8074   23812018.1954
        44.000          38.000
 118511253.22447  92346415.84347  22551951.8554   22551954.1734   22551952.3214
        49.000          43.000
 123744621.65347  96424365.85447  23547830.2394   23547835.0184   23547830.1074
        45.000          39.000
 129512011.21847 100918432.67647  24645330.7134   24645334.1964   24645330.2804
        42.000          36.000
 119903363.76747  93431187.96147  22816854.8274   22816856.8754   22816855.0974
        48.000          42.000
 118732165.06347  92518560.55147  22593986.3954   22593989.5674   22593986.1294
        50.000          43.000
 128638796.19047 100238011.11647  24479156.7784   24479160.5644   24479155.8984
        43.000          38.000
 110267962.95847  85923065.91347  20983312.3514   20983313.8574   20983311.9034
        54.000          48.000
 106449031.00047  82947292.28547  20256578.1454   20256580.0064   20256578.6084
        54.000          49.000
 09  1 14  1 30  0.0000000  0 11G22G 5G 6G18G24G12G14G30G29G31G21
 121135968.73547  94391670.07647  23051403.6294   23051404.0704   23051403.4204
        48.000          42.000
 123671351.21547  96367271.19147  23533887.6704   23533891.0774   23533888.3704
        46.000          40.000
 125122450.03247  97497988.76747  23810029.0974   23810033.3994   23810029.2054
        44.000          38.000
 118474503.34247  92317779.56447  22544958.7704   22544960.7584   22544959.3724
        50.000          43.000
 123836646.96847  96496073.87847  23565341.9744   23565346.9004   23565341.8074
        46.000          39.000
 129535463.82047 100936707.57447  24649793.7164   24649796.7894   24649793.4344
        42.000          37.000
 119944616.62147  93463333.06047  22824704.7484   22824706.9074   22824704.9904
        47.000          42.000
 118712687.64047  92503383.38447  22590279.9524   22590283.1984   22590279.4154
        50.000          43.000
 128696825.97547 100283229.10847  24490199.6554   24490203.2934   24490199.2904
        42.000          37.000
 110211053.78247  85878721.12347  20972483.0064   20972484.3894   20972482.5624
        54.000          48.000
 106493458.32047  82981910.98147  20265032.4084   20265034.3364   20265032.7824
        54.000          49.000
 09  1 14  1 30 30.0000000  0 11G22G 5G 6G18G24G12G14G30G29G31G21
 121083621.38047  94350879.92447  23041442.0944   23041442.3064   23041442.1484
        48.000          42.000
 123682836.75947  96376220.97647  23536073.2354   23536077.3314   23536073.4384
        46.000          40.000
 125112171.96347  97489979.89347  23808073.6734   23808077.0704   23808073.7954
        44.000          38.000
 118437818.37047  92289193.86647  22537978.2314   22537979.3544   22537978.7214
        50.000          43.000
 123928886.50747  96567948.81947  23582894.8964   23582900.0024   23582895.3484
        46.000          39.000
 129559186.29647 100955192.75147  24654308.2154   24654310.7494   24654307.2444
        42.000          37.000
 119985881.01447  93495487.16047  22832556.9504   22832559.0664   22832557.1314
        47.000          42.000
 118693403.48747  92488356.82047  22586610.2364   22586613.5224   22586609.9194
        49.000          43.000
 128754638.23747 100328277.60947  24501200.7544   24501204.1454   24501200.5914
        43.000          37.000
 110154641.15547  85834763.25947  20961748.0754   20961749.2894   20961747.6994
        54.000          48.000
 106538450.21547  83016969.60347  20273593.9894   20273595.9864   20273594.3624
        54.000          49.000
 09  1 14  1 31  0.0000000  0 11G22G 5G 6G18G24G12G14G30G29G31G21
 121031155.72147  94309997.57947  23031458.1404   23031458.6064   23031457.9774
        49.000          42.000
 123694636.50547  96385415.63347  23538318.6184   23538322.4474   23538319.2354
        46.000          40.000
 125102066.08447  97482105.21347  23806150.2494   23806154.6384   23806150.4504
        44.000          38.000
 118401203.14947  92260662.51847  22531010.2284   22531011.7914   22531010.6664
        49.000          43.000
 124021340.07847  96639990.55447  23600488.0054   23600492.9044   23600488.1634
        45.000          39.000
 129583181.73947 100973890.63547  24658874.0334   24658876.9404   24658873.4154
        42.000          37.000
 120027156.55447  93527649.92447  22840411.3464   22840414.0194   22840411.4274
        47.000          42.000
 118674316.99947  92473484.26647  22582978.3174   22582981.0884   22582977.9034
        50.000          43.000
 128812234.46247 100373157.77347  24512160.7904   24512164.3354   24512160.0734
        43.000          37.000
 110098729.58347  85791195.82247  20951108.5524   20951109.7544   20951108.1544
        54.000          49.000
 106584007.51247  83052468.79047  20282263.2534   20282265.1384   20282263.7194
        54.000          49.000
 09  1 14  1 31 30.0000000  0 11G22G 5G 6G18G24G12G14G30G29G31G21
 120978573.10147  94269024.10147  23021452.0184   23021452.4584   23021451.8634
        49.000          43.000
 123706751.55647  96394855.99347  23540623.9164   23540628.1714   23540624.1814
        45.000          39.000
 125092130.33447  97474363.09947  23804260.0134   23804263.5334   23804260.4134
        44.000          38.000
 118364659.63847  92232187.03947  22524055.9224   22524058.0714   22524056.1654
        49.000          43.000
 124114004.79847  96712196.81447  23618121.5694   23618126.2134   23618121.8014
        45.000          39.000
 129607451.04547 100992801.91447  24663491.8964   24663495.4754   24663491.6444
        41.000          37.000
 120068440.24047  93559819.03347  22848267.6324   22848270.1264   22848267.9444
        48.000          42.000
 118655430.36047  92458767.44147  22579383.9594   22579387.2184   22579383.7694
        49.000          43.000
 128869613.80847 100417868.93647  24523080.2104   24523083.6834   24523079.2504
        42.000          37.000
 110043320.29047  85748019.77447  20940564.4464   20940565.7214   20940564.0504
        54.000          49.000
 106630127.75247  83088406.64147  20291039.5934   20291041.3034   20291039.8244
        54.000          49.000
 09  1 14  1 32  0.0000000  0 11G22G 5G 6G18G24G12G14G30G29G31G21
 120925873.15147  94227959.18847  23011423.4314   23011424.1994   23011423.6514
        49.000          43.000
 123719181.51647  96404541.70047  23542989.5864   23542993.7784   23542989.8794
        45.000          40.000
 125082361.27847  97466750.85647  23802400.5854   23802404.2434   23802400.7404
        43.000          38.000
 118328188.58047  92203768.03647  22517115.6624   22517118.0984   22517116.0124
        49.000          43.000
 124206876.49747  96784564.36947  23635794.7664   23635799.2104   23635795.1894
        46.000          39.000
 129631993.65747 101011926.15547  24668162.1194   24668165.7044   24668161.9814
        41.000          36.000
 120109728.02347  93591991.35947  22856124.6784   22856126.7774   22856124.8864
        48.000          42.000
 118636744.07947  92444206.73047  22575828.0884   22575831.0754   22575827.8104
        50.000          43.000
 128926774.22447 100462409.52047  24533957.2054   24533960.9644   24533956.8424
        43.000          37.000
 109988413.43247  85705235.22547  20930116.0514   20930117.4334   20930115.5714
        54.000          49.000
 106676807.42047  83124780.41247  20299922.4634   20299924.3124   20299922.9364
        54.000          49.000
 09  1 14  1 32 30.0000000  0 11G22G 5G 6G18G24G12G14G30G29G31G21
 120873059.36447  94186805.58447  23001373.5644   23001374.1674   23001373.5064
        49.000          43.000
 123731929.52647  96414475.24147  23545415.0314   23545419.0544   23545415.4814
        45.000          39.000
 125072758.85747  97459268.47047  23800573.4554   23800577.1964   23800573.3904
        44.000          38.000
 118291793.85347  92175408.50047  22510190.5304   22510192.3884   22510190.9964
        50.000          43.000
 124299954.24047  96857092.46847  23653506.8124   23653511.5844   23653507.5424
        45.000          39.000
 129656812.23047 101031265.44347  24672885.1134   24672888.3414   24672885.1284
        41.000          36.000
 120151019.28347  93624166.38247  22863981.9214   22863983.9804   22863981.9674
        48.000          42.000
 118618261.93947  92429805.09647  22572311.3284   22572313.8594   22572311.0434
        50.000          43.000
 128983716.24247 100506779.90747  24544793.2344   24544797.1294   24544793.1344
        43.000          37.000
 109934012.63447  85662845.02347  20919763.7324   20919765.2964   20919763.3604
        54.000          49.000
 106724046.59447  83161590.16547  20308911.7064   20308913.7614   20308912.0334
        54.000          49.000
 09  1 14  1 33  0.0000000  0 11G22G 5G 6G18G24G12G14G30G29G31G21
 120820132.76847  94145564.06847  22991302.1934   22991302.5244   22991301.9944
        49.000          43.000
 123744996.12847  96424657.03847  23547901.3064   23547905.4744   23547901.7854
        45.000          39.000
 125063320.83447  97451914.18247  23798777.4804   23798781.1534   23798777.1704
        44.000          39.000
 118255477.06747  92147109.69047  22503279.7154   22503281.5204   22503280.0354
        50.000          43.000
 124393234.88947  96929778.67547  23671257.5014   23671262.5284   23671257.5824
        45.000          39.000
 129681907.25147 101050820.13847  24677660.7304   24677663.7444   24677660.6884
        41.000          36.000
 120192311.05747  93656341.79147  22871839.1684   22871841.7624   22871839.3214
        48.000          42.000
 118599985.74047  92415563.93447  22568833.4534   22568836.0464   22568833.3474
        50.000          43.000
 129040438.42547 100550978.99247  24555587.1594   24555590.3264   24555587.3874
        43.000          38.000
 109880118.92747  85620849.94547  20909508.2294   20909509.5844   20909507.8604
        54.000          49.000
 106771842.82247  83198833.97747  20318007.2304   20318008.9774   20318007.6574
        54.000          49.000
 09  1 14  1 33 30.0000000  0 11G22G 5G 6G18G24G12G14G30G29G31G21
 120767096.79347  94104237.33647  22981209.4684   22981209.9144   22981209.5814
        49.000          43.000
 123758384.76047  96435089.75047  23550449.2404   23550453.3784   23550449.8934
        45.000          39.000
 125054047.18547  97444687.97747  23797013.1944   23797015.9264   23797013.1714
        45.000          39.000
 118219243.03347  92118875.36247  22496384.3944   22496386.2364   22496384.9904
        50.000          43.000
 124486718.02747  97002622.65747  23689046.5744   23689051.7974   23689046.6124
        44.000          39.000
 129707281.25347 101070592.20547  24682488.6294   24682492.8124   24682488.7954
        40.000          36.000
 120233602.86947  93688517.24947  22879697.2274   22879699.2734   22879697.4114
        48.000          42.000
 118581919.26647  92401486.18147  22565395.4884   22565398.0954   22565395.1934
        50.000          43.000
 129096942.18947 100595007.87347  24566339.4584   24566342.6824   24566339.3454
        42.000          38.000
 109826736.27347  85579253.09147  20899349.7124   20899351.2084   20899349.3714
        54.000          49.000
 106820196.16347  83236511.89847  20327208.5404   20327210.4174   20327208.8964
        54.000          49.000
 09  1 14  1 34  0.0000000  0 11G22G 5G 6G18G24G12G14G30G29G31G21
 120713952.59847  94062826.27647  22971096.3434   22971096.8964   22971096.4804
        48.000          42.000
 123772095.84747  96445773.75047  23553058.1324   23553062.5684   23553058.6024
        45.000          39.000
 125044935.54247  97437588.00847  23795278.8344   23795282.2834   23795279.7224
        44.000          39.000
 118183092.92547  92090706.44147  22489505.2664   22489507.2694   22489505.8284
        50.000          43.000
 124580399.94447  97075621.53247  23706873.0214   23706879.0094   23706873.2724
        44.000          39.000
 129732934.76147 101090582.09247  24687370.4664   24687373.0624   24687370.3824
        40.000          36.000
 120274891.24547  93720690.02847  22887554.0634   22887556.0674   22887554.4524
        48.000          42.000
 118564064.42547  92387573.32747  22561997.7964   22562000.7844   22561997.4484
        50.000          43.000
 129153225.88247 100638865.30947  24577050.2224   24577053.5194   24577049.5594
        43.000          37.000
 109773865.47747  85538055.07947  20889288.7334   20889290.0934   20889288.2464
        54.000          49.000
 106869103.57847  83274621.57547  20336515.3524   20336517.0064   20336515.7424
        54.000          49.000
 09  1 14  1 34 30.0000000  0 11G22G 5G 6G18G24G12G14G30G29G31G21
 120660699.55847  94021330.39847  22960963.0114   22960963.1284   22960962.8324
        48.000          43.000
 123786128.82147  96456708.57047  23555728.4184   23555733.0974   23555728.8474
        45.000          39.000
 125035982.24647  97430611.45047  23793574.6794   23793578.8784   23793574.3064
        43.000          39.000
 118147027.26547  92062603.32847  22482642.2664   22482643.9994   22482642.8264
        50.000          43.000
 124674276.68047  97148772.22547  23724737.4874   23724742.8344   23724737.5044
        44.000          38.000
 129758866.89847 101110789.06147  24692304.8554   24692307.6774   24692305.0704
        41.000          36.000
 120316171.94647  93752856.81747  22895409.4244   22895411.4204   22895409.5094
        48.000          42.000
 118546421.34547  92373825.49347  22558640.5044   22558643.2564   22558640.1474
        50.000          43.000
 129209287.09847 100682549.36847  24587717.7564   24587721.2124   24587717.6024
        43.000          37.000
 109721506.39747  85497255.81947  20879325.0514   20879326.6534   20879324.6934
        54.000          49.000
 106918561.35147  83313160.08947  20345926.8794   20345928.4984   20345927.2574
        55.000          49.000
 09  1 14  1 35  0.0000000  0 11G22G 5G 6G18G24G12G14G30G29G31G21
 120607340.66447  93979752.03247  22950809.1494   22950809.5984   22950809.1254
        48.000          42.000
 123800486.30547  96467896.26747  23558461.3314   23558464.6994   23558461.8794
        45.000          39.000
 125027186.70247  97423757.79047  23791900.9764   23791905.3364   23791901.1724
        44.000          38.000
 118111049.57947  92034568.76047  22475795.9344   22475797.8874   22475796.5434
        50.000          43.000
 124768346.64947  97222073.48447  23742638.3904   23742643.4144   23742638.5434
        44.000          38.000
 129785079.62947 101131214.67647  24697293.3314   24697295.9074   24697293.2394
        41.000          36.000
 120357444.04447  93785016.91247  22903263.3244   22903265.2084   22903263.7294
        48.000          42.000
 118528993.56747  92360245.41647  22555323.7954   22555327.0444   22555323.3954
        50.000          43.000
 129265126.50647 100726060.58647  24598344.1124   24598347.0304   24598343.3734
        42.000          37.000
 109669661.89947  85456857.53547  20869459.4874   20869460.9524   20869459.1784
        54.000          49.000
 106968568.70947  83352126.85847  20355443.0524   20355444.6964   20355443.4534
        55.000          49.000
 09  1 14  1 35 30.0000000  0 11G22G 5G 6G18G24G12G14G30G29G31G21
 120553879.32947  93938093.84447  22940635.6974   22940636.2444   22940635.6994
        49.000          42.000
 123815171.25547  96479339.14747  23561255.4154   23561259.1834   23561255.9174
        45.000          39.000
 125018548.78147  97417026.97047  23790257.5224   23790261.2004   23790257.5264
        44.000          38.000
 118075164.41247  92006606.28947  22468967.5474   22468969.3104   22468968.1054
        50.000          43.000
 124862609.32947  97295524.91247  23760575.9844   23760581.1684   23760575.9294
        44.000          38.000
 129811575.82147 101151861.14747  24702335.4494   24702338.2034   24702334.4744
        41.000          36.000
 120398706.85047  93817169.77047  22911115.1194   22911117.3964   22911115.6344
        48.000          42.000
 118511785.17147  92346836.30647  22552049.2144   22552052.1694   22552049.0054
        50.000          43.000
 129320745.17647 100769399.78647  24608927.3994   24608931.3374   24608927.0814
        41.000          37.000
 109618335.40147  85416862.88447  20859692.3104   20859693.8044   20859691.8704
        54.000          49.000
 107019125.48247  83391521.72947  20365063.7864   20365065.3904   20365064.1864
        55.000          48.000
 09  1 14  1 36  0.0000000  0 12G16G22G 5G 6G18G24G12G14G30G29G31G21
 142536540.01757  93275196.40657  25220887.8635   25220893.9425   25220889.6055
        39.000          34.000
 120500319.78647  93896359.13747  22930443.4744   22930443.7984   22930443.4174
        48.000          42.000
 123830187.78547  96491040.36347  23564112.9504   23564116.8024   23564113.3394
        45.000          39.000
 125010069.77847  97410419.96947  23788644.3684   23788647.3934   23788644.7384
        44.000          38.000
 118039376.82347  91978719.85047  22462157.5454   22462158.8674   22462158.0374
        50.000          43.000
 124957064.63347  97369126.45147  23778550.4494   23778555.3214   23778549.9814
        44.000          38.000
 129838359.10047 101172731.34947  24707431.2484   24707435.0084   24707431.0354
        41.000          36.000
 120439960.97747  93849315.86047  22918965.3424   22918968.0034   22918965.5834
        47.000          42.000
 118494801.01347  92333601.90747  22548817.1904   22548820.2884   22548816.5554
        50.000          43.000
 129376145.26347 100812568.66747  24619469.8374   24619473.7254   24619469.6774
        41.000          37.000
 109567531.45847  85377275.42147  20850024.7744   20850026.0914   20850024.3994
        54.000          49.000
 107070232.33547  83431345.24447  20374788.9184   20374790.6204   20374789.2374
        54.000          48.000
 09  1 14  1 36 30.0000000  0 12G16G22G 5G 6G18G24G12G14G30G29G31G21
 142474660.42347  93226978.64647  25209113.4354   25209117.3284   25209112.9334
        39.000          34.000
 120446655.09647  93854542.49647  22920231.6954   22920231.9664   22920231.5284
        49.000          42.000
 123845528.15247  96502993.93647  23567032.3444   23567035.7694   23567032.6794
        45.000          39.000
 125001738.86247  97403928.36047  23787058.5174   23787062.1014   23787058.4304
        43.000          38.000
 118003680.03047  91950904.16547  22455364.1914   22455366.0024   22455364.5184
        50.000          43.000
 125051701.16447  97442869.19147  23796558.8054   23796564.1694   23796558.9344
        43.000          38.000
 129865421.49747 101193819.02947  24712580.5054   24712584.4594   24712580.4364
        40.000          36.000
 120481194.57047  93881445.94547  22926811.7284   22926814.3974   22926812.1774
        47.000          42.000
 118478034.46947  92320537.09747  22545626.8194   22545629.2814   22545626.5714
        50.000          43.000
 129431317.10847 100855559.69647  24629968.5414   24629972.4924   24629968.7124
        41.000          37.000
 109517242.55747  85338089.28847  20840454.7554   20840456.4294   20840454.5314
        54.000          49.000
 107121878.25947  83471588.81747  20384616.8534   20384618.4354   20384617.4154
        55.000          48.000
 09  1 14  1 37  0.0000000  0 12G16G22G 5G 6G18G24G12G14G30G29G31G21
 142412528.07947  93178563.90847  25197290.2014   25197294.6104   25197290.1314
        41.000          34.000
 120392890.95147  93812648.36747  22910000.4294   22910000.8284   22910000.4974
        48.000          42.000
 123861197.61547  96515203.94047  23570013.8164   23570017.2634   23570014.2694
        45.000          39.000
 124993558.22947  97397553.85247  23785501.9384   23785505.2754   23785501.5884
        44.000          38.000
 117968080.38047  91923164.16147  22448589.6084   22448591.9004   22448590.1334
        50.000          43.000
 125146520.67347  97516754.49547  23814601.9924   23814607.5364   23814601.7084
        43.000          38.000
 129892767.87747 101215128.00547  24717785.2834   24717787.8364   24717784.5104
        41.000          36.000
 120522409.56647  93913561.54947  22934655.1034   22934657.0694   22934655.3984
        47.000          42.000
 118461491.80447  92307646.71947  22542478.7504   22542481.6884   22542478.5144
        50.000          43.000
 129486264.08447 100898375.51347  24640424.4234   24640429.0374   24640424.1534
        42.000          37.000
 109467474.47647  85299308.98247  20830984.2154   20830985.8624   20830983.7904
        54.000          49.000
 107174065.05047  83512253.85147  20394547.6414   20394549.2684   20394547.9524
        55.000          48.000
 09  1 14  1 37 30.0000000  0 12G16G22G 5G 6G18G24G12G14G30G29G31G21
 122350189.95757 113129998.14657  25185418.8525   25185423.7955   25185419.7245
        40.000          34.000
 120339032.93447  93770681.08947  22899751.8954   22899751.8424   22899751.7634
        48.000          42.000
 123877201.26947  96527674.34947  23573059.3954   23573063.1574   23573059.7534
        45.000          39.000
 124985529.80447  97391297.95047  23783974.5314   23783978.2034   23783974.5344
        44.000          38.000
 117932584.37247  91895504.91947  22441835.3864   22441837.0684   22441835.4944
        50.000          43.000
 125241524.28747  97590783.28247  23832680.2714   23832686.2354   23832680.6494
        43.000          38.000
 129920403.02047 101236661.93847  24723043.2754   24723046.4764   24723042.6734
        41.000          36.000
 120563607.53147  93945663.87547  22942494.5584   22942496.4814   22942494.7554
        47.000          42.000
 118445178.88047  92294935.37647  22539374.2704   22539377.4414   22539373.7724
        50.000          43.000
 129540989.93047 100941018.98847  24650838.8944   24650842.2894   24650839.4054
        42.000          37.000
 109418232.81147  85260938.86647  20821613.7974   20821615.3654   20821613.2804
        54.000          49.000
 107226794.89447  83553342.02747  20404581.8624   20404583.5734   20404582.3374
        55.000          48.000
 09  1 14  1 38  0.0000000  0 12G16G22G 5G 6G18G24G12G14G30G29G31G21
 122287556.31647 113081192.74247  25173499.8764   25173502.3394   25173500.2604
        40.000          34.000
 120285078.05647  93728638.33047  22889484.3274   22889484.6684   22889484.3364
        48.000          42.000
 123893535.41247  96540402.27147  23576167.6194   23576171.1484   23576167.8064
        45.000          39.000
 124977647.23047  97385155.70047  23782474.3484   23782477.4434   23782474.6304
        44.000          38.000
 117897189.74347  91867924.67747  22435100.0714   22435101.9274   22435100.6744
        50.000          43.000
 125336704.59847  97664949.74647  23850792.2934   23850798.2244   23850792.5904
        43.000          38.000
 129948323.18247 101258418.01447  24728356.8124   24728359.5714   24728357.0934
        40.000          36.000
 120604781.32647  93977747.35847  22950329.9734   22950331.9054   22950329.8744
        47.000          42.000
 118429093.01747  92282400.96547  22536313.4104   22536316.0494   22536312.9024
        50.000          43.000
 129595488.89747 100983485.70847  24661209.5054   24661213.4804   24661210.1754
        40.000          37.000
 109369514.07347  85222976.23647  20812343.0334   20812344.5514   20812342.7474
        54.000          49.000
 107280060.75447  83594847.89347  20414717.9954   20414719.7984   20414718.2964
        55.000          48.000
 09  1 14  1 38 30.0000000  0 12G16G22G 5G 6G18G24G12G14G30G29G31G21
 122224674.91147 113032194.28847  25161534.2324   25161537.4154   25161534.8374
        39.000          34.000
 120231032.86647  93686525.21447  22879199.6164   22879200.1844   22879200.0564
        47.000          42.000
 123910206.17947  96553392.52647  23579339.8804   23579343.4924   23579340.2024
        45.000          39.000
 124969913.36547  97379129.32847  23781002.4104   23781006.1114   23781002.3744
        44.000          38.000
 117861903.31447  91840428.75947  22428384.8844   22428387.0284   22428385.0364
        50.000          43.000
 125432063.72847  97739255.57147  23868938.3744   23868944.6444   23868938.3004
        43.000          38.000
 129976534.05247 101280400.58147  24733724.5194   24733727.7924   24733724.0924
        40.000          35.000
 120645933.52647  94009814.02647  22958160.9214   22958163.0934   22958161.0654
        47.000          42.000
 118413241.22547  92270048.93047  22533296.7034   22533299.6244   22533296.3904
        50.000          43.000
 129649765.44947 101025779.12347  24671537.6454   24671542.2134   24671537.0484
        41.000          37.000
 109321324.68047  85185426.07147  20803173.0454   20803174.3804   20803172.6004
        54.000          49.000
 107333865.30047  83636773.50547  20424956.7074   20424958.5274   20424957.1094
        55.000          48.000
 09  1 14  1 39  0.0000000  0 12G16G22G 5G 6G18G24G12G14G30G29G31G21
 122161540.47447 112982998.61947  25149519.7984   25149523.1794   25149521.0794
        40.000          34.000
 120176892.90447  93644338.23247  22868897.3734   22868897.8824   22868897.1174
        47.000          42.000
 123927208.71947  96566641.27947  23582575.6754   23582578.7834   23582576.1324
        45.000          39.000
 124962320.55147  97373212.85447  23779557.3944   23779561.3784   23779557.3424
        42.000          38.000
 117826721.81747  91813014.61347  22421689.9084   22421692.3294   22421690.3854
        50.000          43.000
 125527593.24247  97813694.14447  23887117.4504   23887123.1194   23887117.6134
        44.000          38.000
 130005030.04847 101302605.31647  24739146.2264   24739149.5434   24739146.6724
        39.000          35.000
 120687055.74147  94041857.32047  22965986.1414   22965988.6724   22965986.2784
        48.000          42.000
 118397620.12847  92257876.67247  22530324.1404   22530327.2594   22530323.8184
        50.000          43.000
 129703812.79147 101067893.89447  24681823.1794   24681826.6124   24681822.5424
        41.000          36.000
 109273660.45547  85148285.14547  20794102.8284   20794104.2104   20794102.5004
        54.000          49.000
 107388200.10647  83679112.31847  20435296.1754   20435298.0714   20435296.3894
        55.000          48.000
 09  1 14  1 39 30.0000000  0 12G16G22G 5G 6G18G24G12G14G30G29G31G21
 142098167.87057  92933622.41557  25137460.2905   25137463.8625   25137460.0375
        39.000          34.000
 120122665.46247  93602083.09547  22858578.2044   22858578.7294   22858578.2094
        49.000          42.000
 123944549.56347  96580153.67647  23585875.3904   23585878.2694   23585875.7274
        44.000          39.000
 124954872.18447  97367408.95747  23778139.7664   23778143.6594   23778139.2224
        43.000          38.000
 117791652.82747  91785688.12947  22415016.7744   22415018.5654   22415017.1104
        50.000          43.000
 125623296.00547  97888267.70747  23905329.4534   23905334.8854   23905330.2904
        44.000          38.000
 130033818.12547 101325037.63947  24744624.6204   24744628.5764   24744624.7204
        40.000          35.000
 120728151.24247  94073879.80647  22973806.5964   22973808.1764   22973806.9614
        48.000          42.000
 118382236.95647  92245889.80847  22527396.9984   22527400.1354   22527396.6454
        50.000          43.000
 129757635.44247 101109833.60547  24692065.2934   24692069.0354   24692065.2694
        40.000          36.000
 109226527.93547  85111558.52147  20785133.6404   20785135.2384   20785133.1834
        54.000          49.000
 107443068.53947  83721866.93547  20445737.3964   20445739.0614   20445737.9094
        54.000          48.000
 09  1 14  1 40  0.0000000  0 12G16G22G 5G 6G18G24G12G14G30G29G31G21
 122034584.64057 112884084.31357  25125352.3035   25125354.3365   25125351.6265
        39.000          33.000
 120068351.34947  93559760.42047  22848242.7304   22848243.0754   22848242.9484
        49.000          43.000
 123962228.87947  96593929.79647  23589239.5264   23589243.0794   23589239.9494
        44.000          39.000
 124947565.67047  97361715.58747  23776749.6604   23776753.6934   23776750.1864
        43.000          38.000
 117756698.11247  91758450.68347  22408365.2264   22408366.9944   22408365.6714
        51.000          43.000
 125719168.41747  97962973.46647  23923573.5424   23923578.8004   23923573.8694
        43.000          38.000
 130062897.44247 101347696.91447  24750159.4624   24750161.5454   24750158.7714
        40.000          36.000
 120769216.78847  94105878.95047  22981620.7824   22981622.1684   22981620.9724
        47.000          41.000
 118367092.90047  92234089.25747  22524515.0274   22524517.9024   22524514.6424
        50.000          43.000
 129811232.70947 101151597.68247  24702263.4624   24702268.6514   24702263.6954
        40.000          36.000
 109179927.92347  85075246.84047  20776265.9624   20776267.4494   20776265.6454
        54.000          49.000
 107498467.70947  83765035.11247  20456279.4734   20456281.1294   20456279.8974
        55.000          48.000
 09  1 14  1 40 30.0000000  0 12G16G22G 5G 6G18G24G12G14G30G29G31G21
 141970783.98257  92834385.13457  25113195.5595   25113197.4515   25113196.5445
        40.000          33.000
 120013953.14147  93517372.21347  22837891.2164   22837891.3724   22837891.2764
        49.000          43.000
 123980248.65047  96607971.20647  23592668.6914   23592672.1334   23592669.3004
        45.000          39.000
 124940400.06447  97356132.02547  23775385.8754   23775389.9584   23775385.8134
        44.000          38.000
 117721860.59747  91731304.55447  22401735.9654   22401737.6444   22401736.4684
        51.000          43.000
 125815208.83147  98037810.13447  23941849.9824   23941855.0394   23941849.0144
        43.000          38.000
 140092273.78157  91370587.51857  24755748.2835   24755751.3325   24755748.4225
        39.000          36.000
 120810250.67447  94137853.41647  22989429.1854   22989431.1794   22989429.3574
        47.000          42.000
 118352190.77947  92222477.25247  22521679.0324   22521682.2754   22521678.8684
        50.000          43.000
 129864604.47647 101193186.05947  24712421.1124   24712424.5934   24712420.2494
        41.000          37.000
 109133862.20747  85039351.49547  20767500.1834   20767501.3914   20767499.8084
        55.000          49.000
 107554395.89647  83808615.51947  20466922.2804   20466924.0324   20466922.6524
        55.000          48.000
 09  1 14  1 41  0.0000000  0 12G16G22G 5G 6G18G24G12G14G30G29G31G21
 141906662.01447  92784419.99747  25100994.0444   25100996.4244   25100995.4294
        42.000          34.000
 119959471.85047  93474919.25647  22827523.8644   22827523.7924   22827523.9404
        50.000          43.000
 123998609.37947  96622278.29147  23596162.0254   23596165.8864   23596162.5944
        44.000          39.000
 124933372.87447  97350656.30247  23774048.9814   23774052.6924   23774048.9394
        44.000          38.000
 117687142.06447  91704251.13647  22395128.9504   22395130.8364   22395129.3304
        50.000          43.000
 125911414.09147  98112775.25447  23960157.0414   23960162.0664   23960157.0404
        43.000          37.000
 140121939.33447  91393703.59447  24761393.3574   24761396.3014   24761392.3274
        40.000          35.000
 120851249.56847  94169800.62647  22997231.1684   22997233.4814   22997231.2974
        48.000          42.000
 118337532.33547  92211055.11347  22518889.4414   22518892.4914   22518889.0024
        49.000          43.000
 129917749.64647 101234597.86947  24722533.6534   24722537.6124   24722533.4974
        41.000          36.000
 109088331.97947  85003873.40947  20758835.9204   20758837.2954   20758835.4204
        54.000          49.000
 107610850.26747  83852605.93547  20477665.2734   20477666.9074   20477665.6874
        55.000          48.000
 09  1 14  1 41 30.0000000  0 12G16G22G 5G 6G18G24G12G14G30G29G31G21
 141842289.07047  92734259.24247  25088745.3714   25088746.0914   25088746.7314
        41.000          34.000
 119904904.26747  93432399.06547  22817139.7944   22817139.7774   22817140.0034
        49.000          43.000
 124017307.08547  96636847.96047  23599720.3104   23599723.5824   23599720.9184
        44.000          39.000
 124926477.14647  97345283.03147  23772736.8364   23772739.6624   23772736.8414
        44.000          38.000
 117652539.99347  91677288.48547  22388544.0254   22388546.2114   22388544.5634
        49.000          43.000
 126007776.40647  98187862.74347  23978494.4234   23978499.2684   23978494.9724
        44.000          37.000
 140151893.86647  91417044.83047  24767093.6864   24767096.8744   24767092.7804
        40.000          35.000
 120892206.49247  94201715.14347  23005024.8224   23005026.8454   23005025.0834
        47.000          41.000
 118323115.04347  92199820.87947  22516146.2294   22516149.2664   22516146.0034
        50.000          43.000
 129970662.56747 101275828.69347  24732601.6574   24732606.5654   24732601.8784
        40.000          36.000
 109043333.26947  84968809.49747  20750272.9444   20750274.3624   20750272.7884
        54.000          49.000
 107667823.25447  83897000.46847  20488506.7104   20488508.4684   20488507.1014
        55.000          48.000
 09  1 14  1 42  0.0000000  0 12G16G22G 5G 6G18G24G12G14G30G29G31G21
 141777671.56647  92683908.03247  25076447.1754   25076450.2074   25076449.5534
        41.000          34.000
 119850257.74747  93389817.36347  22806741.2064   22806740.9254   22806741.0434
        50.000          43.000
 124036348.69647  96651685.61047  23603343.5964   23603347.4224   23603344.0784
        44.000          39.000
 124919716.85147  97340015.29647  23771450.1604   23771453.7944   23771450.1654
        44.000          38.000
 117618062.73147  91650423.08447  22381983.3044   22381985.6234   22381983.7594
        50.000          43.000
 126104299.23747  98263075.32547  23996862.1994   23996866.8324   23996862.4664
        43.000          37.000
 140182144.12747  91440616.52847  24772850.4264   24772852.9914   24772849.8254
        40.000          35.000
 120933125.24347  94233599.89447  23012811.3324   23012813.3814   23012811.4144
        47.000          41.000
 118308946.45647  92188780.42447  22513450.0004   22513452.4014   22513449.3054
        50.000          43.000
 130023348.58547 101316882.73647  24742627.7244   24742632.7554   24742627.8084
        41.000          36.000
 108998873.45347  84934165.49447  20741812.5054   20741814.0534   20741811.9474
        55.000          49.000
 107725318.74447  83941802.14347  20499447.9164   20499449.4664   20499448.2374
        55.000          48.000
 09  1 14  1 42 30.0000000  0 12G16G22G 5G 6G18G24G12G14G30G29G31G21
 141712808.44147  92633365.38847  25064105.5854   25064107.8864   25064105.6414
        41.000          34.000
 119795532.74947  93347174.50847  22796327.5024   22796327.1174   22796327.5574
        50.000          43.000
 124055733.53047  96666790.70347  23607032.3814   23607035.8954   23607032.9844
        45.000          39.000
 124913088.59547  97334850.44447  23770189.2374   23770192.3324   23770189.5374
        44.000          38.000
 117583710.86647  91623655.39247  22375446.3864   22375448.7224   22375446.8074
        50.000          43.000
 126200978.13647  98338409.51547  24015260.1394   24015264.2764   24015259.9634
        43.000          37.000
 140212688.92747  91464417.71647  24778662.8254   24778665.5094   24778662.4894
        40.000          35.000
 120974001.49747  94265451.54747  23020589.9214   23020591.6844   23020590.2644
        47.000          41.000
 118295027.19847  92177934.27047  22510801.1074   22510803.9924   22510800.8654
        50.000          43.000
 130075805.37647 101357758.13347  24752609.9664   24752614.4964   24752610.1904
        40.000          36.000
 108954952.17247  84899941.13247  20733454.3384   20733455.9764   20733454.0084
        54.000          49.000
 107783332.48547  83987007.65147  20510487.2494   20510489.1174   20510487.5974
        54.000          48.000
 09  1 14  1 43  0.0000000  0 12G16G22G 5G 6G18G24G12G14G30G29G31G21
 141647699.94147  92582631.54547  25051714.6944   25051718.0534   25051716.4254
        41.000          33.000
 119740730.98547  93304471.84747  22785898.7604   22785898.9144   22785898.7814
        49.000          43.000
 124075462.60147  96682164.05347  23610787.0694   23610790.6854   23610787.6444
        45.000          39.000
 124906590.34147  97329786.89547  23768952.4074   23768956.2464   23768951.8024
        44.000          38.000
 117549486.69347  91596987.20347  22368933.7634   22368936.1274   22368934.0994
        50.000          43.000
 126297810.42147  98413863.23147  24033685.9094   24033690.6564   24033686.1654
        43.000          37.000
 140243528.69247  91488448.77847  24784531.8504   24784533.5344   24784531.5604
        40.000          35.000
 121014833.22347  94297268.49347  23028360.2354   23028361.8224   23028360.4824
        47.000          41.000
 118281359.04247  92167283.77447  22508200.0054   22508202.9654   22508199.5224
        50.000          43.000
 130128032.82047 101398454.87047  24762549.4614   24762553.6954   24762548.7624
        41.000          36.000
 108911570.86147  84866137.53147  20725199.3034   20725200.6974   20725198.9674
        54.000          49.000
 107841862.29047  84032615.29347  20521625.3584   20521626.8214   20521625.7894
        55.000          48.000
 09  1 14  1 43 30.0000000  0 12G16G22G 5G 6G18G24G12G14G30G29G31G21
 141582347.32247  92531707.45747  25039280.8014   25039283.2594   25039280.2894
        40.000          34.000
 119685854.78947  93261711.18147  22775455.8674   22775456.3214   22775455.7804
        49.000          43.000
 124095537.62647  96697806.95947  23614607.0304   23614611.0634   23614607.7574
        45.000          39.000
 124900220.91847  97324823.72647  23767740.6434   23767743.6974   23767741.1254
        44.000          38.000
 117515393.43347  91570421.01247  22362446.6444   22362448.0424   22362446.9374
        50.000          43.000
 126394794.14447  98489434.92747  24052141.7714   24052146.5444   24052141.6514
        43.000          37.000
 140274665.22247  91512711.09447  24790456.7834   24790459.0394   24790455.7294
        40.000          35.000
 121055618.61447  94329049.33847  23036121.0864   23036122.7334   23036121.4194
        47.000          41.000
 118267944.66847  92156831.03647  22505647.6974   22505650.1644   22505647.4014
        50.000          43.000
 130180030.90347 101438972.85747  24772443.8084   24772447.7764   24772443.3134
        39.000          36.000
 108868731.29947  84832756.06447  20717047.2954   20717048.3594   20717046.8324
        54.000          49.000
 107900906.26947  84078623.58147  20532861.0964   20532862.5474   20532861.4974
        55.000          48.000
 09  1 14  1 44  0.0000000  0 12G16G22G 5G 6G18G24G12G14G30G29G31G21
 141516752.83147  92480594.79547  25026797.3744   25026798.7514   25026797.4704
        41.000          34.000
 119630907.71447  93218895.29947  22764999.8774   22765000.2284   22764999.9604
        49.000          43.000
 124115961.16347  96713721.44747  23618493.8234   23618496.8864   23618494.2794
        45.000          39.000
 124893980.01147  97319960.71547  23766552.3534   23766556.0324   23766552.1234
        43.000          38.000
 117481434.81247  91543959.74347  22355984.2234   22355986.1274   22355984.5884
        50.000          43.000
 126491928.58747  98565124.07647  24070625.7104   24070630.4954   24070625.8744
        42.000          37.000
 140306100.87747  91537206.46847  24796438.8964   24796440.5444   24796438.0844
        40.000          35.000
 121096357.07847  94360793.62347  23043873.2454   23043875.0914   23043873.6564
        47.000          41.000
 118254788.12347  92146579.19247  22503144.0454   22503146.9944   22503143.6324
        50.000          43.000
 130231801.00347 101479313.16847  24782296.0534   24782299.8504   24782295.4394
        42.000          36.000
 108826436.35847  84799798.98547  20708998.6894   20708999.9694   20708998.1714
        54.000          49.000
 107960463.92247  84125032.13747  20544194.7434   20544195.9754   20544195.1534
        55.000          48.000
 09  1 14  1 44 30.0000000  0 12G16G22G 5G 6G18G24G12G14G30G29G31G21
 121450883.15857 112429262.70757  25014267.9355   25014269.5645   25014268.4715
        40.000          34.000
 119575889.48047  93176023.96047  22754530.1754   22754530.5094   22754530.2004
        49.000          43.000
 124136731.89647  96729906.46447  23622445.9574   23622449.7994   23622446.4234
        45.000          39.000
 124887863.69347  97315194.76747  23765388.8774   23765391.8094   23765389.0194
        43.000          38.000
 117447611.46447  91517603.88847  22349547.8064   22349549.6274   22349548.3014
        50.000          43.000
 126589208.84147  98640926.84847  24089136.8564   24089141.9184   24089137.6524
        43.000          37.000
 140337833.78547  91561933.47747  24802477.6154   24802480.2294   24802477.2244
        40.000          35.000
 121137044.13047  94392497.83747  23051615.7374   23051617.8104   23051615.6594
        46.000          41.000
 118241888.77847  92136527.79147  22500689.3674   22500692.2894   22500689.0044
        50.000          43.000
 130283340.16147 101519473.54347  24792103.3124   24792107.5804   24792103.7134
        40.000          36.000
 108784685.09847  84767265.55647  20701053.8984   20701054.9104   20701053.6174
        54.000          49.000
 108020530.23247  84171837.05747  20555624.7794   20555626.2464   20555625.0664
        55.000          48.000
 09  1 14  1 45  0.0000000  0 12G16G22G 5G 6G18G24G12G14G30G29G31G21
 121384804.12847 112377772.59847  25001693.3354   25001696.7114   25001693.9014
        41.000          34.000
 119520803.55147  93133099.89047  22744047.4304   22744048.0894   22744047.7434
        49.000          43.000
 124157852.53047  96746364.12847  23626464.9654   23626469.0264   23626465.4744
        45.000          39.000
 124881871.68247  97310525.70147  23764248.3944   23764251.5404   23764248.5884
        43.000          38.000
 117413927.19947  91491356.39347  22343137.9834   22343140.0304   22343138.4724
        50.000          43.000
 126686634.22447  98716842.72647  24107676.7384   24107682.0304   24107676.8454
        43.000          37.000
 140369866.15047  91586893.84547  24808572.7354   24808575.2224   24808572.7424
        41.000          35.000
 121177678.96747  94424161.36147  23059348.0714   23059350.2214   23059348.3144
        47.000          41.000
 118229250.89547  92126680.11647  22498284.4444   22498287.4404   22498284.0134
        50.000          44.000
 130334649.72747 101559455.00247  24801867.9394   24801871.6924   24801866.9624
        40.000          36.000
 108743480.19747  84735157.85047  20693212.6874   20693213.9054   20693212.1444
        55.000          49.000
 108081104.53047  84219037.80347  20567151.6894   20567153.2564   20567152.1664
        54.000          48.000
 09  1 14  1 45 30.0000000  0 12G16G22G 5G 6G18G24G12G14G30G29G31G21
 121318479.80047 112326091.34547  24989073.2334   24989075.2164   24989073.4084
        41.000          34.000
 119465646.84147  93090120.64147  22733551.8294   22733552.0804   22733551.9474
        50.000          43.000
 124179319.32447  96763091.53847  23630549.4964   23630554.1184   23630550.1474
        45.000          39.000
 124875997.30947  97305948.28347  23763130.8564   23763134.3874   23763131.0334
        44.000          38.000
 117380379.60547  91465215.39547  22336754.2534   22336755.8694   22336754.7464
        50.000          43.000
 126784197.20047  98792865.80347  24126242.0534   24126247.5294   24126242.3054
        42.000          37.000
 140402194.17847  91612084.62447  24814724.2034   24814726.9484   24814723.9354
        40.000          35.000
 121218255.00147  94455779.07447  23067069.6624   23067071.4304   23067070.0404
        47.000          41.000
 118216871.94047  92117034.21347  22495928.5774   22495931.5584   22495928.5084
        50.000          43.000
 130385724.61647 101599253.62147  24811587.1514   24811590.3254   24811586.7954
        41.000          36.000
 108702818.42947  84703473.36847  20685474.9404   20685476.2324   20685474.5654
        54.000          49.000
 108142179.86847  84266628.97547  20578773.8354   20578775.4594   20578774.2014
        54.000          48.000
 09  1 14  1 46  0.0000000  0 12G16G22G 5G 6G18G24G12G14G30G29G31G21
 121251919.18047 112274225.87447  24976406.7464   24976409.8664   24976406.5044
        41.000          34.000
 119410429.68447  93047094.29447  22723044.4044   22723044.5824   22723044.4494
        50.000          43.000
 124201141.48347  96780095.84747  23634702.3404   23634706.7364   23634702.6104
        44.000          39.000
 124870247.27947  97301467.76547  23762036.5004   23762039.5674   23762036.7794
        44.000          38.000
 117346979.54147  91439189.36447  22330398.0334   22330399.9954   22330398.4784
        50.000          43.000
 126881903.36147  98869000.46647  24144834.7424   24144840.4064   24144834.7964
        42.000          37.000
 140434826.67347  91637512.60947  24820933.7974   24820936.4234   24820933.4864
        42.000          36.000
 121258778.14747  94487355.58347  23074780.5744   23074783.0174   23074781.0964
        46.000          41.000
 118204761.96747  92107597.91247  22493624.2974   22493627.1854   22493623.8514
        49.000          43.000
 130436572.60847 101638875.44247  24821262.3764   24821265.7854   24821262.6714
        42.000          36.000
 108662709.02447  84672219.30047  20677842.5494   20677843.8314   20677842.3714
        55.000          49.000
 108203761.82047  84314614.91947  20590492.6024   20590494.1484   20590493.0744
        55.000          48.000
 09  1 14  1 46 30.0000000  0 12G16G22G 5G 6G18G24G12G14G30G29G31G21
 121185117.70647 112222172.94347  24963694.0714   24963697.4924   24963694.7444
        41.000          35.000
 119355148.87147  93004018.35947  22712524.6704   22712525.1324   22712524.8034
        49.000          43.000
 124223314.80347  96797373.78947  23638922.0924   23638926.0234   23638922.5584
        44.000          39.000
 124864614.39447  97297078.54547  23760964.7664   23760967.9934   23760964.3354
        44.000          38.000
 117313724.36347  91413276.23047  22324069.9414   22324071.9874   22324070.3464
        50.000          43.000
 126979745.27247  98945240.90947  24163453.7724   24163458.8564   24163453.9944
        42.000          37.000
 140467759.12647  91663174.33747  24827200.6404   24827203.7864   24827200.9294
        41.000          36.000
 121299241.10047  94518885.15847  23082480.7794   23082482.9884   23082481.0524
        47.000          41.000
 118192917.80547  92098368.74347  22491370.2664   22491373.0554   22491369.7434
        50.000          43.000
 130487188.19947 101678316.19047  24830894.2734   24830898.1224   24830894.1214
        42.000          37.000
 108623148.25747  84641392.73047  20670314.1664   20670315.5624   20670313.5394
        55.000          49.000
 108265842.69847  84362989.63547  20602306.2094   20602307.7484   20602306.7614
        54.000          48.000
 09  1 14  1 47  0.0000000  0 12G16G22G 5G 6G18G24G12G14G30G29G31G21
 121118078.75647 112169934.85347  24950938.1264   24950940.8354   24950938.0234
        41.000          35.000
 119299808.89347  92960896.31547  22701993.5344   22701994.3714   22701993.7814
        49.000          43.000
 124245842.77747  96814928.07847  23643208.8714   23643212.8194   23643208.8724
        45.000          39.000
 124859099.22147  97292781.03647  23759914.9654   23759918.2754   23759915.3514
        44.000          39.000
 117280619.08147  91387479.91147  22317770.5904   22317772.3744   22317771.1654
        51.000          43.000
 127077722.59447  99021586.84747  24182098.1124   24182103.5534   24182098.9124
        43.000          36.000
 140500994.61947  91689072.18147  24833525.0904   24833527.4154   24833525.0084
        40.000          36.000
 121339644.24247  94550368.14547  23090169.5714   23090171.3464   23090169.9144
        47.000          41.000
 118181344.26147  92089350.43547  22489167.7844   22489170.9134   22489167.6374
        50.000          43.000
 130537573.53347 101717577.49947  24840482.7174   24840485.8014   24840482.0294
        41.000          37.000
 108584139.56647  84610996.36047  20662891.3024   20662892.3104   20662891.0114
        55.000          49.000
 108328422.64347  84411753.23447  20614214.5754   20614216.4664   20614214.8874
        54.000          48.000
