     2.11           OBSERVATION DATA    G (GPS)             RINEX VERSION / TYPE
teqc  2008Oct2      gpsops              20090112 00:09:39UTCPGM / RUN BY / DATE
    30.0000                                                 INTERVAL
     1     1                                                WAVELENGTH FACT L1/2
     7    L1    L2    P1    P2    C1    S1    S2            # / TYPES OF OBSERV
Linux 2.4.20-8|Pentium IV|gcc -static|Linux|486/DX+         COMMENT
     2.10           OBSERVATION DATA    GPS                 COMMENT
soc2rnx ver 1.20    gpsops              12-Jan-2009 00:09:32COMMENT
S1, if present, is the SNR for the C/A data stream on L1.   COMMENT
 SNR is mapped to RINEX snr flag value [1,4-9]              COMMENT
    SNR:   >316  >100  >31.6  >10  >3.2    >0 bad=0         COMMENT
L1 & L2:      9     8     7     6     5     4     1         COMMENT
                                                            COMMENT
This data is provided as a public service by NASA/JPL.      COMMENT
No warranty is expressed or implied regarding suitability   COMMENT
for use.  For further information, contact:                 COMMENT
Dave Stowers, NASA/JPL m/s 238-600                          COMMENT
4800 Oak Grove Drive, Pasadena CA 91109 USA                 COMMENT
                                                            COMMENT
Forced Modulo Decimation to 30 seconds                      COMMENT
  2009     1    11     0     0    0.0000000     GPS         TIME OF FIRST OBS
GGN                 JPL                                     OBSERVER / AGENCY
CR519992104         ASH701945B_M    SCIT                    ANT # / TYPE
   -33801.4662 -6377516.5323   -82154.3508                  APPROX POSITION XYZ
        0.0083        0.0000        0.0000                  ANTENNA: DELTA H/E/N
ZR220013847         ASHTECH UZ-12       CQ00                REC # / TYPE / VERS
GLPS                                                        MARKER NAME
42005M002                                                   MARKER NUMBER
                                                            END OF HEADER
 09  1 11  0  0  0.0000000  0 11G22G 5G30G24G 9G29G14G31G18G21G12
 127886520.09747  99651828.28747  24335999.9114   24336000.9254   24335999.3444
        44.000          38.000
 125157962.20247  97525656.32847  23816789.6304   23816795.2844   23816791.0764
        45.000          39.000
 123571015.78847  96289090.77847  23514790.1554   23514795.2164   23514790.2894
        47.000          40.000
 112334633.17947  87533463.33147  21376581.8924   21376586.4164   21376582.1704
        53.000          47.000
 114321495.30947  89081669.78947  21754669.8654   21754673.3294   21754669.7634
        51.000          45.000
 114250867.99547  89026638.08547  21741224.9554   21741228.9714   21741225.2494
        52.000          46.000
 115342776.48447  89877481.49347  21949004.0234   21949008.4864   21949004.4524
        50.000          44.000
 128600270.64347 100207985.69947  24471830.7554   24471834.4454   24471829.7524
        42.000          37.000
 124549200.03047  97051323.79247  23700924.5774   23700929.5034   23700926.3094
        47.000          39.000
 109560775.86547  85372027.32447  20848727.0654   20848729.2774   20848727.5354
        54.000          48.000
 128149478.29747  99856708.63947  24386058.4034   24386062.4724   24386058.1104
        43.000          38.000
 09  1 11  0  0 30.0000000  0 11G22G 5G30G24G 9G29G14G31G18G21G12
 127875262.81347  99643056.40647  24333857.1664   24333858.4904   24333857.2834
        44.000          38.000
 125145975.67447  97516316.20547  23814509.8264   23814514.9734   23814510.5634
        45.000          39.000
 123556281.88847  96277609.85447  23511987.1734   23511991.4214   23511986.7174
        47.000          40.000
 112346208.38047  87542482.95747  21378784.7664   21378789.3894   21378784.8474
        53.000          47.000
 114363976.89447  89114772.34047  21762753.5704   21762756.8254   21762753.6504
        52.000          45.000
 114321250.84847  89081481.83247  21754618.8854   21754622.5254   21754618.6684
        51.000          46.000
 115330920.35447  89868242.96547  21946748.1184   21946750.9884   21946748.3814
        50.000          44.000
 128496992.81947 100127509.55847  24452176.8984   24452181.5324   24452175.8634
        42.000          38.000
 124536383.96347  97041337.26147  23698487.0184   23698489.2904   23698487.6254
        47.000          38.000
 109494286.99347  85320217.81947  20836074.6054   20836076.7704   20836074.8654
        54.000          48.000
 128152271.44647  99858885.20847  24386589.6304   24386594.2844   24386589.4074
        42.000          38.000
 09  1 11  0  1  0.0000000  0 11G22G 5G30G24G 9G29G14G31G18G21G12
 127863810.20347  99634132.33547  24331677.8494   24331679.3194   24331677.6634
        43.000          38.000
 125133901.76047  97506907.98547  23812212.0964   23812217.1274   23812212.7244
        45.000          38.000
 123541358.96747  96265981.64147  23509147.4474   23509151.5804   23509147.1364
        47.000          40.000
 112358245.02147  87551862.15447  21381074.9694   21381079.6174   21381075.1284
        53.000          47.000
 114406982.97547  89148283.58947  21770937.4494   21770940.8324   21770937.7344
        51.000          45.000
 114391800.49747  89136455.56347  21768044.2254   21768047.8624   21768043.9964
        52.000          46.000
 115319522.14347  89859361.25847  21944579.0264   21944582.4174   21944579.1694
        50.000          45.000
 128393664.24147 100046993.85847  24432513.6094   24432518.3294   24432513.2834
        42.000          38.000
 124523346.59047  97031178.28247  23696006.5894   23696007.8254   23696006.8514
        47.000          39.000
 109428148.05147  85268680.99347  20823488.8574   20823490.8704   20823489.3294
        54.000          48.000
 128154983.43247  99860998.52847  24387105.4584   24387110.9084   24387105.2564
        42.000          37.000
 09  1 11  0  1 30.0000000  0 11G22G 5G30G24G 9G29G14G31G18G21G12
 127852160.62247  99625054.73447  24329460.8824   24329462.5204   24329460.6814
        44.000          38.000
 125121741.90547  97497432.78947  23809897.9234   23809903.7104   23809898.4414
        44.000          38.000
 123526247.95547  96254206.85747  23506271.7514   23506275.8264   23506271.3704
        47.000          40.000
 112370743.42647  87561601.16447  21383453.5174   21383458.0214   21383453.5064
        53.000          47.000
 114450512.14547  89182202.43847  21779220.2864   21779224.5544   21779220.4844
        51.000          45.000
 114462513.83647  89191556.84347  21781500.4354   21781503.9904   21781500.1214
        51.000          46.000
 115308580.69847  89850835.47947  21942496.9734   21942500.1624   21942496.9424
        50.000          45.000
 128290287.01447  99966440.25347  24412842.1164   24412846.5484   24412841.3964
        43.000          38.000
 124510087.22347  97020846.33347  23693483.4044   23693485.0834   23693483.7034
        47.000          39.000
 109362361.83847  85217419.01947  20810970.1214   20810972.1364   20810970.4004
        54.000          48.000
 128157616.05347  99863049.99647  24387605.8984   24387611.9534   24387605.9684
        42.000          37.000
 09  1 11  0  2  0.0000000  0 11G22G 5G30G24G 9G29G14G31G18G21G12
 127840314.96247  99615824.39447  24327207.2854   24327207.7314   24327207.0834
        44.000          38.000
 125109498.61947  97487892.59247  23807568.3454   23807574.3104   23807568.7624
        44.000          38.000
 123510950.02447  96242286.42947  23503360.7174   23503365.0484   23503360.5344
        47.000          40.000
 112383705.02047  87571701.09847  21385920.0114   21385924.5974   21385920.1074
        53.000          47.000
 114494564.75647  89216529.17347  21787603.3674   21787607.0594   21787603.5814
        52.000          45.000
 114533389.07747  89246784.27947  21794987.4804   21794991.1814   21794987.1694
        51.000          46.000
 115298095.71547  89842665.38147  21940501.7494   21940504.8874   21940501.9534
        50.000          44.000
 128186864.32347  99885851.21447  24393161.4634   24393166.0604   24393160.6104
        42.000          38.000
 124496607.09847  97010342.36547  23690918.0724   23690919.8634   23690918.3694
        47.000          39.000
 109296932.32547  85166434.99147  20798519.4764   20798521.3644   20798519.9374
        54.000          48.000
 128160170.87047  99865040.83347  24388093.1854   24388098.2354   24388092.3894
        42.000          38.000
 09  1 11  0  2 30.0000000  0 11G22G 5G30G24G 9G29G14G31G18G21G12
 127828271.98647  99606440.28047  24324915.7144   24324916.6504   24324915.4774
        44.000          38.000
 125097173.61047  97478288.71047  23805223.1274   23805227.9534   23805224.0154
        44.000          38.000
 123495466.60247  96230221.43747  23500414.2394   23500418.4954   23500413.9904
        47.000          40.000
 112397130.27347  87582162.34047  21388474.8684   21388479.3884   21388475.0704
        53.000          47.000
 114539140.45047  89251263.49747  21796086.1644   21796089.3884   21796086.4464
        51.000          45.000
 114604423.72247  89302135.91947  21808504.9414   21808508.6154   21808504.8154
        51.000          46.000
 115288066.25247  89834850.22847  21938593.1014   21938596.2144   21938593.3834
        51.000          44.000
 128083398.74747  99805228.75647  24373472.5424   24373476.8044   24373472.0694
        43.000          38.000
 124482906.56247  96999666.65747  23688310.5624   23688312.9854   23688311.2314
        46.000          39.000
 109231862.74547  85115731.43347  20786137.1344   20786139.0524   20786137.5714
        54.000          48.000
 128162649.90747  99866972.62747  24388563.9034   24388569.4224   24388563.8404
        43.000          38.000
 09  1 11  0  3  0.0000000  0 11G22G 5G30G24G 9G29G14G31G18G21G12
 127816030.29647  99596901.30947  24322585.7164   24322586.5814   24322586.0074
        44.000          38.000
 125084767.80047  97468621.86747  23802861.8294   23802867.7694   23802862.3344
        45.000          38.000
 123479797.81947  96218012.01647  23497432.2384   23497436.8754   23497431.9084
        47.000          40.000
 112411019.05047  87592984.76147  21391117.7684   21391122.2624   21391118.0084
        53.000          47.000
 114584237.41247  89286404.00747  21804667.7244   21804671.2994   21804667.8464
        52.000          45.000
 114675613.88947  89357608.74647  21822051.9984   21822055.4784   21822051.5784
        52.000          46.000
 115278490.61147  89827388.71147  21936770.9804   21936773.8734   21936771.0544
        50.000          44.000
 127979891.77047  99724574.05047  24353775.6864   24353779.6694   24353774.9384
        43.000          38.000
 124468985.05047  96988818.75747  23685661.3064   23685663.3794   23685661.6594
        46.000          39.000
 109167155.21147  85065309.99047  20773823.5354   20773825.5094   20773824.0224
        54.000          48.000
 128165054.21947  99868846.20747  24389021.5184   24389026.5694   24389021.2634
        43.000          38.000
 09  1 11  0  3 30.0000000  0 11G22G 5G30G24G 9G29G14G31G18G21G12
 127803588.90747  99587206.75147  24320217.4084   24320218.9654   24320218.1804
        44.000          38.000
 125072283.01447  97458893.50647  23800486.4864   23800491.6734   23800487.4924
        45.000          39.000
 123463944.88347  96205659.12047  23494415.8184   23494419.9174   23494415.6244
        47.000          40.000
 112425372.23647  87604169.06447  21393849.0804   21393853.6364   21393849.2614
        53.000          47.000
 114629855.13447  89321950.30947  21813348.5894   21813351.7814   21813348.7084
        52.000          45.000
 114746957.05447  89413200.79347  21835628.3894   21835631.5444   21835628.2134
        51.000          46.000
 115269367.78347  89820280.03247  21935035.0264   21935037.8144   21935035.2104
        50.000          44.000
 127876346.07147  99643889.17247  24334071.3624   24334076.1384   24334071.0104
        43.000          38.000
 124454842.81447  96977798.86547  23682970.5524   23682972.2874   23682970.7064
        46.000          39.000
 109102812.76347  85015173.02747  20761579.6334   20761581.4274   20761579.9674
        54.000          48.000
 128167385.56447  99870662.90347  24389465.6284   24389470.1634   24389465.3484
        43.000          38.000
 09  1 11  0  4  0.0000000  0 11G22G 5G30G24G 9G29G14G31G18G21G12
 127790947.31547  99577356.19547  24317812.3234   24317814.0254   24317812.3014
        44.000          38.000
 125059721.14547  97449105.03247  23798096.2944   23798101.1214   23798096.6244
        45.000          39.000
 123447909.09347  96193163.71747  23491364.3774   23491368.3534   23491364.0424
        47.000          40.000
 112440190.73547  87615715.94747  21396669.1704   21396673.5854   21396669.3884
        53.000          47.000
 114675993.12147  89357902.01147  21822128.0994   21822131.6174   21822128.3674
        51.000          45.000
 114818450.51247  89468909.95247  21849233.0044   21849236.2994   21849232.7104
        51.000          46.000
 115260696.92047  89813523.53447  21933384.5814   21933387.8984   21933384.7594
        50.000          44.000
 127772764.40447  99563176.26347  24314360.3294   24314364.6564   24314359.8594
        42.000          37.000
 124440480.44747  96966607.43847  23680237.5344   23680239.4924   23680237.8084
        46.000          39.000
 109038839.13447  84965323.46347  20749405.8374   20749407.7994   20749406.3014
        54.000          48.000
 128169645.20347  99872423.71747  24389895.2714   24389899.8054   24389895.3864
        43.000          38.000
 09  1 11  0  4 30.0000000  0 11G22G 5G30G24G 9G29G14G31G18G21G12
 127778104.04947  99567348.45247  24315368.7224   24315370.0134   24315368.6404
        44.000          38.000
 125047083.46247  97439257.51147  23795691.1804   23795696.2174   23795692.1494
        45.000          39.000
 123431690.59747  96180525.94847  23488277.9234   23488282.1934   23488277.7824
        47.000          41.000
 112455474.70147  87627625.53247  21399577.4454   21399581.8524   21399577.5774
        53.000          47.000
 114722649.94347  89394257.98447  21831006.7284   21831010.1154   21831006.7874
        51.000          45.000
 114890091.27347  89524733.88547  21862865.9424   21862869.1694   21862865.8564
        52.000          46.000
 115252476.31147  89807117.89447  21931820.6394   21931823.2414   21931820.8544
        50.000          44.000
 127669148.54147  99482436.69247  24294643.1244   24294647.3334   24294642.6594
        43.000          37.000
 124425897.87947  96955244.43747  23677462.3544   23677464.8224   23677462.7274
        46.000          39.000
 108975236.21747  84915762.75847  20737302.5824   20737304.5874   20737302.8904
        54.000          48.000
 128171834.78647  99874129.95647  24390311.7704   24390316.8184   24390311.2364
        43.000          38.000
 09  1 11  0  5  0.0000000  0 11G22G 5G30G24G 9G29G14G31G18G21G12
 127765059.45947  99557183.84647  24312886.6324   24312887.0044   24312886.7174
        44.000          38.000
 125034373.20647  97429353.43347  23793272.6254   23793277.1614   23793273.1324
        45.000          39.000
 123415292.14347  96167747.96647  23485157.7704   23485161.8114   23485157.3024
        47.000          41.000
 112471226.21547  87639899.44047  21402574.7624   21402579.3114   21402574.9674
        53.000          47.000
 114769826.39047  89431018.87247  21839984.1394   21839987.3624   21839984.3614
        51.000          45.000
 114961878.01947  89580671.59147  21876526.4144   21876529.7624   21876526.0724
        51.000          46.000
 115244706.35747  89801063.40147  21930341.9104   21930344.8144   21930342.0644
        50.000          44.000
 127565502.46147  99401673.60547  24274919.7314   24274924.3794   24274919.4744
        43.000          37.000
 124411096.44547  96943710.87847  23674645.7474   23674647.9494   23674645.9264
        46.000          39.000
 108912008.66947  84866494.54547  20725270.7484   20725272.5124   20725271.2194
        54.000          48.000
 128173957.36147  99875783.95247  24390715.5664   24390721.2554   24390715.1004
        43.000          38.000
 09  1 11  0  5 30.0000000  0 11G22G 5G30G24G 9G29G14G31G18G21G12
 127751812.13647  99546861.27747  24310365.7864   24310366.1814   24310366.0154
        45.000          38.000
 125021590.47947  97419392.87647  23790840.3034   23790845.7974   23790840.5774
        45.000          39.000
 123398713.14047  96154829.28547  23482002.4544   23482007.0264   23482002.1544
        47.000          41.000
 112487443.98247  87652536.67047  21405660.8854   21405665.3654   21405660.9814
        53.000          46.000
 114817520.57947  89468183.19047  21849059.6614   21849063.5404   21849059.7364
        51.000          45.000
 115033806.34747  89636719.62547  21890213.6694   21890217.3224   21890213.1184
        51.000          46.000
 115237384.24947  89795357.88447  21928948.5864   21928951.5164   21928948.9904
        50.000          44.000
 127461826.98047  99320887.60247  24255190.4854   24255195.0674   24255190.1384
        43.000          38.000
 124396075.06047  96932005.93347  23671787.1334   23671789.3474   23671787.8274
        46.000          39.000
 108849158.15547  84817520.13147  20713310.6594   20713312.6264   20713310.9734
        54.000          48.000
 128176013.15147  99877385.91047  24391106.8414   24391111.6174   24391106.8584
        43.000          38.000
 09  1 11  0  6  0.0000000  0 11G22G 5G30G24G 9G29G14G31G18G21G12
 127738362.75447  99536381.26047  24307806.1064   24307806.7944   24307806.5034
        45.000          38.000
 125008738.97547  97409378.72747  23788394.8574   23788400.3524   23788395.1584
        46.000          39.000
 123381956.33547  96141772.05947  23478813.7074   23478818.1464   23478813.1184
        46.000          40.000
 112504130.38447  87665539.07047  21408836.2214   21408840.7244   21408836.4414
        53.000          47.000
 114865733.21947  89505751.49947  21858234.5094   21858237.8894   21858234.4024
        51.000          45.000
 115105875.46547  89692877.35747  21903928.0504   21903931.7974   21903928.0194
        51.000          46.000
 115230510.88647  89790002.03447  21927640.5364   21927643.5384   21927640.6714
        51.000          44.000
 127358126.69247  99240082.25847  24235456.6994   24235461.7584   24235455.9624
        42.000          38.000
 124380835.75547  96920131.17147  23668887.0624   23668889.1494   23668887.5384
        46.000          39.000
 108786689.34747  84768843.14847  20701423.2694   20701425.3774   20701423.5404
        55.000          48.000
 128178005.56047  99878938.45647  24391485.9724   24391491.3714   24391485.1604
        44.000          38.000
 09  1 11  0  6 30.0000000  0 11G22G 5G30G24G 9G29G14G31G18G21G12
 127724708.18047  99525741.35547  24305207.6474   24305208.7184   24305207.7494
        45.000          39.000
 124995818.64547  97399310.94647  23785935.8874   23785941.1084   23785936.4534
        45.000          39.000
 123365020.89347  96128575.64847  23475590.5614   23475595.4234   23475590.2984
        47.000          41.000
 112521284.22647  87678905.70747  21412100.4754   21412105.0224   21412100.6194
        53.000          47.000
 114914460.98347  89543721.21447  21867506.9904   21867510.5044   21867507.2704
        51.000          45.000
 115178080.83147  89749141.25447  21917668.4044   21917671.9624   21917668.4414
        51.000          46.000
 115224083.34947  89784993.58547  21926417.4784   21926420.5704   21926417.6654
        51.000          44.000
 127254402.07047  99159257.98147  24215718.9484   24215723.6684   24215717.3914
        43.000          38.000
 124365377.21647  96908085.58147  23665945.3734   23665947.3614   23665945.7494
        46.000          39.000
 108724603.43747  84720464.51847  20689608.8524   20689610.6384   20689609.2994
        54.000          48.000
 128179934.49647  99880441.55147  24391852.6894   24391858.2184   24391852.3364
        43.000          38.000
 09  1 11  0  7  0.0000000  0 11G22G 5G30G24G 9G29G14G31G18G21G12
 127710847.67847  99514940.97547  24302570.1284   24302570.9854   24302570.7464
        45.000          39.000
 124982830.75947  97389190.53147  23783464.4134   23783469.7024   23783464.7104
        45.000          39.000
 123347907.53847  96115240.58947  23472334.3474   23472339.3704   23472334.2634
        47.000          41.000
 112538905.45847  87692636.55247  21415453.7494   21415458.0624   21415453.8114
        53.000          46.000
 114963702.93947  89582091.58447  21876877.5154   21876881.1494   21876877.5234
        51.000          45.000
 115250419.23547  89805508.83047  21931433.8614   21931437.4414   21931433.3064
        51.000          46.000
 115218099.88647  89780331.16247  21925278.6634   21925281.9204   21925278.8704
        50.000          45.000
 127150655.28547  99078416.43147  24195976.5034   24195981.0624   24195975.7804
        44.000          39.000
 124349699.28547  96895869.03647  23662962.0124   23662963.9454   23662962.3074
        46.000          39.000
 108662902.82047  84672386.12847  20677867.3454   20677869.2944   20677867.7674
        55.000          48.000
 128181801.27947  99881896.18947  24392208.4854   24392213.3064   24392207.9104
        42.000          38.000
 09  1 11  0  7 30.0000000  0 11G22G 5G30G24G 9G29G14G31G18G21G12
 127696783.73247  99503982.06647  24299893.6844   24299894.5754   24299893.5454
        45.000          38.000
 124969779.58447  97379020.79947  23780980.3664   23780986.0184   23780980.6304
        45.000          39.000
 123330619.96847  96101769.79147  23469044.3304   23469049.4714   23469044.3414
        47.000          40.000
 112556997.39047  87706734.17247  21418896.2364   21418900.9004   21418896.2864
        53.000          46.000
 115013460.84347  89620864.00247  21886346.0264   21886349.7104   21886346.1814
        51.000          45.000
 115322890.30347  89861979.76747  21945224.7654   21945228.3174   21945224.6624
        51.000          46.000
 115212561.51147  89776015.55947  21924225.0274   21924228.0094   21924225.2154
        51.000          45.000
 127046890.94047  98997561.18847  24176230.7454   24176235.2084   24176231.0114
        44.000          39.000
 124333804.93247  96883483.84947  23659937.2254   23659939.3514   23659937.4784
        46.000          39.000
 108601593.02347  84624612.26847  20666200.6154   20666202.5494   20666200.9044
        54.000          48.000
 128183609.84847  99883305.45847  24392552.2814   24392557.0264   24392551.7764
        43.000          38.000
 09  1 11  0  8  0.0000000  0 11G22G 5G30G24G 9G29G14G31G18G21G12
 127682512.36047  99492861.53547  24297178.4164   24297179.1534   24297177.9474
        45.000          39.000
 124956664.77547  97368801.47947  23778484.6954   23778490.2004   23778485.2104
        44.000          39.000
 123313157.32547  96088162.56747  23465721.4334   23465726.3244   23465721.2854
        47.000          41.000
 112575558.04647  87721197.02747  21422428.2354   21422432.9064   21422428.3344
        53.000          46.000
 115063731.39247  89660035.87847  21895912.3234   21895915.6484   21895912.4064
        51.000          45.000
 115395489.24547  89918550.35347  21959040.2484   21959043.7124   21959040.0364
        51.000          46.000
 115207464.98547  89772044.25647  21923255.0774   21923258.2554   21923255.2464
        50.000          45.000
 126943109.66247  98916692.76747  24156481.8774   24156486.2524   24156482.4114
        44.000          39.000
 124317692.32047  96870928.57547  23656871.1534   23656873.7064   23656871.4714
        46.000          39.000
 108540674.71147  84577143.46547  20654608.0704   20654609.9064   20654608.4684
        54.000          48.000
 128185360.08747  99884669.33047  24392885.6094   24392890.4654   24392885.1684
        43.000          38.000
 09  1 11  0  8 30.0000000  0 11G22G 5G30G24G 9G29G14G31G18G21G12
 127668033.18947  99481579.09747  24294422.6884   24294423.6694   24294423.1134
        44.000          39.000
 124943487.86847  97358533.78247  23775977.6234   23775983.0104   23775977.4184
        44.000          38.000
 123295520.21847  96074419.38347  23462365.2864   23462369.6194   23462364.8084
        47.000          41.000
 112594587.21847  87736024.96347  21426049.5434   21426054.1014   21426049.5304
        53.000          47.000
 115114513.44747  89699606.33447  21905575.5814   21905578.8934   21905575.8444
        51.000          44.000
 115468213.34147  89975218.46047  21972878.8554   21972882.7794   21972878.4934
        51.000          46.000
 115202809.12647  89768416.32147  21922369.0584   21922372.3484   21922369.2654
        51.000          45.000
 126839313.98347  98835813.12047  24136730.1674   24136734.4734   24136729.9264
        44.000          39.000
 124301361.14047  96858203.00047  23653763.5274   23653765.6994   23653763.8644
        46.000          39.000
 108480151.33947  84529982.39347  20643091.1184   20643092.8004   20643091.5024
        55.000          48.000
 128187053.34247  99885988.76447  24393207.4454   24393213.0264   24393207.2574
        42.000          38.000
 09  1 11  0  9  0.0000000  0 11G22G 5G30G24G 9G29G14G31G18G21G12
 127653348.25447  99470136.29147  24291627.7454   24291629.4724   24291627.7854
        43.000          38.000
 124930253.26447  97348221.11147  23773458.0844   23773464.0404   23773458.4744
        44.000          39.000
 123277712.13047  96060542.96947  23458976.7094   23458981.3294   23458976.3714
        47.000          41.000
 112614088.17447  87751220.52047  21429760.3704   21429764.9494   21429760.6234
        53.000          47.000
 115165808.61047  89739576.60847  21915336.8324   21915340.2454   21915337.0334
        51.000          44.000
 115541062.14947  90031983.75047  21986741.6494   21986745.3724   21986741.4594
        51.000          46.000
 115198594.86647  89765132.49647  21921566.9764   21921570.0964   21921567.1844
        51.000          44.000
 126735508.67447  98754925.96747  24116976.5264   24116980.9244   24116975.6214
        44.000          39.000
 124284814.72247  96845309.71047  23650614.9044   23650616.7724   23650614.9904
        46.000          39.000
 108420027.77847  84483132.86747  20631650.0264   20631651.8044   20631650.4304
        55.000          49.000
 128188693.89847  99887267.12847  24393519.9964   24393524.5614   24393519.5554
        43.000          38.000
 09  1 11  0  9 30.0000000  0 11G22G 5G30G24G 9G29G14G31G18G21G12
 127638453.70347  99458530.15447  24288794.1214   24288795.0304   24288793.9734
        44.000          38.000
 124916960.13247  97337862.82947  23770928.9444   23770934.7164   23770929.6884
        45.000          39.000
 123259732.08447  96046532.56347  23455555.1964   23455560.0774   23455555.3434
        47.000          41.000
 112634058.47747  87766781.80847  21433560.5024   21433565.1764   21433560.5984
        53.000          47.000
 115217613.31147  89779943.92747  21925194.9134   21925198.0574   21925195.1024
        51.000          44.000
 115614030.65047  90088842.31047  22000626.9994   22000630.8854   22000626.9024
        51.000          46.000
 115194818.27147  89762189.70247  21920848.4874   21920851.3794   21920848.7884
        51.000          45.000
 126631693.80047  98674031.34647  24097221.6024   24097225.8324   24097220.2294
        43.000          39.000
 124268050.75547  96832246.88947  23647424.5194   23647426.5584   23647425.0384
        46.000          39.000
 108360304.53647  84436595.27947  20620284.9954   20620286.8784   20620285.3564
        55.000          49.000
 128190281.24947  99888504.06447  24393821.3184   24393826.5544   24393821.6574
        42.000          38.000
 09  1 11  0 10  0.0000000  0 11G22G 5G30G24G 9G29G14G31G18G21G12
 127623349.89547  99446760.99247  24285919.6274   24285920.2114   24285919.3044
        44.000          38.000
 124903610.99747  97327460.91447  23768389.1814   23768394.4224   23768389.3884
        45.000          39.000
 123241581.93447  96032389.60847  23452100.7814   23452105.9774   23452100.7814
        46.000          40.000
 112654499.18347  87782709.63647  21437450.5204   21437455.1604   21437450.6534
        53.000          47.000
 115269927.21047  89820708.02247  21935149.9434   21935153.1984   21935150.0124
        51.000          44.000
 115687116.48547  90145792.29747  22014534.9734   22014538.6644   22014534.7144
        51.000          46.000
 115191478.92647  89759587.62347  21920212.9884   21920216.0934   21920212.9974
        50.000          44.000
 126527872.57547  98593131.79147  24077464.9504   24077468.6254   24077464.4794
        44.000          39.000
 124251070.42047  96819015.48047  23644193.8594   23644195.3764   23644194.0424
        47.000          40.000
 108300985.13447  84390372.37047  20608997.0704   20608998.6994   20608997.5404
        55.000          49.000
 128191817.14747  99889700.89047  24394113.3404   24394119.1274   24394113.6354
        42.000          38.000
 09  1 11  0 10 30.0000000  0 11G22G 5G30G24G 9G29G14G31G18G21G12
 127608036.15247  99434828.22947  24283005.6334   24283006.5544   24283005.8964
        45.000          38.000
 124890207.81247  97317016.88647  23765838.5294   23765843.8954   23765838.9794
        45.000          39.000
 123223262.66247  96018114.88147  23448614.4584   23448619.3454   23448614.1144
        46.000          40.000
 112675411.16047  87799004.69947  21441429.9504   21441434.3444   21441430.1524
        53.000          46.000
 115322749.32147  89861868.12347  21945201.5114   21945205.2514   21945201.6454
        51.000          44.000
 115760317.27647  90202831.85847  22028464.2284   22028468.5584   22028464.2434
        50.000          46.000
 115188575.46947  89757325.19947  21919660.4844   21919663.4464   21919660.9804
        51.000          45.000
 126424047.74247  98512229.42147  24057707.9164   24057711.3594   24057708.0224
        44.000          39.000
 124233874.24047  96805615.87847  23640921.2124   23640923.2914   23640921.6174
        46.000          39.000
 108242072.51247  84344466.43447  20597786.1314   20597788.1624   20597786.5134
        54.000          49.000
 128193303.83047  99890859.37247  24394396.9564   24394402.3604   24394396.5404
        43.000          38.000
 09  1 11  0 11  0.0000000  0 11G22G 5G30G24G 9G29G14G31G18G21G12
 127592512.76747  99422732.10247  24280051.8464   24280052.5164   24280051.9004
        44.000          38.000
 124876753.35347  97306532.91547  23763278.1564   23763284.1814   23763278.6314
        45.000          39.000
 123204776.54647  96003710.13047  23445096.6984   23445101.8304   23445096.2944
        47.000          40.000
 112696795.34447  87815667.71547  21445499.0454   21445503.6404   21445499.3264
        52.000          46.000
 115376079.47847  89903424.09847  21955349.7754   21955353.2814   21955349.8164
        50.000          44.000
 115833631.22947  90259959.59547  22042415.4504   22042419.5944   22042415.1174
        50.000          46.000
 115186107.54747  89755402.15147  21919190.9614   21919193.9274   21919190.8524
        51.000          45.000
 126320222.59247  98431326.79747  24037951.0644   24037954.0194   24037951.4874
        45.000          39.000
 124216463.79347  96792049.32347  23637608.1184   23637610.1224   23637608.5184
        47.000          39.000
 108183570.63447  84298880.55947  20586653.7454   20586655.8274   20586654.1714
        55.000          49.000
 128194743.73247  99891981.40647  24394671.2014   24394675.6714   24394670.9824
        44.000          38.000
 09  1 11  0 11 30.0000000  0 11G22G 5G30G24G 9G29G14G31G18G21G12
 127576777.41647  99410470.80947  24277057.4034   24277057.9524   24277057.4914
        45.000          38.000
 124863247.66947  97296009.04447  23760708.0104   23760713.5834   23760708.8454
        45.000          39.000
 123186122.51947  95989174.55447  23441547.5984   23441551.9744   23441547.6134
        47.000          41.000
 112718650.29347  87832697.55947  21449657.6804   21449662.2434   21449657.8874
        52.000          46.000
 115429914.73547  89945373.66347  21965594.5534   21965597.8094   21965594.3754
        50.000          44.000
 115907053.96447  90317172.11047  22056387.3754   22056391.1634   22056386.7654
        50.000          45.000
 115184072.07547  89753816.07047  21918803.7204   21918806.2824   21918803.7534
        51.000          45.000
 126216398.19647  98350424.77347  24018193.4194   24018197.1094   24018193.9774
        44.000          39.000
 124198837.82947  96778314.81547  23634253.8624   23634255.8474   23634254.7704
        47.000          39.000
 108125480.57047  84253615.57847  20575599.5044   20575601.5344   20575599.9224
        54.000          49.000
 128196136.83747  99893066.99747  24394936.0724   24394940.8564   24394935.5954
        43.000          38.000
 09  1 11  0 12  0.0000000  0 11G22G 5G30G24G 9G29G14G31G18G21G12
 127560831.71847  99398045.62147  24274023.1424   24274023.8624   24274023.4594
        45.000          39.000
 124849694.70347  97285448.30447  23758129.4584   23758134.6884   23758129.7704
        46.000          39.000
 123167304.30947  95974511.04847  23437966.0934   23437971.1944   23437966.0284
        47.000          41.000
 112740978.17947  87850095.92347  21453906.6824   21453911.2244   21453906.8714
        52.000          46.000
 115484256.06947  89987717.56947  21975935.4164   21975938.9494   21975935.1874
        50.000          44.000
 115980584.88547  90374468.91747  22070379.8984   22070383.5894   22070379.6594
        50.000          45.000
 115182469.54647  89752567.34847  21918498.5724   21918501.6214   21918498.7334
        51.000          45.000
 126112579.26647  98269527.00647  23998437.2684   23998440.5824   23998436.5764
        44.000          39.000
 124180998.13747  96764413.76147  23630859.3684   23630861.1424   23630859.5904
        46.000          39.000
 108067807.36347  84208675.42547  20564624.4664   20564626.5944   20564624.6854
        55.000          49.000
 128197487.27447  99894119.33947  24395192.6654   24395197.7704   24395192.6194
        43.000          38.000
 09  1 11  0 12 30.0000000  0 11G22G 5G30G24G 9G29G14G31G18G21G12
 127544672.80747  99385454.28547  24270947.9314   24270949.2404   24270948.1054
        44.000          38.000
 124836094.18247  97274850.53447  23755541.5194   23755546.7124   23755542.1514
        45.000          39.000
 123148320.80047  95959718.73147  23434353.8524   23434358.9124   23434353.4954
        47.000          41.000
 112763777.19947  87867861.40347  21458245.1804   21458249.7644   21458245.1124
        52.000          46.000
 115539100.38247  90030453.40747  21986371.5744   21986375.3584   21986371.6824
        50.000          44.000
 116054219.25247  90431846.32447  22084392.0734   22084395.9294   22084391.9564
        50.000          45.000
 115181296.54247  89751653.32947  21918275.4254   21918278.3994   21918275.6564
        51.000          45.000
 126008765.96647  98188633.59047  23978682.0594   23978685.4444   23978681.6804
        45.000          39.000
 124162943.57047  96750345.28747  23627423.0374   23627425.7334   23627423.2474
        46.000          39.000
 108010551.73547  84164060.65447  20553729.2874   20553731.2104   20553729.6704
        54.000          49.000
 128198794.61747  99895138.07547  24395441.9424   24395446.8574   24395441.7394
        43.000          38.000
 09  1 11  0 13  0.0000000  0 11G22G 5G30G24G 9G29G14G31G18G21G12
 127528300.49247  99372696.63747  24267832.7014   24267833.2384   24267832.5664
        44.000          38.000
 124822448.16947  97264217.30747  23752944.3894   23752949.7674   23752944.7174
        45.000          39.000
 123129173.72947  95944798.94247  23430710.3864   23430715.1884   23430709.8604
        47.000          41.000
 112787047.72247  87885994.28547  21462673.5664   21462678.0804   21462673.7994
        53.000          46.000
 115594446.69147  90073580.41647  21996903.8994   21996907.1364   21996904.0924
        50.000          44.000
 116127954.78347  90489302.55847  22098423.7764   22098427.2374   22098423.4454
        50.000          45.000
 115180551.73347  89751072.95847  21918133.8254   21918136.6224   21918133.9634
        51.000          45.000
 125904961.39547  98107746.99347  23958928.3944   23958932.0824   23958928.6514
        45.000          39.000
 124144674.62447  96736109.75947  23623946.9654   23623949.3554   23623947.1014
        46.000          39.000
 107953716.82247  84119773.71747  20542913.7604   20542915.8514   20542914.1904
        54.000          48.000
 128200060.85747  99896124.80747  24395682.4744   24395687.2854   24395682.3644
        44.000          38.000
 09  1 11  0 13 30.0000000  0 11G22G 5G30G24G 9G29G14G31G18G21G12
 127511716.35647  99359773.97047  24264677.0524   24264677.3234   24264676.8034
        43.000          38.000
 124808760.80847  97253551.88647  23750339.4664   23750344.7804   23750340.1924
        46.000          39.000
 123109866.15847  95929754.10547  23427036.6014   23427041.2634   23427036.8254
        47.000          41.000
 112810792.24847  87904496.52647  21467191.8534   21467196.5024   21467192.1154
        53.000          46.000
 115650295.85747  90117099.26847  22007531.5234   22007534.7254   22007531.5814
        50.000          44.000
 116201790.76447  90546837.06847  22112474.2034   22112477.7404   22112473.6214
        50.000          45.000
 115180236.02647  89750826.96047  21918073.7584   21918076.6054   21918074.0834
        51.000          45.000
 125801170.20747  98026870.82547  23939177.1704   23939181.2234   23939177.1294
        45.000          39.000
 124126194.12647  96721709.39647  23620429.9444   23620432.4434   23620430.3934
        46.000          39.000
 107897307.59947  84075818.47847  20532179.4904   20532181.4694   20532179.8474
        54.000          49.000
 128201289.79147  99897082.47747  24395916.2394   24395920.8774   24395916.2744
        43.000          38.000
 09  1 11  0 14  0.0000000  0 12G22G 5G30G 6G24G 9G29G14G31G18G21G12
 127494916.76247  99346683.41647  24261478.8874   24261480.9034   24261478.9694
        42.000          37.000
 124795030.89147  97242853.27847  23747727.0604   23747732.6054   23747727.4544
        45.000          39.000
 123090396.49547  95914582.95047  23423331.1884   23423336.1104   23423331.0614
        47.000          41.000
 130765764.31047 101895383.33947  24883910.9704   24883915.3044   24883909.9664
        41.000          35.000
 112835008.04147  87923365.98047  21471799.9734   21471804.5204   21471800.2044
        52.000          46.000
 115706643.65147  90161006.65247  22018254.2274   22018257.6164   22018254.3214
        51.000          44.000
 116275721.35647  90604445.29247  22126542.7014   22126546.3954   22126542.4914
        50.000          45.000
 115180344.73147  89750911.67847  21918094.1784   21918097.0584   21918094.4804
        51.000          45.000
 125697391.95347  97946004.70947  23919428.8664   23919432.6954   23919427.8654
        44.000          39.000
 124107500.12747  96707142.64147  23616872.9054   23616875.0754   23616873.3144
        46.000          40.000
 107841323.85947  84032194.79047  20521526.1384   20521528.1064   20521526.4684
        54.000          49.000
 128202480.42547  99898010.31147  24396142.7754   24396147.4684   24396142.8084
        44.000          38.000
 09  1 11  0 14 30.0000000  0 12G22G 5G30G 6G24G 9G29G14G31G18G21G12
 127477903.57647  99333426.42147  24258241.2844   24258242.7794   24258241.9874
        43.000          37.000
 124781262.96647  97232125.06047  23745106.7074   23745112.3084   23745107.3944
        45.000          39.000
 123070768.75347  95899288.64747  23419596.2394   23419600.8914   23419595.9354
        47.000          41.000
 140708309.14557  91850621.67057  24872970.4195   24872974.4185   24872970.3015
        42.000          35.000
 112859697.86747  87942604.81847  21476498.3034   21476502.9604   21476498.4314
        52.000          46.000
 115763491.81147  90205303.94747  22029072.1584   22029075.5484   22029072.4954
        51.000          44.000
 116349746.64647  90662127.31247  22140629.2804   22140632.6974   22140629.2414
        50.000          45.000
 115180879.45047  89751328.36247  21918195.8924   21918198.8574   21918196.0854
        51.000          45.000
 125593632.00147  97865152.85647  23899683.8944   23899687.7954   23899682.9404
        44.000          39.000
 124088595.09147  96692411.47247  23613275.2104   23613277.5624   23613275.6074
        46.000          40.000
 107785771.27847  83988907.07447  20510954.7734   20510956.7484   20510955.0084
        55.000          49.000
 128203637.36547  99898911.88647  24396363.2224   24396367.8504   24396363.1104
        44.000          38.000
 09  1 11  0 15  0.0000000  0 12G22G 5G30G 6G24G 9G29G14G31G18G21G12
 127460674.84047  99320001.46647  24254963.0764   24254964.3914   24254962.8484
        43.000          37.000
 124767457.60147  97221367.68047  23742479.7544   23742484.9904   23742480.0974
        44.000          39.000
 123050982.56547  95883870.87147  23415831.1424   23415835.3494   23415830.4884
        47.000          41.000
 140651118.16247  91806057.23247  24862087.6224   24862091.0244   24862087.0874
        42.000          35.000
 112884860.33747  87962211.94647  21481286.6264   21481291.1804   21481286.7244
        52.000          46.000
 115820837.19347  90249988.67247  22039984.5134   22039987.8564   22039984.7094
        50.000          44.000
 116423862.84647  90719880.18647  22154732.9374   22154736.5024   22154732.3894
        50.000          45.000
 115181836.81147  89752074.37147  21918377.9934   21918381.4474   21918378.3704
        51.000          45.000
 125489891.55847  97784316.21747  23879942.9034   23879946.5404   23879942.7274
        45.000          39.000
 124069478.19447  96677515.19647  23609637.2044   23609639.8004   23609637.4424
        46.000          40.000
 107730651.12747  83945956.31047  20500466.0244   20500467.8234   20500466.4734
        54.000          49.000
 128204760.32147  99899786.96847  24396576.6994   24396581.2914   24396576.7114
        45.000          38.000
 09  1 11  0 15 30.0000000  0 12G22G 5G30G 6G24G 9G29G14G31G18G21G12
 127443230.18747  99306408.24147  24251643.1654   24251644.1584   24251643.3804
        43.000          38.000
 124753616.74647  97210582.62947  23739845.7164   23739851.1484   23739846.1574
        45.000          39.000
 123031039.60047  95868330.92847  23412036.3934   23412040.1474   23412036.2884
        48.000          41.000
 140594225.71247  91761725.44347  24851261.0794   24851265.3074   24851260.9064
        42.000          35.000
 112910495.70647  87982187.56647  21486164.8444   21486169.3444   21486164.9564
        52.000          46.000
 115878679.00747  90295060.21747  22050991.3544   22050994.8404   22050991.5574
        50.000          44.000
 116498067.29647  90777701.81447  22168853.6784   22168857.6064   22168853.1184
        50.000          45.000
 115183215.66547  89753148.81647  21918640.6434   21918643.5794   21918640.8254
        51.000          45.000
 125386173.61547  97703497.09847  23860205.9304   23860209.5624   23860206.0184
        45.000          40.000
 124050150.52047  96662454.67747  23605959.3394   23605961.5424   23605959.4934
        47.000          40.000
 107675966.39947  83903344.84147  20490059.6714   20490061.6434   20490060.0134
        54.000          49.000
 128205851.40847  99900637.23647  24396784.4954   24396788.6204   24396784.2714
        44.000          38.000
 09  1 11  0 16  0.0000000  0 12G22G 5G30G 6G24G 9G29G14G31G18G21G12
 127425568.52547  99292645.94647  24248282.8874   24248283.8694   24248282.6354
        43.000          37.000
 124739741.63447  97199770.90047  23737205.6784   23737210.6784   23737206.4174
        45.000          39.000
 123010940.32847  95852669.19947  23408211.5944   23408215.2184   23408211.5154
        47.000          41.000
 140537631.85547  91717626.36547  24840491.8034   24840495.7004   24840491.5794
        41.000          35.000
 112936603.31247  88002531.16547  21491132.9154   21491137.3894   21491133.0204
        53.000          46.000
 115937015.13447  90340516.96247  22062092.4714   22062095.5404   22062092.6534
        50.000          44.000
 116572356.71547  90835589.64447  22182990.5094   22182994.3524   22182990.3844
        50.000          45.000
 115185013.93247  89754550.08147  21918982.7224   21918985.8084   21918982.9694
        51.000          45.000
 125282480.05947  97622696.97647  23840473.8404   23840477.4894   23840473.3884
        45.000          40.000
 124030611.62847  96647229.57847  23602241.5604   23602243.5394   23602242.0274
        46.000          40.000
 107621719.33247  83861074.40647  20479736.9494   20479738.8114   20479737.3534
        55.000          49.000
 128206911.85347  99901463.62347  24396986.0614   24396990.6054   24396985.8314
        44.000          38.000
 09  1 11  0 16 30.0000000  0 12G22G 5G30G 6G24G 9G29G14G31G18G21G12
 127407690.87847  99278715.32747  24244880.5234   24244881.6784   24244880.2294
        43.000          37.000
 124725835.73747  97188935.17347  23734559.1564   23734564.8424   23734559.9244
        45.000          39.000
 122990687.48747  95836887.79747  23404357.4314   23404361.3014   23404356.9294
        47.000          41.000
 140481338.60247  91673761.47447  24829779.5494   24829783.4644   24829779.4524
        41.000          35.000
 112963184.85847  88023244.06547  21496191.2474   21496195.5504   21496191.3804
        52.000          46.000
 115995845.70247  90386358.98947  22073287.4754   22073290.6444   22073287.5284
        50.000          44.000
 116646729.90647  90893542.76247  22197143.4834   22197146.9084   22197143.3194
        50.000          45.000
 115187231.29647  89756277.92147  21919404.8324   21919407.6754   21919405.0914
        51.000          45.000
 125178815.02347  97541919.07647  23820746.9494   23820750.5994   23820746.5424
        45.000          40.000
 124010863.81547  96631841.68447  23598483.5094   23598485.3364   23598484.2524
        46.000          39.000
 107567914.04947  83819148.20947  20469498.0544   20469499.8234   20469498.3744
        54.000          49.000
 128207945.40647  99902269.03047  24397182.9584   24397187.7854   24397182.5104
        44.000          38.000
 09  1 11  0 17  0.0000000  0 12G22G 5G30G 6G24G 9G29G14G31G18G21G12
 127389595.54747  99264615.10747  24241437.5994   24241438.1544   24241437.3844
        44.000          38.000
 124711899.87047  97178076.09547  23731907.4024   23731912.9154   23731908.2024
        45.000          39.000
 122970281.39347  95820987.00147  23400474.0174   23400478.1464   23400473.6604
        47.000          41.000
 140425345.09847  91630130.19947  24819123.3064   24819128.0604   24819123.4754
        41.000          35.000
 112990238.98847  88044325.21047  21501339.4554   21501343.9774   21501339.4734
        53.000          46.000
 116055168.02547  90432584.20247  22084576.0444   22084579.1864   22084576.1014
        50.000          43.000
 116721183.45447  90951558.49047  22211311.4844   22211314.8824   22211310.9094
        50.000          45.000
 115189864.96547  89758330.15347  21919905.7574   21919908.7094   21919905.9574
        51.000          45.000
 125075179.91547  97461164.50447  23801025.4064   23801029.7654   23801025.2734
        45.000          40.000
 123990906.63647  96616290.64247  23594685.9994   23594688.0104   23594686.3404
        46.000          39.000
 107514551.84547  83777567.27647  20459343.3824   20459345.3734   20459343.7464
        54.000          49.000
 128208953.01447  99903054.23147  24397374.3084   24397378.7734   24397374.0544
        44.000          38.000
 09  1 11  0 17 30.0000000  0 12G22G 5G30G 6G24G 9G29G14G31G18G21G12
 127371282.74047  99250345.41747  24237952.3494   24237953.2644   24237953.0984
        44.000          37.000
 124697936.71547  97167195.73947  23729250.8624   23729255.7464   23729251.1494
        45.000          39.000
 122949723.98147  95804968.27747  23396562.3734   23396566.6344   23396562.0224
        47.000          41.000
 140369652.38247  91586733.25947  24808526.1044   24808530.7644   24808526.3984
        41.000          35.000
 113017766.98447  88065775.59847  21506577.8684   21506582.2964   21506578.0794
        53.000          46.000
 116114981.85447  90479192.39647  22095958.4224   22095961.6184   22095958.3914
        50.000          44.000
 116795715.41047  91009635.31247  22225494.5564   22225497.9604   22225494.3414
        50.000          45.000
 115192914.43447  89760706.39447  21920486.0534   21920489.0524   21920486.1584
        51.000          45.000
 124971578.45447  97380436.14447  23781310.8634   23781315.0734   23781310.4464
        45.000          40.000
 123970741.19947  96600577.32847  23590848.3864   23590850.5434   23590848.7454
        47.000          40.000
 107461636.65447  83736334.66147  20449273.9614   20449275.9694   20449274.2874
        54.000          49.000
 128209935.96947  99903820.23547  24397560.8854   24397565.7624   24397560.6414
        43.000          38.000
 09  1 11  0 18  0.0000000  0 12G22G 5G30G 6G24G 9G29G14G31G18G21G12
 127352750.47547  99235904.69647  24234426.0574   24234427.0074   24234425.7854
        43.000          37.000
 124683946.63747  97156294.41747  23726587.7374   23726592.9844   23726588.3334
        45.000          39.000
 122929015.01747  95788831.45447  23392621.1894   23392625.5854   23392621.0274
        47.000          41.000
 140314259.44347  91543569.96447  24797984.8184   24797989.4344   24797985.2204
        41.000          36.000
 113045766.92447  88087593.73747  21511906.0394   21511910.4534   21511906.1184
        52.000          46.000
 116175284.06147  90526181.15247  22107433.3974   22107436.8904   22107433.3814
        50.000          43.000
 116870321.48147  91067769.88547  22239691.4254   22239694.9024   22239691.4064
        50.000          45.000
 115196376.36347  89763404.02847  21921144.6294   21921147.7124   21921145.0074
        51.000          45.000
 124868011.61447  97299734.75647  23761602.5254   23761607.0014   23761602.1314
        45.000          40.000
 123950366.73447  96584701.12847  23586971.4174   23586973.6174   23586971.8464
        47.000          39.000
 107409169.68247  83695451.31247  20439289.7404   20439291.7784   20439290.1484
        54.000          49.000
 128210895.24847  99904567.78047  24397743.8764   24397748.2834   24397743.0614
        43.000          38.000
 09  1 11  0 18 30.0000000  0 12G22G 5G30G 6G24G 9G29G14G31G18G21G12
 127334000.96247  99221294.71547  24230858.0954   24230858.8014   24230857.7744
        43.000          38.000
 124669934.20847  97145375.67847  23723921.5514   23723927.1124   23723921.8904
        45.000          39.000
 122908158.75047  95772579.85747  23388652.1174   23388656.6234   23388651.6394
        46.000          41.000
 140259169.53647  91500642.76547  24787501.2294   24787506.0724   24787501.8154
        40.000          35.000
 113074241.64547  88109781.83947  21517324.3964   21517329.1564   21517324.5474
        53.000          46.000
 116236075.86147  90573551.41147  22119001.7594   22119004.9564   22119001.8914
        50.000          43.000
 116945001.81047  91125962.31747  22253902.7874   22253906.3514   22253902.5834
        50.000          45.000
 115200251.86647  89766423.92647  21921882.4514   21921885.2294   21921882.6434
        51.000          45.000
 124764484.65147  97219064.45547  23741902.0444   23741906.3124   23741901.4494
        44.000          40.000
 123929786.46947  96568664.55347  23583055.2894   23583057.1654   23583055.6494
        46.000          40.000
 107357156.11047  83654921.26247  20429391.9874   20429394.1084   20429392.2944
        55.000          49.000
 128211835.42147  99905300.46547  24397922.8564   24397927.3334   24397922.7344
        44.000          38.000
 09  1 11  0 19  0.0000000  0 12G22G 5G30G 6G24G 9G29G14G31G18G21G12
 127315031.70047  99206513.53347  24227247.9664   24227249.1284   24227247.4734
        42.000          38.000
 124655899.53847  97134439.59047  23721250.8564   23721256.4804   23721251.2974
        45.000          39.000
 122887154.73947  95756213.13147  23384655.2714   23384659.4854   23384654.9194
        47.000          41.000
 140204380.77247  91457950.22947  24777075.6574   24777080.3324   24777075.5744
        41.000          35.000
 113103189.04047  88132338.25247  21522833.2104   21522837.4984   21522833.4164
        53.000          46.000
 116297353.95047  90621300.59547  22130662.4564   22130665.7374   22130662.4804
        50.000          44.000
 117019751.99147  91184209.18147  22268127.6134   22268130.8214   22268127.4074
        50.000          45.000
 115204537.59847  89769763.48647  21922697.9144   21922700.8434   21922698.2384
        51.000          45.000
 124660998.56247  97138425.99147  23722209.2974   23722213.3774   23722209.3044
        46.000          40.000
 123908999.35447  96552466.80047  23579099.4464   23579101.6694   23579100.0674
        47.000          40.000
 107305596.99447  83614745.33247  20419580.7704   20419582.6354   20419581.2214
        55.000          49.000
 128212756.53247  99906018.27647  24398098.4654   24398102.3984   24398098.1314
        44.000          38.000
 09  1 11  0 19 30.0000000  0 12G22G 5G30G 6G24G 9G29G14G31G18G21G12
 127295840.53747  99191559.39347  24223595.8134   24223597.7214   24223596.0574
        44.000          37.000
 124641842.41547  97123486.01047  23718575.9024   23718581.4084   23718576.3304
        45.000          39.000
 122866001.95547  95739730.47747  23380630.3004   23380634.4084   23380630.4014
        47.000          41.000
 140149891.77247  91415491.25447  24766707.2264   24766711.8564   24766706.9894
        42.000          36.000
 113132606.95147  88155261.29747  21528431.1544   21528435.6654   21528431.3224
        53.000          46.000
 116359115.04847  90669426.13547  22142414.8984   22142418.3684   22142415.1084
        49.000          43.000
 117094567.29447  91242506.79347  22282364.3524   22282368.1224   22282363.8424
        50.000          45.000
 115209229.27147  89773419.36347  21923590.5464   21923593.4674   21923590.7394
        51.000          45.000
 124557554.03547  97057819.91747  23702524.7014   23702529.0244   23702524.3504
        45.000          40.000
 123888003.54247  96536106.42447  23575103.9224   23575106.2164   23575104.4534
        47.000          40.000
 107254492.72147  83574923.81947  20409855.8494   20409857.8584   20409856.2714
        54.000          49.000
 128213657.85547  99906720.66047  24398269.6644   24398274.0104   24398269.3124
        44.000          39.000
 09  1 11  0 20  0.0000000  0 12G22G 5G30G 6G24G 9G29G14G31G18G21G12
 127276428.90947  99176433.48847  24219902.6274   24219903.3714   24219902.5444
        44.000          38.000
 124627767.00447  97112518.19947  23715897.0844   23715902.9704   23715897.6944
        45.000          39.000
 122844704.14047  95723134.80747  23376576.9864   23376581.6084   23376576.6754
        46.000          41.000
 140095704.62547  91373267.53347  24756395.1734   24756400.9264   24756395.6184
        41.000          36.000
 113162497.59847  88178552.71147  21534119.2824   21534123.6884   21534119.4304
        53.000          46.000
 116421359.67547  90717928.46047  22154259.8894   22154263.0774   22154260.1474
        49.000          43.000
 117169447.15047  91300854.70747  22296613.5864   22296617.2444   22296613.2904
        50.000          45.000
 115214327.48047  89777392.02547  21924560.7604   21924563.6604   21924560.8424
        51.000          45.000
 124454155.80347  96977249.90647  23682848.8634   23682852.4624   23682848.1284
        46.000          40.000
 123866802.18147  96519585.89047  23571069.3594   23571071.5514   23571069.7284
        47.000          39.000
 107203848.19547  83535460.55047  20400218.5144   20400220.4604   20400218.8434
        54.000          49.000
 128214543.90547  99907411.14747  24398438.1644   24398442.7934   24398437.9564
        43.000          39.000
 09  1 11  0 20 30.0000000  0 12G22G 5G30G 6G24G 9G29G14G31G18G21G12
 127256798.99147  99161137.46047  24216167.2334   24216167.7564   24216167.0724
        43.000          38.000
 124613677.82647  97101539.65747  23713216.3064   23713221.9104   23713217.1444
        45.000          39.000
 122823264.98047  95706428.99847  23372497.4104   23372501.6264   23372496.7284
        47.000          40.000
 140041822.51247  91331281.48647  24746141.9724   24746146.6574   24746142.2194
        43.000          36.000
 113192863.42547  88202214.39547  21539897.5624   21539902.1214   21539897.8944
        52.000          46.000
 116484088.80047  90766808.30947  22166197.0334   22166200.2284   22166197.0894
        49.000          43.000
 117244391.68747  91359253.01347  22310875.1174   22310878.6294   22310875.0974
        50.000          45.000
 115219833.39147  89781682.37947  21925608.3924   21925611.4294   21925608.6304
        51.000          45.000
 124350809.16847  96896720.10847  23663182.4804   23663186.1154   23663181.9984
        45.000          40.000
 123845398.25547  96502907.53247  23566996.5064   23566998.0244   23566997.3794
        48.000          40.000
 107153668.97447  83496359.85847  20390669.5674   20390671.5344   20390669.9054
        54.000          49.000
 128215418.96247  99908093.07547  24398604.6754   24398609.1244   24398604.3334
        44.000          39.000
 09  1 11  0 21  0.0000000  0 12G22G 5G30G 6G24G 9G29G14G31G18G21G12
 127236946.43047  99145667.97847  24212389.4814   24212390.0634   24212389.3094
        43.000          37.000
 124599573.11347  97090548.98947  23710532.1664   23710537.4294   23710532.4604
        45.000          39.000
 122801682.30947  95689611.36447  23368390.5704   23368394.3054   23368390.4814
        47.000          41.000
 139988242.04147  91289530.45147  24735946.7244   24735950.2734   24735946.7244
        41.000          36.000
 113223700.51247  88226243.29047  21545765.7234   21545770.2524   21545765.8224
        53.000          46.000
 116547297.25047  90816061.66447  22178225.1724   22178228.1454   22178225.3384
        50.000          43.000
 117319394.72247  91417696.90247  22325147.8254   22325151.3214   22325147.5244
        50.000          45.000
 115225741.32847  89786286.00647  21926732.5254   21926735.5364   21926732.8704
        50.000          45.000
 124247513.16247  96816229.75747  23643526.1644   23643529.3904   23643525.5504
        46.000          40.000
 123823789.08047  96486069.23147  23562884.5494   23562886.4354   23562885.0534
        47.000          40.000
 107103953.71047  83457620.69647  20381209.2904   20381211.0434   20381209.6894
        54.000          49.000
 128216280.70647  99908764.61147  24398768.5454   24398773.6004   24398768.4564
        44.000          38.000
 09  1 11  0 21 30.0000000  0 12G22G 5G30G 6G24G 9G29G14G31G18G21G12
 127216875.62047  99130028.44347  24208569.4634   24208570.2704   24208569.5294
        44.000          37.000
 124585459.19847  97079551.15947  23707846.6124   23707851.7184   23707847.2494
        46.000          40.000
 122779961.97247  95672686.47747  23364257.3524   23364261.0074   23364256.9164
        47.000          41.000
 139934967.82547  91248018.07847  24725808.4724   24725812.5294   24725808.3674
        42.000          36.000
 113255012.95747  88250642.59147  21551724.2644   21551728.6074   21551724.5694
        52.000          46.000
 116610987.53247  90865690.48447  22190344.8334   22190347.6554   22190345.0294
        50.000          43.000
 117394458.03647  91476187.77747  22339431.7774   22339435.1824   22339431.3814
        50.000          45.000
 115232054.04547  89791205.04047  21927933.7534   21927936.9134   21927933.9474
        51.000          45.000
 124144274.40547  96735784.01947  23623879.9524   23623883.3934   23623879.9504
        46.000          40.000
 123801979.60047  96469074.85647  23558734.4834   23558736.3534   23558734.6614
        47.000          40.000
 107054709.28147  83419248.41547  20371838.2094   20371840.2674   20371838.5554
        54.000          49.000
 128217135.48747  99909430.73047  24398931.2924   24398935.5324   24398931.3504
        44.000          39.000
 09  1 11  0 22  0.0000000  0 12G22G 5G30G 6G24G 9G29G14G31G18G21G12
 127196580.86147  99114214.35347  24204707.2174   24204708.5244   24204707.5004
        44.000          37.000
 124571332.86947  97068543.65147  23705158.5414   23705163.3594   23705159.2794
        45.000          40.000
 122758099.94547  95655651.15647  23360097.0994   23360101.2204   23360096.8344
        48.000          41.000
 139881995.02647  91206740.59147  24715727.9014   24715732.6774   24715727.8324
        42.000          36.000
 113286795.51147  88275408.21747  21557772.3014   21557776.8254   21557772.4764
        52.000          46.000
 116675152.80347  90915689.40747  22202555.0424   22202558.3174   22202555.1694
        50.000          44.000
 117469573.81947  91534719.53747  22353725.8704   22353729.5364   22353725.5204
        50.000          45.000
 115238764.55747  89796434.05547  21929210.7264   21929213.5334   21929211.1804
        50.000          44.000
 124041091.25747  96655381.61847  23604244.7404   23604248.1764   23604244.6414
        46.000          40.000
 123779965.16947  96451920.76047  23554545.0694   23554547.3624   23554545.5594
        48.000          40.000
 107005933.24847  83381241.11847  20362556.4274   20362558.4674   20362556.7324
        54.000          49.000
 128217980.35247  99910089.13047  24399092.1584   24399096.3324   24399091.8704
        43.000          39.000
 09  1 11  0 22 30.0000000  0 12G22G 5G30G 6G24G 9G29G14G31G18G21G12
 127176064.15447  99098227.32447  24200803.5394   24200804.1514   24200803.4604
        44.000          38.000
 124557198.60647  97057529.95847  23702468.5924   23702474.2654   23702468.7594
        45.000          39.000
 122736100.49547  95638508.75747  23355911.0374   23355914.7794   23355910.7014
        48.000          41.000
 139829326.09947  91165699.86247  24705705.5034   24705710.0404   24705705.4314
        42.000          36.000
 113319050.23647  88300541.76747  21563910.3064   21563914.7904   21563910.5394
        53.000          46.000
 116739794.40347  90966059.49547  22214856.0834   22214858.9874   22214856.3024
        50.000          43.000
 117544741.97947  91593292.09547  22368030.0574   22368033.5544   22368029.8294
        50.000          45.000
 115245873.52847  89801973.54347  21930563.5184   21930566.1624   21930563.7744
        51.000          45.000
 123937968.67247  96575026.40647  23584620.7744   23584624.3954   23584620.2194
        45.000          40.000
 123757749.12347  96434609.58047  23550317.3624   23550319.3894   23550317.9454
        47.000          40.000
 106957630.96147  83343602.97447  20353364.9924   20353366.8474   20353365.4464
        55.000          49.000
 128218819.45947  99910743.03947  24399251.9804   24399256.8024   24399251.5984
        43.000          38.000
 09  1 11  0 23  0.0000000  0 12G22G 5G30G 6G24G 9G29G14G31G18G21G12
 127155325.81647  99082067.60347  24196856.8614   24196857.9204   24196856.7634
        43.000          37.000
 124543059.00047  97046512.11647  23699777.6324   23699783.1634   23699778.2574
        45.000          39.000
 122713965.59047  95621260.79147  23351699.0594   23351702.9484   23351698.5434
        48.000          41.000
 139776962.08547  91124896.74647  24695740.8544   24695745.0554   24695740.7174
        41.000          37.000
 113351777.58647  88326043.59847  21570138.0264   21570142.4584   21570138.3144
        52.000          46.000
 116804911.29147  91016799.94047  22227247.2904   22227250.3664   22227247.3094
        49.000          43.000
 117619960.68947  91651904.06547  22382343.8384   22382347.0174   22382343.6744
        50.000          44.000
 115253379.72547  89807822.56147  21931991.6834   21931994.6754   21931991.9474
        50.000          45.000
 123834909.82247  96494720.84047  23565009.2084   23565013.0104   23565007.7744
        45.000          40.000
 123735332.79847  96417142.32647  23546051.5214   23546053.6084   23546051.8394
        47.000          40.000
 106909804.67347  83306335.74347  20344263.8634   20344265.8214   20344264.2494
        55.000          49.000
 128219655.10547  99911394.25947  24399411.1744   24399414.9034   24399411.1064
        44.000          38.000
 09  1 11  0 23 30.0000000  0 12G22G 5G30G 6G24G 9G29G14G31G18G21G12
 127134362.54447  99065732.60847  24192867.5494   24192868.2914   24192867.2154
        43.000          37.000
 124528913.12847  97035489.37947  23697085.7324   23697091.1004   23697086.1384
        45.000          39.000
 122691693.85347  95603906.21347  23347460.5404   23347464.3574   23347460.3504
        48.000          41.000
 139724900.55547  91084329.31747  24685833.6834   24685838.1764   24685833.7954
        42.000          36.000
 113384974.52047  88351911.32947  21576455.3514   21576459.6104   21576455.5384
        53.000          46.000
 116870498.70847  91067907.03047  22239728.3144   22239731.2854   22239728.2224
        50.000          43.000
 117695224.63847  91710551.26647  22396665.6164   22396669.2054   22396665.2114
        50.000          44.000
 115261278.45147  89813977.45247  21933494.6954   21933497.8534   21933494.9524
        50.000          44.000
 123731914.78047  96414465.00647  23545410.0014   23545413.6684   23545408.9684
        45.000          40.000
 123712714.27847  96399517.51647  23541747.5884   23541749.6354   23541747.9284
        47.000          40.000
 106862454.98247  83269439.87747  20335253.6494   20335255.4594   20335254.0624
        55.000          49.000
 128220486.59347  99912042.22847  24399568.5784   24399573.5254   24399568.5394
        43.000          38.000
 09  1 11  0 24  0.0000000  0 12G22G 5G30G 6G24G 9G29G14G31G18G21G12
 127113179.01947  99049225.95147  24188837.0434   24188837.3124   24188836.4784
        44.000          37.000
 124514767.91047  97024467.14047  23694394.1314   23694399.4794   23694394.6044
        45.000          39.000
 122669291.40747  95586449.78947  23343197.3354   23343201.5294   23343196.8774
        48.000          41.000
 139673146.22947  91044001.27947  24675985.3874   24675989.8564   24675985.2134
        42.000          36.000
 113418645.57047  88378148.50847  21582862.5864   21582867.0114   21582862.8674
        53.000          46.000
 116936560.22047  91119383.55947  22252299.5354   22252302.3164   22252299.7074
        50.000          43.000
 117770536.05047  91769235.45547  22410997.1424   22411000.4774   22410996.9464
        50.000          44.000
 115269572.87447  89820440.67447  21935073.0644   21935076.1474   21935073.1424
        50.000          45.000
 123628990.89647  96334264.62547  23525824.2634   23525827.8944   23525823.5314
        45.000          40.000
 123689898.88147  96381739.29447  23537406.2264   23537408.1284   23537406.3114
        47.000          40.000
 106815589.29647  83232921.16547  20326335.2964   20326337.1534   20326335.5814
        54.000          49.000
 128221320.60747  99912692.16047  24399727.3904   24399731.8854   24399727.2434
        44.000          38.000
 09  1 11  0 24 30.0000000  0 12G22G 5G30G 6G24G 9G29G14G31G18G21G12
 127091769.31347  99032543.07047  24184762.1254   24184763.7254   24184762.4624
        44.000          38.000
 124500620.19147  97013442.95947  23691701.6644   23691706.9904   23691702.3964
        44.000          39.000
 122646754.36047  95568888.47647  23338908.6884   23338913.1764   23338908.4934
        48.000          41.000
 139621694.50247  91003909.00447  24666194.4884   24666199.0034   24666194.0524
        42.000          37.000
 113452785.39447  88404750.95647  21589359.1124   21589363.5434   21589359.1804
        53.000          46.000
 117003088.80247  91171224.02847  22264959.1554   22264962.3354   22264959.0964
        49.000          43.000
 117845887.38147  91827950.75347  22425335.7484   22425339.2234   22425335.3114
        49.000          44.000
 115278255.99347  89827206.77347  21936725.5824   21936728.7134   21936725.8444
        50.000          45.000
 123526136.00547  96254117.99847  23506251.3474   23506255.2594   23506251.0394
        45.000          41.000
 123666882.45647  96363804.43247  23533025.8234   23533027.9734   23533026.0974
        47.000          39.000
 106769204.58947  83196777.23847  20317508.5604   20317510.4064   20317508.9744
        54.000          49.000
 128222153.55147  99913341.24047  24399886.1784   24399890.1494   24399886.0234
        43.000          38.000
 09  1 11  0 25  0.0000000  0 12G22G 5G30G 6G24G 9G29G14G31G18G21G12
 127070136.54447  99015686.39947  24180645.9324   24180646.6354   24180646.3324
        44.000          38.000
 124486475.42447  97002421.07247  23689010.1824   23689015.7264   23689010.6054
        45.000          39.000
 122624087.89947  95551226.30947  23334595.2874   23334599.4034   23334595.2184
        48.000          41.000
 139570548.69947  90964055.12847  24656461.2234   24656465.9834   24656461.8944
        42.000          37.000
 113487397.02547  88431721.04647  21595945.5504   21595949.9734   21595945.5474
        52.000          46.000
 117070085.93247  91223429.60047  22277708.4064   22277711.6414   22277708.2644
        50.000          43.000
 117921279.24647  91886697.63547  22439682.3984   22439685.6914   22439681.8364
        49.000          44.000
 115287329.59247  89834277.15047  21938452.3054   21938455.1284   21938452.4714
        51.000          45.000
 123423356.33347  96174029.98347  23486693.3354   23486696.9974   23486692.5164
        45.000          40.000
 123643669.12947  96345716.13547  23528608.6204   23528610.5964   23528609.3354
        48.000          40.000
 106723307.01947  83161012.90347  20308774.4074   20308776.5144   20308774.7674
        55.000          49.000
 128222990.91847  99913993.77147  24400044.9384   24400049.9334   24400044.6554
        43.000          37.000
 09  1 11  0 25 30.0000000  0 12G22G 5G30G 6G24G 9G29G14G31G18G21G12
 127048279.40347  98998654.87347  24176487.0814   24176487.3964   24176487.2354
        44.000          38.000
 124472334.25847  96991402.01647  23686319.0044   23686324.7714   23686319.9274
        45.000          39.000
 122601292.04147  95533463.32447  23330257.3334   23330261.8094   23330257.2104
        47.000          41.000
 139519707.67547  90924438.74147  24646786.9054   24646791.8024   24646787.0954
        42.000          37.000
 113522478.76347  88459057.46047  21602621.4154   21602625.6704   21602621.5474
        53.000          46.000
 117137548.51947  91275997.87447  22290546.0414   22290549.5204   22290546.4504
        49.000          43.000
 117996707.95747  91945473.22847  22454036.1484   22454039.4574   22454036.0874
        49.000          44.000
 115296790.14847  89841649.04947  21940252.7184   21940255.6404   21940253.0484
        51.000          45.000
 123320653.35847  96094001.72547  23467149.6774   23467153.1584   23467149.4434
        46.000          41.000
 123620258.44947  96327474.06747  23524153.7604   23524155.8544   23524154.2604
        47.000          39.000
 106677897.64447  83125628.97347  20300133.4384   20300135.3054   20300133.8154
        54.000          49.000
 128223833.02847  99914650.00447  24400204.8704   24400209.6334   24400204.7514
        42.000          38.000
 09  1 11  0 26  0.0000000  0 12G22G 5G30G 6G24G 9G29G14G31G18G21G12
 127026197.24047  98981447.99547  24172284.7504   24172285.3164   24172284.4564
        44.000          38.000
 124458198.16047  96980386.90347  23683628.6174   23683633.9844   23683629.3304
        45.000          39.000
 122578367.97947  95515600.42347  23325895.0034   23325899.3244   23325894.1504
        47.000          41.000
 139469171.40947  90885059.83147  24637170.3544   24637174.7564   24637170.2854
        42.000          37.000
 113558029.80947  88486759.57447  21609386.4684   21609390.7804   21609386.6054
        52.000          46.000
 117205474.77447  91328927.41247  22303471.9254   22303475.7724   22303471.7684
        50.000          43.000
 118072170.51747  92004275.20047  22468396.3634   22468399.3494   22468396.3164
        50.000          44.000
 115306635.27747  89849320.60847  21942126.0944   21942128.9544   21942126.3734
        51.000          45.000
 123218029.39347  96014035.04247  23447620.9424   23447624.4494   23447621.0394
        46.000          41.000
 123596650.68247  96309078.43147  23519661.5254   23519663.5174   23519661.7174
        47.000          39.000
 106632978.48947  83090627.03847  20291585.6394   20291587.5574   20291586.0284
        55.000          49.000
 128224681.46747  99915311.18247  24400366.5364   24400371.6044   24400366.2224
        43.000          38.000
 09  1 11  0 26 30.0000000  0 12G22G 5G30G 6G24G 9G29G14G31G18G21G12
 127003890.62647  98964066.23047  24168039.8584   24168040.8344   24168039.5054
        44.000          38.000
 124444070.51647  96969378.36847  23680940.9524   23680945.9234   23680941.2944
        45.000          39.000
 122555318.67947  95497639.96447  23321508.7624   23321512.9954   23321508.7364
        48.000          41.000
 139418941.23747  90845919.43947  24627611.6894   24627616.7534   24627611.4104
        41.000          36.000
 113594051.15647  88514828.14847  21616241.0234   21616245.7524   21616241.2834
        52.000          46.000
 117273864.08547  91382217.80047  22316486.3194   22316489.6114   22316486.5314
        50.000          43.000
 118147665.67547  92063102.57447  22482762.5604   22482765.9154   22482762.1394
        49.000          44.000
 115316864.42047  89857291.40347  21944072.4084   21944075.4924   21944072.8074
        51.000          45.000
 123115488.10247  95934132.77447  23428108.0704   23428111.4524   23428108.2434
        46.000          41.000
 123572847.90747  96290530.83147  23515131.5854   23515134.1904   23515132.1704
        47.000          40.000
 106588553.34347  83056010.04247  20283131.8274   20283133.7164   20283132.2374
        55.000          49.000
 128225539.98947  99915980.19147  24400530.2854   24400534.8944   24400529.8414
        44.000          38.000
 09  1 11  0 27  0.0000000  0 12G22G 5G30G 6G24G 9G29G14G31G18G21G12
 126981358.62247  98946508.86147  24163752.1464   24163752.8144   24163752.1614
        44.000          37.000
 124429952.36147  96958377.24147  23678254.2434   23678259.2814   23678255.2464
        46.000          39.000
 122532144.34647  95479582.07347  23317099.2104   23317103.2904   23317099.3334
        47.000          41.000
 139369016.04047  90807016.67447  24618111.2704   24618116.0934   24618111.0594
        41.000          36.000
 113630541.25847  88543261.98547  21623184.8584   21623189.7314   21623185.0224
        52.000          46.000
 117342713.81347  91435866.96447  22329588.0474   22329590.9664   22329588.1474
        49.000          43.000
 118223190.33247  92121952.92947  22497133.9684   22497138.2384   22497133.2994
        49.000          44.000
 115327474.77047  89865559.24547  21946091.7004   21946094.5384   21946092.0474
        51.000          45.000
 123013031.70647  95854296.66347  23408611.1744   23408614.6714   23408611.3354
        46.000          41.000
 123548849.80047  96271831.00747  23510565.2784   23510567.2974   23510565.5404
        47.000          40.000
 106544623.49347  83021778.98747  20274772.2104   20274774.1654   20274772.6124
        54.000          49.000
 128226408.26047  99916656.78047  24400695.1444   24400699.5364   24400695.3504
        43.000          38.000
 09  1 11  0 27 30.0000000  0 12G22G 5G30G 6G24G 9G29G14G31G18G21G12
 126958602.30647  98928776.67247  24159421.8904   24159422.2874   24159421.6374
        44.000          38.000
 124415846.62647  96947385.77647  23675570.3044   23675575.1284   23675570.7354
        45.000          39.000
 122508847.64947  95461428.82647  23312666.2104   23312669.8524   23312665.4074
        48.000          41.000
 139319397.02047  90768352.51747  24608669.5344   24608674.1474   24608669.5014
        42.000          36.000
 113667500.46047  88572061.35247  21630218.0774   21630222.7794   21630218.1094
        52.000          46.000
 117412022.75947  91489873.94247  22342776.8614   22342780.2054   22342776.7764
        49.000          43.000
 118298742.79447  92180824.94947  22511511.6294   22511515.2624   22511511.1264
        50.000          44.000
 115338465.31047  89874123.33047  21948182.8694   21948185.7044   21948183.0224
        51.000          45.000
 122910664.12547  95774529.75047  23389131.2824   23389134.8194   23389131.0814
        46.000          41.000
 123524658.24347  96252980.44447  23505961.7334   23505963.5084   23505962.0634
        47.000          40.000
 106501192.43847  82987936.61347  20266507.4654   20266509.5724   20266507.8294
        54.000          49.000
 128227289.65147  99917343.58547  24400863.0364   24400867.3584   24400862.8834
        44.000          38.000
 09  1 11  0 28  0.0000000  0 12G22G 5G30G 6G24G 9G29G14G31G18G21G12
 126935618.96047  98910867.55947  24155048.0554   24155048.5904   24155048.0174
        45.000          38.000
 124401753.80647  96936404.37447  23672888.3324   23672893.0264   23672888.7814
        46.000          39.000
 122485428.58947  95443180.20747  23308209.5904   23308212.9174   23308209.2144
        48.000          41.000
 139270082.80647  90729925.86247  24599284.6434   24599289.5644   24599284.5874
        41.000          36.000
 113704927.00447  88601224.88347  21637340.0654   21637344.7464   21637340.0634
        52.000          46.000
 117481787.91847  91544236.42147  22356052.8314   22356056.0534   22356052.9794
        49.000          43.000
 118374319.08547  92239715.52847  22525893.4434   22525896.9714   22525893.2784
        50.000          44.000
 115349832.59047  89882980.98447  21950346.0014   21950348.8694   21950346.2894
        51.000          45.000
 122808386.28947  95694832.77247  23369668.8334   23369672.2334   23369668.1444
        46.000          41.000
 123500272.74647  96233978.77047  23501321.1944   23501323.1844   23501321.1984
        47.000          40.000
 106458261.14447  82954483.66147  20258338.0714   20258339.9474   20258338.3504
        55.000          49.000
 128228184.54447  99918040.93447  24401033.3444   24401037.6644   24401033.5554
        43.000          38.000
 09  1 11  0 28 30.0000000  0 12G22G 5G30G 6G24G 9G29G14G31G18G21G12
 126912410.98147  98892783.43747  24150631.6514   24150632.2444   24150632.1314
        44.000          38.000
 124387678.44647  96925436.60947  23670209.7964   23670214.8184   23670210.4364
        46.000          39.000
 122461890.97647  95424839.23647  23303730.3644   23303734.2824   23303730.1904
        48.000          41.000
 139221075.96547  90691738.71947  24589958.7634   24589964.1614   24589959.1344
        41.000          37.000
 113742822.86447  88630754.11847  21644551.3574   21644556.0734   21644551.5414
        52.000          46.000
 117552009.57547  91598954.60647  22369415.3674   22369418.8824   22369415.4394
        49.000          43.000
 118449919.02947  92298624.54147  22540279.8274   22540283.1604   22540279.4794
        49.000          44.000
 115361577.11247  89892132.59347  21952580.4484   21952583.8264   21952580.7874
        51.000          45.000
 122706203.44947  95615209.82847  23350223.7774   23350227.3624   23350223.0534
        46.000          41.000
 123475696.72047  96214828.62247  23496644.4654   23496646.1954   23496644.8944
        47.000          40.000
 106415834.26247  82921423.75647  20250264.3604   20250266.3414   20250264.7164
        54.000          49.000
 128229097.79747  99918752.57847  24401206.8774   24401211.9844   24401206.5514
        42.000          38.000
 09  1 11  0 29  0.0000000  0 12G22G 5G30G 6G24G 9G29G14G31G18G21G12
 126888975.18947  98874521.79947  24146171.9324   24146173.2084   24146171.6644
        44.000          38.000
 124373618.94947  96914481.16147  23667534.0404   23667539.6244   23667534.6064
        45.000          39.000
 122438232.84147  95406404.33847  23299228.1884   23299232.1914   23299227.8524
        46.000          41.000
 139172372.85847  90653788.23347  24580691.7254   24580696.0384   24580691.9024
        41.000          37.000
 113781183.74747  88660645.70547  21651851.1994   21651855.7704   21651851.2734
        52.000          46.000
 117622682.27847  91654024.26147  22382863.6264   22382866.9884   22382863.6184
        49.000          43.000
 118525536.62147  92357547.32047  22554669.2054   22554672.7714   22554668.8394
        49.000          44.000
 115373692.96047  89901573.54647  21954886.3524   21954889.1434   21954886.6694
        51.000          45.000
 122604114.95347  95535660.39547  23330797.0234   23330800.7224   23330796.7184
        46.000          41.000
 123450927.44747  96195527.91147  23491930.9634   23491932.7144   23491931.4224
        47.000          40.000
 106373910.63647  82888755.99547  20242286.6904   20242288.6354   20242287.0234
        54.000          49.000
 128230026.90247  99919476.59447  24401383.3324   24401388.3944   24401383.2774
        42.000          38.000
 09  1 11  0 29 30.0000000  0 12G22G 5G30G 6G24G 9G29G14G31G18G21G12
 126865314.69947  98856085.07347  24141669.7704   24141670.4634   24141670.2314
        45.000          39.000
 124359581.12347  96903542.60447  23664862.7694   23664867.9784   23664863.1574
        45.000          39.000
 122414459.76947  95387879.87847  23294704.0084   23294707.9914   23294703.3214
        47.000          41.000
 139123977.37347  90616077.48447  24571481.7254   24571487.0194   24571481.7854
        42.000          37.000
 113820013.15047  88690902.36247  21659240.2644   21659245.0454   21659240.5014
        52.000          46.000
 117693808.06447  91709446.97247  22396398.8054   22396402.0214   22396398.8244
        49.000          43.000
 118601173.22147  92416484.89947  22569062.4084   22569066.3604   22569062.2824
        50.000          44.000
 115386182.22247  89911305.45947  21957263.1124   21957265.8914   21957263.3774
        51.000          45.000
 122502127.38147  95456189.62447  23311389.1434   23311393.2584   23311388.5594
        47.000          41.000
 123425969.22747  96176079.95047  23487181.6664   23487183.3864   23487182.3114
        47.000          40.000
 106332496.42247  82856485.18747  20234405.6574   20234407.8674   20234405.9834
        54.000          49.000
 128230978.00947  99920217.75947  24401564.2904   24401569.4384   24401564.3494
        43.000          38.000
 09  1 11  0 30  0.0000000  0 12G22G 5G30G 6G24G 9G29G14G31G18G21G12
 126841428.04547  98837472.13347  24137124.0934   24137125.2444   24137123.9374
        44.000          38.000
 124345566.05247  96892621.78547  23662196.2254   23662200.7894   23662196.4144
        46.000          39.000
 122390572.17447  95369266.19147  23290158.0044   23290162.7954   23290157.9724
        47.000          41.000
 139075888.39047  90578605.54047  24562330.7294   24562335.8564   24562331.3834
        41.000          37.000
 113859309.29947  88721522.73147  21666718.1544   21666722.6304   21666718.1424
        52.000          46.000
 117765383.62347  91765220.15147  22410018.9904   22410022.4224   22410019.2354
        49.000          43.000
 118676825.58747  92475434.75747  22583458.8054   22583462.5564   22583458.6084
        49.000          44.000
 115399041.55247  89921325.73947  21959709.9434   21959712.8494   21959710.1714
        50.000          44.000
 122400242.49047  95376798.84347  23292001.2844   23292004.9774   23292000.9544
        46.000          41.000
 123400822.09647  96156484.81047  23482395.9874   23482398.5504   23482396.4494
        47.000          39.000
 106291592.75447  82824612.20247  20226621.9214   20226623.9014   20226622.3114
        54.000          49.000
 128231951.58447  99920976.41847  24401750.1864   24401754.4914   24401749.6464
        43.000          38.000
 09  1 11  0 30 30.0000000  0 12G22G 5G30G 6G24G 9G29G14G31G18G21G12
 126817313.26047  98818681.39947  24132534.6954   24132535.6524   24132534.2004
        44.000          38.000
 124331573.57847  96881718.56447  23659533.3774   23659538.1654   23659533.6354
        45.000          39.000
 122366569.59047  95350562.88847  23285590.7274   23285595.4304   23285590.2514
        47.000          41.000
 139028104.07947  90541371.01347  24553237.9634   24553242.5034   24553238.2684
        42.000          37.000
 113899069.76547  88752504.89747  21674284.2514   21674288.8064   21674284.3584
        52.000          45.000
 117837405.25947  91821340.92547  22423724.3094   22423727.5064   22423724.2844
        49.000          43.000
 118752489.03147  92534393.25547  22597856.8984   22597860.4914   22597856.9394
        48.000          43.000
 115412267.16847  89931631.43947  21962226.7874   21962229.2274   21962226.9754
        51.000          45.000
 122298461.02447  95297488.66247  23272633.0334   23272636.3744   23272632.4284
        47.000          42.000
 123375485.13547  96136741.73147  23477574.6584   23477576.6534   23477575.1724
        47.000          39.000
 106251200.24347  82793137.52147  20218935.5754   20218937.4744   20218935.9924
        54.000          49.000
 128232947.84747  99921752.76147  24401939.7844   24401943.9544   24401939.4424
        43.000          38.000
 09  1 11  0 31  0.0000000  0 12G22G 5G30G 6G24G 9G29G14G31G18G21G12
 126792972.92747  98799714.93747  24127903.2024   24127903.8264   24127902.9744
        45.000          39.000
 124317608.27247  96870836.54047  23656875.8924   23656881.2744   23656876.4714
        46.000          40.000
 122342455.82847  95331772.95647  23281002.5914   23281006.6004   23281002.2704
        47.000          41.000
 138980626.75747  90504375.70147  24544203.2654   24544208.4344   24544203.5024
        43.000          37.000
 113939296.03547  88783850.02147  21681939.1444   21681943.6244   21681939.1794
        52.000          45.000
 117909873.33647  91877809.57647  22437514.0304   22437517.4814   22437514.2744
        48.000          42.000
 118828163.63347  92593360.44947  22612257.1784   22612260.6984   22612256.9894
        49.000          44.000
 115425859.53247  89942222.90647  21964813.4064   21964815.9814   21964813.6804
        51.000          44.000
 122196788.31147  95218263.21947  23253285.3874   23253288.8874   23253285.5254
        47.000          42.000
 123349961.37447  96116853.10247  23472717.8344   23472719.6004   23472718.2534
        47.000          40.000
 106211323.17747  82762064.48847  20211347.1104   20211349.0034   20211347.4574
        54.000          49.000
 128233970.77847  99922549.86947  24402133.9504   24402138.5904   24402133.4834
        43.000          38.000
 09  1 11  0 31 30.0000000  0 12G22G 5G30G 6G24G 9G29G14G31G18G21G12
 126768404.88147  98780571.03447  24123228.6584   24123229.0944   24123228.8374
        45.000          39.000
 124303671.21547  96859976.51247  23654223.5344   23654229.2314   23654224.0294
        45.000          40.000
 122318231.74947  95312897.05847  23276392.6374   23276396.7754   23276392.5574
        47.000          41.000
 138933455.40447  90467618.79347  24535227.0584   24535231.6014   24535227.0674
        43.000          37.000
 113979986.85547  88815557.13747  21689682.3304   21689686.8304   21689682.3094
        52.000          45.000
 117982785.15347  91934623.98247  22451388.6124   22451392.2624   22451388.7394
        49.000          42.000
 118903845.96547  92652333.67447  22626659.0684   22626662.9484   22626658.7654
        49.000          44.000
 115439815.29647  89953097.55947  21967469.0674   21967471.6584   21967469.2674
        51.000          44.000
 122095226.14947  95139123.93047  23233958.6914   23233962.2394   23233958.4464
        47.000          42.000
 123324251.09947  96096819.13447  23467825.3144   23467827.2354   23467825.4694
        47.000          40.000
 106171962.97347  82731394.20047  20203857.2614   20203859.1804   20203857.6734
        54.000          49.000
 128235021.58447  99923368.70747  24402334.6074   24402338.2184   24402334.3544
        43.000          38.000
 09  1 11  0 32  0.0000000  0 12G22G 5G30G 6G24G 9G29G14G31G18G21G12
 126743609.13747  98761249.70647  24118509.9914   24118510.8614   24118510.0584
        45.000          39.000
 124289764.12347  96849139.82947  23651577.2054   23651582.3794   23651577.4624
        45.000          39.000
 122293898.75547  95293936.30047  23271762.1004   23271766.1964   23271761.6264
        47.000          41.000
 138886589.79447  90431100.14347  24526308.9994   24526313.2884   24526308.4324
        42.000          37.000
 114021141.23247  88847625.46547  21697513.9364   21697518.1274   21697514.0644
        52.000          45.000
 118056138.30447  91991782.29447  22465347.5394   22465351.0234   22465347.5454
        49.000          42.000
 118979533.38947  92711310.84547  22641061.7884   22641065.8584   22641061.4434
        49.000          43.000
 115454132.25147  89964253.65047  21970193.2334   21970196.3804   21970193.4724
        51.000          45.000
 121993777.12247  95060072.79247  23214653.4814   23214657.0604   23214652.9284
        47.000          42.000
 123298355.02847  96076640.39847  23462897.5614   23462899.0314   23462897.9864
        48.000          40.000
 106133121.71747  82701128.29447  20196465.9654   20196467.9974   20196466.3684
        54.000          49.000
 128236101.68147  99924210.39847  24402540.3694   24402544.1244   24402539.8174
        43.000          38.000
 09  1 11  0 32 30.0000000  0 12G22G 5G30G 6G24G 9G29G14G31G18G21G12
 126718586.90147  98741751.89347  24113748.3644   24113749.0444   24113748.2454
        45.000          38.000
 124275890.40447  96838329.16647  23648936.9884   23648941.8774   23648937.2544
        45.000          39.000
 122269459.34247  95274892.60247  23267111.6114   23267115.9954   23267111.2134
        48.000          41.000
 138840031.01147  90394820.56147  24517449.0524   24517453.1954   24517449.2994
        41.000          37.000
 114062759.72847  88880055.44647  21705433.5104   21705437.8354   21705433.5964
        52.000          45.000
 118129932.09047  92049283.96847  22479390.3254   22479393.4794   22479390.3064
        49.000          42.000
 119055224.77047  92770291.12547  22655465.5514   22655469.2944   22655465.2774
        49.000          43.000
 115468809.58647  89975690.55247  21972986.4554   21972989.2764   21972986.8424
        51.000          45.000
 121892445.44247  94981113.11347  23195370.5094   23195374.2154   23195370.3634
        47.000          42.000
 123272274.87647  96056318.19947  23457934.4704   23457935.9314   23457934.9414
        48.000          40.000
 106094802.52647  82671269.18447  20189174.3104   20189175.8724   20189174.6604
        55.000          49.000
 128237214.68147  99925077.73447  24402752.0294   24402755.5544   24402751.9574
        43.000          38.000
 09  1 11  0 33  0.0000000  0 12G22G 5G30G 6G24G 9G29G14G31G18G21G12
 126693336.98447  98722076.66047  24108942.8654   24108944.3164   24108942.6924
        45.000          39.000
 124262050.27447  96827544.67247  23646302.7984   23646308.1244   23646303.4014
        45.000          39.000
 122244913.47347  95255765.96847  23262440.5584   23262445.0354   23262440.2554
        47.000          41.000
 138793777.25547  90358778.67447  24508646.4024   24508651.4474   24508646.5244
        41.000          37.000
 114104839.80847  88912845.09847  21713441.1754   21713445.5514   21713441.2714
        52.000          45.000
 118204162.54247  92107125.89347  22493515.6374   22493518.9834   22493515.7524
        48.000          42.000
 119130915.69547  92829271.03747  22669868.9944   22669872.8634   22669868.8934
        48.000          44.000
 115483843.33747  89987405.18047  21975847.2814   21975850.0514   21975847.3834
        51.000          45.000
 121791232.06647  94902245.61447  23176109.9004   23176113.7634   23176110.1474
        47.000          41.000
 123246010.02047  96035852.09047  23452936.5724   23452938.0274   23452936.7654
        48.000          40.000
 106057006.06447  82641817.40247  20181981.6554   20181983.5414   20181982.0874
        54.000          49.000
 128238359.92647  99925970.17447  24402969.5234   24402973.5604   24402969.4814
        43.000          38.000
 09  1 11  0 33 30.0000000  0 12G22G 5G30G 6G24G 9G29G14G31G18G21G12
 126667857.43247  98702222.48347  24104094.7374   24104095.4234   24104094.6824
        45.000          39.000
 124248245.19847  96816787.50247  23643676.5144   23643681.5304   23643676.7614
        46.000          39.000
 122220262.28247  95236557.24947  23257749.5824   23257753.7184   23257749.0864
        48.000          41.000
 138747827.75147  90322973.84847  24499903.3624   24499907.4694   24499902.8274
        42.000          37.000
 114147380.41647  88945993.60947  21721536.4054   21721540.6414   21721536.4424
        52.000          45.000
 118278827.13347  92165306.11547  22507723.6494   22507727.2854   22507723.9444
        48.000          42.000
 119206603.57247  92888248.57347  22684271.6914   22684275.9654   22684271.3734
        48.000          43.000
 115499230.83547  89999395.46247  21978775.3304   21978778.3094   21978775.4064
        51.000          45.000
 121690139.12747  94823471.96247  23156872.3554   23156876.4144   23156872.0944
        46.000          41.000
 123219561.07947  96015242.53147  23447903.3404   23447904.9644   23447903.8114
        47.000          40.000
 106019733.91047  82612774.16347  20174889.1954   20174890.8784   20174889.6354
        55.000          49.000
 128239538.85947  99926888.90347  24403194.1034   24403198.5994   24403193.8384
        43.000          38.000
 09  1 11  0 34  0.0000000  0 12G22G 5G30G 6G24G 9G29G14G31G18G21G12
 126642153.20147  98682193.24847  24099203.4044   24099203.8324   24099203.2744
        45.000          39.000
 124234482.11047  96806063.06047  23641057.4164   23641062.1394   23641057.6744
        45.000          39.000
 122195512.23147  95217271.51047  23253039.7364   23253043.9924   23253039.4464
        47.000          41.000
 138702187.48947  90287410.00147  24491217.5774   24491222.6394   24491217.6274
        41.000          37.000
 114190385.85447  88979504.31547  21729719.9004   21729724.4594   21729720.0474
        51.000          45.000
 118353928.60947  92223826.75947  22522015.3214   22522018.5934   22522015.5934
        49.000          42.000
 119282290.78347  92947225.59447  22698674.7154   22698678.8134   22698674.3794
        49.000          43.000
 115514974.83647  90011663.53547  21981771.3234   21981774.0494   21981771.6384
        51.000          45.000
 121589174.44847  94744798.25747  23137659.3304   23137663.0404   23137658.4934
        47.000          42.000
 123192933.91547  95994494.10447  23442836.2864   23442838.3864   23442836.6544
        47.000          40.000
 105982992.99947  82584144.88347  20167897.5384   20167899.2504   20167897.8944
        54.000          49.000
 128240758.48347  99927839.31947  24403426.1804   24403429.9374   24403426.3014
        44.000          39.000
 09  1 11  0 34 30.0000000  0 12G22G 5G30G 6G24G 9G29G14G31G18G21G12
 126616219.37847  98661985.12647  24094268.2384   24094268.9294   24094268.3194
        45.000          39.000
 124220757.97147  96795368.94847  23638444.8554   23638450.6264   23638445.4774
        45.000          39.000
 122170660.16947  95197906.28347  23248310.3174   23248314.9734   23248310.1014
        47.000          41.000
 138656850.93847  90252082.77847  24482591.3734   24482595.3484   24482591.4414
        43.000          37.000
 114233849.78547  89013372.29147  21737990.7314   21737995.3994   21737990.7934
        52.000          45.000
 118429460.09347  92282682.47947  22536388.4964   22536391.8824   22536388.7344
        49.000          42.000
 119357969.62547  93006196.10147  22713075.9644   22713079.8374   22713075.6874
        48.000          43.000
 115531067.91447  90024203.61447  21984833.6494   21984836.3514   21984833.7854
        50.000          44.000
 121488336.00647  94666222.91747  23118470.5794   23118473.9414   23118470.1734
        48.000          42.000
 123166124.16947  95973603.39847  23437734.4444   23437736.6504   23437735.0444
        47.000          40.000
 105946780.40447  82555927.28047  20161006.4864   20161008.1734   20161006.8654
        54.000          49.000
 128242015.98247  99928819.24547  24403665.1624   24403669.3234   24403665.5794
        43.000          39.000
 09  1 11  0 35  0.0000000  0 12G22G 5G30G 6G24G 9G29G14G31G18G21G12
 126590058.77147  98641600.27147  24089289.9704   24089290.7384   24089289.6104
        45.000          39.000
 124207077.54247  96784708.90047  23635842.1544   23635847.5204   23635842.4004
        45.000          39.000
 122145710.09847  95178464.68347  23243562.7334   23243567.0694   23243562.3414
        47.000          41.000
 138611820.94247  90216994.47147  24474022.1514   24474026.5704   24474021.9104
        42.000          37.000
 114277774.19847  89047599.09047  21746349.5974   21746353.9544   21746349.7644
        52.000          45.000
 118505422.02847  92341873.60947  22550843.7084   22550846.4804   22550843.5374
        48.000          42.000
 119433640.75247  93065160.59247  22727475.6244   22727479.9924   22727475.5274
        48.000          43.000
 115547511.06747  90037016.47947  21987962.5914   21987965.4444   21987962.8154
        50.000          44.000
 121387629.05247  94587750.03147  23099306.8014   23099309.9054   23099306.7824
        47.000          42.000
 123139135.67147  95952573.41047  23432598.8874   23432600.9514   23432599.2974
        47.000          39.000
 105911100.85047  82528125.03447  20154216.8984   20154218.6294   20154217.2884
        54.000          49.000
 128243315.18747  99929831.65447  24403912.6014   24403916.2734   24403912.5694
        44.000          38.000
 09  1 11  0 35 30.0000000  0 12G22G 5G30G 6G24G 9G29G14G31G18G21G12
 126563670.20947  98621037.79647  24084268.2584   24084269.4584   24084268.2074
        45.000          39.000
 124193442.24247  96774084.00647  23633247.6654   23633252.4784   23633248.0164
        45.000          39.000
 122120663.22447  95158947.64747  23238796.2634   23238800.8504   23238796.0134
        47.000          41.000
 138567096.56447  90182144.28447  24465511.2194   24465515.1844   24465511.1524
        42.000          37.000
 114322157.97347  89082183.82947  21754795.5034   21754799.6884   21754795.6334
        52.000          45.000
 118581811.30347  92401397.74947  22565379.9624   22565382.8604   22565379.7344
        48.000          42.000
 119509301.04147  93124116.63347  22741873.3734   22741877.8214   22741873.2024
        48.000          43.000
 115564301.02347  90050099.57847  21991157.4234   21991160.3664   21991157.5474
        50.000          44.000
 121287055.69347  94509381.24547  23080168.4054   23080171.4504   23080167.6584
        48.000          42.000
 123111968.93347  95931404.54347  23427429.0244   23427431.2424   23427429.4484
        47.000          39.000
 105875955.93447  82500739.39047  20147528.9214   20147530.8274   20147529.2744
        54.000          49.000
 128244657.60447  99930877.76347  24404167.5704   24404171.6834   24404167.5784
        43.000          38.000
 09  1 11  0 36  0.0000000  0 12G22G 5G30G 6G24G 9G29G14G31G18G21G12
 126537053.63947  98600297.63547  24079203.4334   24079203.8144   24079203.6484
        44.000          39.000
 124179854.02447  96763495.81147  23630661.4614   23630666.7914   23630662.2544
        45.000          39.000
 122095521.13747  95139356.43847  23234011.9484   23234016.3714   23234011.5784
        47.000          41.000
 138522677.46847  90147531.97347  24457058.7014   24457062.9694   24457058.9014
        42.000          37.000
 114366999.94247  89117125.59847  21763328.7294   21763332.8364   21763328.7994
        52.000          45.000
 118658625.89847  92461253.28947  22579996.8814   22580000.4114   22579996.8444
        47.000          42.000
 119584948.04147  93183062.33547  22756268.5584   22756272.6064   22756268.3884
        48.000          43.000
 115581435.62647  90063451.24847  21994418.1084   21994420.9564   21994418.2364
        50.000          44.000
 121186618.74347  94431118.74247  23061055.7894   23061058.5104   23061055.2754
        48.000          42.000
 123084624.73647  95910097.37647  23422225.6944   23422227.7184   23422226.2204
        47.000          39.000
 105841347.37347  82473771.68047  20140943.1194   20140945.1744   20140943.4514
        54.000          49.000
 128246045.09747  99931959.00747  24404431.1514   24404435.7304   24404431.2554
        43.000          38.000
 09  1 11  0 36 30.0000000  0 12G22G 5G30G 6G24G 9G29G14G31G18G21G12
 126510209.90647  98579380.48647  24074095.0414   24074095.6984   24074095.2324
        45.000          39.000
 124166315.72547  96752946.49647  23628085.6054   23628090.7194   23628086.0954
        46.000          40.000
 122070286.39847  95119693.02747  23229209.6444   23229213.8134   23229209.4034
        47.000          41.000
 138478564.34847  90113158.12447  24448664.3944   24448668.7224   24448664.4434
        42.000          37.000
 114412300.07347  89152424.38547  21771948.9434   21771953.3364   21771949.0834
        52.000          45.000
 118735864.43647  92521439.16247  22594694.5524   22594698.5134   22594694.6524
        48.000          42.000
 119660580.18247  93241996.45147  22770660.7514   22770664.8404   22770660.3564
        48.000          43.000
 115598913.39547  90077070.30547  21997744.0144   21997747.0854   21997744.2864
        50.000          44.000
 121086322.05247  94352965.55747  23041969.8404   23041972.6874   23041969.8474
        48.000          42.000
 123057104.77847  95888653.25347  23416989.0824   23416990.5474   23416988.9274
        48.000          40.000
 105807278.17347  82447224.26447  20134459.7614   20134462.1494   20134460.1124
        54.000          49.000
 128247480.30347  99933077.41647  24404704.4514   24404709.0054   24404704.3304
        43.000          38.000
 09  1 11  0 37  0.0000000  0 12G22G 5G30G 6G24G 9G29G14G31G18G21G12
 126483137.12947  98558284.85047  24068943.7934   24068944.4874   24068943.7694
        45.000          39.000
 124152827.70647  96742436.38647  23625518.5084   23625523.7394   23625518.7994
        45.000          39.000
 122044958.72347  95099957.20447  23224390.1414   23224394.3814   23224390.2634
        47.000          41.000
 138434755.28847  90079021.17347  24440327.4164   24440331.8764   24440327.6364
        41.000          37.000
 114458055.70447  89188078.10147  21780656.0994   21780660.2994   21780656.3534
        51.000          45.000
 118813523.08347  92581952.39747  22609472.9064   22609476.2924   22609473.0574
        48.000          42.000
 119736193.59447  93300915.96647  22785049.7434   22785053.4094   22785049.4214
        48.000          43.000
 115616730.28447  90090953.62347  22001134.5734   22001137.2064   22001134.8424
        50.000          44.000
 120986166.63447  94274922.44547  23022910.6154   23022913.7124   23022910.4744
        48.000          42.000
 123029408.59647  95867071.81147  23411718.9384   23411720.0454   23411719.2214
        48.000          40.000
 105773748.43747  82421097.19447  20128079.5784   20128081.4944   20128080.0604
        54.000          49.000
 128248963.30247  99934233.06447  24404986.5574   24404990.6934   24404986.6484
        43.000          38.000
 09  1 11  0 37 30.0000000  0 12G22G 5G30G 6G24G 9G29G14G31G18G21G12
 126455837.61247  98537012.52447  24063748.0204   24063749.5764   24063748.1294
        44.000          39.000
 124139394.86647  96731969.26847  23622962.4374   23622967.5944   23622962.7144
        46.000          39.000
 122019542.44547  95080152.34847  23219553.8154   23219557.4584   23219553.3584
        47.000          41.000
 138391252.88647  90045123.17347  24432048.6634   24432054.4504   24432049.3364
        42.000          36.000
 114504268.55047  89224088.09047  21789449.9034   21789454.5664   21789450.0534
        51.000          45.000
 118891602.39547  92642793.44047  22624331.1854   22624334.3504   22624331.2044
        48.000          42.000
 119811788.42847  93359821.00547  22799434.8824   22799438.9064   22799434.7334
        48.000          43.000
 115634887.17447  90105101.87847  22004589.6814   22004592.4354   22004589.7944
        50.000          44.000
 120886158.31547  94196993.94647  23003879.8344   23003882.6074   23003878.6704
        48.000          42.000
 123001540.04347  95845356.05147  23406415.9434   23406417.4234   23406415.8744
        48.000          40.000
 105740763.15647  82395394.38547  20121802.4984   20121804.6624   20121802.7744
        54.000          50.000
 128250498.89147  99935429.68647  24405279.0664   24405283.3674   24405278.5534
        43.000          38.000
 09  1 11  0 38  0.0000000  0 12G22G 5G30G 6G24G 9G29G14G31G18G21G12
 126428308.32247  98515561.16047  24058510.0784   24058510.6364   24058509.4854
        45.000          39.000
 124126015.81547  96721544.05947  23620416.4224   23620421.5604   23620416.9954
        45.000          39.000
 121994036.07447  95060277.28147  23214699.7134   23214704.0274   23214699.1824
        47.000          41.000
 138348053.31347  90011461.13847  24423828.7594   24423833.2634   24423829.2714
        42.000          37.000
 114550934.48947  89260451.14247  21798330.1304   21798334.8794   21798330.5044
        51.000          45.000
 118970097.04247  92703958.11347  22639268.2914   22639271.3134   22639268.4144
        48.000          42.000
 119887359.57447  93418707.59347  22813815.7564   22813819.7334   22813815.5254
        49.000          43.000
 115653378.08547  90119510.39747  22008108.4664   22008111.3044   22008108.7314
        50.000          44.000
 120786296.39847  94119179.54847  22984876.6714   22984879.5804   22984876.4094
        48.000          42.000
 122973496.80847  95823504.18147  23401079.0904   23401080.9714   23401079.1984
        47.000          40.000
 105708320.73147  82370114.57247  20115629.2004   20115631.0674   20115629.5874
        54.000          50.000
 128252085.46047  99936666.06747  24405580.7024   24405584.6574   24405580.6074
        43.000          38.000
 09  1 11  0 38 30.0000000  0 12G22G 5G30G 6G24G 9G29G14G31G18G21G12
 126400551.54547  98493932.56347  24053228.1654   24053228.2944   24053228.2984
        46.000          39.000
 124112694.39547  96711163.77447  23617881.3064   23617886.6314   23617881.8514
        45.000          39.000
 121968443.50547  95040335.05747  23209829.7874   23209834.0374   23209829.6374
        48.000          41.000
 138305158.32247  89978036.43847  24415666.0064   24415670.1894   24415665.7464
        42.000          37.000
 114598054.56047  89297168.06647  21807296.6994   21807301.5884   21807296.7744
        51.000          45.000
 119049006.23747  92765445.82247  22654284.1744   22654287.1684   22654284.0374
        47.000          41.000
 119962905.65647  93477574.65547  22828191.8204   22828195.6424   22828191.4354
        48.000          43.000
 115672202.57847  90134178.85347  22011690.5364   22011693.2934   22011690.9234
        50.000          44.000
 120686585.50947  94041482.82647  22965902.3134   22965905.7194   22965901.8564
        48.000          42.000
 122945281.73547  95801518.40247  23395709.6624   23395711.8064   23395710.3314
        48.000          40.000
 105676424.94347  82345260.71847  20109559.5294   20109561.3544   20109559.9494
        54.000          49.000
 128253726.77947  99937945.10647  24405892.9364   24405897.0294   24405892.8084
        43.000          38.000
 09  1 11  0 39  0.0000000  0 12G22G 5G30G 6G24G 9G29G14G31G18G21G12
 126372568.04347  98472127.28747  24047903.1114   24047903.5094   24047902.8164
        45.000          39.000
 124099434.42147  96700831.35947  23615358.2194   23615363.2004   23615358.8434
        46.000          40.000
 121942768.02547  95020328.22547  23204943.7814   23204947.7804   23204943.5254
        48.000          41.000
 138262569.21747  89944850.12147  24407561.3574   24407566.4944   24407561.5084
        43.000          37.000
 114645629.43547  89334239.37247  21816350.0414   21816354.9364   21816350.2114
        51.000          45.000
 119128329.23547  92827255.95147  22669378.5574   22669381.7234   22669378.8254
        47.000          41.000
 120038426.45747  93536422.01147  22842562.7654   22842566.7664   22842562.3014
        48.000          43.000
 115691360.27647  90149106.95147  22015336.1094   22015338.9394   22015336.1764
        50.000          45.000
 120587030.16047  93963907.30347  22946957.6124   22946960.6354   22946957.2534
        49.000          43.000
 122916897.51547  95779400.84747  23390308.4364   23390310.1134   23390308.9654
        48.000          40.000
 105645079.27047  82320835.51947  20103594.6854   20103596.4214   20103595.0204
        54.000          49.000
 128255426.22947  99939269.42047  24406215.9274   24406219.6764   24406215.6794
        42.000          37.000
 09  1 11  0 39 30.0000000  0 12G22G 5G30G 6G24G 9G29G14G31G18G21G12
 126344354.90247  98450143.05847  24042533.7414   24042534.6194   24042533.6514
        45.000          39.000
 124086235.05847  96690546.16747  23612846.6704   23612851.6214   23612847.2274
        45.000          39.000
 121917008.16747  95000255.65147  23200042.2634   23200045.7034   23200041.6504
        48.000          41.000
 138220283.06147  89911899.85047  24399514.9624   24399519.1474   24399515.5544
        43.000          37.000
 114693655.36947  89371662.16747  21825488.9844   21825493.6844   21825489.1304
        51.000          45.000
 119208061.13247  92889384.69847  22684550.9044   22684554.2594   22684551.0854
        46.000          41.000
 120113917.08447  93595245.85847  22856928.3694   22856932.4124   22856928.0874
        48.000          43.000
 115710845.66847  90164290.39647  22019043.9454   22019046.9654   22019044.2534
        51.000          45.000
 120487630.58347  93886453.15747  22928042.4884   22928045.5114   22928041.9564
        49.000          43.000
 122888342.55547  95757150.22447  23384874.8414   23384876.3934   23384875.2504
        48.000          40.000
 105614282.73747  82296838.22347  20097734.2184   20097735.9254   20097734.6614
        54.000          49.000
 128257182.97647  99940638.38147  24406549.8634   24406554.6014   24406550.2144
        42.000          38.000
 09  1 11  0 40  0.0000000  0 12G22G 5G30G 6G24G 9G29G14G31G18G21G12
 126315915.14547  98427982.25347  24037121.8194   24037122.7394   24037122.0234
        46.000          40.000
 124073101.21847  96680312.05247  23610347.2674   23610352.6634   23610347.8214
        46.000          40.000
 121891168.47747  94980120.87647  23195125.0014   23195128.7474   23195124.4774
        48.000          41.000
 138178302.18047  89879187.45347  24391525.6514   24391530.9284   24391525.7524
        42.000          37.000
 114742133.89747  89409437.62547  21834714.0544   21834718.9774   21834714.2204
        51.000          45.000
 119288202.26647  92951832.34047  22699801.3334   22699804.8014   22699801.4494
        46.000          41.000
 120189377.82947  93654046.41847  22871288.0284   22871292.0274   22871287.7594
        48.000          43.000
 115730659.55947  90179729.81247  22022814.5444   22022817.6264   22022814.6514
        50.000          45.000
 120388392.17247  93809124.60247  22909158.0354   22909160.9584   22909157.5744
        48.000          43.000
 122859620.60247  95734769.48347  23379409.1184   23379410.5894   23379409.5434
        47.000          40.000
 105584040.02847  82273272.48247  20091979.1614   20091981.1464   20091979.5064
        54.000          49.000
 128259001.64147  99942055.59947  24406897.0294   24406900.6414   24406896.5754
        43.000          38.000
 09  1 11  0 40 30.0000000  0 12G22G 5G30G 6G24G 9G29G14G31G18G21G12
 126287247.00647  98405643.49447  24031666.3544   24031667.1474   24031666.8284
        45.000          40.000
 124060033.06247  96670129.10647  23607860.8004   23607865.7994   23607861.3814
        46.000          39.000
 121865248.78947  94959923.76847  23190192.4814   23190196.6714   23190192.3554
        48.000          41.000
 138136624.37447  89846711.21247  24383595.1874   24383599.6734   24383595.3914
        43.000          37.000
 114791062.15547  89447563.52647  21844025.0394   21844029.6194   21844024.9764
        51.000          45.000
 119368748.63747  93014595.75247  22715128.8654   22715132.2744   22715128.8994
        46.000          41.000
 120264804.64747  93712820.54147  22885641.3584   22885645.1864   22885641.2054
        48.000          43.000
 115750797.72747  90195421.91447  22026646.6524   22026649.4044   22026646.8604
        50.000          45.000
 120289316.18847  93731922.61247  22890304.2314   22890307.0984   22890304.1294
        48.000          43.000
 122830731.25647  95712258.31647  23373911.2154   23373913.3934   23373911.5844
        48.000          40.000
 105554351.00747  82250138.18447  20086329.4194   20086331.5744   20086329.8064
        54.000          49.000
 128260882.14347  99943521.02247  24407254.9004   24407258.3834   24407254.8354
        43.000          38.000
 09  1 11  0 41  0.0000000  0 12G22G 5G30G 6G24G 9G29G14G31G18G21G12
 126258349.67847  98383126.15447  24026167.4904   24026168.1814   24026167.7924
        46.000          40.000
 124047031.41347  96659997.99147  23605386.1974   23605390.9874   23605386.5524
        45.000          39.000
 121839249.53347  94939664.66447  23185245.1494   23185248.8474   23185245.1354
        48.000          41.000
 138095247.92447  89814469.77347  24375722.4824   24375725.7854   24375721.9284
        41.000          37.000
 114840437.75447  89486038.00047  21853420.8384   21853425.4894   21853421.1054
        51.000          45.000
 119449696.83247  93077672.28547  22730533.0314   22730536.0814   22730532.8214
        47.000          41.000
 120340193.67747  93771565.21147  22899987.2664   22899991.2304   22899986.7614
        48.000          43.000
 115771256.56547  90211363.89147  22030539.6934   22030542.6344   22030539.9434
        50.000          45.000
 120190403.98147  93654848.23647  22871481.9134   22871484.6084   22871480.7604
        48.000          42.000
 122801673.99747  95689616.28747  23368381.9734   23368383.9584   23368382.4664
        48.000          40.000
 105525216.14847  82227435.70247  20080785.2744   20080787.3934   20080785.6144
        54.000          50.000
 128262825.23947  99945035.18347  24407624.1854   24407628.0834   24407624.1414
        44.000          38.000
 09  1 11  0 41 30.0000000  0 12G22G 5G30G 6G24G 9G29G14G31G18G21G12
 126229228.22747  98360434.15447  24020626.1264   24020626.8524   24020626.2524
        46.000          40.000
 124034103.89747  96649924.66347  23602926.0254   23602930.9964   23602926.9464
        46.000          39.000
 121813178.17247  94919349.34547  23180283.5764   23180287.8614   23180283.1124
        48.000          41.000
 138054178.12047  89782467.32647  24367905.5304   24367911.2714   24367905.9854
        43.000          37.000
 114890265.34047  89524864.67647  21862902.7824   21862907.4954   21862902.8124
        51.000          45.000
 119531049.74247  93141064.15347  22746013.6424   22746016.9274   22746013.3934
        46.000          41.000
 120415548.49547  93830283.23047  22914326.5734   22914330.5664   22914326.1884
        48.000          43.000
 115792039.13347  90227558.12347  22034494.5884   22034497.5054   22034494.7904
        51.000          45.000
 120091663.99547  93577908.06547  22852692.3344   22852694.7034   22852692.3504
        49.000          43.000
 122772455.50347  95666848.63447  23362822.0674   23362824.1624   23362822.7074
        48.000          40.000
 105496642.67947  82205170.66147  20075347.9904   20075349.8724   20075348.4334
        54.000          49.000
 128264838.33647  99946603.90647  24408007.0014   24408010.5654   24408007.1864
        44.000          38.000
 09  1 11  0 42  0.0000000  0 12G22G 5G30G 6G24G 9G29G14G31G18G21G12
 126199876.04147  98337562.37047  24015040.3664   24015040.8514   24015040.2654
        45.000          39.000
 124021245.75647  96639905.36647  23600479.2824   23600484.2624   23600479.7154
        46.000          39.000
 121787029.88247  94898974.11147  23175307.8454   23175311.6784   23175308.0014
        48.000          41.000
 138013407.91547  89750698.30847  24360148.6034   24360153.0044   24360148.6744
        42.000          37.000
 114940537.27647  89564037.58847  21872469.3744   21872473.7454   21872469.6474
        51.000          45.000
 119612798.53747  93204764.51047  22761569.8834   22761573.2264   22761569.7824
        47.000          41.000
 120490859.94647  93888967.45047  22928657.8584   22928662.1474   22928657.3444
        47.000          42.000
 115813136.36147  90243997.54447  22038509.3124   22038512.0604   22038509.5244
        50.000          45.000
 119993092.53547  93501099.19947  22833934.8984   22833937.0594   22833934.8084
        49.000          43.000
 122743070.30247  95643951.07547  23357230.4184   23357232.4594   23357230.8774
        48.000          40.000
 105468626.03147  82183339.51247  20070016.4394   20070018.5974   20070016.7984
        54.000          49.000
 128266916.41547  99948223.27047  24408402.6064   24408406.4684   24408402.6794
        44.000          38.000
 09  1 11  0 42 30.0000000  0 12G22G 5G30G 6G24G 9G29G14G31G18G21G12
 126170298.25747  98314514.79047  24009411.5584   24009412.3034   24009411.5844
        45.000          39.000
 124008464.05547  96629945.65447  23598046.7794   23598051.8684   23598047.3724
        45.000          39.000
 121760811.19047  94878543.99647  23170318.6374   23170322.8054   23170318.4084
        48.000          41.000
 137972941.75647  89719166.23047  24352446.8434   24352452.4684   24352446.8224
        42.000          37.000
 114991257.21947  89603559.61447  21882121.0164   21882125.5444   21882120.8594
        51.000          45.000
 119694945.83447  93268775.40047  22777202.2864   22777205.4724   22777202.1984
        47.000          41.000
 120566131.05147  93947620.25047  22942981.6214   22942985.4394   22942981.2794
        48.000          42.000
 115834550.93247  90260684.24147  22042584.4624   22042587.1314   22042584.5974
        50.000          45.000
 119894697.36747  93424427.71647  22815211.1594   22815213.0444   22815210.8784
        49.000          43.000
 122713524.67547  95620928.50847  23351608.1254   23351609.6034   23351608.6964
        48.000          40.000
 105441172.68247  82161947.29347  20064792.3744   20064794.3364   20064792.7584
        54.000          49.000
 128269066.35547  99949898.63247  24408811.6324   24408815.3124   24408811.5084
        44.000          38.000
 09  1 11  0 43  0.0000000  0 12G22G 5G30G 6G24G 9G29G14G31G18G21G12
 126140491.82747  98291289.03047  24003739.8384   24003740.2784   24003739.9984
        46.000          39.000
 123995758.14647  96620044.98347  23595628.9804   23595633.8554   23595629.4214
        46.000          39.000
 121734521.26847  94858058.35647  23165315.4464   23165319.5814   23165315.1644
        47.000          41.000
 137932776.61647  89687868.68547  24344804.9364   24344808.9784   24344804.7634
        42.000          37.000
 115042421.51247  89643427.86447  21891857.2384   21891861.8504   21891857.5414
        51.000          45.000
 119777486.29847  93333092.64347  22792909.0404   22792912.6624   22792909.1274
        47.000          41.000
 120641356.84947  94006237.73347  22957296.5764   22957300.7484   22957296.1654
        48.000          42.000
 115856277.62947  90277614.15247  22046718.7354   22046721.3314   22046719.1794
        51.000          45.000
 119796478.50447  93347893.59947  22796520.4354   22796522.7684   22796519.9854
        49.000          43.000
 122683816.97447  95597779.64847  23345955.1474   23345956.7484   23345955.6464
        47.000          41.000
 105414281.49147  82140993.12247  20059675.1334   20059676.9844   20059675.5024
        54.000          49.000
 128271287.41147  99951629.42347  24409234.4304   24409237.9574   24409234.0634
        44.000          38.000
 09  1 11  0 43 30.0000000  0 12G22G 5G30G 6G24G 9G29G14G31G18G21G12
 126110458.77047  98267886.68447  23998024.9564   23998025.5254   23998024.9564
        45.000          39.000
 123983132.08347  96610206.56347  23593226.4024   23593230.7724   23593226.7294
        46.000          39.000
 121708163.44447  94837519.82947  23160299.9014   23160304.4264   23160299.5764
        48.000          41.000
 137892913.84747  89656806.78447  24337217.8894   24337223.5584   24337218.1524
        42.000          37.000
 115094030.66447  89683642.77247  21901678.4164   21901682.7394   21901678.6754
        51.000          45.000
 119860419.47647  93397715.91447  22808690.6084   22808694.1514   22808690.7624
        47.000          41.000
 120716536.69047  94064819.42347  22971603.0754   22971606.8234   22971602.9094
        48.000          42.000
 115878315.97547  90294786.90647  22050912.7094   22050915.2014   22050912.8894
        50.000          44.000
 119698440.58247  93271500.47447  22777864.3384   22777866.7184   22777863.7394
        49.000          43.000
 122653950.05347  95574506.73547  23340271.4394   23340273.4184   23340271.7424
        48.000          40.000
 105387956.10247  82120479.83747  20054665.6304   20054667.5514   20054665.9854
        54.000          49.000
 128273583.07847  99953418.32147  24409671.4454   24409674.9674   24409670.6974
        44.000          38.000
 09  1 11  0 44  0.0000000  0 12G22G 5G30G 6G24G 9G29G14G31G18G21G12
 126080198.87047  98244307.57047  23992265.9704   23992266.8294   23992265.8544
        45.000          39.000
 123970587.47447  96600431.59247  23590839.0374   23590843.8444   23590839.4044
        45.000          39.000
 121681739.33947  94816929.63847  23155271.4704   23155275.9204   23155271.1804
        47.000          41.000
 137853352.73447  89625979.91647  24329691.3574   24329695.2834   24329691.3414
        43.000          37.000
 115146083.23547  89724203.20547  21911583.5144   21911587.8244   21911583.7824
        51.000          45.000
 119943742.71347  93462643.11447  22824546.4714   22824550.1574   22824546.5414
        47.000          41.000
 120791668.17047  94123363.42147  22985899.8204   22985903.9244   22985899.8044
        47.000          42.000
 115900663.52747  90312200.60847  22055164.9374   22055167.7184   22055165.1944
        50.000          44.000
 119600586.38847  93195250.51947  22759243.3954   22759245.5054   22759242.8614
        49.000          43.000
 122623925.28647  95551110.83347  23334558.1174   23334559.6674   23334558.5214
        48.000          40.000
 105362197.79047  82100408.42847  20049763.8964   20049765.8644   20049764.2114
        54.000          49.000
 128275955.22447  99955266.83947  24410122.1664   24410126.1104   24410122.1614
        44.000          38.000
 09  1 11  0 44 30.0000000  0 12G22G 5G30G 6G24G 9G29G14G31G18G21G12
 126049711.24647  98220550.99847  23986464.8884   23986464.8654   23986464.8984
        45.000          39.000
 123958125.48847  96590720.99547  23588467.4944   23588472.5974   23588468.1404
        46.000          39.000
 121655249.89347  94796288.52347  23150230.9794   23150235.0484   23150230.2284
        48.000          41.000
 137814091.88447  89595387.03947  24322219.5644   24322224.1994   24322219.3874
        42.000          37.000
 115198576.99947  89765107.40947  21921572.8044   21921577.3964   21921572.8094
        51.000          45.000
 120027452.44447  93527871.48047  22840476.2664   22840479.4384   22840476.2294
        47.000          41.000
 120866748.03647  94181867.19347  23000187.0124   23000191.0484   23000187.2884
        47.000          42.000
 115923316.57047  90329852.35347  22059475.6684   22059478.5204   22059475.8484
        50.000          44.000
 119502917.83447  93119145.21247  22740657.2634   22740659.9384   22740656.7614
        49.000          43.000
 122593742.43547  95527591.72547  23328814.3204   23328815.7174   23328815.0834
        47.000          40.000
 105337007.18547  82080779.39147  20044970.2394   20044972.3814   20044970.5974
        54.000          50.000
 128278404.54547  99957175.47047  24410588.2314   24410592.2704   24410588.2714
        44.000          39.000
 09  1 11  0 45  0.0000000  0 12G22G 5G30G 6G24G 9G29G14G31G18G21G12
 126018997.59647  98196618.29747  23980620.1394   23980620.2064   23980619.8914
        45.000          39.000
 123945750.06147  96581077.85447  23586112.9534   23586117.3444   23586113.5674
        45.000          39.000
 121628698.76647  94775599.36047  23145178.5114   23145182.2854   23145178.2704
        48.000          41.000
 137775132.77347  89565029.26147  24314806.2334   24314810.6114   24314805.7014
        42.000          37.000
 115251512.50747  89806355.83747  21931646.1974   21931650.6594   21931646.3054
        52.000          45.000
 120111548.18347  93593400.63747  22856479.0934   22856482.3684   22856479.3224
        47.000          41.000
 120941776.09647  94240330.59947  23014464.8294   23014468.7854   23014464.5094
        48.000          42.000
 115946274.47147  90347741.66147  22063844.4254   22063847.1674   22063844.7954
        51.000          44.000
 119405439.68347  93043188.27447  22722107.7334   22722110.2104   22722107.2614
        48.000          43.000
 122563404.80047  95503952.01947  23323041.0784   23323042.6254   23323041.2084
        47.000          40.000
 105312387.74847  82061595.41947  20040285.3424   20040287.4614   20040285.6374
        54.000          50.000
 128280934.63047  99959147.03347  24411070.2964   24411074.0434   24411070.1984
        43.000          38.000
 09  1 11  0 45 30.0000000  0 12G22G 5G30G 6G24G 9G29G14G31G18G21G12
 125988056.52147  98172508.37547  23974732.2054   23974732.5744   23974732.3744
        45.000          39.000
 123933461.12947  96571502.12647  23583774.0214   23583779.0544   23583774.4334
        45.000          39.000
 121602085.73947  94754861.95947  23140114.0394   23140117.5084   23140113.6664
        48.000          41.000
 137736472.61647  89534904.43247  24307448.7874   24307454.0004   24307448.4194
        42.000          37.000
 115304886.25347  89847945.74947  21941802.7374   21941807.4764   21941802.7234
        51.000          45.000
 120196024.90047  93659226.65547  22872554.5854   22872558.1384   22872554.8084
        47.000          41.000
 121016748.28247  94298750.47047  23028731.5314   23028735.5224   23028731.0964
        47.000          42.000
 115969532.90047  90365865.13247  22068270.3154   22068273.0634   22068270.6024
        50.000          44.000
 119308152.54647  92967380.16847  22703594.4054   22703597.0894   22703594.2374
        49.000          43.000
 122532911.71747  95480191.17847  23317238.6704   23317239.9904   23317238.8794
        47.000          40.000
 105288338.74147  82042855.94147  20035709.0144   20035710.8934   20035709.4184
        54.000          49.000
 128283545.48947  99961181.51947  24411566.8234   24411570.6444   24411566.5044
        44.000          38.000
 09  1 11  0 46  0.0000000  0 12G22G 5G30G 6G24G 9G29G14G31G18G21G12
 125956889.54247  98148222.40847  23968801.1584   23968801.9164   23968800.5974
        45.000          38.000
 123921262.43247  96561996.71447  23581452.7264   23581457.5234   23581453.1754
        45.000          39.000
 121575414.13247  94734078.90747  23135038.9904   23135042.5414   23135038.3704
        48.000          42.000
 137698112.59047  89505013.48747  24300149.0924   24300153.2134   24300149.2624
        42.000          37.000
 115358698.88747  89889877.65147  21952042.9824   21952047.6444   21952043.2334
        51.000          45.000
 120280882.33947  93725349.32047  22888702.2864   22888705.5694   22888702.4174
        47.000          41.000
 121091663.52947  94357125.96447  23042987.4464   23042991.4054   23042986.9624
        47.000          42.000
 115993091.00247  90384222.11747  22072753.4124   22072755.9024   22072753.7244
        50.000          45.000
 119211060.84647  92891724.35047  22685118.5514   22685121.2254   22685118.4424
        49.000          43.000
 122502265.66347  95456311.13847  23311406.6564   23311408.6334   23311407.1134
        47.000          40.000
 105264863.42047  82024563.48847  20031241.7474   20031243.6594   20031242.0774
        54.000          50.000
 128286240.12947  99963281.30947  24412079.3704   24412082.7674   24412079.1814
        43.000          38.000
 09  1 11  0 46 30.0000000  0 12G22G 5G30G 6G24G 9G29G14G31G18G21G12
 125925495.78547  98123759.74247  23962827.6984   23962827.3614   23962827.1744
        45.000          39.000
 123909155.50247  96552562.78047  23579148.7584   23579153.7334   23579148.9484
        46.000          39.000
 121548685.44747  94713251.38447  23129952.3654   23129956.1824   23129952.1184
        48.000          41.000
 137660051.83247  89475355.73947  24292907.1184   24292911.8194   24292906.7944
        43.000          37.000
 115412948.70747  89932150.22247  21962366.4254   21962371.2394   21962366.4024
        51.000          45.000
 120366117.51047  93791766.34847  22904922.0454   22904924.8824   22904922.0414
        47.000          40.000
 121166519.35147  94415455.16347  23057231.9634   23057236.1934   23057231.7984
        47.000          42.000
 116016945.69747  90402810.21947  22077292.8024   22077295.3964   22077292.9534
        51.000          45.000
 119114167.08047  92816222.74847  22666680.0974   22666683.1364   22666679.4514
        49.000          44.000
 122471467.56047  95432312.64447  23305545.8604   23305547.5534   23305546.3534
        47.000          40.000
 105241962.87747  82006718.91647  20026883.9264   20026885.9234   20026884.3264
        54.000          50.000
 128289020.52747  99965447.89847  24412608.7724   24412611.8404   24412608.3934
        43.000          38.000
 09  1 11  0 47  0.0000000  0 12G22G 5G30G 6G24G 9G29G14G31G18G21G12
 125893877.92147  98099122.42347  23956810.4854   23956810.9264   23956810.4834
        45.000          39.000
 123897143.68547  96543202.96247  23576863.0274   23576867.6614   23576863.6004
        46.000          40.000
 121521902.93547  94692381.92947  23124855.9684   23124859.3524   23124855.7314
        48.000          41.000
 137622290.97947  89445931.68147  24285721.4834   24285725.8334   24285721.1374
        43.000          37.000
 115467635.74147  89974763.47147  21972772.8984   21972777.7084   21972773.2574
        51.000          45.000
 120451729.48247  93858476.98347  22921213.2344   22921216.4834   22921213.4484
        47.000          41.000
 121241314.92747  94473737.41647  23071465.2434   23071469.1494   23071465.1744
        47.000          42.000
 116041096.21047  90421628.82147  22081888.7534   22081891.0504   22081889.1444
        50.000          45.000
 119017475.52147  92740878.72247  22648280.4434   22648283.1154   22648279.8904
        49.000          43.000
 122440520.06747  95408197.71847  23299657.0664   23299658.9384   23299657.5934
        47.000          40.000
 105219640.21847  81989324.63647  20022636.2174   20022638.0214   20022636.6114
        54.000          50.000
 128291889.54347  99967683.54847  24413154.3554   24413158.3964   24413154.4214
        43.000          38.000
 09  1 11  0 47 30.0000000  0 12G22G 5G30G 6G24G 9G29G14G31G18G21G12
 125862033.96347  98074308.91747  23950750.8074   23950751.2114   23950750.9634
        46.000          39.000
 123885228.02347  96533918.08247  23574595.6314   23574600.3334   23574596.1464
        46.000          40.000
 121495067.10847  94671470.90447  23119748.9734   23119752.5804   23119748.4904
        48.000          41.000
 137584828.42947  89416740.06147  24278592.1274   24278596.2214   24278592.2594
        43.000          37.000
 115522757.37547  90017715.36847  21983262.3024   21983266.8974   21983262.2894
        51.000          44.000
 120537714.14047  93925478.01547  22937575.4624   22937578.8774   22937575.9614
        46.000          40.000
 121316047.12247  94531970.26847  23085686.3074   23085690.1734   23085686.1254
        47.000          42.000
 116065538.46047  90440674.75347  22086539.5944   22086542.3254   22086540.0444
        50.000          44.000
 118920987.79747  92665693.52147  22629919.2804   22629922.2124   22629918.7024
        49.000          43.000
 122409423.08647  95383966.32347  23293738.8334   23293740.9584   23293739.5284
        46.000          40.000
 105197895.21447  81972380.48647  20018498.3274   20018500.1904   20018498.7444
        54.000          50.000
 128294847.85347  99969988.77347  24413716.8574   24413721.5524   24413716.8534
        43.000          38.000
 09  1 11  0 48  0.0000000  0 12G22G 5G30G 6G24G 9G29G14G31G18G21G12
 125829963.30447  98049318.77047  23944648.3084   23944649.0914   23944648.5084
        45.000          39.000
 123873409.67947  96524709.05447  23572346.5714   23572351.5714   23572347.0674
        46.000          39.000
 121468178.94747  94650519.11447  23114632.6504   23114636.1054   23114632.3944
        48.000          41.000
 137547662.78847  89387779.78347  24271519.5534   24271524.4784   24271519.4864
        42.000          37.000
 115578311.48547  90061004.26347  21993833.7974   21993838.4544   21993834.0614
        51.000          44.000
 120624068.04747  93992766.78647  22954008.0454   22954011.6174   22954008.1874
        46.000          41.000
 121390712.89747  94590151.38047  23099894.5554   23099898.5634   23099894.1574
        47.000          42.000
 116090269.40747  90459945.64847  22091245.8104   22091248.5584   22091246.0284
        50.000          44.000
 118824706.05347  92590668.82547  22611597.3014   22611600.3724   22611596.9904
        49.000          43.000
 122378177.33947  95359618.98547  23287793.4664   23287795.1144   23287794.0504
        47.000          40.000
 105176728.60347  81955887.02147  20014470.3234   20014472.1754   20014470.6174
        54.000          50.000
 128297896.47847  99972364.38347  24414297.0104   24414301.2174   24414297.1034
        43.000          38.000
 09  1 11  0 48 30.0000000  0 12G22G 5G30G 6G24G 9G29G14G31G18G21G12
 125797668.68947  98024154.12247  23938502.4464   23938503.4814   23938502.5424
        45.000          39.000
 123861692.83947  96515579.10747  23570117.2014   23570121.8854   23570117.4944
        46.000          39.000
 121441242.42147  94629529.63347  23109506.4024   23109510.3774   23109506.3294
        48.000          41.000
 137510795.47447  89359051.99147  24264503.6354   24264508.2824   24264503.4244
        42.000          37.000
 115634298.95447  90104630.84747  22004487.9994   22004492.7124   22004488.0214
        51.000          44.000
 120710790.63847  94060342.83047  22970511.3764   22970514.6994   22970511.3174
        47.000          40.000
 121465312.20647  94648280.69547  23114090.4664   23114094.4194   23114090.1054
        47.000          42.000
 116115288.69847  90479441.23047  22096006.6824   22096009.2624   22096006.9474
        51.000          44.000
 118728635.17447  92515808.42747  22593315.6114   22593318.7404   22593314.7554
        49.000          44.000
 122346786.11147  95335158.30547  23281819.5154   23281821.6024   23281820.0464
        47.000          40.000
 105156144.10947  81939847.16647  20010553.0504   20010555.1614   20010553.4224
        54.000          50.000
 128301039.57147  99974813.56547  24414895.6834   24414899.1734   24414895.4014
        44.000          38.000
 09  1 11  0 49  0.0000000  0 12G22G 5G30G 6G24G 9G29G14G31G18G21G12
 125765149.96047  97998814.83147  23932314.2494   23932315.3014   23932314.0264
        45.000          39.000
 123850079.47847  96506529.79047  23567907.3094   23567911.9374   23567907.5364
        46.000          39.000
 121414259.21547  94608503.79647  23104371.7394   23104375.4654   23104371.5294
        48.000          41.000
 137474225.87647  89330556.17147  24257545.4674   24257550.4014   24257544.8774
        42.000          37.000
 115690718.29847  90148593.95147  22015224.3364   22015228.6074   22015224.4584
        51.000          44.000
 120797879.63847  94128204.38047  22987083.6004   22987086.7184   22987083.8574
        46.000          40.000
 121539842.73047  94706356.41247  23128273.1964   23128277.1254   23128273.0014
        48.000          42.000
 116140593.59447  90499159.35447  22100822.2114   22100824.6314   22100822.3984
        51.000          44.000
 118632778.11247  92441114.64947  22575074.5284   22575077.4184   22575074.4764
        50.000          44.000
 122315250.42247  95310585.05147  23275818.4894   23275820.6104   23275818.8584
        46.000          40.000
 105136143.25347  81924262.08647  20006747.0714   20006749.1464   20006747.4194
        54.000          50.000
 128304278.65147  99977337.57147  24415511.6854   24415515.2414   24415511.6544
        42.000          38.000
 09  1 11  0 49 30.0000000  0 12G22G 5G30G 6G24G 9G29G14G31G18G21G12
 125732405.32747  97973299.51447  23926083.7274   23926084.0904   23926083.8894
        46.000          40.000
 123838569.64847  96497561.14847  23565716.6804   23565721.4114   23565717.0764
        46.000          39.000
 121387229.32447  94587441.57447  23099227.7244   23099231.5444   23099227.2634
        48.000          41.000
 137437951.38547  89302290.31447  24250642.2014   24250646.7554   24250642.2394
        42.000          37.000
 115747566.02847  90192890.87247  22026042.0944   22026046.5984   22026042.3334
        51.000          44.000
 120885330.41047  94196347.84047  23003724.9014   23003728.1264   23003725.1884
        47.000          40.000
 121614300.88247  94764375.73147  23142442.0704   23142445.8384   23142441.9564
        47.000          42.000
 116166179.74247  90519096.63147  22105691.0954   22105693.6584   22105691.2844
        51.000          45.000
 118537135.71147  92366588.13647  22556874.2934   22556877.6104   22556874.0574
        49.000          44.000
 122283569.94247  95285898.96947  23269789.9994   23269792.1434   23269790.4684
        47.000          41.000
 105116724.85247  81909130.86847  20003051.9674   20003053.7934   20003052.3504
        54.000          50.000
 128307613.46747  99979936.19047  24416146.1144   24416149.9834   24416145.6494
        44.000          38.000
 09  1 11  0 50  0.0000000  0 12G22G 5G30G 6G24G 9G29G14G31G18G21G12
 125699437.28547  97947610.12047  23919809.9814   23919811.0224   23919810.4354
        46.000          40.000
 123827167.74147  96488676.58347  23563546.4074   23563552.0324   23563547.0334
        45.000          39.000
 121360157.15247  94566346.40047  23094076.3394   23094080.0284   23094075.8614
        48.000          41.000
 137401973.80547  89274255.81047  24243795.1854   24243800.2254   24243795.8064
        42.000          37.000
 115804843.28347  90237522.48447  22036941.6684   22036946.2814   22036941.8584
        51.000          44.000
 120973142.64047  94264772.97047  23020435.1954   23020437.9104   23020435.1314
        47.000          40.000
 121688686.13047  94822338.25747  23156597.4264   23156600.8244   23156597.4394
        48.000          42.000
 116192046.76547  90539252.76747  22110613.7364   22110615.9564   22110613.6654
        51.000          44.000
 118441712.86447  92292232.70647  22538715.9204   22538719.1284   22538715.5734
        49.000          44.000
 122251748.17047  95261102.79447  23263734.6934   23263736.6294   23263735.0834
        47.000          41.000
 105097892.39347  81894456.23047  19999468.3714   19999470.1124   19999468.7514
        54.000          50.000
 128311048.49447  99982612.90447  24416799.5494   24416803.6604   24416799.3644
        44.000          38.000
 09  1 11  0 50 30.0000000  0 12G22G 5G30G 6G24G 9G29G14G31G18G21G12
 125666244.36447  97921745.49147  23913493.7864   23913494.0964   23913494.0474
        46.000          39.000
 123815874.32747  96479876.55547  23561397.5874   23561402.4494   23561398.0994
        45.000          39.000
 121333042.87647  94545218.43347  23088916.4264   23088920.0984   23088916.5404
        48.000          41.000
 137366290.69147  89246450.77247  24237005.7784   24237010.7794   24237005.8304
        43.000          37.000
 115862546.85847  90282486.29647  22047922.1734   22047927.0044   22047922.2544
        51.000          44.000
 121061312.23047  94333476.56047  23037213.1574   23037215.9314   23037213.3434
        47.000          40.000
 121762995.09147  94880241.32747  23170737.8194   23170740.8274   23170738.0014
        47.000          42.000
 116218190.56047  90559624.57747  22115588.3914   22115590.9344   22115588.6724
        50.000          44.000
 118346510.87847  92218049.37047  22520599.4204   22520602.9234   22520598.9104
        49.000          44.000
 122219784.81147  95236196.28847  23257652.3104   23257654.4604   23257652.7624
        47.000          41.000
 105079645.75447  81880238.07547  19995996.2084   19995997.8724   19995996.7064
        54.000          50.000
 128314583.78747  99985367.74047  24417472.2864   24417476.4924   24417472.2704
        43.000          38.000
 09  1 11  0 51  0.0000000  0 12G22G 5G30G 6G24G 9G29G14G31G18G21G12
 125632828.91247  97895707.46847  23907134.9984   23907135.2784   23907135.0764
        46.000          40.000
 123804693.30147  96471164.10947  23559269.5954   23559274.3444   23559270.5254
        45.000          39.000
 121305890.18847  94524060.54147  23083749.2524   23083753.1884   23083748.7804
        48.000          42.000
 137330903.45047  89218876.28247  24230271.8814   24230275.9964   24230272.3434
        41.000          37.000
 115920677.13847  90327782.59047  22058984.1594   22058988.7224   22058984.2164
        51.000          44.000
 121149838.39647  94402458.00147  23054058.9444   23054061.8444   23054059.2374
        46.000          40.000
 121837227.72447  94938084.91247  23184863.7734   23184867.3804   23184863.4254
        47.000          42.000
 116244610.70647  90580211.72747  22120615.8894   22120618.4504   22120615.9954
        50.000          44.000
 118251534.74147  92144042.03347  22502526.2324   22502529.5614   22502525.8164
        50.000          44.000
 122187683.30247  95211182.12147  23251543.5204   23251545.5494   23251544.0174
        48.000          41.000
 105061988.10347  81866478.87147  19992636.0504   19992637.7464   19992636.4224
        54.000          50.000
 128318223.02547  99988203.56047  24418165.0484   24418169.0344   24418164.7804
        43.000          38.000
 09  1 11  0 51 30.0000000  0 12G22G 5G30G 6G24G 9G29G14G31G18G21G12
 125599188.20347  97869493.92947  23900733.5634   23900733.9594   23900734.0184
        46.000          40.000
 123793623.86047  96462538.62447  23557163.6474   23557168.5904   23557164.2374
        45.000          39.000
 121278698.07947  94502871.91747  23078574.9204   23078578.8974   23078574.5424
        48.000          42.000
 137295808.63947  89191529.68247  24223592.6464   24223597.9074   24223592.8634
        42.000          37.000
 115979229.90547  90373408.09947  22070126.5234   22070130.9124   22070126.7364
        51.000          44.000
 121238715.89247  94471713.20947  23070971.8424   23070974.7564   23070971.8684
        46.000          39.000
 121911379.07647  94995865.16547  23198974.1964   23198978.1834   23198973.5604
        47.000          42.000
 116271301.71447  90601009.93447  22125694.9474   22125697.6374   22125695.2084
        50.000          44.000
 118156784.22247  92070210.49247  22484495.9184   22484499.1694   22484495.3114
        50.000          44.000
 122155442.08047  95186059.11347  23245408.1114   23245410.1634   23245408.5454
        47.000          40.000
 105044917.80647  81853177.34647  19989387.5794   19989389.5194   19989387.9904
        54.000          50.000
 128321965.29247  99991119.70447  24418877.2214   24418880.9144   24418876.9744
        44.000          39.000
 09  1 11  0 52  0.0000000  0 12G22G 5G30G 6G24G 9G29G14G31G18G21G12
 125565326.90647  97843108.48047  23894289.3754   23894290.3874   23894289.4704
        45.000          39.000
 123782672.70647  96454005.31347  23555079.3494   23555084.3694   23555080.0434
        45.000          39.000
 121251473.28047  94481657.83247  23073394.3414   23073398.3344   23073394.2504
        48.000          42.000
 137261010.00847  89164413.83947  24216972.0674   24216976.8104   24216972.3194
        41.000          37.000
 116038208.13347  90419365.13847  22081349.5934   22081354.0144   22081349.6294
        51.000          44.000
 121327946.47747  94541243.54247  23087952.0524   23087954.7974   23087952.0384
        45.000          39.000
 121985451.66547  95053584.05547  23213069.6574   23213073.5504   23213069.3544
        47.000          42.000
 116298265.50847  90622020.69747  22130826.0314   22130828.8904   22130826.4264
        50.000          44.000
 118062267.14747  91996560.85347  22466509.8594   22466513.0254   22466509.5644
        50.000          44.000
 122123067.04547  95160831.81847  23239247.0024   23239249.1014   23239247.5894
        47.000          41.000
 105028440.76247  81840338.09647  19986251.9534   19986253.8904   19986252.3814
        54.000          49.000
 128325817.07047  99994121.16247  24419609.9404   24419614.0074   24419609.5764
        44.000          39.000
 09  1 11  0 52 30.0000000  0 12G22G 5G30G 6G24G 9G29G14G31G18G21G12
 125531241.08347  97816548.08347  23887803.0754   23887804.0314   23887803.1844
        45.000          40.000
 123771837.80147  96445562.58347  23553017.6414   23553022.4714   23553018.1924
        44.000          39.000
 121224213.43747  94460416.43447  23068206.7664   23068210.7824   23068206.3724
        48.000          41.000
 137226502.67047  89137525.00847  24210405.1174   24210409.6414   24210405.2754
        43.000          37.000
 116097606.55047  90465649.60347  22092652.7304   22092656.9804   22092652.8104
        51.000          44.000
 121417523.51247  94611043.84447  23104997.9514   23105001.1074   23104997.9504
        45.000          39.000
 122059439.38047  95111236.81747  23227149.2094   23227153.1404   23227148.7354
        47.000          42.000
 116325495.48847  90643238.88047  22136007.6934   22136010.5074   22136007.9264
        50.000          45.000
 117967982.12247  91923092.02447  22448568.0104   22448571.0774   22448567.7484
        50.000          44.000
 122090555.53647  95135498.16347  23233060.5564   23233062.7044   23233060.9694
        48.000          41.000
 105012554.31647  81827959.05247  19983228.9894   19983230.7734   19983229.3874
        54.000          50.000
 128329775.92347  99997206.08047  24420363.5104   24420367.0634   24420363.7354
        43.000          38.000
 09  1 11  0 53  0.0000000  0 12G22G 5G30G 6G24G 9G29G14G31G18G21G12
 125496933.86547  97789815.18747  23881274.6234   23881275.3084   23881274.7704
        46.000          40.000
 123761123.12847  96437213.54547  23550978.4054   23550983.5304   23550978.8874
        45.000          39.000
 121196922.38847  94439150.72147  23063013.5544   23063017.5964   23063013.5234
        48.000          42.000
 137192288.13447  89110864.33247  24203894.2614   24203899.1494   24203894.4174
        42.000          37.000
 116157425.47747  90512261.73547  22104035.9774   22104040.3554   22104036.0254
        51.000          44.000
 121507446.50547  94681113.71447  23122109.2784   23122112.8744   23122109.3824
        45.000          40.000
 122133342.16647  95168823.39147  23241212.2154   23241216.5334   23241212.1694
        47.000          42.000
 116352991.06047  90664664.01247  22141240.0624   22141242.9674   22141240.3004
        50.000          45.000
 117873934.17247  91849807.93647  22430671.2094   22430674.3984   22430670.8234
        50.000          44.000
 122057910.81047  95110060.72447  23226848.7534   23226850.3484   23226849.0614
        47.000          41.000
 104997260.78447  81816042.01647  19980318.8174   19980320.5534   19980319.2704
        54.000          50.000
 128333845.81147 100000377.49147  24421137.5564   24421141.7154   24421137.1504
        43.000          38.000
 09  1 11  0 53 30.0000000  0 12G22G 5G30G 6G24G 9G29G14G31G18G21G12
 125462405.05247  97762909.62247  23874703.9354   23874705.1734   23874704.5504
        46.000          40.000
 123750530.91847  96428959.93347  23548962.9824   23548967.4314   23548963.6884
        45.000          39.000
 121169602.21247  94417862.29447  23057814.7044   23057818.5794   23057814.3224
        49.000          42.000
 137158365.65147  89084431.22247  24197438.8104   24197443.7004   24197438.7374
        41.000          37.000
 116217663.43547  90559200.38647  22115498.5644   22115503.3844   22115498.5774
        51.000          44.000
 121597712.26747  94751450.66447  23139286.3974   23139290.2384   23139286.7874
        45.000          40.000
 122207158.23247  95226342.39847  23255259.1554   23255263.1934   23255258.8254
        47.000          42.000
 116380749.69647  90686294.13247  22146522.2264   22146525.0314   22146522.3324
        50.000          44.000
 117780126.01747  91776710.68347  22412820.4094   22412823.1934   22412819.5884
        50.000          44.000
 122025134.41147  95084520.66347  23220611.3104   23220613.2154   23220611.3984
        47.000          41.000
 104982561.88447  81804588.32847  19977521.7924   19977523.4824   19977522.2364
        54.000          50.000
 128338028.34547 100003636.70747  24421933.9244   24421937.1524   24421933.7364
        43.000          39.000
 09  1 11  0 54  0.0000000  0 12G22G 5G30G 6G24G 9G29G14G31G18G21G12
 125427655.76747  97735832.24547  23868091.6074   23868092.4424   23868091.5614
        46.000          39.000
 123740063.93947  96420803.89347  23546971.3824   23546975.8674   23546972.0904
        45.000          39.000
 121142255.79047  94396553.42247  23052610.7544   23052614.9394   23052610.6174
        48.000          42.000
 137124735.21247  89058225.68847  24191038.8694   24191044.2854   24191038.7024
        41.000          37.000
 116278319.69947  90606465.00447  22127041.2404   22127045.8224   22127041.1824
        51.000          44.000
 121688319.20947  94822053.48947  23156528.8084   23156532.0814   23156528.6614
        47.000          40.000
 122280885.95447  95283792.55247  23269289.0864   23269293.3124   23269289.0054
        47.000          42.000
 116408769.76347  90708127.96547  22151854.0804   22151856.8834   22151854.0184
        50.000          44.000
 117686561.09147  91703802.98447  22395015.5064   22395018.3684   22395015.3594
        50.000          44.000
 121992228.65047  95058879.82247  23214349.7144   23214351.7764   23214350.1844
        47.000          41.000
 104968459.56847  81793599.51247  19974838.1274   19974839.9264   19974838.5334
        54.000          50.000
 128342326.25247 100006985.80847  24422751.3714   24422755.0644   24422750.9324
        43.000          39.000
 09  1 11  0 54 30.0000000  0 12G22G 5G30G 6G24G 9G29G14G31G18G21G12
 125392683.89447  97708581.42347  23861436.8104   23861437.3314   23861436.6444
        46.000          39.000
 123729722.21147  96412745.44847  23545002.9054   23545007.9154   23545003.4034
        45.000          39.000
 121114882.96647  94375223.96947  23047402.0474   23047405.5674   23047401.6784
        48.000          42.000
 137091393.99247  89032245.48747  24184695.2304   24184698.7634   24184694.7674
        42.000          37.000
 116339390.46147  90654052.58747  22138662.7254   22138667.3984   22138662.9594
        51.000          44.000
 121779262.71047  94892918.54847  23173834.5474   23173837.8234   23173834.6284
        46.000          40.000
 122354521.40447  95341170.81047  23283301.2734   23283305.6684   23283300.9144
        46.000          41.000
 116437046.11947  90730161.50047  22157234.8854   22157237.6784   22157235.0624
        50.000          44.000
 117593240.41647  91631085.60147  22377256.9094   22377260.0044   22377256.4154
        50.000          44.000
 121959192.85447  95033137.64647  23208062.8984   23208065.3634   23208063.3634
        48.000          41.000
 104954952.53647  81783074.55347  19972267.6564   19972269.6384   19972268.0554
        54.000          50.000
 128346739.54047 100010424.79947  24423591.0734   24423594.6574   24423590.7064
        44.000          39.000
 09  1 11  0 55  0.0000000  0 12G22G 5G30G 6G24G 9G29G14G31G18G21G12
 125357491.85447  97681159.06147  23854739.8584   23854740.3034   23854739.6044
        46.000          39.000
 123719509.37147  96404787.45347  23543059.9264   23543064.6874   23543060.6264
        45.000          39.000
 121087487.34947  94353876.76947  23042188.6404   23042192.7184   23042188.4454
        48.000          42.000
 137058342.90847  89006491.38447  24178405.1524   24178409.9704   24178404.9254
        43.000          37.000
 116400875.82947  90701963.25847  22150362.9884   22150367.4564   22150363.1564
        51.000          44.000
 121870541.41747  94964044.81847  23191204.6704   23191207.4474   23191204.7874
        46.000          40.000
 122428064.38747  95398477.01347  23297296.0024   23297300.2064   23297295.9504
        46.000          41.000
 116465578.44647  90752394.49147  22162664.4844   22162667.0974   22162664.6404
        50.000          44.000
 117500168.48747  91558562.05047  22359545.8694   22359548.7174   22359545.3314
        50.000          44.000
 121926030.14247  95007296.58347  23201752.4934   23201754.3904   23201752.9374
        48.000          41.000
 104942043.37047  81773015.46547  19969811.1244   19969812.9224   19969811.4464
        54.000          49.000
 128351271.36147 100013956.17247  24424453.4834   24424456.8204   24424453.3384
        43.000          39.000
 09  1 11  0 55 30.0000000  0 12G22G 5G30G 6G24G 9G29G14G31G18G21G12
 125322080.12247  97653565.51547  23848001.0804   23848001.7974   23848001.3854
        45.000          39.000
 123709427.49347  96396931.50247  23541141.1184   23541145.8464   23541141.8304
        46.000          39.000
 121060070.53547  94332513.04247  23036971.4804   23036975.3374   23036970.9204
        48.000          42.000
 137025581.10447  88980962.70147  24172171.5274   24172175.5414   24172171.2274
        43.000          37.000
 116462774.17647  90750195.71647  22162142.0724   22162146.4694   22162142.1754
        51.000          44.000
 121962152.92247  95035430.41647  23208637.3944   23208640.3174   23208637.5264
        46.000          40.000
 122501512.87347  95455709.58847  23311272.8584   23311277.3264   23311272.9314
        46.000          41.000
 116494363.90047  90774824.73247  22168142.2184   22168144.9504   22168142.3104
        50.000          44.000
 117407348.04147  91486234.46147  22341882.6864   22341885.4584   22341882.2594
        50.000          44.000
 121892741.87647  94981357.67847  23195417.9374   23195419.9834   23195418.6724
        48.000          41.000
 104929733.18247  81763423.11047  19967468.6494   19967470.3954   19967469.0944
        54.000          50.000
 128355923.19747 100017581.05747  24425338.5724   24425342.0914   24425338.4664
        43.000          38.000
 09  1 11  0 56  0.0000000  0 12G22G 5G30G 6G24G 9G29G14G31G18G21G12
 125286449.10547  97625801.08147  23841220.4734   23841221.7934   23841220.2994
        46.000          39.000
 123699478.72847  96389179.27747  23539247.7174   23539252.6884   23539248.5774
        45.000          39.000
 121032634.91147  94311134.65947  23031750.5304   23031754.3684   23031750.5474
        48.000          42.000
 136993107.96547  88955658.97047  24165991.2704   24165995.9384   24165991.6474
        44.000          38.000
 116525083.94347  90798748.76547  22173999.0524   22174003.7764   22173999.3144
        51.000          44.000
 122054094.72247  95107073.38447  23226133.5224   23226136.1694   23226133.5614
        45.000          39.000
 122574864.96547  95512867.03947  23325231.6524   23325235.6434   23325231.5054
        46.000          41.000
 116523400.00447  90797450.27947  22173667.3054   22173670.0154   22173667.4404
        50.000          44.000
 117314782.26147  91414105.30747  22324268.2284   22324270.8294   22324267.9164
        50.000          44.000
 121859329.78747  94955322.30047  23189059.8714   23189061.8304   23189060.4544
        47.000          41.000
 104918023.28447  81754298.51447  19965240.3684   19965242.2104   19965240.7654
        54.000          50.000
 128360697.37347 100021301.25947  24426246.8534   24426250.6084   24426246.6944
        43.000          38.000
 09  1 11  0 56 30.0000000  0 12G22G 5G30G 6G24G 9G29G14G31G18G21G12
 125250597.32247  97597864.62547  23834398.6204   23834399.6624   23834398.8354
        46.000          39.000
 123689663.88747  96381531.38947  23537379.9694   23537384.7324   23537380.1904
        45.000          39.000
 121005181.28047  94289742.24347  23026526.4284   23026530.1884   23026526.0094
        48.000          42.000
 136960921.40447  88930578.52447  24159867.0024   24159871.1814   24159867.7214
        43.000          38.000
 116587802.36247  90847620.24247  22185934.3834   22185938.4414   22185934.3284
        50.000          44.000
 122146362.70647  95178970.51647  23243691.2944   23243693.9954   23243691.3554
        45.000          39.000
 122648117.20947  95569946.68547  23339171.0224   23339174.8814   23339171.2414
        46.000          41.000
 116552683.00747  90820268.20847  22179239.6754   22179242.4964   22179240.0614
        50.000          44.000
 117222472.67247  91342175.79147  22306702.3134   22306704.8874   22306701.8244
        50.000          45.000
 121825793.84847  94929190.40047  23182677.8774   23182679.8224   23182678.4494
        48.000          40.000
 104906913.16247  81745641.27547  19963126.1144   19963127.9974   19963126.5144
        54.000          50.000
 128365594.41847 100025117.21347  24427178.8134   24427181.9634   24427178.7904
        43.000          39.000
 09  1 11  0 57  0.0000000  0 12G22G 5G30G 6G24G 9G29G14G31G18G21G12
 125214528.08447  97569758.71847  23827535.1994   23827534.9264   23827535.3474
        46.000          39.000
 123679987.57447  96373991.45847  23535539.2084   23535543.6144   23535539.7594
        46.000          39.000
 120977714.05447  94268339.23447  23021299.5704   23021302.9574   23021298.9184
        48.000          42.000
 136929023.05547  88905722.66847  24153796.3504   24153801.2774   24153796.2014
        43.000          38.000
 116650930.33547  90896810.84647  22197947.0814   22197951.7184   22197947.2584
        50.000          44.000
 122238956.47547  95251121.50747  23261311.6864   23261314.2174   23261311.7114
        45.000          39.000
 122721270.73047  95626949.39347  23353091.4324   23353095.7494   23353091.3714
        46.000          41.000
 116582212.63847  90843278.32647  22184858.9004   22184861.6474   22184859.2334
        50.000          44.000
 117130424.55147  91270450.02247  22289186.0244   22289188.7054   22289186.0634
        50.000          44.000
 121792138.22647  94902965.24847  23176273.6184   23176275.4814   23176273.8454
        47.000          40.000
 104896406.12647  81737453.97147  19961126.7144   19961128.5374   19961127.1844
        54.000          50.000
 128370619.03747 100029032.57647  24428134.5744   24428138.6254   24428134.3604
        43.000          38.000
 09  1 11  0 57 30.0000000  0 12G22G 5G30G 6G24G 9G29G14G31G18G21G12
 125178240.49047  97541482.67847  23820629.3764   23820629.8774   23820629.8414
        47.000          39.000
 123670450.09547  96366559.70447  23533723.9844   23533728.0134   23533724.6814
        45.000          39.000
 120950233.66447  94246925.95147  23016070.1414   23016073.5534   23016069.6474
        48.000          42.000
 136897410.58047  88881089.55247  24147780.9544   24147785.7064   24147781.2314
        42.000          38.000
 116714464.67747  90946318.11047  22210037.2934   22210041.7824   22210037.2904
        50.000          44.000
 122331871.70847  95323522.99447  23278992.5654   23278995.3094   23278992.6384
        45.000          39.000
 122794321.59847  95683872.12247  23366993.0134   23366996.8654   23366992.9244
        46.000          41.000
 116611984.46747  90866477.16347  22190524.5234   22190527.1204   22190524.5844
        50.000          44.000
 117038639.08547  91198928.92247  22271719.7424   22271722.3764   22271718.9904
        50.000          45.000
 121758362.64547  94876646.62747  23169846.6344   23169848.0984   23169847.2324
        48.000          40.000
 104886501.22147  81729735.85747  19959241.8844   19959243.6654   19959242.2154
        54.000          50.000
 128375770.19647 100033046.57147  24429114.4274   24429118.2064   24429114.1074
        43.000          38.000
 09  1 11  0 58  0.0000000  0 12G22G 5G30G 6G24G 9G29G14G31G18G21G12
 125141735.83647  97513037.50547  23813682.9604   23813683.2254   23813683.3774
        46.000          39.000
 123661055.13147  96359239.01047  23531936.0244   23531940.2154   23531936.5534
        45.000          39.000
 120922743.48447  94225505.05747  23010839.0744   23010842.6124   23010838.6674
        48.000          42.000
 136866084.51747  88856679.63147  24141819.3344   24141824.9154   24141819.0844
        44.000          37.000
 116778405.13647  90996141.82447  22222204.7554   22222209.2594   22222204.9404
        50.000          44.000
 122425107.28047  95396174.08147  23296734.5824   23296737.2984   23296734.8404
        46.000          39.000
 122867269.43447  95740714.57847  23380874.6164   23380878.3504   23380874.2094
        46.000          41.000
 116641997.58047  90889864.00947  22196235.7094   22196238.2824   22196235.9824
        50.000          44.000
 116947120.68747  91127615.93047  22254304.6924   22254307.0644   22254303.9764
        50.000          45.000
 121724470.21447  94850236.94847  23163397.1504   23163398.6514   23163397.8794
        48.000          41.000
 104877201.32147  81722489.18147  19957472.2814   19957473.9034   19957472.6714
        54.000          50.000
 128381052.15047 100037162.43547  24430119.2584   24430123.6494   24430119.1284
        44.000          38.000
 09  1 11  0 58 30.0000000  0 12G22G 5G30G 6G24G 9G29G14G31G18G21G12
 125105011.78947  97484421.37247  23806694.7794   23806694.8394   23806694.6514
        46.000          39.000
 123651801.74947  96352028.63847  23530174.5914   23530179.8004   23530174.7174
        45.000          39.000
 120895242.65447  94204075.85747  23005605.8824   23005609.4254   23005605.3344
        49.000          42.000
 136835041.03347  88832489.88747  24135912.6094   24135917.0834   24135912.7134
        43.000          38.000
 116842746.71547  91046278.09747  22234448.3554   22234452.9954   22234448.4074
        50.000          44.000
 122518657.32847  95469070.23947  23314536.7384   23314539.7444   23314536.6374
        46.000          40.000
 122940109.26547  95797472.86647  23394735.3864   23394739.0744   23394735.2564
        47.000          41.000
 116672246.42047  90913434.53747  22201992.1524   22201994.6094   22201992.4714
        50.000          44.000
 116855869.31347  91056511.01547  22236940.0364   22236942.7444   22236939.9244
        51.000          45.000
 121690459.58347  94823735.14747  23156925.0564   23156926.5754   23156925.5284
        47.000          41.000
 104868504.28447  81715712.26947  19955817.2184   19955818.9594   19955817.5744
        54.000          50.000
 128386463.46547 100041379.12747  24431149.3604   24431152.8584   24431149.5664
        44.000          39.000
 09  1 11  0 59  0.0000000  0 12G22G 5G30G 6G24G 9G29G14G31G18G21G12
 125068074.12847  97455638.79547  23799664.9344   23799665.7924   23799664.9394
        45.000          39.000
 123642696.95647  96344934.03847  23528442.1104   23528446.6914   23528442.6904
        46.000          39.000
 120867738.50847  94182644.07447  23000371.8664   23000375.9184   23000371.6404
        49.000          42.000
 136804284.41147  88808523.68547  24130059.1584   24130064.7384   24130058.9214
        42.000          37.000
 116907492.98847  91096729.72247  22246769.2254   22246773.6774   22246769.5094
        50.000          43.000
 122612524.08747  95542213.17547  23332399.0094   23332402.2144   23332399.2134
        46.000          40.000
 123012844.55947  95854149.69547  23408576.6274   23408580.4964   23408576.6124
        47.000          41.000
 116702733.49347  90937190.71047  22207793.5354   22207795.7734   22207793.6864
        50.000          44.000
 116764892.68547  90985620.19247  22219627.6614   22219630.4884   22219627.4004
        50.000          45.000
 121656337.27947  94797146.34947  23150431.4644   23150433.6364   23150431.8654
        48.000          41.000
 104860415.34647  81709409.20047  19954277.9254   19954279.8794   19954278.3334
        54.000          50.000
 128392010.90447 100045701.89247  24432205.4104   24432208.7364   24432205.0064
        44.000          38.000
 09  1 11  0 59 30.0000000  0 12G22G 5G30G 6G24G 9G29G14G31G18G21G12
 125030917.93747  97426685.92147  23792594.7244   23792595.2634   23792594.5804
        45.000          39.000
 123633737.96847  96337953.03047  23526737.2974   23526742.3284   23526737.8984
        45.000          39.000
 120840227.72547  94161207.12747  22995137.1094   22995140.4974   22995136.6614
        49.000          42.000
 136773808.81147  88784776.46947  24124260.1604   24124265.3964   24124260.4834
        42.000          37.000
 116972637.42647  91147491.60647  22259165.8004   22259170.1224   22259166.0814
        51.000          44.000
 122706700.38047  95615597.29647  23350320.5434   23350323.3704   23350320.7334
        46.000          40.000
 123085468.32047  95910739.62547  23422396.6544   23422400.0044   23422396.8464
        47.000          41.000
 116733451.14847  90961126.54947  22213638.8574   22213641.3974   22213639.1154
        50.000          44.000
 116674188.54547  90914941.70247  22202367.1354   22202370.0114   22202366.7074
        51.000          45.000
 121622099.80947  94770467.79947  23143916.4674   23143918.3614   23143916.8174
        48.000          41.000
 104852930.87847  81703577.14247  19952853.6224   19952855.4774   19952854.0014
        54.000          50.000
 128397691.90447 100050128.73947  24433286.1574   24433289.8764   24433285.6664
        43.000          38.000
 09  1 11  1  0  0.0000000  0 12G22G 5G30G 6G24G 9G29G14G31G18G21G12
 124993547.51747  97397566.14147  23785483.6094   23785483.9644   23785483.6274
        46.000          39.000
 123624930.70647  96331090.27747  23525061.5504   23525066.2754   23525062.0924
        46.000          40.000
 120812716.21347  94139769.61747  22989901.3874   22989905.3144   22989901.1104
        48.000          42.000
 136743617.08947  88761250.43947  24118514.3264   24118520.0334   24118514.8554
        42.000          37.000
 117038182.10947  91198565.36347  22271638.6724   22271643.1544   22271638.8254
        50.000          43.000
 122801187.12547  95689223.33347  23368300.7164   23368303.4914   23368301.0164
        46.000          40.000
 123157982.64947  95967244.26947  23436195.7434   23436198.7904   23436195.6824
        47.000          41.000
 116764400.60847  90985243.01747  22219528.4504   22219530.9154   22219528.7244
        50.000          44.000
 116583764.13547  90844481.18947  22185159.7324   22185162.6994   22185159.4774
        51.000          45.000
 121587752.98447  94743704.05447  23137380.7744   23137382.4204   23137380.9824
        48.000          41.000
 104846055.49947  81698219.69847  19951545.4374   19951547.2234   19951545.8074
        54.000          50.000
 128403511.38147 100054663.47147  24434393.2194   24434397.3314   24434393.3194
        43.000          38.000
 09  1 11  1  0 30.0000000  0 12G22G 5G30G 6G24G 9G29G14G31G18G21G12
 124955961.06647  97368278.02347  23778330.8884   23778331.1984   23778331.0344
        46.000          39.000
 123616274.35147  96324345.13247  23523414.5744   23523419.2394   23523415.1134
        46.000          40.000
 120785203.25547  94118330.98847  22984665.9694   22984669.6304   22984665.4054
        48.000          42.000
 136713705.44347  88737942.66847  24112823.0904   24112827.6014   24112822.7614
        43.000          37.000
 117104122.28347  91249947.30247  22284186.5884   22284191.0084   22284186.4734
        50.000          43.000
 122895978.48247  95763086.70247  23386338.6294   23386341.8674   23386338.7804
        45.000          39.000
 123230382.67747  96023659.84847  23449972.7254   23449976.0454   23449972.3834
        46.000          41.000
 116795576.29247  91009535.76447  22225460.7554   22225463.4184   22225461.1764
        50.000          44.000
 116493619.18147  90774238.43847  22168005.4424   22168008.3874   22168005.1614
        51.000          45.000
 121553295.21847  94716853.85947  23130823.0434   23130825.1984   23130823.8324
        48.000          41.000
 104839786.85647  81693335.03847  19950352.5134   19950354.2534   19950352.8394
        54.000          50.000
 128409468.29147 100059305.28447  24435527.4494   24435530.6784   24435527.3564
        43.000          38.000
 09  1 11  1  1  0.0000000  0 12G22G 5G30G 6G24G 9G29G14G31G18G21G12
 124918160.80947  97338823.26947  23771137.6534   23771138.5094   23771137.5564
        45.000          39.000
 123607772.84347  96317720.62647  23521796.6584   23521801.2684   23521796.9034
        46.000          40.000
 120757692.75547  94096894.28347  22979430.1854   22979434.8704   22979429.7904
        48.000          42.000
 136684075.18847  88714854.14047  24107184.5404   24107189.0924   24107184.8654
        43.000          37.000
 117170458.14747  91301637.57147  22296809.6604   22296814.3964   22296810.0004
        50.000          43.000
 122991073.67947  95837186.85547  23404434.3104   23404438.1014   23404434.5404
        44.000          39.000
 123302668.52947  96079986.46547  23463728.4214   23463731.7114   23463727.9024
        46.000          41.000
 116826977.71047  91034004.40347  22231436.4304   22231438.9044   22231436.6084
        50.000          44.000
 116403758.44447  90704217.15747  22150905.6554   22150908.1044   22150905.1434
        51.000          45.000
 121518729.97947  94689919.90347  23124245.7664   23124247.7164   23124246.3914
        48.000          41.000
 104834127.63347  81688925.25547  19949275.6164   19949277.2874   19949276.0174
        54.000          50.000
 128415566.65347 100064057.32447  24436687.5094   24436690.8634   24436687.2444
        43.000          38.000
 09  1 11  1  1 30.0000000  0 12G22G 5G30G 6G24G 9G29G14G31G18G21G12
 124880146.79247  97309201.98047  23763903.8764   23763904.4564   23763903.8554
        46.000          39.000
 123599427.77447  96311218.02747  23520208.7654   23520212.7544   23520209.5234
        46.000          40.000
 120730186.47447  94075460.85847  22974196.3084   22974200.2894   22974196.0334
        48.000          42.000
 136654724.74747  88691983.68347  24101599.0584   24101604.1314   24101598.9914
        43.000          37.000
 117237187.46247  91353634.42947  22309507.4424   22309512.3304   22309507.6684
        50.000          43.000
 123086469.49547  95911521.24247  23422587.4704   23422591.2744   23422587.6134
        44.000          39.000
 123374838.08147  96136222.46247  23477461.5264   23477465.4084   23477460.7584
        46.000          41.000
 116858601.85047  91058646.59547  22237454.0734   22237456.6304   22237454.4864
        50.000          44.000
 116314184.43247  90634419.31547  22133860.0394   22133862.6814   22133859.6384
        51.000          45.000
 121484058.59647  94662903.24147  23117647.8554   23117649.7154   23117648.1934
        48.000          41.000
 104829077.99447  81684990.46747  19948314.7034   19948316.4644   19948315.0994
        54.000          50.000
 128421807.64847 100068920.53447  24437875.1874   24437878.7684   24437874.8404
        43.000          38.000
 09  1 11  1  2  0.0000000  0 12G22G 5G30G 6G24G 9G29G14G31G18G21G12
 124841920.38947  97279415.19647  23756629.6234   23756630.3124   23756630.2064
        46.000          40.000
 123591242.30647  96304839.78647  23518650.7564   23518655.3634   23518651.1884
        46.000          40.000
 120702687.50547  94054033.13147  22968963.4244   22968967.2624   22968963.0434
        48.000          42.000
 136625654.25247  88669331.31847  24096067.7504   24096072.4234   24096067.9924
        43.000          37.000
 117304309.58647  91405937.36547  22322280.4374   22322285.3684   22322280.4654
        50.000          43.000
 123182164.04547  95986088.41947  23440797.9094   23440801.2124   23440797.6104
        44.000          39.000
 123446890.38647  96192367.09047  23491172.4374   23491176.7384   23491171.9564
        45.000          41.000
 116890446.45847  91083460.58247  22243514.2254   22243516.4524   22243514.4694
        50.000          44.000
 116224900.89847  90564847.81347  22116869.9254   22116872.4564   22116869.4324
        51.000          45.000
 121449283.71647  94635805.94347  23111030.5034   23111032.2254   23111030.7154
        48.000          41.000
 104824639.44447  81681531.85347  19947470.0504   19947471.7924   19947470.4264
        54.000          50.000
 128428193.99447 100073896.96047  24439090.1654   24439094.0454   24439089.9814
        43.000          38.000
 09  1 11  1  2 30.0000000  0 12G22G 5G30G 6G24G 9G29G14G31G18G21G12
 124803481.72047  97249463.00347  23749314.9554   23749315.7204   23749315.1014
        45.000          39.000
 123583218.12847  96298587.23347  23517123.7084   23517128.4444   23517124.4444
        46.000          40.000
 120675197.21347  94032612.17347  22963732.1444   22963736.1314   22963732.0284
        48.000          42.000
 136596862.38047  88646896.11047  24090588.1634   24090593.0674   24090587.4264
        43.000          37.000
 117371822.39347  91458544.73247  22335128.0104   22335132.5684   22335128.0464
        49.000          43.000
 123278154.27047  96060885.99247  23459063.8884   23459067.1384   23459064.3634
        45.000          39.000
 123518823.46147  96248418.81547  23504861.0874   23504865.0494   23504860.7664
        45.000          41.000
 116922509.20247  91108444.53947  22249615.5604   22249618.2274   22249615.6634
        50.000          44.000
 116135910.35947  90495504.62347  22099935.6084   22099937.8774   22099935.1224
        51.000          45.000
 121414406.61147  94608628.97447  23104393.9384   23104395.2574   23104394.3004
        48.000          41.000
 104820812.50847  81678549.82247  19946741.8124   19946743.5724   19946742.1494
        54.000          50.000
 128434727.18447 100078987.83147  24440333.0124   24440336.5764   24440333.1514
        42.000          38.000
 09  1 11  1  3  0.0000000  0 12G22G 5G30G 6G24G 9G29G14G31G18G21G12
 124764828.75047  97219343.82147  23741959.3154   23741960.4764   23741959.3734
        45.000          40.000
 123575354.37547  96292459.66147  23515627.1154   23515632.1644   23515627.6754
        45.000          40.000
 120647715.31747  94011197.75447  22958502.4394   22958506.2364   22958501.8534
        49.000          42.000
 136568345.38047  88624675.03447  24085162.1884   24085166.3674   24085162.7804
        44.000          37.000
 117439721.05747  91511452.77047  22348048.7844   22348053.8114   22348048.8214
        49.000          43.000
 123374434.52447  96135909.57347  23477385.3784   23477388.3384   23477385.5504
        45.000          39.000
 123590632.74247  96304374.07347  23518525.9844   23518530.4384   23518525.6214
        45.000          41.000
 116954784.03947  91133593.76947  22255757.2424   22255759.7584   22255757.4204
        50.000          44.000
 116047212.84747  90426389.76547  22083056.9714   22083059.4254   22083056.5764
        51.000          45.000
 121379425.88147  94581371.27847  23097737.0214   23097738.8054   23097737.3944
        48.000          41.000
 104817594.37147  81676042.18147  19946129.2964   19946131.2724   19946129.6384
        54.000          50.000
 128441406.46747 100084192.53047  24441604.6434   24441607.0004   24441603.9824
        43.000          38.000
 09  1 11  1  3 30.0000000  0 12G22G 5G30G 6G24G 9G29G14G31G18G21G12
 124725966.00547  97189061.18447  23734563.9744   23734564.9554   23734563.8834
        46.000          40.000
 123567657.20947  96286461.92047  23514162.7004   23514167.3064   23514162.9454
        46.000          40.000
 120620247.77847  93989794.52847  22953275.4544   22953279.3934   22953275.2294
        49.000          42.000
 136540106.28647  88602670.56047  24079787.8154   24079793.6534   24079787.9114
        43.000          37.000
 117508008.02547  91564663.37747  22361043.4134   22361048.0884   22361043.8684
        49.000          43.000
 123471006.38147  96211160.37247  23495762.6434   23495765.8134   23495762.4754
        45.000          39.000
 123662320.56547  96360234.68447  23532166.9874   23532172.2004   23532167.1014
        45.000          41.000
 116987273.13047  91158909.95447  22261939.4134   22261942.1284   22261939.6044
        50.000          44.000
 115958815.22247  90357508.58747  22066235.3264   22066237.7674   22066234.9584
        51.000          45.000
 121344347.44247  94554037.43647  23091061.7864   23091063.6334   23091062.1394
        48.000          41.000
 104814990.44547  81674013.14847  19945633.9314   19945635.7894   19945634.3144
        54.000          50.000
 128448237.55147 100089515.51747  24442904.6874   24442906.8414   24442904.6654
        43.000          38.000
 09  1 11  1  4  0.0000000  0 12G22G 5G30G 6G24G 9G29G14G31G18G21G12
 124686893.38047  97158614.99247  23727129.3864   23727129.5334   23727129.5644
        47.000          40.000
 123560127.95747  96280595.00147  23512730.0794   23512734.2784   23512730.2494
        46.000          40.000
 120592796.11147  93968403.66347  22948051.8654   22948055.3444   22948051.4104
        49.000          42.000
 136512143.34447  88580881.24647  24074467.4404   24074471.7174   24074467.3054
        43.000          38.000
 117576680.56847  91618174.44447  22374111.3714   22374116.1244   22374111.3564
        50.000          43.000
 123567865.90747  96286635.33247  23514194.4544   23514197.6294   23514194.6084
        45.000          39.000
 123733883.96547  96415998.35447  23545785.0734   23545790.3524   23545784.7324
        45.000          40.000
 117019972.65947  91184390.10847  22268162.1424   22268164.8314   22268162.3274
        50.000          44.000
 115870719.37147  90288862.55447  22049471.2764   22049473.7934   22049470.8994
        52.000          45.000
 121309172.17147  94526628.13147  23084367.8984   23084370.2694   23084368.2704
        48.000          41.000
 104813000.11847  81672462.24147  19945255.0974   19945257.0664   19945255.5214
        54.000          50.000
 128455220.96447 100094957.20247  24444233.4684   24444236.1594   24444233.1594
        43.000          38.000
 09  1 11  1  4 30.0000000  0 12G22G 5G30G 6G24G 9G29G14G31G18G21G12
 124647608.48047  97128003.40647  23719653.2494   23719654.0164   23719653.4004
        46.000          40.000
 123552765.60847  96274858.15047  23511328.9084   23511333.3644   23511329.6164
        46.000          40.000
 120565359.25547  93947024.33447  22942830.9854   22942834.4104   22942830.6094
        49.000          42.000
 136484452.73447  88559304.14647  24069197.6294   24069202.8974   24069197.5784
        43.000          38.000
 117645733.61247  91671981.99247  22387251.9724   22387256.4014   22387252.3734
        50.000          43.000
 123665007.24047  96362329.89247  23532679.7564   23532682.7024   23532679.6844
        45.000          39.000
 123805318.58347  96471661.66647  23559378.6754   23559383.8814   23559378.2444
        45.000          41.000
 117052877.07347  91210029.91547  22274423.7524   22274426.0614   22274424.1244
        50.000          44.000
 115782925.35047  90220451.71647  22032764.6674   22032766.9814   22032764.3074
        51.000          46.000
 121273898.63747  94499142.26347  23077655.7954   23077657.6734   23077656.2604
        48.000          41.000
 104811620.84747  81671387.48647  19944992.7464   19944994.5334   19944993.2104
        54.000          50.000
 128462355.76247 100100516.83247  24445590.9974   24445593.9164   24445590.6064
        42.000          38.000
 09  1 11  1  5  0.0000000  0 12G22G 5G30G 6G24G 9G29G14G31G18G21G12
 124608115.61947  97097229.75147  23712137.9384   23712138.8944   23712138.4094
        47.000          40.000
 123545575.73547  96269255.69247  23509960.4214   23509964.8554   23509960.7164
        46.000          40.000
 120537943.08347  93925661.12547  22937613.5874   22937617.3004   22937613.2914
        49.000          42.000
 136457036.71947  88537941.02247  24063980.7274   24063985.5804   24063981.1514
        43.000          38.000
 117715169.14547  91726087.59347  22400464.8864   22400469.5754   22400464.9884
        49.000          43.000
 123762431.30547  96438244.73847  23551218.8194   23551222.3174   23551218.5974
        44.000          38.000
 123876626.40547  96527226.18147  23572948.4794   23572953.3074   23572948.0114
        46.000          41.000
 117085987.20447  91235830.02947  22280724.2264   22280726.8244   22280724.6644
        49.000          44.000
 115695439.41147  90152280.93347  22016116.5914   22016119.0664   22016116.4134
        51.000          46.000
 121238532.73347  94471584.41647  23070925.7454   23070927.8224   23070926.1894
        48.000          41.000
 104810856.74547  81670792.07947  19944847.1664   19944849.0524   19944847.5604
        54.000          50.000
 128469647.33247 100106198.63447  24446978.2184   24446981.9804   24446978.2164
        43.000          39.000
 09  1 11  1  5 30.0000000  0 12G22G 5G30G 6G24G 9G29G14G31G18G21G12
 124568414.09447  97066293.50547  23704583.1584   23704583.9994   23704583.3984
        47.000          40.000
 123538559.48447  96263788.52247  23508625.2674   23508630.0044   23508625.6964
        45.000          40.000
 120510548.67147  93904314.87447  22932400.0354   22932403.9984   22932399.7434
        48.000          42.000
 136429893.57847  88516790.51647  24058815.9864   24058820.2534   24058815.4534
        43.000          38.000
 117784984.47847  91780489.13847  22413750.3924   22413755.2544   22413750.6094
        49.000          43.000
 123860134.23447  96514376.87947  23569810.5404   23569814.6534   23569810.8394
        43.000          38.000
 123947804.48047  96582689.59347  23586493.4654   23586497.9524   23586492.8724
        45.000          40.000
 117119299.59047  91261787.73947  22287063.3134   22287065.8894   22287063.4684
        50.000          44.000
 115608263.34147  90084351.60747  21999527.3524   21999530.0944   21999526.6614
        51.000          46.000
 121203074.41147  94443954.55447  23064178.4284   23064180.3944   23064178.9774
        48.000          41.000
 104810707.24947  81670675.58747  19944818.8424   19944820.5614   19944819.2374
        54.000          50.000
 128477096.66247 100112003.34847  24448396.0684   24448399.3334   24448395.5744
        43.000          39.000
 09  1 11  1  6  0.0000000  0 12G22G 5G30G 6G24G 9G29G14G31G18G21G12
 124528505.19047  97035195.66847  23696988.7954   23696989.5424   23696988.5384
        47.000          40.000
 123531719.18047  96258458.46147  23507324.0094   23507328.0374   23507324.3544
        46.000          40.000
 120483178.26647  93882987.34147  22927192.0224   22927195.6844   22927191.6534
        49.000          42.000
 136403022.53147  88495852.02547  24053701.8644   24053706.7314   24053702.2444
        43.000          38.000
 117855177.78647  91835185.20247  22427107.7754   22427112.5794   22427108.0154
        50.000          43.000
 123958113.58147  96590724.41147  23588455.4414   23588459.4454   23588455.6254
        43.000          38.000
 124018851.55347  96638050.91747  23600013.1814   23600017.6884   23600012.8214
        45.000          40.000
 117152811.90547  91287901.23247  22293440.8044   22293443.1164   22293441.1694
        50.000          44.000
 115521400.67747  90016666.49647  21982998.0054   21983000.7014   21982997.4214
        51.000          46.000
 121167526.35947  94416254.79047  23057413.4484   23057415.6304   23057413.9424
        47.000          41.000
 104811173.24247  81671038.69847  19944907.4454   19944909.3334   19944907.7434
        54.000          50.000
 128484705.25847 100117932.15947  24449843.6604   24449846.5334   24449843.1064
        42.000          38.000
 09  1 11  1  6 30.0000000  0 12G22G 5G30G 6G24G 9G29G14G31G18G21G12
 124488390.06047  97003937.12847  23689354.9534   23689355.6954   23689354.7744
        47.000          40.000
 123525057.55347  96253267.62947  23506055.7674   23506060.6014   23506056.2004
        46.000          40.000
 120455834.77847  93861680.77047  22921988.7254   22921992.4714   22921988.6794
        49.000          42.000
 136376423.28347  88475125.33447  24048640.8514   24048645.3504   24048640.6154
        43.000          38.000
 117925747.76547  91890174.79447  22440536.5684   22440541.5954   22440536.8884
        49.000          43.000
 124056367.19847  96667285.65847  23607152.7434   23607156.3714   23607152.5584
        43.000          38.000
 124089766.52747  96693309.32047  23613507.7734   23613512.0344   23613507.6074
        45.000          40.000
 117186521.90747  91314168.76947  22299855.7004   22299857.8634   22299855.8344
        50.000          44.000
 115434854.75047  89949228.20047  21966528.8414   21966531.3004   21966528.3774
        52.000          46.000
 121131890.38047  94388486.49247  23050632.2804   23050634.3554   23050632.7784
        47.000          41.000
 104812255.40747  81671881.94147  19945113.2914   19945115.2894   19945113.6174
        54.000          50.000
 128492475.95047 100123987.28347  24451322.2994   24451325.5404   24451321.6454
        43.000          38.000
 09  1 11  1  7  0.0000000  0 12G22G 5G30G 6G24G 9G29G14G31G18G21G12
 124448068.12947  96972517.44347  23681682.4384   23681682.5574   23681682.4464
        47.000          40.000
 123518575.10047  96248216.40047  23504822.3964   23504827.0154   23504822.4844
        45.000          40.000
 120428518.87447  93840395.68547  22916790.6124   22916794.4374   22916790.1854
        49.000          42.000
 136350093.06347  88454608.28047  24043630.1064   24043634.7134   24043630.5174
        43.000          37.000
 117996691.30047  91945455.46947  22454036.9224   22454041.7074   22454037.0984
        49.000          43.000
 124154890.44547  96744057.00047  23625901.2244   23625904.7294   23625901.4004
        44.000          39.000
 124160546.42747  96748462.46247  23626977.2764   23626981.1844   23626977.1114
        45.000          40.000
 117220425.70547  91340587.31447  22306307.2344   22306309.7504   22306307.2984
        50.000          44.000
 115348626.76947  89882037.64647  21950120.2984   21950122.4174   21950119.8284
        52.000          46.000
 121096167.09247  94360650.17447  23043834.7104   23043836.4554   23043834.9904
        47.000          41.000
 104813952.75147  81673204.54447  19945436.4794   19945438.2544   19945436.8554
        54.000          50.000
 128500408.76647 100130168.73247  24452831.9584   24452835.4444   24452831.6844
        43.000          38.000
 09  1 11  1  7 30.0000000  0 12G22G 5G30G 6G24G 9G29G14G31G18G21G12
 124407539.67247  96940936.83947  23673969.9914   23673970.5564   23673970.0174
        47.000          40.000
 123512273.82947  96243306.34547  23503623.0594   23503627.3864   23503623.5044
        45.000          40.000
 120401232.93147  93819133.95447  22911598.1864   22911601.8154   22911597.7674
        49.000          42.000
 136324030.74447  88434299.97347  24038670.3674   24038675.0534   24038670.9844
        43.000          38.000
 118068006.14347  92001025.45847  22467607.3654   22467612.6114   22467607.5384
        49.000          43.000
 124253680.70547  96821036.41647  23644700.5264   23644703.7674   23644700.6334
        44.000          39.000
 124231189.56147  96803509.05047  23640420.2794   23640424.2554   23640420.2314
        45.000          40.000
 117254520.42347  91367154.63447  22312795.2994   22312797.3294   22312795.5814
        50.000          44.000
 115262719.36447  89815096.89547  21933772.5664   21933774.7484   21933772.3444
        52.000          46.000
 121060358.18847  94332747.12647  23037020.2544   23037021.9294   23037020.9514
        48.000          41.000
 104816265.28547  81675006.52147  19945876.3994   19945878.2114   19945876.8434
        54.000          50.000
 128508505.43347 100136477.83747  24454372.6944   24454375.9184   24454372.6454
        42.000          39.000
 09  1 11  1  8  0.0000000  0 12G22G 5G30G 6G24G 9G29G14G31G18G21G12
 124366805.59947  96909196.01447  23666218.4234   23666218.8184   23666218.3144
        47.000          40.000
 123506155.98547  96238539.22547  23502458.7994   23502463.4164   23502459.2254
        45.000          39.000
 120373979.06047  93797897.21747  22906411.9594   22906415.4384   22906411.6414
        49.000          42.000
 136298235.97247  88414200.14347  24033761.7704   24033766.5584   24033762.0004
        43.000          38.000
 118139690.76447  92056883.60047  22481248.6004   22481253.6074   22481248.8954
        49.000          43.000
 124352735.52547  96898221.98047  23663549.9664   23663553.2924   23663550.1174
        44.000          38.000
 124301694.25947  96858447.74547  23653836.1044   23653840.8384   23653836.3164
        44.000          40.000
 117288803.67147  91393868.85047  22319319.1154   22319321.4484   22319319.2774
        50.000          44.000
 115177135.78047  89748408.46547  21917486.4664   21917488.6704   21917485.5874
        52.000          46.000
 121024465.46347  94304778.77447  23030190.2764   23030192.0124   23030190.8424
        48.000          41.000
 104819193.88747  81677288.55047  19946433.6844   19946435.5714   19946434.0354
        54.000          49.000
 128516768.22747 100142916.37247  24455944.9414   24455948.3484   24455944.7724
        44.000          39.000
 09  1 11  1  8 30.0000000  0 12G22G 5G30G 6G24G 9G29G14G31G18G21G12
 124325868.94247  96877297.32047  23658428.3834   23658428.8984   23658428.5784
        47.000          40.000
 123500225.57747  96233918.17347  23501330.4494   23501334.5314   23501330.6744
        46.000          40.000
 120346761.20447  93776688.53947  22901232.8264   22901236.2274   22901232.6484
        49.000          42.000
 136272709.20847  88394309.15547  24028904.1024   24028909.2524   24028904.1314
        42.000          38.000
 118211745.02047  92113029.75747  22494959.9574   22494965.3034   22494960.1564
        49.000          43.000
 124452053.82047  96975612.84647  23682449.7024   23682452.9754   23682449.6864
        44.000          38.000
 124372060.90247  96913278.87647  23667226.6254   23667231.4044   23667226.2194
        44.000          40.000
 117323274.88547  91420729.54347  22325878.6704   22325881.2454   22325878.7344
        50.000          44.000
 115091880.65047  89681975.97647  21901262.6624   21901265.1374   21901262.3474
        52.000          46.000
 120988492.74047  94276748.06747  23023345.1024   23023346.5954   23023345.6604
        47.000          41.000
 104822740.68247  81680052.28547  19947108.6224   19947110.4514   19947108.9574
        54.000          50.000
 128525200.97647 100149487.36647  24457550.1184   24457553.2854   24457550.1124
        43.000          39.000
 09  1 11  1  9  0.0000000  0 12G22G 5G30G 6G24G 9G29G14G31G18G21G12
 124284728.01347  96845239.45447  23650599.2494   23650599.9334   23650599.2984
        46.000          39.000
 123494482.44947  96229443.05347  23500237.6794   23500241.9584   23500238.0614
        47.000          40.000
 120319579.60347  93755508.11847  22896060.0554   22896063.6624   22896059.7554
        49.000          42.000
 136247447.24547  88374624.49647  24024096.7804   24024102.3334   24024096.7534
        43.000          38.000
 118284164.89847  92169460.82647  22508740.7954   22508746.0094   22508740.8614
        49.000          42.000
 124551630.72647  97053205.24547  23701398.3834   23701401.5534   23701398.7054
        44.000          38.000
 124442285.78647  96967999.53947  23680589.8454   23680594.5574   23680589.3304
        44.000          40.000
 117357929.11547  91447732.85147  22332472.9774   22332475.7634   22332473.2554
        50.000          44.000
 115006954.41447  89615799.76647  21885101.6004   21885104.0514   21885101.3994
        51.000          46.000
 120952439.77147  94248654.85547  23016484.4244   23016486.4144   23016484.6964
        47.000          41.000
 104826903.61047  81683296.12447  19947900.9174   19947902.6104   19947901.2494
        54.000          50.000
 128533802.60247 100156189.97147  24459186.9394   24459190.2754   24459186.8784
        44.000          39.000
 09  1 11  1  9 30.0000000  0 12G22G 5G30G 6G24G 9G29G14G31G18G21G12
 124243385.64547  96813024.64547  23642732.2074   23642732.6374   23642732.1454
        47.000          40.000
 123488930.63347  96225116.99747  23499181.4654   23499185.2684   23499181.8534
        47.000          40.000
 120292438.38947  93734359.17447  22890895.2094   22890898.9214   22890894.6714
        49.000          42.000
 136222451.04047  88355146.91547  24019340.8484   24019345.0874   24019340.6694
        44.000          38.000
 118356950.31447  92226176.72747  22522591.6094   22522596.8024   22522591.6914
        49.000          42.000
 124651465.18647  97130998.32447  23720395.9164   23720399.8554   23720396.4474
        44.000          38.000
 124512369.08847  97022609.87347  23693926.2914   23693931.0774   23693925.9854
        44.000          40.000
 117392765.77347  91474878.30747  22339102.1274   22339104.9494   22339102.5064
        49.000          44.000
 114922362.17147  89549883.79847  21869004.2064   21869006.7214   21869003.4224
        52.000          46.000
 120916310.38247  94220502.09447  23009608.8294   23009611.0934   23009609.2814
        47.000          41.000
 104831684.97447  81687021.86247  19948810.7494   19948812.4714   19948811.1134
        54.000          50.000
 128542576.75947 100163027.00247  24460856.4064   24460859.8584   24460855.9974
        43.000          39.000
 09  1 11  1 10  0.0000000  0 12G22G 5G30G 6G24G 9G29G14G31G18G21G12
 124201839.77247  96780651.25947  23634826.4824   23634826.5734   23634826.4824
        47.000          40.000
 123483569.40547  96220939.45847  23498161.5854   23498165.1944   23498161.7854
        46.000          40.000
 120265337.04747  93713241.28747  22885738.2014   22885740.9934   22885738.0344
        49.000          42.000
 136197716.71947  88335873.40447  24014633.8944   24014638.8484   24014633.8494
        44.000          38.000
 118430096.80247  92283173.97847  22536510.6514   22536516.0334   22536510.6594
        48.000          42.000
 124751551.73247  97208987.84247  23739441.8654   23739445.7464   23739442.0424
        44.000          38.000
 124582306.79947  97077106.77247  23707234.9304   23707239.6674   23707234.7284
        45.000          40.000
 117427779.39247  91502161.64147  22345765.1954   22345767.6254   22345765.1944
        49.000          44.000
 114838103.84547  89484228.03647  21852970.2554   21852972.9644   21852970.0524
        52.000          46.000
 120880103.44047  94192288.89447  23002718.7064   23002721.1974   23002719.2794
        48.000          41.000
 104837082.17047  81691227.47147  19949837.6824   19949839.6514   19949838.1274
        54.000          49.000
 128551522.85847 100169998.01247  24462558.7944   24462561.5104   24462558.2044
        43.000          38.000
 09  1 11  1 10 30.0000000  0 12G22G 5G30G 6G24G 9G29G14G31G18G21G12
 124160093.80147  96748121.95247  23626882.3974   23626882.6924   23626882.3334
        47.000          40.000
 123478403.33047  96216914.00947  23497177.9284   23497182.1574   23497178.3804
        46.000          40.000
 120238280.38247  93692158.21147  22880589.3614   22880592.5634   22880589.2154
        48.000          42.000
 136173245.72947  88316805.10147  24009977.1734   24009982.3104   24009977.6034
        44.000          38.000
 118503604.68747  92340452.84447  22550499.1374   22550503.8474   22550499.4264
        49.000          42.000
 124851890.04747  97287173.53547  23758535.7254   23758539.5794   23758536.0834
        44.000          38.000
 124652100.12147  97131491.14447  23720516.5914   23720520.7714   23720516.3264
        45.000          40.000
 117462970.03747  91529582.93947  22352461.6274   22352464.1224   22352461.8364
        50.000          44.000
 114754184.80047  89418836.63847  21837000.9784   21837003.7654   21837000.4594
        52.000          46.000
 120843823.54947  94164018.85547  22995815.2534   22995817.0444   22995815.6984
        48.000          41.000
 104843097.89547  81695915.05047  19950982.4064   19950984.3854   19950982.7614
        54.000          49.000
 128560644.89547 100177106.12847  24464294.4934   24464297.3444   24464293.8424
        43.000          38.000
 09  1 11  1 11  0.0000000  0 12G22G 5G30G 6G24G 9G29G14G31G18G21G12
 124118148.69247  96715437.45447  23618900.2954   23618900.9554   23618899.9754
        47.000          40.000
 123473434.57247  96213042.31247  23496232.5924   23496236.2884   23496233.0924
        46.000          40.000
 120211270.95547  93671111.94047  22875449.2144   22875453.0434   22875448.9784
        48.000          42.000
 136149037.07647  88297941.20947  24005370.1724   24005375.3544   24005370.4024
        44.000          38.000
 118577472.12947  92398011.88747  22564555.7974   22564560.5344   22564556.1504
        49.000          42.000
 124952477.32147  97365553.22247  23777676.9604   23777680.8724   23777677.3994
        44.000          38.000
 124721747.32047  97185761.65447  23733770.5334   23733774.3144   23733770.1574
        45.000          40.000
 117498335.34247  91557140.31147  22359191.5404   22359194.2254   22359191.6044
        49.000          44.000
 114670607.98747  89353711.91547  21821096.8194   21821099.5754   21821096.4244
        52.000          46.000
 120807472.48147  94135693.33847  22988897.7564   22988899.6364   22988898.0174
        48.000          41.000
 104849732.39547  81701084.78647  19952245.0574   19952246.9084   19952245.4124
        54.000          49.000
 128569945.05847 100184353.05247  24466064.1694   24466067.3814   24466064.2064
        44.000          38.000
 09  1 11  1 11 30.0000000  0 12G22G 5G30G 6G24G 9G29G14G31G18G21G12
 124076003.56047  96682597.08647  23610880.5754   23610881.4364   23610880.5774
        47.000          40.000
 123468663.36947  96209324.54247  23495324.6364   23495328.2774   23495324.5454
        46.000          40.000
 120184309.15547  93650102.80647  22870318.5944   22870322.1834   22870318.5924
        49.000          42.000
 136125087.95047  88279279.54247  24000813.2444   24000817.9804   24000813.0344
        44.000          38.000
 118651695.37147  92455848.16747  22578679.9664   22578684.5184   22578680.2144
        49.000          42.000
 125053309.10547  97444123.45147  23796864.8744   23796868.5004   23796864.9684
        44.000          38.000
 124791245.05947  97239915.69747  23746995.2754   23746999.4084   23746994.9424
        45.000          40.000
 117533870.77447  91584830.27047  22365953.7814   22365956.1794   22365953.8854
        49.000          44.000
 114587374.43347  89288854.65847  21805258.2754   21805260.5984   21805257.7154
        53.000          47.000
 120771050.31947  94107312.42247  22981966.9384   22981968.8744   22981967.5324
        48.000          41.000
 104856983.96847  81706735.36147  19953624.9054   19953626.7784   19953625.3224
        54.000          49.000
 128579423.22247 100191738.67147  24467868.0754   24467871.1604   24467867.5164
        43.000          38.000
 09  1 11  1 12  0.0000000  0 12G22G 5G30G 6G24G 9G29G14G31G18G21G12
 124033660.99147  96649602.90947  23602822.7524   23602823.6564   23602823.0184
        47.000          40.000
 123464093.86447  96205763.96547  23494454.7224   23494458.7394   23494455.1724
        46.000          40.000
 120157399.20347  93629134.05147  22865197.9664   22865201.1474   22865197.3994
        49.000          42.000
 136101399.16447  88260820.73547  23996305.5744   23996310.1354   23996305.6244
        44.000          38.000
 118726274.62047  92513961.85247  22592871.7544   22592876.7334   22592872.1294
        49.000          42.000
 125154384.45847  97522883.49547  23816099.0354   23816102.4374   23816099.1984
        44.000          38.000
 124860593.96147  97293953.77647  23760192.0514   23760196.2494   23760191.5694
        45.000          40.000
 117569575.64647  91612652.25047  22372748.2154   22372750.2894   22372748.4554
        49.000          44.000
 114504488.91847  89224268.59847  21789485.8074   21789487.7754   21789485.4654
        52.000          47.000
 120734561.42447  94078879.52647  22975023.3404   22975025.2384   22975023.6394
        49.000          42.000
 104864854.72447  81712868.41747  19955122.7914   19955124.5134   19955123.2454
        54.000          49.000
 128589083.18647 100199265.97847  24469705.7724   24469709.2594   24469705.9584
        43.000          38.000
 09  1 11  1 12 30.0000000  0 12G22G 5G30G 6G24G 9G29G14G31G18G21G12
 123991120.28347  96616454.32347  23594727.5064   23594728.2774   23594727.6504
        47.000          40.000
 123459726.00547  96202360.48647  23493623.4814   23493627.8454   23493623.8634
        46.000          40.000
 120130541.15147  93608205.75847  22860087.1674   22860090.3294   22860087.0554
        48.000          42.000
 136077967.67747  88242562.42047  23991846.5364   23991851.3474   23991845.9364
        44.000          38.000
 118801205.65247  92572349.66147  22607130.7804   22607135.4074   22607131.1904
        49.000          42.000
 125255698.54647  97601829.55547  23835378.0184   23835381.6154   23835378.3494
        45.000          37.000
 124929790.52247  97347873.13747  23773359.6874   23773363.5624   23773359.4244
        45.000          40.000
 117605445.44747  91640602.75347  22379573.9814   22379576.3604   22379574.1874
        50.000          44.000
 114421952.20847  89159954.34447  21773779.2484   21773781.4784   21773779.0154
        52.000          46.000
 120698005.43147  94050394.35347  22968066.8234   22968069.0854   22968067.4244
        48.000          42.000
 104873342.81747  81719482.51147  19956738.1254   19956739.7234   19956738.5604
        54.000          49.000
 128598924.34047 100206934.45847  24471578.5844   24471582.1564   24471578.1844
        43.000          38.000
 09  1 11  1 13  0.0000000  0 12G22G 5G30G 6G24G 9G29G14G31G18G21G12
 123948383.55047  96583152.99847  23586594.8254   23586595.4784   23586594.7344
        46.000          40.000
 123455563.26047  96199116.84147  23492831.0264   23492835.7734   23492831.7754
        46.000          40.000
 120103738.90547  93587320.92547  22854986.3974   22854990.0254   22854985.9364
        49.000          42.000
 136054793.73247  88224504.78847  23987437.1014   23987441.3014   23987436.8864
        44.000          38.000
 118876487.86147  92631011.12047  22621456.6304   22621461.2604   22621456.3224
        49.000          42.000
 125357249.91347  97680960.50847  23854703.0624   23854705.4994   23854703.1024
        44.000          37.000
 124998834.84847  97401673.87947  23786498.5804   23786502.4644   23786498.3084
        45.000          40.000
 117641478.97047  91668680.81747  22386430.8004   22386433.3414   22386431.0334
        50.000          44.000
 114339768.39147  89095915.06347  21758140.0334   21758142.3744   21758139.6384
        52.000          46.000
 120661385.82147  94021859.58747  22961098.5204   22961100.4184   22961099.0914
        49.000          42.000
 104882449.56547  81726578.67947  19958470.9414   19958472.8034   19958471.3324
        54.000          49.000
 128608950.10647 100214746.79347  24473486.7264   24473489.7994   24473486.7174
        44.000          38.000
 09  1 11  1 13 30.0000000  0 12G22G 5G30G 6G24G 9G29G14G31G18G21G12
 123905450.95347  96549699.04847  23578425.0994   23578426.0954   23578425.0744
        46.000          40.000
 123451606.72147  96196033.86847  23492078.4664   23492082.8104   23492078.5574
        46.000          40.000
 120076993.55347  93566480.44647  22849897.2974   22849900.7064   22849897.0864
        49.000          42.000
 136031875.10347  88206646.10647  23983075.1684   23983080.1244   23983075.5444
        43.000          38.000
 118952118.50247  92689944.07847  22635848.6644   22635853.2384   22635848.9694
        48.000          42.000
 125459034.77847  97760273.42847  23874071.5154   23874074.9084   23874072.1844
        44.000          37.000
 125067724.46447  97455354.07347  23799607.7444   23799611.4524   23799607.5054
        45.000          40.000
 117677672.60247  91696883.65647  22393318.1484   22393320.9144   22393318.5834
        49.000          44.000
 114257939.41647  89032152.27247  21742568.5864   21742570.6484   21742567.8544
        52.000          46.000
 120624703.71847  93993276.13247  22954117.9344   22954120.1094   22954118.6664
        49.000          42.000
 104892174.22847  81734156.33747  19960321.4264   19960323.2804   19960321.8874
        54.000          49.000
 128619161.21547 100222703.55547  24475430.1584   24475432.6084   24475429.9104
        43.000          38.000
 09  1 11  1 14  0.0000000  0 12G22G 5G30G 6G24G 9G29G14G31G18G21G12
 123862324.26247  96516093.85947  23570218.4334   23570219.4174   23570218.4114
        47.000          41.000
 123447859.48247  96193113.96447  23491365.0704   23491369.7024   23491365.6714
        46.000          40.000
 120050308.49347  93545686.93147  22844819.3464   22844822.5724   22844818.7564
        49.000          42.000
 136009211.93147  88188986.48547  23978762.6654   23978767.6834   23978762.5864
        44.000          38.000
 119028096.61947  92749147.79447  22650306.7684   22650311.2314   22650306.9784
        48.000          42.000
 125561051.72947  97839767.18147  23893485.5224   23893488.2124   23893485.1684
        44.000          37.000
 125136458.70747  97508913.19847  23812687.1994   23812691.2434   23812686.9734
        45.000          40.000
 117714024.88547  91725210.11447  22400235.5264   22400238.4874   22400235.9004
        49.000          43.000
 114176469.23747  88968669.07147  21727065.0604   21727067.3574   21727065.0194
        52.000          46.000
 120587961.80647  93964646.08947  22947126.3944   22947128.1924   22947126.8944
        49.000          42.000
 104902517.71747  81742216.19647  19962289.5664   19962291.6074   19962289.8434
        54.000          49.000
 128629560.77047 100230807.17147  24477408.7604   24477411.6524   24477408.4974
        44.000          39.000
 09  1 11  1 14 30.0000000  0 12G22G 5G30G 6G24G 9G29G14G31G18G21G12
 123819002.74547  96482336.85147  23561974.7144   23561975.4074   23561974.8644
        47.000          40.000
 123444322.02047  96190357.54947  23490691.9274   23490696.5814   23490692.5494
        46.000          40.000
 120023684.67447  93524941.14747  22839753.0074   22839756.1334   22839752.6914
        49.000          42.000
 135986801.48147  88171523.77747  23974498.1474   23974502.5944   23974498.4364
        45.000          38.000
 119104418.66047  92808619.51047  22664830.3294   22664835.1534   22664830.4084
        48.000          42.000
 125663296.25247  97919438.25647  23912941.8304   23912944.3664   23912941.8604
        42.000          37.000
 125205035.11647  97562349.31847  23825736.7244   23825740.9054   23825736.7074
        45.000          40.000
 117750531.67947  91753656.97647  22407182.8344   22407185.1304   22407182.9004
        49.000          44.000
 114095359.08047  88905466.39247  21711630.1294   21711632.5734   21711629.5834
        52.000          46.000
 120551160.36847  93935969.64747  22940123.2444   22940125.2874   22940123.6874
        49.000          42.000
 104913478.28947  81750756.90147  19964375.5464   19964377.4264   19964375.9584
        54.000          49.000
 128640148.38247 100239057.29847  24479423.2594   24479426.5574   24479423.3524
        44.000          38.000
 09  1 11  1 15  0.0000000  0 12G22G 5G30G 6G24G 9G29G14G31G18G21G12
 123775489.54047  96448430.47847  23553694.1604   23553694.9024   23553693.9034
        47.000          40.000
 123440998.59747  96187767.91347  23490059.4564   23490064.2114   23490060.1494
        46.000          40.000
 119997126.68447  93504246.67647  22834699.0284   22834702.3914   22834698.6174
        49.000          42.000
 135964644.73247  88154258.78647  23970281.9904   23970286.4654   23970281.8674
        44.000          38.000
 119181084.67547  92868359.25147  22679419.3074   22679424.1214   22679419.7984
        48.000          42.000
 125765767.40947  97999285.92547  23932440.9704   23932444.7994   23932441.6584
        42.000          37.000
 125273454.42447  97615663.04147  23838756.9604   23838760.6114   23838756.8204
        45.000          39.000
 117787192.57847  91782223.90647  22414159.0904   22414161.7484   22414159.2964
        49.000          44.000
 114014613.84647  88842548.06947  21696264.9604   21696267.2294   21696264.6754
        52.000          46.000
 120514303.93047  93907250.35647  22933109.3574   22933111.4274   22933109.7214
        48.000          42.000
 104925058.36247  81759780.33147  19966579.1134   19966580.8424   19966579.4684
        54.000          49.000
 128650927.70447 100247456.81847  24481474.3714   24481476.8484   24481473.9204
        44.000          38.000
 09  1 11  1 15 30.0000000  0 12G22G 5G30G 6G24G 9G29G14G31G18G21G12
 123731782.76547  96414373.24847  23545377.3954   23545378.0044   23545377.4864
        46.000          40.000
 123437888.35047  96185344.38047  23489467.7464   23489472.0264   23489468.3214
        46.000          40.000
 119970633.58447  93483602.75547  22829657.4434   22829660.6894   22829656.9944
        49.000          42.000
 135942737.69347  88137188.34947  23966112.7784   23966117.7074   23966113.1154
        43.000          38.000
 119258089.72247  92928363.17547  22694073.0674   22694078.0144   22694072.9854
        48.000          42.000
 125868459.43847  98079305.69847  23951982.6814   23951986.0684   23951982.9104
        42.000          37.000
 125341712.06347  97668850.79647  23851745.4604   23851749.4634   23851745.4484
        44.000          39.000
 117824002.02647  91810906.60347  22421163.8634   22421166.1034   22421164.0894
        50.000          44.000
 113934233.34247  88779913.94247  21680969.1284   21680971.2744   21680968.6534
        52.000          47.000
 120477391.64347  93878487.53147  22926085.6404   22926087.6754   22926085.8064
        48.000          42.000
 104937254.79147  81769284.04347  19968900.0294   19968901.7774   19968900.3554
        54.000          49.000
 128661898.43447 100256005.49547  24483562.3614   24483564.9204   24483561.5314
        44.000          39.000
 09  1 11  1 16  0.0000000  0 12G22G 5G30G 6G24G 9G29G14G31G18G21G12
 123687886.17047  96380168.14047  23537023.8184   23537024.8444   23537023.9094
        47.000          40.000
 123434996.25647  96183090.82847  23488917.0664   23488921.4394   23488917.5724
        45.000          40.000
 119944210.52347  93463013.41947  22824629.2914   22824632.5454   22824628.8934
        49.000          43.000
 135921082.15447  88120313.91747  23961992.3094   23961997.0834   23961992.2914
        44.000          38.000
 119335434.57847  92988631.87047  22708791.4404   22708796.0374   22708791.8034
        49.000          42.000
 125971372.90347  98159498.04747  23971566.0224   23971570.0214   23971565.9784
        40.000          37.000
 125409809.83347  97721913.97447  23864704.3854   23864707.9124   23864703.8074
        45.000          39.000
 117860960.47547  91839705.39647  22428196.6584   22428199.3344   22428196.8834
        50.000          44.000
 113854223.35147  88717568.53847  21665743.6654   21665745.8754   21665743.1614
        53.000          47.000
 120440428.31447  93849684.93447  22919051.8374   22919053.6424   22919052.2174
        48.000          42.000
 104950070.45747  81779270.27147  19971338.7184   19971340.5764   19971339.1044
        54.000          49.000
 128673064.91547 100264706.70347  24485686.8574   24485689.9814   24485686.6804
        44.000          38.000
 09  1 11  1 16 30.0000000  0 12G22G 5G30G 6G24G 9G29G14G31G18G21G12
 123643799.87647  96345815.18347  23528634.8564   23528635.2304   23528634.9424
        47.000          41.000
 123432323.10247  96181007.89547  23488408.5604   23488412.9794   23488409.0574
        46.000          40.000
 119917858.83847  93442479.68347  22819614.8804   22819617.9444   22819614.2414
        49.000          42.000
 135899675.63747  88103633.49747  23957918.6434   23957923.7634   23957918.8894
        43.000          38.000
 119413116.20047  93049163.00247  22723573.6524   22723578.3794   22723573.8894
        48.000          42.000
 126074503.80047  98239859.79147  23991191.4234   23991195.0984   23991191.3614
        42.000          37.000
 125477745.36547  97774850.74747  23877631.7904   23877635.9164   23877631.7884
        44.000          39.000
 117898064.31447  91868617.48647  22435257.6194   22435259.8414   22435257.8084
        50.000          43.000
 113774585.42047  88655513.04847  21650589.0364   21650591.2784   21650588.9724
        52.000          47.000
 120403414.92247  93820843.31847  22912008.3744   22912010.2224   22912008.6224
        49.000          42.000
 104963504.07647  81789738.02847  19973895.1064   19973896.8154   19973895.4454
        54.000          49.000
 128684427.72947 100273560.90147  24487849.4474   24487852.2404   24487849.3304
        45.000          38.000
 09  1 11  1 17  0.0000000  0 12G22G 5G30G 6G24G 9G29G14G31G18G21G12
 123599524.19947  96311314.66647  23520209.4254   23520210.2084   23520209.3084
        48.000          40.000
 123429870.07047  96179096.48647  23487941.8714   23487945.8684   23487942.3604
        46.000          40.000
 119891579.99447  93422002.71547  22814614.0724   22814616.9224   22814613.7574
        49.000          43.000
 135878516.10847  88087145.54347  23953892.0724   23953897.0934   23953892.1924
        43.000          38.000
 119491131.54647  93109954.16947  22738419.2834   22738424.1264   22738419.2474
        48.000          42.000
 126177848.00147  98320387.75247  24010857.0884   24010860.8564   24010857.0634
        42.000          37.000
 125545516.16447  97827659.15147  23890528.2604   23890532.1934   23890527.9754
        44.000          39.000
 117935309.83147  91897639.97047  22442345.1404   22442347.5164   22442345.3564
        49.000          43.000
 113695321.22947  88593748.77847  21635505.5704   21635507.7014   21635504.9384
        52.000          47.000
 120366352.45447  93791963.47447  22904955.4854   22904957.1444   22904956.0844
        48.000          42.000
 104977554.18747  81800686.17047  19976568.6224   19976570.5834   19976569.0514
        54.000          49.000
 128695987.30747 100282568.38447  24490049.2464   24490051.7934   24490048.7694
        44.000          38.000
 09  1 11  1 17 30.0000000  0 12G22G 5G30G 6G24G 9G29G14G31G18G21G12
 123555061.19747  96276668.18047  23511748.6834   23511748.9864   23511748.8014
        47.000          40.000
 123427640.54647  96177359.24647  23487517.8944   23487521.3834   23487518.0324
        45.000          39.000
 119865377.80047  93401585.46547  22809627.8194   22809631.0684   22809627.5394
        49.000          43.000
 135857603.82047  88070850.22347  23949912.5804   23949917.6654   23949912.8464
        43.000          38.000
 119569479.93947  93171004.84447  22753328.6134   22753333.4314   22753329.0524
        49.000          42.000
 126281404.30147  98401080.99947  24030563.1234   24030566.8784   24030563.3114
        42.000          38.000
 125613122.29047  97880339.22247  23903393.1564   23903397.4774   23903392.4664
        44.000          39.000
 117972695.87047  91926771.95247  22449459.1344   22449461.3264   22449459.4854
        49.000          43.000
 113616434.93047  88532278.97947  21620493.8064   21620495.9594   21620493.7634
        52.000          47.000
 120329244.34647  93763048.06247  22897893.7594   22897896.1344   22897894.2334
        48.000          41.000
 104992222.26547  81812115.84247  19979359.8994   19979361.7244   19979360.3174
        54.000          49.000
 128707746.82047 100291731.70647  24492286.8244   24492289.4964   24492286.7824
        43.000          38.000
 09  1 11  1 18  0.0000000  0 12G22G 5G30G 6G24G 9G29G14G31G18G21G12
 123510409.67547  96241874.80847  23503251.2964   23503251.6774   23503251.5804
        47.000          40.000
 123425634.30447  96175795.98747  23487135.8134   23487139.6464   23487136.3964
        45.000          39.000
 119839252.52147  93381228.16347  22804655.8914   22804659.4714   22804655.4484
        48.000          42.000
 135836935.18647  88054744.79747  23945979.3934   23945984.4654   23945979.3704
        43.000          38.000
 119648157.23247  93232311.82247  22768300.9784   22768305.4234   22768301.1074
        49.000          42.000
 126385167.73047  98481935.64947  24050308.8234   24050312.2644   24050308.9354
        43.000          38.000
 125680560.24847  97932888.25647  23916225.9824   23916230.4884   23916225.4734
        43.000          39.000
 118010218.01447  91956009.99547  22456599.6074   22456601.7734   22456599.9314
        49.000          43.000
 113537927.71247  88471104.56847  21605554.4434   21605556.2934   21605553.7314
        52.000          47.000
 120292090.54647  93734097.03947  22890823.8484   22890825.9864   22890824.4084
        48.000          41.000
 105007505.86447  81824025.13947  19982268.2964   19982270.0754   19982268.7174
        54.000          49.000
 128719705.94647 100301050.51847  24494561.5754   24494565.3594   24494560.8514
        43.000          38.000
 09  1 11  1 18 30.0000000  0 12G22G 5G30G 6G24G 9G29G14G31G18G21G12
 123465575.19647  96206938.86547  23494719.8224   23494720.1254   23494719.5224
        47.000          40.000
 123423857.84847  96174411.77147  23486797.8364   23486801.7724   23486798.0044
        45.000          40.000
 119813210.92347  93360936.06447  22799700.3924   22799703.9224   22799700.1474
        50.000          42.000
 135816513.58947  88038831.84147  23942092.8264   23942098.4844   23942092.8664
        43.000          38.000
 119727165.54847  93293876.73747  22783335.3964   22783340.0554   22783335.6654
        49.000          42.000
 126489139.88747  98562952.93547  24070094.3494   24070097.7824   24070094.4634
        43.000          38.000
 125747833.27147  97985308.76547  23929027.6804   23929031.8284   23929027.5034
        43.000          39.000
 118047878.00947  91985355.44847  22463765.9054   22463768.4554   22463766.1854
        49.000          43.000
 113459805.99547  88410230.54947  21590688.3474   21590690.2934   21590688.0844
        53.000          47.000
 120254897.48347  93705115.43147  22883746.2974   22883748.2584   22883746.5714
        48.000          41.000
 105023408.91347  81836417.12447  19985294.6474   19985296.2004   19985295.0524
        54.000          49.000
 128731870.77147 100310529.65547  24496876.7964   24496880.2734   24496876.5884
        43.000          38.000
 09  1 11  1 19  0.0000000  0 12G22G 5G30G 6G24G 9G29G14G31G18G21G12
 123420552.89547  96171856.58247  23486152.5134   23486152.8774   23486152.3124
        47.000          41.000
 123422307.11447  96173203.44147  23486502.6574   23486506.7224   23486502.6304
        45.000          39.000
 119787249.15547  93340706.15747  22794760.3034   22794763.2724   22794759.6304
        49.000          42.000
 135796331.80647  88023105.76447  23938252.7874   23938257.8744   23938253.2184
        42.000          38.000
 119806496.81847  93355693.29247  22798431.9674   22798436.1284   22798432.6124
        49.000          42.000
 126593312.15447  98644126.16647  24089917.4624   24089920.8504   24089917.5924
        43.000          38.000
 125814934.18547  98037595.18847  23941796.5084   23941801.1504   23941796.3754
        44.000          39.000
 118085667.17547  92014801.55147  22470956.9714   22470959.4774   22470957.3464
        49.000          43.000
 113382066.61747  88349654.46047  21575895.0514   21575896.8534   21575894.7434
        52.000          47.000
 120217661.29947  93676100.22747  22876660.6674   22876662.4374   22876660.8734
        48.000          41.000
 105039925.20047  81849286.95947  19988437.6324   19988439.1954   19988438.0814
        54.000          49.000
 128744236.85147 100320165.59447  24499229.8734   24499233.5154   24499229.2704
        42.000          38.000
 09  1 11  1 19 30.0000000  0 12G22G 5G30G 6G24G 9G29G14G31G18G21G12
 123375347.80447  96136631.84747  23477550.0354   23477550.6384   23477550.4494
        47.000          41.000
 123420988.06247  96172175.66247  23486250.9414   23486255.4324   23486251.0844
        45.000          39.000
 119761373.53447  93320543.38147  22789836.1744   22789839.1354   22789835.9754
        49.000          43.000
 135776392.49547  88007568.63747  23934458.4724   23934463.2774   23934458.9794
        42.000          38.000
 119886152.91947  93417762.97247  22813590.1354   22813594.5764   22813590.2664
        49.000          42.000
 126697685.46947  98725456.04447  24109779.5014   24109782.3934   24109779.0094
        43.000          38.000
 125881865.68447  98089749.60747  23954533.4654   23954537.7654   23954533.0834
        44.000          39.000
 118123586.86447  92044349.36947  22478173.1104   22478175.3614   22478173.2664
        49.000          43.000
 113304716.43647  88289381.64247  21561175.7374   21561177.6714   21561175.2304
        52.000          47.000
 120180388.20047  93647056.25147  22869567.7334   22869569.8304   22869568.3034
        48.000          41.000
 105057058.60647  81862637.66547  19991698.0074   19991699.6094   19991698.4404
        54.000          49.000
 128756810.00147 100329962.88847  24501623.3404   24501625.5934   24501623.0474
        43.000          38.000
 09  1 11  1 20  0.0000000  0 12G22G 5G30G 6G24G 9G29G14G31G18G21G12
 123329958.97347  96101263.93647  23468912.7974   23468913.3884   23468912.9234
        47.000          41.000
 123419900.59747  96171328.31347  23486044.5984   23486048.2844   23486044.8744
        45.000          39.000
 119735584.18647  93300447.83147  22784928.7024   22784931.9014   22784928.4204
        49.000          42.000
 135756692.33247  87992217.86647  23930709.4764   23930714.8134   23930709.5934
        43.000          38.000
 119966129.79447  93480082.60047  22828809.3654   22828813.4674   22828809.4644
        48.000          42.000
 126802254.84347  98806938.69347  24129678.2604   24129680.9994   24129678.0424
        44.000          38.000
 125948624.35847  98141769.34747  23967237.4754   23967241.2784   23967237.1564
        44.000          39.000
 118161632.55047  92073995.36247  22485412.6744   22485415.2754   22485412.7914
        49.000          43.000
 113227755.86947  88229412.43647  21546530.4474   21546532.7274   21546530.0934
        52.000          47.000
 120143078.26947  93617983.56947  22862467.8244   22862469.5084   22862468.2414
        48.000          41.000
 105074806.58847  81876467.26147  19995075.2294   19995077.0064   19995075.6274
        54.000          49.000
 128769589.68347 100339921.10947  24504055.2204   24504057.8764   24504055.0374
        43.000          38.000
 09  1 11  1 20 30.0000000  0 12G22G 5G30G 6G24G 9G29G14G31G18G21G12
 123284389.88747  96065755.56047  23460240.9414   23460241.7704   23460240.7944
        47.000          41.000
 123419049.06447  96170664.82347  23485882.3214   23485886.3094   23485882.7354
        46.000          39.000
 119709885.90247  93280423.23847  22780038.2674   22780042.0434   22780037.9514
        49.000          42.000
 135737232.42947  87977054.28147  23927006.6824   23927011.4534   23927006.7374
        42.000          38.000
 120046427.58547  93542652.29647  22844089.0914   22844093.9124   22844089.1494
        48.000          42.000
 126907019.77947  98888573.73247  24149613.8704   24149617.2774   24149614.2544
        43.000          38.000
 126015211.06947  98193655.08347  23979908.6184   23979912.6444   23979908.3274
        44.000          39.000
 118199803.90047  92103739.26947  22492676.8584   22492678.8114   22492677.0354
        49.000          43.000
 113151190.06447  88169750.83447  21531960.3924   21531962.7064   21531959.6664
        53.000          47.000
 120105735.42647  93588885.24247  22855361.7334   22855363.6244   22855362.2124
        48.000          42.000
 105093170.81247  81890777.04647  19998569.8404   19998571.6774   19998570.2464
        54.000          49.000
 128782580.02447 100350043.50047  24506527.0274   24506529.4824   24506526.1874
        44.000          38.000
 09  1 11  1 21  0.0000000  0 12G22G 5G30G 6G24G 9G29G14G31G18G21G12
 123238643.79147  96030109.26947  23451535.9214   23451536.7114   23451535.9054
        47.000          41.000
 123418437.54447  96170188.36047  23485765.9134   23485770.0374   23485766.3074
        45.000          39.000
 119684283.49947  93260473.36647  22775166.2884   22775169.1604   22775165.5694
        49.000          42.000
 135718013.63747  87962078.61747  23923348.7894   23923354.3844   23923348.9304
        43.000          38.000
 120127046.37747  93605472.11247  22859430.5404   22859435.3224   22859430.5834
        48.000          42.000
 127011979.48647  98970360.54347  24169586.8054   24169589.9894   24169587.3784
        43.000          37.000
 126081627.21647  98245407.88947  23992547.0774   23992551.4354   23992546.1684
        44.000          39.000
 118238100.57647  92133580.84047  22499964.1884   22499966.7104   22499964.4834
        49.000          43.000
 113075023.81147  88110400.57947  21517466.3074   21517468.7364   21517466.5104
        52.000          47.000
 120068364.17947  93559764.77747  22848250.2144   22848252.2394   22848250.6264
        49.000          42.000
 105112153.28547  81905568.58347  20002182.1874   20002183.9154   20002182.5274
        54.000          49.000
 128795784.47447 100360332.71747  24509039.6484   24509042.3124   24509039.6994
        43.000          38.000
 09  1 11  1 21 30.0000000  0 12G22G 5G30G 6G24G 9G29G14G31G18G21G12
 123192714.97347  95994320.59347  23442795.7844   23442796.5994   23442796.0364
        47.000          41.000
 123418061.00047  96169894.99347  23485693.9564   23485698.4104   23485694.6044
        46.000          40.000
 119658772.06247  93240594.37447  22770311.6414   22770314.4064   22770311.5944
        49.000          42.000
 135699027.75247  87947284.40047  23919736.5984   23919741.9734   23919736.9264
        42.000          38.000
 120207976.78847  93668534.75747  22874830.7364   22874835.6914   22874830.8124
        48.000          41.000
 127117124.39247  99052291.66747  24189595.4854   24189598.5214   24189595.6104
        43.000          37.000
 126147864.48847  98297021.33647  24005151.3924   24005156.2654   24005151.0844
        44.000          39.000
 118276513.13447  92163512.70047  22507273.6564   22507276.4614   22507273.8824
        49.000          43.000
 112999253.03247  88051358.47147  21503047.7194   21503049.9394   21503047.1214
        53.000          47.000
 120030959.84947  93530618.54447  22841132.4324   22841134.4084   22841132.6994
        49.000          42.000
 105131746.76147  81920836.22947  20005910.6864   20005912.3424   20005911.1724
        54.000          49.000
 128809198.11747 100370784.92647  24511592.1994   24511594.8124   24511591.4574
        44.000          38.000
 09  1 11  1 22  0.0000000  0 12G22G 5G30G 6G24G 9G29G14G31G18G21G12
 123146607.35647  95958392.57847  23434021.8674   23434022.7284   23434021.6244
        47.000          41.000
 123417924.60747  96169788.75747  23485668.0214   23485672.7404   23485668.4574
        45.000          40.000
 119633357.25947  93220790.67947  22765475.4084   22765478.6084   22765475.1924
        49.000          42.000
 135680276.58447  87932673.09747  23916167.8854   23916172.9014   23916168.0464
        43.000          37.000
 120289219.98947  93731841.14247  22890290.8444   22890295.8134   22890291.0744
        47.000          41.000
 127222454.72147  99134367.28547  24209638.9804   24209642.0324   24209639.3214
        42.000          37.000
 126213924.70847  98348496.81147  24017722.5834   24017727.0014   24017721.9964
        44.000          39.000
 118315042.02147  92193535.22447  22514605.6404   22514607.8604   22514605.6794
        49.000          43.000
 112923883.16647  87992628.77347  21488705.3604   21488707.3354   21488705.2214
        53.000          47.000
 119993527.72447  93501450.65347  22834009.5224   22834011.3994   22834009.9444
        49.000          42.000
 105151953.28947  81936581.57547  20009755.7244   20009757.6334   20009756.0474
        54.000          49.000
 128822825.43347 100381403.65747  24514185.6504   24514188.2034   24514184.7974
        43.000          38.000
 09  1 11  1 22 30.0000000  0 12G22G 5G30G 6G24G 9G29G14G31G18G21G12
 123100323.84547  95922327.51647  23425214.5084   23425215.1824   23425214.2344
        48.000          41.000
 123418031.48247  96169872.08547  23485688.1624   23485692.7534   23485688.6994
        44.000          39.000
 119608042.54647  93201064.99147  22760658.2704   22760661.0814   22760658.1644
        49.000          42.000
 135661760.06447  87918244.63947  23912644.0894   23912649.8344   23912644.3894
        43.000          37.000
 120370775.07647  93795390.54347  22905810.1794   22905815.0914   22905810.1244
        48.000          41.000
 127327968.77947  99216586.06647  24229717.9034   24229720.9824   24229717.8284
        42.000          36.000
 126279807.77347  98399834.26447  24030259.3864   24030263.9864   24030259.5704
        44.000          39.000
 118353686.15547  92223647.55047  22521959.4344   22521961.5214   22521959.6094
        49.000          43.000
 112848918.24147  87934214.60547  21474439.9244   21474441.8484   21474439.3074
        53.000          47.000
 119956071.11347  93472263.68447  22826881.8494   22826883.3774   22826882.2624
        49.000          42.000
 105172773.83747  81952805.37647  20013717.8564   20013719.6114   20013718.2974
        54.000          49.000
 128836669.27047 100392191.08647  24516819.6434   24516822.4504   24516819.3404
        43.000          38.000
 09  1 11  1 23  0.0000000  0 12G22G 5G30G 6G24G 9G29G14G31G18G21G12
 123053862.64947  95886124.00147  23416373.5864   23416373.7504   23416373.9334
        48.000          41.000
 123418380.97947  96170144.43947  23485754.5364   23485759.2424   23485755.0914
        45.000          39.000
 119582827.69947  93181417.11347  22755859.7694   22755862.6674   22755859.4794
        49.000          42.000
 135643474.47947  87903996.11447  23909164.8504   23909170.0694   23909164.5774
        43.000          37.000
 120452637.10647  93859179.12747  22921387.7974   22921392.8334   22921388.0574
        47.000          41.000
 127433661.39347  99298943.97447  24249830.3244   24249834.4764   24249830.5844
        42.000          36.000
 126345510.09147  98451030.84547  24042761.9984   24042766.4404   24042761.9644
        43.000          39.000
 118392440.15447  92253845.47647  22529333.7754   22529336.5544   22529334.0704
        48.000          43.000
 112774358.29347  87876116.00447  21460251.5144   21460253.4334   21460251.0274
        53.000          47.000
 119918589.75847  93443057.42847  22819749.2484   22819750.8524   22819749.8394
        49.000          42.000
 105194205.63347  81969505.47847  20017796.2684   20017798.0574   20017796.7234
        54.000          49.000
 128850728.63747 100403146.46847  24519495.2654   24519497.1584   24519494.8874
        43.000          38.000
 09  1 11  1 23 30.0000000  0 12G22G 5G30G 6G24G 9G29G14G31G18G21G12
 123007224.94647  95849782.94147  23407498.7334   23407499.1414   23407498.8994
        47.000          41.000
 123418975.11447  96170607.42847  23485867.6194   23485872.1714   23485867.9374
        44.000          40.000
 119557715.28847  93161849.06047  22751081.2274   22751084.0934   22751080.9694
        49.000          43.000
 135625418.39247  87889926.44947  23905728.9204   23905733.8494   23905729.0464
        43.000          37.000
 120534804.34047  93923205.52647  22937023.5934   22937028.5714   22937023.4454
        47.000          41.000
 127539529.74447  99381438.82847  24269976.6534   24269979.5984   24269976.6804
        39.000          35.000
 126411030.66547  98502085.82647  24055230.1764   24055234.5104   24055230.2434
        44.000          39.000
 118431301.90147  92284127.35347  22536729.0424   22536731.7154   22536729.2304
        49.000          43.000
 112700205.83347  87818334.92047  21446140.8034   21446142.6584   21446140.3754
        53.000          47.000
 119881085.59947  93413833.40147  22812612.4664   22812613.9644   22812612.8504
        49.000          42.000
 105216247.78147  81986681.18147  20021990.4584   20021992.5374   20021990.8414
        54.000          49.000
 128865005.29947 100414271.16747  24522210.7044   24522214.2864   24522210.3594
        42.000          38.000
 09  1 11  1 24  0.0000000  0 12G22G 5G30G 6G24G 9G29G14G31G18G21G12
 122960415.93447  95813308.41147  23398590.9094   23398591.5054   23398590.8874
        47.000          41.000
 123419819.52147  96171265.44447  23486029.1574   23486032.3884   23486029.2214
        45.000          39.000
 119532711.38847  93142365.55447  22746322.8154   22746326.1734   22746322.6134
        49.000          43.000
 135607594.24447  87876037.49047  23902337.6454   23902342.1204   23902337.5714
        43.000          37.000
 120617277.89047  93987470.60647  22952717.7144   22952722.6994   22952718.1704
        47.000          41.000
 127645574.76347  99464071.34047  24290155.8574   24290159.9814   24290156.0374
        40.000          35.000
 126476372.13747  98553001.26747  24067664.6424   24067668.1974   24067664.3534
        44.000          39.000
 118470272.28147  92314493.89347  22544144.8724   22544147.1224   22544145.0284
        49.000          43.000
 112626467.42347  87760876.47147  21432108.6714   21432110.7894   21432108.3464
        53.000          47.000
 119843564.80047  93384596.40447  22805472.2344   22805474.2564   22805472.7394
        49.000          42.000
 105238903.42347  82004334.92847  20026301.5734   20026303.7734   20026301.8844
        54.000          49.000
 128879504.68747 100425569.41847  24524970.5804   24524973.3664   24524970.3034
        42.000          38.000
 09  1 11  1 24 30.0000000  0 12G22G 5G30G 6G24G 9G29G14G31G18G21G12
 122913433.69047  95776698.88447  23389650.4654   23389650.8254   23389650.6014
        48.000          41.000
 123420913.39247  96172117.84847  23486236.5584   23486240.9444   23486237.1434
        45.000          39.000
 119507815.46047  93122966.17847  22741584.7384   22741588.4984   22741584.2824
        49.000          42.000
 135589997.98547  87862326.11547  23898988.8174   23898993.3954   23898988.6794
        44.000          37.000
 120700053.00747  94051970.68747  22968469.5744   22968474.4704   22968469.5404
        47.000          41.000
 127751790.85747  99546837.14747  24310367.8954   24310371.8574   24310367.7984
        39.000          35.000
 126541530.58147  98603774.06747  24080064.2394   24080067.8874   24080063.8504
        45.000          39.000
 118509345.98447  92344940.94447  22551580.2404   22551582.7574   22551580.2424
        48.000          43.000
 112553142.40947  87703740.14147  21418155.2724   21418157.5334   21418154.8054
        53.000          47.000
 119806026.71347  93355345.94247  22798329.2424   22798330.6764   22798329.5524
        49.000          42.000
 105262169.44347  82022464.29647  20030728.9134   20030731.1914   20030729.2234
        54.000          49.000
 128894225.33047 100437040.10047  24527771.7514   24527774.6724   24527771.2494
        43.000          37.000
 09  1 11  1 25  0.0000000  0 12G22G 5G30G 6G24G 9G29G14G31G18G21G12
 122866280.73847  95739956.34847  23380677.6614   23380677.8434   23380677.7524
        48.000          42.000
 123422259.80647  96173167.03247  23486493.3014   23486497.0794   23486493.8304
        46.000          40.000
 119483031.16347  93103653.77747  22736868.5694   22736872.1014   22736868.2034
        48.000          43.000
 135572629.44247  87848792.17147  23895684.2074   23895688.5624   23895684.3434
        44.000          38.000
 120783128.58747  94116704.89447  22984278.4404   22984283.1094   22984278.7014
        48.000          41.000
 127858176.29447  99629734.89547  24330612.6244   24330615.3774   24330612.4404
        39.000          35.000
 126606505.77447  98654404.08147  24092428.2854   24092432.1814   24092428.1824
        45.000          39.000
 118548521.66647  92375467.45647  22559035.2044   22559037.6414   22559035.3494
        49.000          43.000
 112480235.23147  87646929.39247  21404281.5524   21404283.6564   21404281.2094
        53.000          47.000
 119768474.62447  93326084.57647  22791183.0414   22791185.1774   22791183.3804
        48.000          42.000
 105286046.27047  82041069.61647  20035272.6744   20035274.6004   20035273.0434
        54.000          49.000
 128909170.15847 100448685.43147  24530615.7994   24530618.6664   24530615.7214
        43.000          37.000
 09  1 11  1 25 30.0000000  0 12G22G 5G30G 6G24G 9G29G14G31G18G21G12
 122818957.16747  95703080.86047  23371672.0694   23371672.5554   23371672.1254
        48.000          42.000
 123423858.85347  96174413.06447  23486797.1194   23486800.8594   23486797.8094
        46.000          39.000
 119458359.37347  93084429.04047  22732173.4904   22732177.2714   22732173.0204
        49.000          43.000
 135555485.41247  87835433.20447  23892421.7694   23892425.5464   23892421.7434
        44.000          38.000
 120866500.76447  94181670.22047  23000143.7294   23000148.2104   23000143.6014
        47.000          41.000
 127964726.10847  99712760.76847  24350888.3354   24350891.9854   24350888.9254
        40.000          35.000
 126671295.13247  98704889.30447  24104757.6184   24104761.6354   24104757.7754
        43.000          39.000
 118587795.26947  92406070.26347  22566508.5074   22566510.9614   22566508.8824
        49.000          43.000
 112407746.49847  87590444.69347  21390487.4504   21390489.3394   21390486.9394
        53.000          47.000
 119730908.98947  93296812.65047  22784034.8054   22784036.5784   22784035.1094
        49.000          42.000
 105310531.22447  82060148.79847  20039932.0834   20039933.8894   20039932.4664
        54.000          49.000
 128924338.75547 100460505.15547  24533502.9464   24533505.2414   24533502.8074
        43.000          37.000
 09  1 11  1 26  0.0000000  0 12G22G 5G30G 6G24G 9G29G14G31G18G21G12
 122771465.49947  95666074.38147  23362635.1064   23362635.4374   23362635.2464
        48.000          42.000
 123425714.15947  96175858.79247  23487150.7904   23487154.1694   23487151.2514
        46.000          39.000
 119433803.84447  93065294.89447  22727500.9434   22727504.6794   22727500.7594
        49.000          43.000
 135538566.42747  87822249.57447  23889202.1464   23889206.8144   23889202.3824
        44.000          38.000
 120950169.05547  94246866.26847  23016065.1014   23016069.6514   23016065.1534
        47.000          41.000
 128071439.59247  99795914.13347  24371195.1244   24371198.4914   24371195.4914
        40.000          35.000
 126735899.33547  98755230.22047  24117051.1204   24117055.1384   24117051.0524
        43.000          39.000
 118627165.92947  92436748.70147  22574000.6044   22574003.1734   22574000.9174
        48.000          43.000
 112335680.22547  87534289.18647  21376773.7204   21376775.6624   21376773.3024
        53.000          47.000
 119693333.74847  93267533.24647  22776884.1034   22776886.1044   22776884.6704
        48.000          42.000
 105335625.39747  82079702.70247  20044707.3964   20044709.1404   20044707.7994
        54.000          49.000
 128939734.46747 100472501.85847  24536431.8284   24536434.6014   24536432.0654
        43.000          37.000
 09  1 11  1 26 30.0000000  0 12G22G 5G30G 6G24G 9G29G14G31G18G21G12
 122723805.17147  95628936.47347  23353565.7944   23353565.8334   23353566.0084
        48.000          42.000
 123427825.40047  96177503.94847  23487552.3004   23487555.6494   23487553.0804
        46.000          39.000
 119409364.81347  93046251.52447  22722850.7064   22722853.9634   22722850.3194
        50.000          43.000
 135521868.83747  87809238.45847  23886024.4674   23886028.9614   23886024.2704
        43.000          38.000
 121034129.20347  94312289.74247  23032042.1074   23032046.9464   23032042.2564
        48.000          41.000
 128178312.01047  99879191.32847  24391531.7974   24391535.0554   24391532.1484
        40.000          35.000
 126800315.05147  98805424.27747  24129308.8694   24129312.7604   24129308.7054
        44.000          39.000
 118666628.83447  92467499.02547  22581510.0504   22581512.6824   22581510.4114
        48.000          43.000
 112264036.76547  87478463.14647  21363140.4034   21363142.3604   21363140.2004
        53.000          47.000
 119655748.94647  93238246.40047  22769732.2494   22769733.7804   22769732.7784
        48.000          42.000
 105361325.99147  82099729.13747  20049598.1094   20049599.7794   20049598.5054
        54.000          49.000
 128955357.05047 100484675.32347  24539405.1644   24539407.4894   24539405.1684
        43.000          38.000
 09  1 11  1 27  0.0000000  0 12G22G 5G30G 6G24G 9G29G14G31G18G21G12
 122675980.18147  95591670.25947  23344464.9544   23344465.2404   23344464.8664
        48.000          42.000
 123430198.35647  96179353.01947  23488003.3904   23488007.5874   23488004.0664
        45.000          39.000
 119385048.79647  93027304.00547  22718223.5064   22718226.5544   22718223.2634
        50.000          43.000
 135505395.15947  87796401.82047  23882889.0304   23882893.8674   23882889.8194
        44.000          38.000
 121118382.55847  94377941.69347  23048075.4644   23048080.0034   23048075.4854
        47.000          41.000
 128285344.21147  99962593.06047  24411899.7464   24411903.7054   24411899.7804
        41.000          35.000
 126864545.06447  98855473.61847  24141531.6174   24141535.2794   24141531.4704
        43.000          39.000
 118706185.29247  92498322.24947  22589037.0524   22589040.0494   22589037.6504
        48.000          43.000
 112192822.82847  87422971.79747  21349588.8364   21349590.5424   21349588.7114
        53.000          48.000
 119618160.71647  93208956.87747  22762579.4854   22762581.4064   22762580.0864
        49.000          42.000
 105387635.64447  82120230.16347  20054604.5984   20054606.3724   20054604.9524
        54.000          49.000
 128971211.76547 100497029.66647  24542421.6174   24542424.0174   24542421.4424
        43.000          37.000
 09  1 11  1 27 30.0000000  0 12G22G 5G30G 6G24G 9G29G14G31G18G21G12
 122627988.46947  95554274.12947  23335332.2844   23335332.6474   23335332.3064
        48.000          42.000
 123432830.38147  96181403.97547  23488503.8944   23488508.1724   23488504.4234
        45.000          39.000
 119360853.54547  93008450.60047  22713619.5064   22713622.5934   22713619.2744
        50.000          43.000
 135489139.36447  87783734.97247  23879795.4434   23879800.6464   23879795.7874
        43.000          38.000
 121202922.35547  94443816.84047  23064162.7184   23064167.4484   23064163.0784
        48.000          41.000
 128392528.70647 100046113.44047  24432296.6544   24432299.5604   24432296.9124
        41.000          35.000
 126928583.54747  98905373.71347  24153717.8274   24153721.7464   24153717.9404
        44.000          39.000
 118745828.45847  92529213.03247  22596581.0904   22596584.1154   22596581.4314
        48.000          43.000
 112122036.34947  87367813.52647  21336118.7944   21336120.4214   21336118.2174
        53.000          47.000
 119580566.75847  93179662.89147  22755425.3584   22755427.2034   22755425.7264
        49.000          42.000
 105414549.50047  82141202.00047  20059726.0834   20059727.9234   20059726.4394
        54.000          49.000
 128987295.56347 100509562.52047  24545482.6284   24545485.3934   24545482.2334
        44.000          37.000
 09  1 11  1 28  0.0000000  0 12G22G 5G30G 6G24G 9G29G14G31G18G21G12
 122579832.16347  95516749.73847  23326168.2594   23326168.6464   23326168.2904
        48.000          42.000
 123435724.55247  96183659.19847  23489055.0224   23489059.1564   23489055.4924
        45.000          39.000
 119336783.05147  92989694.39447  22709038.9864   22709041.7054   22709038.6864
        50.000          43.000
 135473101.43547  87771237.87847  23876744.0824   23876749.1854   23876744.1534
        44.000          38.000
 121287747.50747  94509914.35147  23080304.7174   23080309.1864   23080305.2384
        47.000          41.000
 128499863.77547 100129751.17547  24452721.9644   24452725.1814   24452722.5764
        40.000          35.000
 126992431.11247  98955125.02747  24165867.9114   24165871.3544   24165867.2744
        43.000          39.000
 118785557.07247  92560170.40047  22604141.4644   22604144.2454   22604141.7724
        48.000          43.000
 112051680.82547  87312991.07147  21322730.3254   21322732.2294   21322730.1774
        53.000          48.000
 119542970.46747  93150367.09047  22748271.1874   22748273.3714   22748271.4834
        49.000          42.000
 105442067.63847  82162644.70647  20064962.6064   20064964.5274   20064963.0694
        54.000          49.000
 129003610.99747 100522275.86047  24548587.2964   24548590.0224   24548587.3064
        43.000          38.000
 09  1 11  1 28 30.0000000  0 12G22G 5G30G 6G24G 9G29G14G31G18G21G12
 122531513.57647  95479098.90247  23316973.4884   23316973.7774   23316973.8714
        48.000          41.000
 123438883.92947  96186121.07047  23489656.2624   23489660.4924   23489656.8804
        45.000          40.000
 119312840.32247  92971037.75747  22704483.0074   22704485.3104   22704482.6234
        50.000          43.000
 135457281.20247  87758910.41447  23873733.4114   23873739.0484   23873733.7564
        43.000          38.000
 121372857.02647  94576233.43147  23096500.5154   23096505.1304   23096500.3564
        47.000          41.000
 128607348.21647 100213505.28347  24473175.6604   24473177.5894   24473175.7664
        40.000          34.000
 127056087.77847  99004727.60447  24177980.7624   24177984.8774   24177980.6274
        44.000          38.000
 118825369.82547  92591193.33347  22611717.5634   22611719.9954   22611717.6714
        48.000          43.000
 111981760.30947  87258507.57047  21309424.6994   21309426.8814   21309424.1174
        53.000          48.000
 119505375.54147  93121072.35147  22741117.2454   22741119.0894   22741117.5384
        49.000          42.000
 105470190.58647  82184558.69147  20070314.0974   20070316.2234   20070314.4474
        54.000          49.000
 129020160.89147 100535171.90047  24551736.6314   24551739.2214   24551736.6374
        43.000          37.000
 09  1 11  1 29  0.0000000  0 12G22G 5G30G 6G24G 9G29G14G31G18G21G12
 122483034.12147  95441322.70547  23307747.7404   23307748.5344   23307747.6794
        47.000          41.000
 123442310.29347  96188790.98747  23490308.2014   23490312.3054   23490308.8914
        45.000          40.000
 119289027.73447  92952482.52247  22699951.4834   22699954.2294   22699951.1934
        50.000          43.000
 135441677.16047  87746751.40747  23870764.1074   23870769.1434   23870764.5714
        43.000          38.000
 121458248.54347  94642772.25747  23112749.4294   23112754.6964   23112749.4754
        47.000          41.000
 128714978.87747 100297373.35947  24493657.4644   24493660.7704   24493656.5814
        39.000          34.000
 127119552.39647  99054180.50747  24190057.5714   24190061.5964   24190057.4654
        43.000          38.000
 118865263.86847  92622279.60547  22619309.2474   22619311.7874   22619309.3234
        48.000          43.000
 111912276.92747  87204364.70047  21296202.6254   21296204.6794   21296202.3964
        53.000          48.000
 119467784.01047  93091780.24547  22733963.1184   22733965.8244   22733963.8174
        49.000          42.000
 105498917.33447  82206943.17047  20075780.7304   20075782.6914   20075781.1024
        54.000          49.000
 129036946.57247 100548251.67647  24554930.7314   24554932.7804   24554930.5284
        43.000          37.000
 09  1 11  1 29 30.0000000  0 11G22G 5G30G 6G24G29G14G31G18G21G12
 122434395.37647  95403422.38947  23298491.9294   23298493.2164   23298491.9844
        47.000          41.000
 123446005.47947  96191670.37647  23491011.3424   23491015.6504   23491012.0344
        46.000          40.000
 119265348.12747  92934030.90947  22695445.0934   22695448.1154   22695445.1444
        50.000          43.000
 135426287.94147  87734759.80747  23867835.9684   23867840.7614   23867835.6054
        43.000          38.000
 121543919.89247  94709529.13447  23129052.1624   23129057.3664   23129052.4344
        47.000          41.000
 127182824.08147  99103483.06947  24202097.8844   24202101.7414   24202097.6184
        43.000          38.000
 118905237.25747  92653427.70747  22626915.8774   22626918.5234   22626916.2194
        49.000          43.000
 111843233.28247  87150564.48747  21283063.8704   21283066.2174   21283063.6284
        53.000          48.000
 119430198.35347  93062492.72347  22726811.0164   22726813.4824   22726811.4904
        49.000          42.000
 105528247.14247  82229797.56347  20081362.1234   20081363.9354   20081362.5414
        54.000          49.000
 129053969.78547 100561516.57647  24558169.9264   24558173.1684   24558169.6214
        43.000          37.000
 09  1 11  1 30  0.0000000  0 11G22G 5G30G 6G24G29G14G31G18G21G12
 122385597.40847  95365398.01247  23289206.4384   23289207.2784   23289206.4544
        48.000          41.000
 123449969.88947  96194759.55047  23491766.4734   23491769.6394   23491766.9694
        46.000          40.000
 119241802.22647  92915683.48547  22690964.5144   22690967.4214   22690964.4564
        50.000          43.000
 135411110.63947  87722933.34147  23864947.7794   23864952.6684   23864948.0484
        44.000          38.000
 121629867.52147  94776501.29547  23145407.5824   23145412.5194   23145407.6784
        47.000          41.000
 127245900.45947  99152633.43147  24214101.1264   24214104.6754   24214100.7124
        43.000          38.000
 118945285.63047  92684634.24147  22634536.7784   22634539.1834   22634537.0604
        48.000          43.000
 111774630.27147  87097107.61947  21270009.2754   21270011.3334   21270008.7524
        53.000          48.000
 119392619.38947  93033210.40447  22719660.2514   22719662.2914   22719660.6264
        49.000          42.000
 105558177.57747  82253119.97847  20087057.9144   20087059.4124   20087058.3464
        54.000          49.000
 129071230.31247 100574966.32847  24561454.9464   24561457.6154   24561454.4194
        43.000          37.000
 09  1 11  1 30 30.0000000  0 11G22G 5G30G 6G24G29G14G31G18G21G12
 122336641.68147  95327250.69047  23279890.4484   23279891.1354   23279890.3144
        48.000          41.000
 123454205.74147  96198060.22847  23492571.8934   23492575.8894   23492572.2524
        46.000          40.000
 119218392.84147  92897442.41947  22686509.7784   22686512.9544   22686509.4474
        49.000          43.000
 135396144.12147  87711271.11947  23862099.6484   23862104.3594   23862100.0784
        43.000          38.000
 121716089.59447  94843687.30347  23161815.3714   23161820.1194   23161815.1234
        47.000          40.000
 127308780.77747  99201630.99747  24226066.5034   24226071.0654   24226066.2434
        43.000          38.000
 118985407.05947  92715897.71247  22642171.8654   22642174.0694   22642171.8554
        48.000          43.000
 111706470.82947  87043996.39047  21257038.8604   21257040.7494   21257038.6854
        53.000          48.000
 119355049.45247  93003935.13247  22712510.9454   22712512.6584   22712511.2954
        49.000          42.000
 105588708.06147  82276909.96347  20092867.6244   20092869.1544   20092868.0114
        54.000          49.000
 129088730.36147 100588602.75447  24564784.7514   24564787.6614   24564784.7624
        42.000          37.000
 09  1 11  1 31  0.0000000  0 11G22G 5G30G 6G24G29G14G31G18G21G12
 122287530.22447  95288982.02147  23270545.2044   23270545.5144   23270545.1144
        48.000          41.000
 123458715.21747  96201574.12647  23493429.9544   23493434.0024   23493430.5344
        46.000          40.000
 119195122.71247  92879309.87847  22682081.8764   22682084.7654   22682081.4934
        50.000          43.000
 135381387.59847  87699772.51047  23859291.5794   23859296.4664   23859291.7484
        43.000          38.000
 121802584.08347  94911085.59947  23178274.5854   23178279.6954   23178274.4944
        46.000          40.000
 127371464.80047  99250475.61547  24237995.4344   24237999.4714   24237995.2404
        43.000          38.000
 119025599.39647  92747216.43247  22649819.9844   22649822.1674   22649819.9494
        48.000          42.000
 111638757.64247  86991232.88947  21244153.3754   21244155.4324   21244152.6744
        53.000          48.000
 119317491.42347  92974669.14147  22705363.7554   22705365.8494   22705364.1044
        48.000          42.000
 105619837.91147  82301166.98547  20098791.3844   20098792.9024   20098791.8234
        54.000          49.000
 129106471.62447 100602427.13447  24568160.4554   24568163.8084   24568160.4464
        41.000          37.000
 09  1 11  1 31 30.0000000  0 11G22G 5G30G 6G24G29G14G31G18G21G12
 122238265.27247  95250593.74647  23261170.2184   23261170.4994   23261170.2634
        47.000          41.000
 123463501.05747  96205303.36847  23494340.7354   23494344.9024   23494340.9664
        46.000          40.000
 119171995.08447  92861288.39647  22677680.7494   22677683.5004   22677680.5254
        50.000          43.000
 135366840.30847  87688436.95547  23856523.4874   23856528.0624   23856523.4754
        44.000          38.000
 121889349.55447  94978695.02347  23194785.4954   23194790.6204   23194785.4984
        47.000          40.000
 127433952.34647  99299167.10547  24249886.1814   24249890.4514   24249885.9104
        44.000          38.000
 119065861.28647  92778589.34447  22657481.5644   22657483.7134   22657481.7784
        48.000          43.000
 111571494.11847  86938819.78847  21231353.5914   21231355.5454   21231353.4734
        53.000          48.000
 119279948.72247  92945415.08547  22698219.8054   22698221.0754   22698220.1324
        49.000          42.000
 105651566.79047  82325890.78947  20104828.8934   20104830.7674   20104829.2414
        54.000          49.000
 129124456.40747 100616441.24747  24571582.5194   24571586.0394   24571582.0814
        42.000          37.000
 09  1 11  1 32  0.0000000  0 11G22G 5G30G 6G24G29G14G31G18G21G12
 122188845.95547  95212085.18947  23251765.8904   23251766.6494   23251765.7784
        48.000          41.000
 123468563.00447  96209247.76047  23495304.2144   23495307.9834   23495304.6474
        46.000          40.000
 119149010.60247  92843378.43447  22673306.8084   22673309.8384   22673306.4694
        49.000          43.000
 135352499.02047  87677261.90147  23853794.8464   23853799.0614   23853794.5704
        43.000          38.000
 121976381.65547  95046512.22047  23211347.3004   23211352.3814   23211347.4664
        47.000          40.000
 127496240.35847  99347703.10947  24261739.7834   24261743.9104   24261740.1744
        44.000          38.000
 119106188.21847  92810012.93547  22665155.5884   22665158.0964   22665155.8514
        49.000          43.000
 111504680.76747  86886757.46247  21218639.3854   21218641.3584   21218638.8014
        53.000          48.000
 119242421.67747  92916173.23947  22691078.6854   22691080.2384   22691079.3354
        49.000          42.000
 105683891.83147  82351079.13247  20110980.1794   20110982.1544   20110980.6454
        54.000          49.000
 129142684.09447 100630644.67447  24575051.7784   24575054.6644   24575051.3024
        42.000          37.000
 09  1 11  1 32 30.0000000  0 11G22G 5G30G 6G24G29G14G31G18G21G12
 122139274.29847  95173457.92147  23242332.7264   23242333.0954   23242332.7374
        48.000          41.000
 123473903.46947  96213409.17747  23496320.0504   23496324.6334   23496320.6294
        46.000          40.000
 119126172.02447  92825582.18147  22668960.7354   22668963.5684   22668960.5794
        49.000          43.000
 135338362.78147  87666246.64247  23851104.3854   23851108.8884   23851104.1324
        44.000          37.000
 122063678.90847  95114536.04447  23227959.6954   23227964.3754   23227959.7694
        46.000          40.000
 127558328.65047  99396083.48747  24273554.8824   24273558.8724   24273554.3644
        43.000          38.000
 119146578.22147  92841485.69047  22672841.5534   22672843.9644   22672841.8434
        48.000          42.000
 111438320.63447  86835048.29147  21206011.5214   21206013.5084   21206011.2054
        53.000          48.000
 119204913.03447  92886945.72547  22683941.0124   22683942.5984   22683941.4864
        49.000          42.000
 105716812.59347  82376731.67947  20117244.6244   20117246.7654   20117244.8904
        54.000          49.000
 129161156.97047 100645039.10347  24578567.3714   24578570.1294   24578566.5984
        42.000          37.000
 09  1 11  1 33  0.0000000  0 11G22G 5G30G 6G24G29G14G31G18G21G12
 122089552.44647  95134713.63147  23232871.2504   23232870.8024   23232871.2194
        48.000          41.000
 123479524.54847  96217789.25447  23497389.9564   23497394.0944   23497390.4824
        46.000          40.000
 119103482.24047  92807901.85847  22664642.8264   22664646.0574   22664642.6314
        50.000          43.000
 135324430.55247  87655390.34947  23848453.5164   23848457.9954   23848453.6354
        43.000          38.000
 122151239.21947  95182764.83247  23244621.5704   23244626.7524   23244621.8424
        46.000          40.000
 127620216.64947  99444307.78647  24285331.5984   24285335.5124   24285331.0944
        43.000          38.000
 119187029.27147  92873006.00147  22680539.0514   22680541.5644   22680539.0424
        48.000          43.000
 111372416.08847  86783694.12547  21193470.5334   21193472.2634   21193470.1604
        54.000          48.000
 119167425.36747  92857734.56047  22676807.1134   22676809.1344   22676807.6114
        49.000          42.000
 105750328.30347  82402847.81647  20123622.6064   20123624.5994   20123623.0954
        54.000          49.000
 129179876.63847 100659625.86947  24582129.4864   24582132.0524   24582129.3874
        43.000          37.000
 09  1 11  1 33 30.0000000  0 11G22G 5G30G 6G24G29G14G31G18G21G12
 122039681.71147  95095853.32047  23223381.1794   23223381.1544   23223381.0784
        48.000          41.000
 123485428.39847  96222389.69047  23498513.2464   23498517.6184   23498513.8174
        46.000          40.000
 119080943.95547  92790339.60047  22660353.8784   22660356.9944   22660353.5204
        49.000          43.000
 135310701.09247  87644692.08647  23845840.5714   23845845.6024   23845840.3724
        44.000          38.000
 122239060.52547  95251196.99347  23261333.1274   23261338.6884   23261332.9784
        46.000          40.000
 127681903.93247  99492375.68847  24297070.3154   24297074.5074   24297069.6094
        44.000          38.000
 119227539.45147  92904572.39247  22688247.8384   22688250.7814   22688248.1024
        48.000          43.000
 111306970.09147  86732697.27847  21181016.4724   21181018.4354   21181016.2714
        54.000          48.000
 119129961.54847  92828541.97347  22669678.1124   22669680.1384   22669678.4774
        49.000          42.000
 105784438.30947  82429427.04347  20130113.6914   20130115.3904   20130114.0164
        54.000          49.000
 129198845.08847 100674406.49847  24585738.8194   24585741.9464   24585738.2494
        42.000          37.000
 09  1 11  1 34  0.0000000  0 11G22G 5G30G 6G24G29G14G31G18G21G12
 121989663.37547  95056877.99947  23213863.1164   23213863.2044   23213863.1064
        47.000          41.000
 123491616.11847  96227211.32547  23499691.1044   23499694.7574   23499691.8014
        46.000          39.000
 119058559.03647  92772896.83647  22656094.0494   22656097.3894   22656093.5234
        49.000          43.000
 135297172.35247  87634150.20147  23843265.9994   23843271.2674   23843266.8994
        43.000          38.000
 122327139.90347  95319830.24947  23278094.2664   23278099.3694   23278094.1574
        46.000          40.000
 127743388.97047  99540285.97647  24308771.2554   24308774.7094   24308770.7874
        43.000          38.000
 119268105.27547  92936182.13447  22695967.6674   22695969.7004   22695967.6274
        48.000          43.000
 111241984.20247  86682058.95147  21168650.1854   21168651.8904   21168649.6564
        54.000          48.000
 119092523.20847  92799369.25047  22662554.2964   22662556.0774   22662554.7224
        50.000          43.000
 105819140.47947  82456467.69347  20136717.1934   20136719.0854   20136717.5304
        54.000          49.000
 129218062.67047 100689381.25547  24589395.4934   24589398.9064   24589395.3014
        42.000          37.000
 09  1 11  1 34 30.0000000  0 11G22G 5G30G 6G24G29G14G31G18G21G12
 121939499.24447  95017789.06547  23204316.6594   23204317.0334   23204316.9104
        48.000          41.000
 123498089.85847  96232255.81647  23500922.8624   23500926.7534   23500923.3424
        46.000          40.000
 119036330.19947  92755575.69247  22651864.2894   22651867.0384   22651863.8724
        49.000          43.000
 135283843.34847  87623763.96447  23840729.8004   23840734.2674   23840729.3884
        42.000          37.000
 122415475.48347  95388663.14247  23294903.8494   23294908.9404   23294903.8934
        46.000          40.000
 127804671.40947  99588038.38447  24320432.6214   24320436.4424   24320432.5534
        42.000          38.000
 119308725.07947  92967833.93747  22703697.0344   22703699.3594   22703697.5784
        48.000          43.000
 111177461.47647  86631781.53347  21156371.8424   21156373.5964   21156371.6094
        54.000          48.000
 119055113.72747  92770219.00947  22655435.4474   22655437.1234   22655435.7404
        50.000          42.000
 105854434.34147  82483969.40247  20143433.4474   20143435.2164   20143433.8234
        54.000          49.000
 129237531.46047 100704551.78147  24593100.3804   24593103.1504   24593100.9004
        42.000          37.000
 09  1 11  1 35  0.0000000  0 11G22G 5G30G 6G24G29G14G31G18G21G12
 121889188.79147  94978586.12747  23194742.6424   23194743.0594   23194742.6744
        47.000          41.000
 123504849.53247  96237523.10347  23502209.0794   23502213.0704   23502209.5934
        46.000          39.000
 119014258.08147  92738376.66347  22647664.0454   22647666.4984   22647663.6554
        50.000          43.000
 135270710.64447  87613530.66747  23838230.5904   23838235.2154   23838230.6874
        43.000          37.000
 122504063.19247  95457692.48747  23311761.8644   23311766.8234   23311761.5784
        46.000          40.000
 127865748.21247  99635630.57647  24332054.9814   24332059.7974   24332055.1474
        43.000          38.000
 119349394.46647  92999524.37047  22711435.8774   22711438.8614   22711436.2054
        49.000          43.000
 111113402.02847  86581865.10947  21144181.6384   21144183.5274   21144181.1014
        54.000          48.000
 119017732.72047  92741090.96347  22648322.0264   22648323.8944   22648322.5454
        49.000          42.000
 105890316.82547  82511929.77747  20150261.6134   20150263.4534   20150262.0124
        54.000          49.000
 129257251.01647 100719917.67047  24596853.0334   24596855.8294   24596853.0924
        43.000          37.000
 09  1 11  1 35 30.0000000  0 11G22G 5G30G 6G24G29G14G31G18G21G12
 121838736.71447  94939272.82247  23185142.4394   23185142.5434   23185142.5364
        48.000          41.000
 123511899.70247  96243016.77047  23503550.3294   23503554.2024   23503550.7844
        46.000          39.000
 118992347.95747  92721303.87847  22643494.6534   22643497.4544   22643494.4454
        50.000          43.000
 135257775.61347  87603451.43947  23835768.6434   23835773.7354   23835769.1084
        43.000          38.000
 122592903.61947  95526918.76347  23328667.6264   23328672.4174   23328667.6364
        46.000          40.000
 127926621.73947  99683064.36747  24343639.2604   24343643.6974   24343639.3664
        43.000          38.000
 119390114.11947  93031253.98347  22719184.6964   22719187.4274   22719184.9974
        48.000          42.000
 111049810.88847  86532313.60947  21132080.7384   21132082.4444   21132080.4854
        54.000          48.000
 118980386.02247  92711989.64747  22641214.7074   22641217.0284   22641215.3534
        49.000          42.000
 105926789.41747  82540349.98047  20157202.1324   20157204.0644   20157202.5254
        54.000          49.000
 129277225.42847 100735482.18847  24600654.6994   24600656.5044   24600654.4824
        42.000          37.000
 09  1 11  1 36  0.0000000  0 11G22G 5G30G 6G24G29G14G31G18G21G12
 121788141.05047  94899847.64147  23175514.4504   23175514.5764   23175514.6524
        47.000          41.000
 123519239.12047  96248735.81747  23504947.3044   23504951.5294   23504947.7534
        46.000          39.000
 118970599.41247  92704356.98447  22639356.1304   22639358.7164   22639356.0034
        50.000          43.000
 135245033.91547  87593522.82547  23833344.6284   23833349.3974   23833344.7214
        43.000          38.000
 122681991.42147  95596337.78347  23345620.4544   23345625.4424   23345620.5894
        46.000          40.000
 127987288.57347  99730337.09547  24355183.2554   24355188.3204   24355183.5024
        43.000          37.000
 119430878.54547  93063018.48547  22726941.8084   22726944.3084   22726941.9084
        48.000          42.000
 110986687.80347  86483126.81847  21120068.8354   21120070.4174   21120068.2834
        54.000          48.000
 118943072.84447  92682914.44447  22634114.4824   22634116.4564   22634114.8694
        49.000          43.000
 105963847.86347  82569226.69347  20164254.0464   20164255.9714   20164254.4684
        54.000          49.000
 129297453.25447 100751244.16147  24604502.9164   24604505.4384   24604503.0144
        42.000          37.000
 09  1 11  1 36 30.0000000  0 11G22G 5G30G 6G24G29G14G31G18G21G12
 121737406.70547  94860314.40147  23165859.7754   23165859.9084   23165859.7934
        47.000          40.000
 123526872.32347  96254683.79847  23506399.4664   23506403.5274   23506399.8094
        46.000          39.000
 118949017.66747  92687540.06247  22635249.0654   22635252.3604   22635248.7284
        50.000          43.000
 135232486.81547  87583745.86147  23830956.9744   23830961.4124   23830956.6414
        44.000          38.000
 122771327.26747  95665950.08547  23362620.5774   23362625.1684   23362620.6944
        46.000          40.000
 128047750.39347  99777450.11047  24366689.0394   24366693.4164   24366688.9314
        43.000          37.000
 119471688.01447  93094818.08347  22734707.7364   22734710.3304   22734707.7344
        48.000          42.000
 110924037.74547  86434308.62147  21108146.8004   21108148.4494   21108146.5514
        54.000          48.000
 118905798.53647  92653869.53747  22627020.8584   22627023.0464   22627021.4224
        49.000          42.000
 106001493.64047  82598561.06547  20171417.9984   20171419.6864   20171418.4714
        54.000          49.000
 129317938.58947 100767206.81447  24608401.6334   24608404.1464   24608400.8954
        42.000          37.000
 09  1 11  1 37  0.0000000  0 11G22G 5G30G 6G24G29G14G31G18G21G12
 121686532.01747  94820671.79547  23156178.6164   23156178.8764   23156178.5034
        47.000          40.000
 123534797.95347  96260859.63147  23507907.7964   23507911.6024   23507908.3574
        46.000          39.000
 118927602.20947  92670852.71847  22631173.9704   22631176.2794   22631173.5764
        49.000          43.000
 135220129.66147  87574116.89547  23828605.4094   23828609.9474   23828605.4174
        44.000          38.000
 122860905.50547  95735751.28047  23379666.9754   23379671.3734   23379666.8954
        47.000          40.000
 128108003.21647  99824400.26847  24378154.6584   24378159.5804   24378154.5244
        42.000          37.000
 119512537.20247  93126648.63147  22742480.7294   22742483.8264   22742481.1754
        48.000          42.000
 110861859.81947  86385858.31947  21096314.5354   21096316.3154   21096314.0584
        54.000          48.000
 118868562.47847  92624854.42747  22619935.4224   22619937.7744   22619936.0274
        49.000          42.000
 106039722.36547  82628349.68747  20178692.5954   20178694.3794   20178692.9554
        54.000          49.000
 129338680.12047 100783369.07447  24612348.3084   24612351.6794   24612348.2274
        41.000          37.000
 09  1 11  1 37 30.0000000  0 11G22G 5G30G 6G24G29G14G31G18G21G12
 121635521.96747  94780923.70647  23146471.7964   23146472.1444   23146472.0964
        47.000          41.000
 123543021.42847  96267267.55547  23509472.7724   23509476.4714   23509473.1704
        46.000          39.000
 118906358.67647  92654299.33247  22627131.2774   22627134.0474   22627130.8894
        50.000          43.000
 135207964.78447  87564637.75947  23826290.5534   23826295.2984   23826290.3774
        44.000          38.000
 122950727.69947  95805742.54747  23396759.2664   23396764.3664   23396760.1494
        45.000          40.000
 128168049.90347  99871189.83147  24389581.6754   24389585.9114   24389581.4244
        41.000          37.000
 119553427.42447  93158511.15447  22750262.2214   22750264.7344   22750262.6064
        48.000          43.000
 110800159.96647  86337780.54247  21084573.5534   21084575.3634   21084573.2014
        54.000          48.000
 118831370.86147  92595873.93747  22612858.3404   22612860.1724   22612858.7214
        49.000          42.000
 106078536.67047  82658594.59447  20186078.8594   20186080.5704   20186079.3394
        54.000          49.000
 129359682.64147 100799734.69947  24616344.8074   24616347.2024   24616345.3564
        41.000          37.000
 09  1 11  1 38  0.0000000  0 11G22G 5G30G 6G24G29G14G31G18G21G12
 121584373.10847  94741067.46047  23136738.1384   23136738.9614   23136738.2164
        47.000          41.000
 123551539.26747  96273904.86747  23511093.8964   23511097.4434   23511094.3304
        46.000          39.000
 118885284.61647  92637878.00447  22623120.8424   22623123.6934   22623120.6364
        49.000          43.000
 135195985.46047  87555303.21647  23824010.6594   23824015.4204   23824010.8244
        44.000          38.000
 123040786.01447  95875917.80847  23413896.8534   23413901.6784   23413897.3944
        45.000          40.000
 128227884.90247  99917814.42847  24400968.1154   24400972.6554   24400967.6004
        43.000          37.000
 119594351.23447  93190399.85247  22758049.8684   22758052.2354   22758049.8764
        48.000          42.000
 110738935.33247  86290073.06247  21072922.7344   21072924.5504   21072922.2154
        54.000          48.000
 118794220.43147  92566925.56047  22605788.9474   22605790.8334   22605789.4094
        49.000          42.000
 106117929.90847  82689290.62747  20193574.9424   20193576.8904   20193575.1954
        54.000          49.000
 129380942.03947 100816300.49747  24620391.1294   24620392.9484   24620391.1644
        42.000          37.000
 09  1 11  1 38 30.0000000  0 11G22G 5G30G 6G24G29G14G31G18G21G12
 121533091.98147  94701108.16147  23126980.1414   23126980.3244   23126979.9764
        48.000          41.000
 123560357.73447  96280776.43047  23512771.6974   23512775.9534   23512772.2364
        45.000          39.000
 118864387.20247  92621594.31447  22619144.2864   22619147.3814   22619143.8934
        49.000          43.000
 135184194.78147  87546115.66647  23821767.0534   23821772.0244   23821767.2084
        43.000          38.000
 123131083.04947  95946279.06547  23431079.4514   23431084.9944   23431079.5454
        46.000          40.000
 128287512.20847  99964277.21447  24412314.5394   24412319.1624   24412314.3784
        43.000          38.000
 119635310.78847  93222316.40147  22765843.9074   22765846.4444   22765843.9264
        47.000          42.000
 110678192.61047  86242741.10047  21061363.9594   21061365.3914   21061363.5554
        54.000          48.000
 118757118.50347  92538014.97047  22598728.3314   22598730.6874   22598728.8694
        49.000          42.000
 106157905.20147  82720440.20047  20201182.0864   20201183.8494   20201182.5824
        54.000          49.000
 129402464.35547 100833071.15447  24624486.4364   24624488.9754   24624486.0774
        42.000          37.000
 09  1 11  1 39  0.0000000  0 11G22G 5G30G 6G24G29G14G31G18G21G12
 121481676.84747  94661044.42847  23117196.2464   23117196.4064   23117196.3394
        48.000          41.000
 123569475.25347  96287881.04247  23514506.3094   23514510.8154   23514506.8574
        46.000          39.000
 118843665.87047  92605447.82647  22615201.2244   22615204.1134   22615200.8834
        50.000          43.000
 135172588.12947  87537071.51747  23819558.2414   23819563.6804   23819558.1174
        43.000          38.000
 123221613.24447  96016822.02647  23448306.8994   23448312.8424   23448306.9124
        46.000          39.000
 128346927.60647 100010574.86647  24423621.3414   24423626.0794   24423620.8724
        42.000          38.000
 119676300.52047  93254256.46747  22773644.0014   22773646.3544   22773643.7434
        48.000          42.000
 110617930.70647  86195783.79647  21049896.4224   21049897.9344   21049895.9974
        54.000          48.000
 118720064.66747  92509141.85347  22591677.0024   22591679.3564   22591677.7514
        49.000          43.000
 106198458.15847  82752039.91047  20208898.8764   20208900.7454   20208899.2054
        55.000          49.000
 129424247.84947 100850045.31647  24628631.5334   24628634.0934   24628631.4954
        41.000          37.000
 09  1 11  1 39 30.0000000  0 11G22G 5G30G 6G24G29G14G31G18G21G12
 121430131.35147  94620879.11047  23107387.4304   23107387.6804   23107387.4044
        48.000          41.000
 123578895.85947  96295221.83047  23516299.1914   23516303.1614   23516299.2754
        46.000          39.000
 118823125.02947  92589441.98547  22611292.7554   22611295.5814   22611292.3814
        50.000          43.000
 135161166.04347  87528171.18847  23817385.0634   23817389.7474   23817385.6034
        44.000          38.000
 123312376.59247  96087546.65747  23465578.7074   23465584.5304   23465579.0144
        45.000          39.000
 128406132.70147 100056708.65647  24434887.0084   24434892.0444   24434887.0994
        43.000          37.000
 119717320.39347  93286220.03047  22781449.7844   22781452.0884   22781449.9864
        48.000          42.000
 110558153.93547  86149204.52847  21038521.2914   21038522.7854   21038520.9074
        54.000          48.000
 118683063.26147  92480309.57647  22584636.5114   22584638.3524   22584636.7584
        50.000          43.000
 106239589.17947  82784090.05447  20216726.0854   20216727.6154   20216726.4874
        54.000          49.000
 129446296.12047 100867225.82847  24632826.9564   24632830.1164   24632826.9404
        41.000          37.000
 09  1 11  1 40  0.0000000  0 11G22G 5G30G 6G24G29G14G31G18G21G12
 121378454.80747  94580611.67747  23097553.6104   23097554.1284   23097553.5164
        48.000          41.000
 123588618.56947  96302798.01147  23518149.1444   23518153.3144   23518149.7114
        45.000          39.000
 118802764.43547  92573576.59147  22607418.2134   22607420.8334   22607417.6894
        50.000          43.000
 135149924.70647  87519411.70947  23815245.4424   23815251.2414   23815245.3704
        43.000          38.000
 123403367.98947  96158448.98647  23482893.9774   23482899.4794   23482894.2284
        46.000          39.000
 128465124.11047 100102675.95047  24446113.2214   24446117.3624   24446113.2824
        43.000          38.000
 119758365.55047  93318203.28247  22789260.8224   22789263.0484   22789260.9194
        48.000          42.000
 110498862.38147  86103003.34347  21027238.4004   21027239.9944   21027238.0834
        54.000          48.000
 118646114.37847  92451518.22147  22577605.1404   22577607.1084   22577605.7304
        50.000          43.000
 106281294.54147  82816587.73647  20224662.2354   20224664.1894   20224662.4824
        55.000          49.000
 129468607.91847 100884611.65047  24637072.5914   24637075.2144   24637072.4634
        40.000          36.000
 09  1 11  1 40 30.0000000  0 11G22G 5G30G 6G24G29G14G31G18G21G12
 121326651.52147  94540245.49047  23087695.7624   23087696.2284   23087695.7614
        48.000          41.000
 123598647.60447  96310612.88747  23520057.8854   23520061.8464   23520058.2244
        46.000          39.000
 118782589.05747  92557855.50747  22603578.7344   22603581.2864   22603578.3364
        50.000          43.000
 135138865.07147  87510793.80247  23813141.0634   23813146.6144   23813141.2914
        43.000          38.000
 123494587.84847  96229529.33547  23500252.6624   23500258.1024   23500252.6614
        45.000          39.000
 128523904.27247 100148478.61747  24457298.5144   24457303.8804   24457298.7134
        42.000          38.000
 119799436.43847  93350206.58247  22797076.4794   22797078.4934   22797076.7024
        48.000          42.000
 110440060.64347  86057183.83947  21016048.7774   21016050.3864   21016048.5144
        54.000          48.000
 118609223.31447  92422771.93347  22570585.1304   22570587.0184   22570585.7584
        49.000          42.000
 106323575.52547  82849533.95747  20232708.1574   20232709.9634   20232708.7174
        54.000          49.000
 129491187.11247 100902205.85047  24641368.5444   24641371.7004   24641368.6394
        39.000          35.000
 09  1 11  1 41  0.0000000  0 11G22G 5G30G 6G24G29G14G31G18G21G12
 121274721.42947  94499780.49047  23077813.5764   23077814.0134   23077813.5684
        48.000          41.000
 123608982.62347  96318666.18747  23522024.6164   23522028.0084   23522025.2854
        46.000          39.000
 118762599.33447  92542279.11247  22599774.9884   22599777.7274   22599774.6734
        50.000          43.000
 135127983.52747  87502314.68547  23811071.0484   23811075.1494   23811070.6244
        44.000          39.000
 123586031.89747  96300784.36947  23517653.9114   23517659.3854   23517653.8764
        46.000          39.000
 128582470.08647 100194114.30247  24468443.1114   24468448.0424   24468442.9674
        41.000          37.000
 119840528.60147  93382226.46947  22804895.6434   22804897.9524   22804895.9334
        48.000          42.000
 110381748.82647  86011746.08647  21004952.2034   21004954.0934   21004951.7364
        54.000          48.000
 118572390.19347  92394070.80247  22563576.0334   22563577.4024   22563576.4034
        49.000          42.000
 106366428.33847  82882925.76047  20240862.6104   20240864.5124   20240863.0104
        54.000          49.000
 129514033.01347 100920007.87047  24645715.9584   24645718.9904   24645716.2244
        41.000          36.000
 09  1 11  1 41 30.0000000  0 11G22G 5G30G 6G24G29G14G31G18G21G12
 121222666.58147  94459218.28947  23067907.7514   23067908.1294   23067908.1184
        48.000          41.000
 123619626.20047  96326959.91147  23524050.2414   23524053.6744   23524050.5734
        45.000          39.000
 118742798.84447  92526850.16647  22596006.9714   22596009.8104   22596006.8784
        50.000          43.000
 135117279.63847  87493973.98847  23809033.8294   23809038.8214   23809034.2124
        44.000          39.000
 123677698.61447  96372212.89847  23535097.6244   23535102.7714   23535098.0394
        45.000          39.000
 128640822.15547 100239583.45447  24479546.5964   24479551.8874   24479546.3514
        42.000          37.000
 119881640.54747  93414261.78247  22812719.0764   22812721.1744   22812719.3064
        48.000          42.000
 110323929.78547  85966692.31547  20993949.6434   20993951.4494   20993949.2864
        54.000          48.000
 118535618.40647  92365417.46747  22556578.0474   22556580.2204   22556578.3354
        49.000          42.000
 106409852.50547  82916762.77647  20249126.1924   20249127.8624   20249126.5664
        54.000          49.000
 129537147.67747 100938019.32147  24650114.9664   24650117.8044   24650115.1934
        40.000          36.000
 09  1 11  1 42  0.0000000  0 11G22G 5G30G 6G24G29G14G31G18G21G12
 121170486.55347  94418558.54047  23057978.2804   23057979.0284   23057978.3374
        48.000          42.000
 123630577.59747  96335493.51947  23526133.9914   23526137.7404   23526134.5294
        46.000          40.000
 118723187.55147  92511568.64447  22592275.0194   22592277.8904   22592274.6264
        50.000          43.000
 135106749.44647  87485768.65347  23807029.9814   23807035.1134   23807030.0144
        44.000          39.000
 123769583.34547  96443811.32047  23552582.7544   23552588.1114   23552582.4144
        45.000          39.000
 128698957.37847 100284883.61647  24490609.7944   24490614.7934   24490609.5484
        42.000          37.000
 119922767.81447  93446309.02747  22820545.3834   22820547.5724   22820545.8284
        48.000          43.000
 110266603.61847  85922022.60847  20983040.6204   20983042.6484   20983040.2054
        54.000          48.000
 118498908.47747  92336812.33547  22549592.6694   22549594.7164   22549593.2384
        49.000          42.000
 106453844.09547  82951041.93747  20257497.2324   20257499.2224   20257497.6584
        54.000          49.000
 129560529.96147 100956239.34247  24654565.0844   24654567.7084   24654564.8274
        41.000          36.000
 09  1 11  1 42 30.0000000  0 11G22G 5G30G 6G24G29G14G31G18G21G12
 121118186.64747  94377805.37147  23048026.1794   23048026.5514   23048026.3524
        48.000          42.000
 123641841.89647  96344270.93847  23528277.5164   23528281.3804   23528277.8604
        45.000          40.000
 118703771.49447  92496439.24947  22588580.3974   22588583.1234   22588579.9024
        50.000          43.000
 135096394.96047  87477700.23647  23805059.5414   23805064.5074   23805059.4484
        44.000          39.000
 123861687.36047  96515580.59347  23570109.6904   23570114.8724   23570109.5104
        45.000          39.000
 128756878.68147 100330017.12947  24501632.3564   24501636.5084   24501631.8174
        42.000          37.000
 119963911.47347  93478369.03347  22828374.9694   22828377.1304   22828375.2404
        49.000          43.000
 110209775.45447  85877740.95247  20972226.6514   20972228.4614   20972226.3184
        54.000          48.000
 118462265.88747  92308259.66247  22542619.9284   22542621.6564   22542620.4484
        49.000          42.000
 106498405.07547  82985764.77847  20265976.8724   20265979.0014   20265977.2604
        54.000          49.000
 129584184.93347 100974671.81747  24659065.9914   24659068.3244   24659065.2514
        40.000          36.000
 09  1 11  1 43  0.0000000  0 11G22G 5G30G 6G24G29G14G31G18G21G12
 121065766.16747  94336958.24547  23038050.5964   23038051.0694   23038050.9774
        49.000          42.000
 123653418.31347  96353291.57747  23530480.1914   23530484.4874   23530480.5824
        45.000          40.000
 118684551.06047  92481462.29347  22584922.8914   22584925.4784   22584922.3584
        50.000          43.000
 135086212.23447  87469765.64747  23803121.8544   23803126.8854   23803121.8214
        44.000          38.000
 123954005.56547  96587516.76147  23587677.4664   23587682.6774   23587677.6344
        45.000          39.000
 128814583.38447 100374981.89947  24512612.4684   24512616.5514   24512611.9984
        42.000          37.000
 120005067.02947  93510438.32947  22836206.5874   22836208.6424   22836206.8174
        48.000          42.000
 110153445.21247  85833847.28847  20961507.5014   20961509.0014   20961507.1774
        54.000          48.000
 118425691.10147  92279759.82447  22535660.0074   22535661.7254   22535660.4814
        49.000          42.000
 106543531.41147  83020928.16047  20274564.0744   20274566.1844   20274564.4154
        54.000          49.000
 129608111.38147 100993315.82847  24663619.2544   24663622.0984   24663618.7084
        41.000          36.000
 09  1 11  1 43 30.0000000  0 11G22G 5G30G 6G24G29G14G31G18G21G12
 121013228.42547  94296019.75647  23028053.2044   23028053.5244   23028053.0974
        49.000          42.000
 123665309.90147  96362557.81347  23532743.0714   23532747.1324   23532743.4954
        45.000          39.000
 118665529.89747  92466640.62147  22581302.9694   22581305.8274   22581302.8824
        50.000          43.000
 135076201.33447  87461964.96847  23801216.5984   23801221.9534   23801216.8484
        44.000          38.000
 124046537.41247  96659619.40447  23605285.8834   23605290.8244   23605285.6164
        45.000          38.000
 128872072.29347 100419778.65947  24523553.2574   24523557.1484   24523552.6874
        41.000          37.000
 120046233.63547  93542516.21547  22844039.8844   22844042.4014   22844040.1294
        48.000          42.000
 110097616.61747  85790344.51447  20950883.6744   20950885.2134   20950883.3034
        54.000          48.000
 118389188.29047  92251316.08147  22528713.6484   22528715.5424   22528713.8454
        49.000          42.000
 106589223.24647  83056532.18647  20283258.9994   20283260.9604   20283259.3724
        54.000          49.000
 129632312.04247 101012173.51347  24668224.9554   24668226.9664   24668224.3084
        41.000          36.000
 09  1 11  1 44  0.0000000  0 11G22G 5G30G 6G24G29G14G31G18G21G12
 120960571.69847  94254988.55747  23018032.6884   23018033.3814   23018032.7424
        49.000          43.000
 123677514.75147  96372068.15047  23535065.3104   23535069.7204   23535065.6934
        45.000          39.000
 118646706.81447  92451973.29747  22577720.8684   22577724.4164   22577720.3484
        50.000          43.000
 135066356.98847  87454294.05247  23799343.3534   23799348.3214   23799343.7634
        44.000          38.000
 124139277.10647  96731884.01747  23622933.9954   23622938.4994   23622933.8564
        45.000          39.000
 128929341.17147 100464403.95447  24534450.0804   24534454.4684   24534450.3174
        42.000          37.000
 120087405.71047  93574598.36747  22851874.8824   22851877.3234   22851874.8244
        48.000          43.000
 110042287.74547  85747231.14247  20940354.8104   20940356.3984   20940354.4824
        54.000          49.000
 118352756.31847  92222927.53947  22521780.7364   22521782.7664   22521780.9074
        49.000          42.000
 106635475.32247  83092572.76947  20292060.4134   20292062.3564   20292060.7954
        54.000          49.000
 129656784.48347 101031242.95847  24672881.9424   24672883.9414   24672881.1764
        42.000          36.000
 09  1 11  1 44 30.0000000  0 11G22G 5G30G 6G24G29G14G31G18G21G12
 120907802.12147  94213869.41447  23007991.2504   23007991.4944   23007991.4214
        49.000          43.000
 123690038.82747  96381827.20947  23537448.5604   23537453.1114   23537449.0274
        45.000          39.000
 118628088.57047  92437465.60247  22574178.2474   22574181.3284   22574178.0514
        50.000          43.000
 135056682.13347  87446755.21847  23797502.4134   23797507.3194   23797502.5484
        44.000          38.000
 124232226.58147  96804312.08047  23640621.7804   23640626.3624   23640622.1704
        45.000          39.000
 128986394.43947 100508861.46747  24545306.8744   24545311.4744   24545306.9084
        43.000          37.000
 120128585.01347  93606686.18047  22859711.2184   22859713.3784   22859711.2894
        49.000          42.000
 109987465.31447  85704512.39447  20929922.5454   20929924.1994   20929921.9464
        54.000          49.000
 118316402.18447  92194599.63847  22514863.1944   22514865.0004   22514863.5514
        50.000          43.000
 106682290.28947  83129051.96547  20300969.0214   20300971.1064   20300969.4284
        54.000          49.000
 129681534.59147 101050528.78347  24677591.3984   24677593.9614   24677591.8794
        41.000          36.000
 09  1 11  1 45  0.0000000  0 11G22G 5G30G 6G24G29G14G31G18G21G12
 120854917.49547  94172660.63347  22997927.7774   22997928.1274   22997927.7944
        50.000          43.000
 123702879.57947  96391833.03947  23539892.0824   23539895.9484   23539892.5934
        45.000          39.000
 118609673.75047  92423116.40247  22570673.9284   22570676.7554   22570673.5134
        50.000          43.000
 135047171.22247  87439344.12547  23795692.6704   23795697.0704   23795692.3894
        43.000          38.000
 124325379.69847  96876898.82047  23658347.8714   23658352.8974   23658348.4604
        44.000          39.000
 129043226.98447 100553146.86947  24556122.1294   24556126.2794   24556122.1264
        41.000          37.000
 120169765.55147  93638774.92447  22867547.4564   22867549.6414   22867547.6864
        48.000          42.000
 109933147.49547  85662186.85647  20919585.9894   20919587.9974   20919585.6714
        54.000          49.000
 118280124.41847  92166331.24947  22507959.6764   22507961.5094   22507960.0694
        50.000          43.000
 106729662.42347  83165965.31847  20309983.7164   20309985.7994   20309984.0524
        54.000          49.000
 129706559.13247 101070028.46047  24682354.0684   24682356.2144   24682353.3824
        40.000          36.000
 09  1 11  1 45 30.0000000  0 11G22G 5G30G 6G24G29G14G31G18G21G12
 120801922.18347  94131365.60447  22987843.3134   22987843.5364   22987843.3694
        50.000          43.000
 123716041.30847  96402088.98747  23542396.7744   23542400.5944   23542397.3224
        45.000          39.000
 118591467.39647  92408929.65747  22567209.5234   22567212.1654   22567209.1254
        50.000          43.000
 135037825.47847  87432061.75247  23793914.0714   23793918.5374   23793914.0014
        44.000          38.000
 124418736.71547  96949644.41347  23676112.8974   23676118.7684   23676113.1184
        44.000          39.000
 129099841.15547 100597262.28547  24566894.6434   24566898.4754   24566894.2654
        40.000          37.000
 120210947.94947  93670865.11847  22875383.9074   22875386.5614   22875384.1264
        48.000          42.000
 109879338.57947  85620257.86247  20909346.6284   20909348.4354   20909346.2654
        54.000          49.000
 118243928.23747  92138126.42447  22501071.6864   22501073.4424   22501072.0784
        49.000          43.000
 106777592.82847  83203313.68747  20319104.5704   20319106.7214   20319104.9234
        54.000          49.000
 129731862.07247 101089745.01847  24687167.5544   24687171.3414   24687168.6104
        41.000          35.000
 09  1 11  1 46  0.0000000  0 11G22G 5G30G 6G24G29G14G31G18G21G12
 120748815.47947  94089983.77447  22977737.1784   22977737.3744   22977737.3954
        49.000          43.000
 123729523.13847  96412594.37347  23544962.5164   23544965.9924   23544963.2354
        46.000          39.000
 118573469.45847  92394905.30447  22563784.5144   22563787.6104   22563784.0454
        50.000          43.000
 135028640.81747  87424904.89047  23792166.4004   23792170.6494   23792166.8904
        44.000          38.000
 124512292.89647  97022545.19847  23693915.8734   23693921.7724   23693916.2054
        43.000          39.000
 129156233.81347 100641204.94047  24577625.4914   24577629.4634   24577624.9124
        42.000          38.000
 120252127.31847  93702952.96347  22883220.5094   22883222.6604   22883220.5124
        48.000          42.000
 109826038.32047  85578725.22347  20899203.7734   20899205.6094   20899203.3874
        54.000          49.000
 118207813.65147  92109985.18347  22494199.3774   22494200.9644   22494199.8204
        50.000          43.000
 106826077.10347  83241093.64247  20328330.8514   20328332.9174   20328331.3424
        54.000          48.000
 129757442.39247 101109677.78847  24692035.9074   24692038.1254   24692036.1434
        40.000          35.000
 09  1 11  1 46 30.0000000  0 11G22G 5G30G 6G24G29G14G31G18G21G12
 120695601.44847  94048518.31547  22967610.6344   22967611.1664   22967610.6044
        49.000          42.000
 123743328.46547  96423351.84047  23547589.2474   23547593.2774   23547589.9964
        45.000          39.000
 118555684.39047  92381046.82147  22560400.1104   22560403.1534   22560399.7694
        50.000          43.000
 135019617.70947  87417873.92547  23790448.7484   23790453.9434   23790449.1284
        43.000          38.000
 124606047.69247  97095600.75647  23711756.9944   23711763.3794   23711756.9574
        44.000          38.000
 129212405.89547 100684975.62247  24588314.4214   24588318.4354   24588314.4094
        41.000          37.000
 120293303.68747  93735038.47647  22891055.7714   22891057.9494   22891056.1404
        47.000          42.000
 109773250.42547  85537591.82647  20889158.5984   20889160.3014   20889158.1394
        54.000          49.000
 118171785.73647  92081911.49247  22487343.3554   22487345.3504   22487343.8204
        49.000          43.000
 106875115.71347  83279305.54947  20337662.6134   20337664.4604   20337662.9664
        55.000          49.000
 129783303.17547 101129829.04947  24696957.3754   24696959.3944   24696956.6864
        40.000          35.000
 09  1 11  1 47  0.0000000  0 11G22G 5G30G 6G24G29G14G31G18G21G12
 120642281.24947  94006970.12847  22957464.2154   22957464.6984   22957464.1944
        49.000          42.000
 123757457.77447  96434361.74547  23550277.6444   23550281.8164   23550278.0934
        45.000          39.000
 118538113.76047  92367355.44647  22557056.4474   22557059.6124   22557056.2134
        50.000          43.000
 135010753.40147  87410966.68547  23788762.2054   23788767.2324   23788761.5614
        44.000          38.000
 124699997.53147  97168808.29747  23729635.3374   23729641.1324   23729635.4664
        44.000          38.000
 129268357.32647 100728574.51347  24598961.5884   24598965.1714   24598961.3084
        38.000          37.000
 120334473.61547  93767118.94947  22898889.9924   22898892.4124   22898890.2394
        48.000          42.000
 109720975.84547  85496858.42447  20879211.0614   20879212.8184   20879210.7204
        54.000          49.000
 118135845.34747  92053905.99347  22480504.2854   22480506.1334   22480504.6674
        50.000          43.000
 106924705.62147  83317947.03747  20347099.3764   20347101.1734   20347099.8444
        55.000          49.000
 129809444.48247 101150198.92247  24701932.1914   24701933.9684   24701932.1904
        41.000          35.000
 09  1 11  1 47 30.0000000  0 11G22G 5G30G 6G24G29G14G31G18G21G12
 120588855.61047  93965339.76947  22947297.8704   22947297.9554   22947297.7554
        49.000          43.000
 123771912.11447  96445624.93447  23553028.8624   23553031.8974   23553029.1194
        45.000          39.000
 118520759.45747  92353832.62847  22553753.7024   22553756.8534   22553753.2794
        50.000          43.000
 135002046.05747  87404181.75847  23787105.7624   23787110.7594   23787105.6454
        44.000          38.000
 124794139.67047  97242165.69147  23747550.2374   23747555.5214   23747550.1974
        45.000          38.000
 129324086.65047 100772000.60847  24609565.6904   24609570.3984   24609565.3614
        40.000          37.000
 120375634.43347  93799192.32747  22906722.9544   22906725.1634   22906723.3664
        48.000          42.000
 109669216.01747  85456526.12347  20869361.4844   20869363.3194   20869361.0974
        54.000          49.000
 118099994.85047  92025970.54247  22473682.2434   22473684.2194   22473682.8624
        50.000          43.000
 106974844.83947  83357016.55547  20356640.4974   20356642.3704   20356640.8104
        55.000          49.000
 129835867.25147 101170788.11547  24706959.8194   24706961.1264   24706959.0644
        39.000          35.000
 09  1 11  1 48  0.0000000  0 11G22G 5G30G 6G24G29G14G31G18G21G12
 120535331.49647  93923632.67847  22937112.4374   22937112.5424   22937112.3674
        49.000          42.000
 123786697.71847  96457146.23047  23555841.6404   23555845.5384   23555841.8694
        44.000          39.000
 118503628.59347  92340483.92647  22550494.1814   22550496.8914   22550494.1024
        50.000          43.000
 134993498.71047  87397521.50447  23785479.1844   23785483.6864   23785479.0614
        44.000          38.000
 124888476.55747  97315674.81747  23765502.0504   23765507.3334   23765501.9564
        45.000          38.000
 129379597.90347 100815256.61347  24620128.2524   24620132.7334   24620128.3984
        41.000          37.000
 120416788.83747  93831260.71747  22914554.1504   22914556.4314   22914554.5494
        47.000          42.000
 109617977.53247  85416600.05947  20859611.1154   20859612.9224   20859610.5994
        54.000          49.000
 118064241.70547  91998110.93847  22466878.8444   22466880.4634   22466879.4274
        50.000          43.000
 107025536.33947  83396516.42447  20366286.9224   20366288.5084   20366287.4794
        55.000          48.000
 129862577.17647 101191601.06947  24712042.0694   24712046.3254   24712041.0644
        41.000          36.000
 09  1 11  1 48 30.0000000  0 11G22G 5G30G 6G24G29G14G31G18G21G12
 120481702.00847  93881843.49447  22926907.1864   22926907.3444   22926906.9364
        49.000          43.000
 123801807.52947  96468920.15547  23558717.4254   23558720.9744   23558717.8404
        45.000          39.000
 118486714.82747  92327304.39547  22547275.6024   22547278.4674   22547275.2514
        50.000          43.000
 134985101.41947  87390978.16647  23783880.8054   23783885.4794   23783880.8334
        43.000          38.000
 124982997.71247  97389327.51347  23783488.6904   23783494.5324   23783488.9704
        44.000          38.000
 129434882.01147 100858335.56247  24630648.5484   24630652.4994   24630648.4654
        39.000          37.000
 120457925.93347  93863315.62047  22922382.2074   22922384.7264   22922382.2834
        47.000          42.000
 109567253.73547  85377075.05447  20849958.8054   20849960.5044   20849958.5184
        54.000          49.000
 118028579.63347  91970322.31447  22460092.1574   22460094.0664   22460092.3594
        50.000          43.000
 107076769.48947  83436438.36447  20376036.0264   20376037.8994   20376036.2914
        55.000          48.000
 129889566.65547 101212631.86547  24717177.4634   24717181.2074   24717177.0834
        40.000          36.000
