     2.11           OBSERVATION DATA    G (GPS)             RINEX VERSION / TYPE
teqc  2008Oct2      gpsops              20090104 00:09:08UTCPGM / RUN BY / DATE
    30.0000                                                 INTERVAL
     1     1                                                WAVELENGTH FACT L1/2
     7    L1    L2    P1    P2    C1    S1    S2            # / TYPES OF OBSERV
Linux 2.4.20-8|Pentium IV|gcc -static|Linux|486/DX+         COMMENT
     2.10           OBSERVATION DATA    GPS                 COMMENT
soc2rnx ver 1.20    gpsops               4-Jan-2009 00:09:01COMMENT
S1, if present, is the SNR for the C/A data stream on L1.   COMMENT
 SNR is mapped to RINEX snr flag value [1,4-9]              COMMENT
    SNR:   >316  >100  >31.6  >10  >3.2    >0 bad=0         COMMENT
L1 & L2:      9     8     7     6     5     4     1         COMMENT
                                                            COMMENT
This data is provided as a public service by NASA/JPL.      COMMENT
No warranty is expressed or implied regarding suitability   COMMENT
for use.  For further information, contact:                 COMMENT
Dave Stowers, NASA/JPL m/s 238-600                          COMMENT
4800 Oak Grove Drive, Pasadena CA 91109 USA                 COMMENT
                                                            COMMENT
Forced Modulo Decimation to 30 seconds                      COMMENT
  2009     1     3     0     0    0.0000000     GPS         TIME OF FIRST OBS
GGN                 JPL                                     OBSERVER / AGENCY
CR519992104         ASH701945B_M    SCIT                    ANT # / TYPE
   -33801.4662 -6377516.5323   -82154.3508                  APPROX POSITION XYZ
        0.0083        0.0000        0.0000                  ANTENNA: DELTA H/E/N
ZR220013847         ASHTECH UZ-12       CQ00                REC # / TYPE / VERS
GLPS                                                        MARKER NAME
42005M002                                                   MARKER NUMBER
                                                            END OF HEADER
 09  1  3  0  0  0.0000000  0 10G 5G30G24G14G29G21G18G12G 9G22
 125589553.81847  97861971.52247  23898907.8704   23898915.0474   23898909.0094
        46.000          39.000
 124083205.33747  96688189.28847  23612265.5604   23612270.1914   23612265.3374
        46.000          40.000
 112532215.83947  87687430.58047  21414176.7164   21414181.2554   21414176.9144
        54.000          47.000
 117286644.67347  91392175.68747  22318918.2254   22318921.6484   22318917.9854
        49.000          43.000
 110194092.55647  85865518.61847  20969245.4194   20969248.1264   20969244.7894
        53.000          48.000
 114549426.46547  89259282.41647  21798037.7684   21798039.4924   21798038.1584
        52.000          45.000
 124892379.78747  97318728.00047  23766238.4744   23766241.0524   23766238.8024
        45.000          39.000
 127770965.81347  99561764.64647  24314025.6644   24314030.1194   24314025.4224
        44.000          38.000
 112682222.50547  87804304.02747  21442735.0024   21442738.5794   21442735.1554
        53.000          47.000
 128252479.02547  99937002.14747  24405629.5824   24405632.7954   24405629.8164
        43.000          37.000
 09  1  3  0  0 30.0000000  0 10G 5G30G24G14G29G21G18G12G 9G22
 125586441.14247  97859546.08047  23898316.5174   23898322.6374   23898317.0994
        46.000          39.000
 124082246.78347  96687442.40847  23612083.0944   23612088.2444   23612083.0094
        46.000          40.000
 112515956.36847  87674760.86247  21411082.5864   21411087.0954   21411082.7744
        54.000          47.000
 117243157.29147  91358289.45347  22310642.1864   22310645.9454   22310642.3504
        48.000          43.000
 110247971.66947  85907502.34247  20979497.9144   20979501.1324   20979497.4454
        53.000          48.000
 114466684.02847  89194807.79947  21782292.4074   21782294.2344   21782292.8564
        52.000          45.000
 124893880.50747  97319897.42347  23766523.6464   23766526.4474   23766523.9264
        46.000          39.000
 127782215.21847  99570530.49247  24316166.0854   24316171.2794   24316166.0944
        42.000          38.000
 112690228.25447  87810542.28147  21444258.5134   21444262.4484   21444258.5964
        53.000          47.000
 128251629.43047  99936340.21547  24405468.7064   24405471.0904   24405467.9344
        43.000          37.000
 09  1  3  0  1  0.0000000  0 10G 5G30G24G14G29G21G18G12G 9G22
 125583153.08847  97856983.97947  23897690.4304   23897696.4024   23897690.9324
        46.000          39.000
 124081065.61647  96686522.07347  23611858.6624   23611863.4384   23611858.4594
        46.000          40.000
 112500071.05547  87662382.70047  21408059.7324   21408064.3754   21408059.8664
        54.000          47.000
 117200142.20547  91324771.24647  22302456.6624   22302460.8254   22302457.1524
        49.000          43.000
 110302196.07847  85949755.12347  20989816.4334   20989819.4934   20989816.2644
        53.000          48.000
 114384087.63547  89130446.98847  21766574.7084   21766576.6204   21766575.0624
        52.000          45.000
 124895175.28847  97320906.36747  23766770.2564   23766772.7364   23766770.8164
        46.000          39.000
 127793297.43147  99579166.07547  24318274.1044   24318279.8224   24318273.7304
        43.000          38.000
 112698742.86047  87817177.05947  21445878.8324   21445882.7274   21445878.9344
        53.000          47.000
 128250663.40147  99935587.55747  24405286.0314   24405287.2324   24405285.5094
        43.000          37.000
 09  1  3  0  1 30.0000000  0 10G 5G30G24G14G29G21G18G12G 9G22
 125579689.41647  97854285.03747  23897031.6194   23897037.4164   23897032.4784
        46.000          39.000
 124079660.80947  96685427.47447  23611590.8464   23611595.8694   23611590.8484
        46.000          39.000
 112484560.53347  87650296.57647  21405108.1054   21405112.8774   21405108.1304
        53.000          47.000
 117157598.54347  91291620.37347  22294361.0634   22294364.4824   22294361.2124
        49.000          43.000
 110356761.76847  85992273.84047  21000199.9604   21000203.0924   21000199.6104
        53.000          48.000
 114301639.17247  89066201.44147  21750885.5124   21750887.2514   21750885.9334
        52.000          45.000
 124896262.24947  97321753.37447  23766977.2244   23766979.6594   23766977.4294
        46.000          39.000
 127804212.48047  99587671.40647  24320351.7384   24320357.1104   24320351.3914
        44.000          38.000
 112707766.44247  87824208.43147  21447595.9044   21447599.8624   21447595.9614
        53.000          47.000
 128249578.30347  99934742.09647  24405078.5054   24405080.3474   24405078.7694
        44.000          38.000
 09  1  3  0  2  0.0000000  0 10G 5G30G24G14G29G21G18G12G 9G22
 125576053.04147  97851451.51147  23896339.5694   23896345.6434   23896339.9674
        45.000          39.000
 124078034.45347  96684160.23447  23611281.1734   23611286.1314   23611281.3734
        46.000          39.000
 112469428.47647  87638505.35847  21402228.6044   21402233.3064   21402228.6744
        53.000          47.000
 117115528.83647  91258838.81347  22286355.6194   22286358.7164   22286355.9494
        49.000          43.000
 110411668.32747  86035058.16447  21010648.2804   21010651.7374   21010648.0234
        53.000          48.000
 114219343.43747  89002074.90147  21735224.9784   21735226.6834   21735225.5494
        53.000          46.000
 124897142.44047  97322439.25247  23767144.3894   23767147.1024   23767144.6074
        45.000          39.000
 127814962.80747  99596048.39147  24322397.4064   24322403.0334   24322397.5774
        43.000          38.000
 112717301.90747  87831638.68147  21449410.3614   21449414.2854   21449410.5384
        53.000          47.000
 128248374.61847  99933804.23447  24404849.9614   24404851.9934   24404850.3334
        44.000          37.000
 09  1  3  0  2 30.0000000  0 10G 5G30G24G14G29G21G18G12G 9G22
 125572245.12347  97848484.32547  23895615.0304   23895620.9504   23895615.1624
        46.000          39.000
 124076186.68047  96682720.45447  23610930.0074   23610934.2914   23610929.8874
        46.000          40.000
 112454676.70547  87627010.46747  21399421.5314   21399426.1964   21399421.6404
        53.000          47.000
 117073933.42147  91226426.83747  22278439.9074   22278443.7224   22278439.9614
        49.000          43.000
 110466913.24047  86078106.14047  21021161.0794   21021164.3564   21021160.7224
        53.000          48.000
 114137203.83447  88938070.03047  21719594.3694   21719596.3294   21719594.7044
        52.000          46.000
 124897815.77047  97322963.95547  23767272.4324   23767275.1214   23767272.6854
        45.000          39.000
 127825550.19247  99604298.42147  24324412.1764   24324417.5424   24324411.6034
        44.000          38.000
 112727350.36947  87839468.67447  21451322.6994   21451326.5214   21451322.7914
        53.000          47.000
 128247051.20947  99932773.07947  24404597.4944   24404599.5644   24404597.7224
        44.000          37.000
 09  1  3  0  3  0.0000000  0 10G 5G30G24G14G29G21G18G12G 9G22
 125568265.28547  97845383.18147  23894857.5484   23894863.5424   23894858.3074
        46.000          39.000
 124074116.26747  96681107.18947  23610536.0454   23610540.7954   23610536.0434
        46.000          40.000
 112440305.93047  87615812.46647  21396686.8444   21396691.4004   21396686.9054
        54.000          47.000
 117032811.75147  91194383.99847  22270614.8844   22270618.5404   22270615.1554
        49.000          43.000
 110522492.24747  86121414.45147  21031737.5934   21031740.5784   21031737.4194
        53.000          48.000
 114055221.81747  88874187.95847  21703993.4084   21703995.5824   21703993.9044
        52.000          45.000
 124898279.87847  97323325.62347  23767360.8184   23767362.9574   23767361.1154
        46.000          39.000
 127835973.89747  99612420.91747  24326395.6264   24326400.3404   24326395.5544
        42.000          38.000
 112737911.29647  87847697.98347  21453332.3714   21453336.1994   21453332.5564
        53.000          47.000
 128245604.95747  99931646.18647  24404322.7234   24404324.4054   24404322.5624
        44.000          37.000
 09  1  3  0  3 30.0000000  0 10G 5G30G24G14G29G21G18G12G 9G22
 125564115.59047  97842149.68447  23894067.9564   23894073.7644   23894068.1834
        45.000          39.000
 124071824.31147  96679321.29947  23610099.5194   23610104.6064   23610099.2404
        46.000          40.000
 112426318.91747  87604913.49547  21394025.3074   21394029.5974   21394025.4524
        54.000          47.000
 116992165.01647  91162711.24747  22262880.2064   22262883.6424   22262880.2894
        49.000          43.000
 110578403.84747  86164981.92847  21042376.9164   21042380.2944   21042376.5174
        53.000          48.000
 113973401.48247  88810431.87947  21688423.5144   21688425.9224   21688423.9604
        52.000          46.000
 124898535.15347  97323524.56147  23767409.0994   23767411.9574   23767409.7684
        46.000          39.000
 127846235.57647  99620417.13347  24328348.0194   24328352.5764   24328347.2714
        43.000          38.000
 112748987.01747  87856328.43847  21455440.0474   21455443.8594   21455440.2954
        53.000          47.000
 128244035.15447  99930423.03047  24404024.2234   24404026.2874   24404024.0344
        42.000          37.000
 09  1  3  0  4  0.0000000  0 10G 5G30G24G14G29G21G18G12G 9G22
 125559796.66747  97838784.32647  23893245.6874   23893251.6604   23893246.7324
        46.000          39.000
 124069310.80847  96677362.76747  23609621.4404   23609625.8544   23609621.2534
        47.000          40.000
 112412717.11347  87594314.67747  21391436.8804   21391441.3274   21391436.9654
        53.000          47.000
 116951993.22947  91131408.59947  22255235.4634   22255239.3814   22255235.5634
        49.000          43.000
 110634644.81847  86208806.05247  21053079.3114   21053082.6824   21053079.1264
        53.000          48.000
 113891745.51347  88746803.86847  21672884.9844   21672887.1654   21672885.2904
        52.000          45.000
 124898580.88047  97323560.20847  23767418.0234   23767420.8204   23767418.9034
        46.000          39.000
 127856336.23147  99628287.85447  24330269.9764   24330275.1954   24330269.6544
        43.000          38.000
 112760577.61747  87865360.10047  21457645.6544   21457649.2744   21457645.6924
        53.000          47.000
 128242339.95347  99929102.15747  24403700.8364   24403703.3584   24403701.0544
        44.000          37.000
 09  1  3  0  4 30.0000000  0 10G 5G30G24G14G29G21G18G12G 9G22
 125555310.01147  97835288.28247  23892392.0464   23892398.0204   23892392.7484
        45.000          39.000
 124066576.24047  96675231.98447  23609101.4254   23609105.2374   23609101.5354
        47.000          40.000
 112399502.77947  87584017.78847  21388922.2694   21388926.7214   21388922.2724
        53.000          47.000
 116912297.35147  91100476.78347  22247681.5904   22247685.3264   22247681.6094
        48.000          43.000
 110691213.03047  86252885.16747  21063844.1434   21063847.1554   21063843.8524
        53.000          48.000
 113810257.31247  88683306.57347  21657378.2484   21657380.4124   21657378.5004
        52.000          45.000
 124898417.20947  97323432.69547  23767386.8054   23767389.2404   23767387.7514
        46.000          39.000
 127866277.83847  99636034.68747  24332161.3194   24332166.7174   24332161.0454
        43.000          38.000
 112772684.86447  87874794.35147  21459949.6074   21459953.0374   21459949.6654
        53.000          47.000
 128240518.38847  99927682.84647  24403354.4144   24403355.9044   24403354.8034
        44.000          38.000
 09  1  3  0  5  0.0000000  0 10G 5G30G24G14G29G21G18G12G 9G22
 125550656.69147  97831662.35947  23891506.5954   23891512.4814   23891506.7294
        46.000          39.000
 124063620.74047  96672929.02247  23608538.6604   23608543.2124   23608538.6084
        47.000          40.000
 112386677.59747  87574024.15147  21386481.6584   21386486.1834   21386481.6954
        53.000          47.000
 116873077.40347  91069915.83447  22240218.3924   22240222.0674   22240218.7364
        49.000          43.000
 110748105.62047  86297217.04447  21074670.2594   21074673.5184   21074669.9634
        53.000          48.000
 113728939.86647  88619942.33947  21641904.0394   21641906.1794   21641904.4944
        52.000          45.000
 124898043.00947  97323141.16547  23767315.6724   23767318.3824   23767316.2364
        45.000          39.000
 127876061.27547  99643658.25347  24334022.8424   24334028.4784   24334022.5334
        42.000          38.000
 112785309.40947  87884631.69247  21462351.6274   21462355.4784   21462351.7324
        53.000          47.000
 128238568.78447  99926163.74047  24402983.5154   24402986.1784   24402983.6204
        43.000          38.000
 09  1  3  0  5 30.0000000  0 10G 5G30G24G14G29G21G18G12G 9G22
 125545836.48447  97827906.40947  23890589.2814   23890595.1454   23890589.8224
        45.000          39.000
 124060443.35247  96670453.17747  23607933.7034   23607938.5544   23607933.7194
        47.000          40.000
 112374242.00547  87564334.09247  21384115.0664   21384119.8434   21384115.2094
        53.000          47.000
 116834332.87147  91039725.32947  22232845.3304   22232849.0594   22232845.4414
        49.000          43.000
 110805318.94547  86341798.84847  21085557.7924   21085560.8114   21085557.6384
        53.000          48.000
 113647795.14147  88556712.70047  21626462.6424   21626464.6374   21626463.1974
        52.000          46.000
 124897456.42847  97322684.11647  23767204.0924   23767206.3174   23767204.3134
        46.000          39.000
 127885685.84347  99651158.07947  24335853.9734   24335859.6094   24335853.6274
        43.000          38.000
 112798450.76147  87894871.73547  21464852.5464   21464856.0124   21464852.5734
        53.000          47.000
 128236488.21647  99924542.56447  24402587.1434   24402589.0244   24402587.2804
        44.000          38.000
 09  1  3  0  6  0.0000000  0 10G 5G30G24G14G29G21G18G12G 9G22
 125540852.82147  97824023.09247  23889640.6624   23889646.9404   23889641.2444
        45.000          39.000
 124057046.68147  96667806.45747  23607287.7684   23607291.9134   23607287.4624
        47.000          40.000
 112362199.97647  87554950.69247  21381823.6644   21381828.3704   21381823.7464
        53.000          47.000
 116796066.44947  91009907.38947  22225563.5464   22225567.0934   22225563.8454
        49.000          43.000
 110862852.34047  86386630.05247  21096505.8804   21096508.9864   21096505.5054
        53.000          48.000
 113566828.64247  88493621.92947  21611055.2844   21611057.3724   21611055.6854
        52.000          46.000
 124896659.16447  97322062.90547  23767052.4024   23767054.3514   23767053.0024
        47.000          39.000
 127895155.03947  99658536.77947  24337655.8124   24337661.6734   24337655.1944
        43.000          38.000
 112812112.22947  87905517.05647  21467452.0134   21467455.8404   21467452.0544
        53.000          47.000
 128234278.73747  99922820.96947  24402167.0014   24402168.9744   24402166.2214
        43.000          37.000
 09  1  3  0  6 30.0000000  0 10G 5G30G24G14G29G21G18G12G 9G22
 125535705.44247  97820012.20147  23888660.9424   23888667.5104   23888661.4824
        45.000          39.000
 124053429.27347  96664987.73347  23606599.3654   23606603.7494   23606599.1164
        47.000          40.000
 112350551.81947  87545874.21447  21379606.9804   21379611.6674   21379607.0254
        53.000          47.000
 116758276.55747  90980460.77147  22218372.1064   22218375.7354   22218372.1234
        49.000          43.000
 110920701.63547  86431707.40947  21107514.2264   21107517.3664   21107514.0354
        53.000          48.000
 113486041.87447  88430671.21447  21595682.0944   21595684.2604   21595682.5634
        52.000          46.000
 124895649.72147  97321276.35647  23766860.6904   23766862.5464   23766860.9944
        46.000          39.000
 127904468.87447  99665794.43147  24339428.4954   24339433.9954   24339428.4894
        43.000          38.000
 112826293.05447  87916567.08147  21470150.6404   21470154.4114   21470150.9084
        53.000          47.000
 128231936.68747  99920996.04647  24401721.2484   24401723.4684   24401720.5724
        44.000          37.000
 09  1  3  0  7  0.0000000  0 10G 5G30G24G14G29G21G18G12G 9G22
 125530395.77847  97815874.86247  23887650.8884   23887656.6994   23887650.9954
        45.000          39.000
 124049591.92447  96661997.61947  23605869.2074   23605873.5504   23605868.7974
        48.000          40.000
 112339299.77847  87537106.39447  21377466.1614   21377470.3564   21377466.2604
        54.000          47.000
 116720963.94847  90951386.06847  22211271.9084   22211275.1344   22211272.2284
        50.000          43.000
 110978864.71747  86477029.27447  21118582.2544   21118585.3814   21118581.9154
        53.000          48.000
 113405438.44647  88367863.36347  21580343.6024   21580345.8864   21580344.0004
        52.000          45.000
 124894427.90747  97320324.30847  23766627.5804   23766629.6384   23766627.6994
        46.000          39.000
 127913629.07047  99672932.35147  24341171.5524   24341177.3224   24341171.3534
        42.000          38.000
 112840994.35247  87928022.65847  21472948.2084   21472951.8184   21472948.2634
        53.000          47.000
 128229461.19547  99919067.16347  24401250.6064   24401251.6614   24401250.1094
        45.000          37.000
 09  1  3  0  7 30.0000000  0 10G 5G30G24G14G29G21G18G12G 9G22
 125524924.58847  97811611.66847  23886609.6454   23886615.9154   23886609.7784
        45.000          39.000
 124045534.21247  96658835.81147  23605097.7474   23605101.4964   23605097.2544
        47.000          40.000
 112328444.81547  87528647.99247  21375400.5684   21375404.8604   21375400.7674
        54.000          47.000
 116684128.57247  90922683.22047  22204262.6154   22204265.7284   22204262.7254
        50.000          43.000
 111037338.34847  86522593.12447  21129709.4194   21129712.6614   21129709.0944
        53.000          48.000
 113325020.82147  88305200.29947  21565040.6794   21565042.8114   21565041.0634
        52.000          46.000
 124892992.75547  97319206.02847  23766354.2294   23766356.8084   23766354.9484
        46.000          39.000
 127922635.99647  99679950.80747  24342885.1554   24342890.9804   24342884.8334
        42.000          38.000
 112856216.66147  87939884.22747  21475844.8604   21475848.4514   21475844.9214
        53.000          47.000
 128226850.38847  99917032.79847  24400753.4954   24400755.2024   24400753.6734
        44.000          38.000
 09  1  3  0  8  0.0000000  0 10G 5G30G24G14G29G21G18G12G 9G22
 125519293.07147  97807223.54247  23885537.8154   23885544.2394   23885538.1004
        45.000          39.000
 124041256.55847  96655502.60547  23604282.9934   23604287.7784   23604282.3704
        47.000          40.000
 112317989.09347  87520500.67447  21373410.8714   21373415.1534   21373411.0804
        53.000          47.000
 116647770.67747  90894352.44647  22197343.6434   22197347.0424   22197343.9314
        49.000          43.000
 111096119.93447  86568396.94347  21140895.1844   21140898.4354   21140895.0304
        53.000          48.000
 113244792.16947  88242684.47847  21549773.7914   21549775.9304   21549774.2424
        52.000          46.000
 124891344.33747  97317921.56647  23766041.0334   23766043.2444   23766041.7014
        46.000          39.000
 127931490.86047  99686850.78847  24344570.1074   24344576.0254   24344569.4934
        43.000          38.000
 112871960.61647  87952152.26547  21478840.9064   21478844.5554   21478841.0134
        53.000          47.000
 128224102.61647  99914891.74047  24400230.4264   24400232.2464   24400229.9994
        44.000          37.000
 09  1  3  0  8 30.0000000  0 10G 5G30G24G14G29G21G18G12G 9G22
 125513501.51647  97802710.69947  23884435.6914   23884441.7664   23884436.4954
        46.000          39.000
 124036758.73147  96651997.84447  23603426.9844   23603432.3604   23603426.1844
        47.000          40.000
 112307933.11347  87512664.85247  21371496.9814   21371501.5064   21371497.0574
        53.000          47.000
 116611889.56747  90866393.19847  22190515.6984   22190519.0014   22190516.1054
        50.000          43.000
 111155205.90647  86614437.95347  21152138.9344   21152141.9864   21152138.6114
        53.000          48.000
 113164754.74547  88180317.66947  21534543.1094   21534545.1964   21534543.5564
        52.000          46.000
 124889480.71147  97316469.41647  23765686.0744   23765688.9554   23765686.5784
        45.000          39.000
 127940194.03247  99693632.55447  24346226.3654   24346232.4834   24346226.3364
        42.000          38.000
 112888226.13047  87964826.71447  21481936.1054   21481939.8664   21481936.2464
        53.000          46.000
 128221215.88047  99912642.37347  24399680.7264   24399682.5574   24399680.4784
        43.000          37.000
 09  1  3  0  9  0.0000000  0 10G 5G30G24G14G29G21G18G12G 9G22
 125507553.19047  97798075.69647  23883303.8004   23883310.0364   23883304.6614
        45.000          39.000
 124032043.02147  96648323.28447  23602529.9254   23602534.5024   23602529.4344
        47.000          40.000
 112298280.65547  87505143.46047  21369660.1414   21369664.8574   21369660.1814
        53.000          47.000
 116576487.57747  90838807.27747  22183779.0034   22183782.3874   22183778.8694
        49.000          43.000
 111214595.46147  86660715.51147  21163440.6024   21163443.4244   21163440.2694
        53.000          48.000
 113084913.85847  88118104.00847  21519350.0194   21519352.3244   21519350.4994
        53.000          46.000
 124887403.26847  97314850.63147  23765290.5254   23765293.6394   23765290.8884
        46.000          39.000
 127948748.78947  99700298.66647  24347854.1604   24347860.1074   24347853.9324
        43.000          38.000
 112905016.06547  87977909.80347  21485130.9954   21485134.9034   21485131.0834
        53.000          47.000
 128218191.15147  99910285.47747  24399105.1744   24399107.2504   24399105.3334
        44.000          38.000
 09  1  3  0  9 30.0000000  0 10G 5G30G24G14G29G21G18G12G 9G22
 125501448.41947  97793318.81147  23882142.0324   23882148.2794   23882142.4504
        45.000          39.000
 124027108.65047  96644478.35647  23601590.3724   23601595.3084   23601590.3064
        46.000          40.000
 112289032.69847  87497937.25447  21367900.3124   21367904.8484   21367900.3824
        53.000          47.000
 116541564.19647  90811594.30847  22177133.3534   22177136.3864   22177133.5694
        49.000          43.000
 111274285.39747  86707227.13347  21174799.0934   21174802.2354   21174798.7634
        53.000          48.000
 113005271.91547  88056045.36047  21504194.5764   21504196.7914   21504194.9014
        52.000          46.000
 124885111.31147  97313064.71647  23764854.5334   23764857.2274   23764855.1794
        46.000          40.000
 127957155.42347  99706849.34147  24349454.2174   24349459.8254   24349453.9814
        44.000          38.000
 112922330.14847  87991401.31047  21488425.8634   21488429.5054   21488425.8914
        53.000          47.000
 128215026.32747  99907819.43147  24398503.1464   24398504.7624   24398504.0524
        44.000          38.000
 09  1  3  0 10  0.0000000  0 10G 5G30G24G14G29G21G18G12G 9G22
 125495186.52647  97788439.47547  23880950.5194   23880956.3834   23880950.4074
        46.000          39.000
 124021954.02347  96640461.77247  23600609.4814   23600614.6414   23600609.0294
        46.000          40.000
 112280189.05347  87491046.11047  21366217.5894   21366222.1534   21366217.8114
        53.000          47.000
 116507117.37047  90784752.68447  22170577.9534   22170581.2604   22170577.9874
        49.000          43.000
 111334270.63247  86753968.84947  21186214.0364   21186217.0674   21186213.8224
        53.000          48.000
 112925829.98447  87994142.57247  21489077.1004   21489079.3754   21489077.5784
        52.000          46.000
 124882602.32547  97311109.68247  23764377.4084   23764379.8064   23764377.7804
        46.000          40.000
 127965413.22447  99713284.06347  24351025.7394   24351030.2504   24351025.7094
        44.000          38.000
 112940166.80247  88005300.02747  21491820.2324   21491823.7594   21491820.4304
        53.000          47.000
 128211718.20947  99905241.72747  24397873.1684   24397875.4404   24397873.5514
        44.000          37.000
 09  1  3  0 10 30.0000000  0 10G 5G30G24G14G29G21G18G12G 9G22
 125488772.77747  97783441.82547  23879729.8734   23879736.0104   23879730.7634
        46.000          39.000
 124016583.78847  96636277.18247  23599587.1084   23599592.8124   23599586.8404
        46.000          40.000
 112271755.26147  87484474.32447  21364612.5904   21364617.3204   21364612.6184
        53.000          47.000
 116473151.51647  90758285.83447  22164114.5604   22164118.1424   22164114.4504
        49.000          44.000
 111394552.82347  86800941.95947  21197685.2664   21197688.3584   21197685.0684
        53.000          48.000
 112846595.13047  87932401.13947  21473999.1814   21474001.4274   21473999.6164
        52.000          46.000
 124879880.35247  97308988.69447  23763859.0524   23763861.6874   23763859.4504
        46.000          40.000
 127973527.82947  99719607.20447  24352569.8494   24352574.9994   24352569.6434
        43.000          38.000
 112958531.13647  88019609.90947  21495314.6114   21495318.1984   21495314.6634
        53.000          47.000
 128208269.05947  99902554.11947  24397216.8264   24397219.0714   24397217.0644
        43.000          37.000
 09  1  3  0 11  0.0000000  0 10G 5G30G24G14G29G21G18G12G 9G22
 125482203.25847  97778322.79247  23878479.1304   23878485.6944   23878479.8994
        44.000          39.000
 124010993.11447  96631920.82947  23598523.4234   23598528.8164   23598523.6944
        46.000          40.000
 112263727.76847  87478219.13447  21363084.9494   21363089.5264   21363085.0424
        53.000          47.000
 116439661.32747  90732189.63147  22157741.5354   22157744.9004   22157741.7934
        50.000          44.000
 111455124.11747  86848140.37047  21209211.7304   21209214.8134   21209211.3154
        53.000          48.000
 112767565.46547  87870819.60147  21458960.3184   21458962.7764   21458960.7464
        53.000          46.000
 124876939.30847  97306696.99847  23763299.5724   23763301.9964   23763299.8994
        46.000          40.000
 127981494.76747  99725815.25247  24354086.3074   24354091.0094   24354086.1374
        44.000          38.000
 112977418.44547  88034327.31547  21498908.8954   21498912.2014   21498909.1014
        53.000          46.000
 128204672.93447  99899751.99747  24396532.6094   24396534.9494   24396532.3404
        43.000          37.000
 09  1  3  0 11 30.0000000  0 10G 5G30G24G14G29G21G18G12G 9G22
 125475483.51947  97773086.70647  23877200.3204   23877206.8124   23877200.6124
        46.000          39.000
 124005186.70547  96627396.39047  23597418.5144   23597423.5734   23597418.6504
        46.000          40.000
 112256112.23947  87472284.96247  21361635.7644   21361640.3174   21361635.8244
        53.000          47.000
 116406651.41147  90706467.67847  22151459.9284   22151463.1504   22151460.0134
        49.000          44.000
 111515985.61147  86895564.90747  21220793.1224   21220796.2934   21220792.8294
        53.000          48.000
 112688748.43647  87809403.74347  21443962.2694   21443964.4114   21443962.7884
        53.000          46.000
 124873783.27147  97304237.77247  23762699.2054   23762701.4194   23762699.1644
        46.000          39.000
 127989319.72047  99731912.67247  24355575.5514   24355579.8324   24355575.0464
        43.000          38.000
 112996833.53247  88049455.97647  21502603.1014   21502606.6664   21502603.2704
        52.000          46.000
 128200932.58547  99896837.50147  24395820.9384   24395823.0134   24395821.4034
        43.000          38.000
 09  1  3  0 12  0.0000000  0 10G 5G30G24G14G29G21G18G12G 9G22
 125468611.45147  97767731.93747  23875892.6464   23875899.2714   23875892.9114
        45.000          39.000
 123999161.55747  96622701.47447  23596271.7944   23596277.0364   23596271.6854
        46.000          40.000
 112248907.22647  87466670.67147  21360264.8014   21360269.2304   21360264.9194
        53.000          47.000
 116374118.65147  90681117.53547  22145269.0284   22145272.4624   22145269.3034
        49.000          44.000
 111577131.68047  86943211.17947  21232428.9634   21232431.9814   21232428.6634
        53.000          48.000
 112610143.84647  87748153.43747  21429004.0474   21429006.4224   21429004.4214
        53.000          46.000
 124870408.67047  97301608.24147  23762056.9124   23762059.0974   23762057.1224
        46.000          39.000
 127997001.15347  99737898.24947  24357036.9674   24357041.4094   24357036.9544
        43.000          38.000
 113016773.51147  88064993.63847  21506397.8734   21506401.2624   21506398.0404
        53.000          46.000
 128197043.48647  99893807.09147  24395080.3874   24395082.3384   24395080.6764
        44.000          37.000
 09  1  3  0 12 30.0000000  0 10G 5G30G24G14G29G21G18G12G 9G22
 125461591.29147  97762261.77347  23874556.6684   23874563.1384   23874557.1674
        45.000          39.000
 123992921.04047  96617838.74747  23595084.4794   23595089.7044   23595084.0324
        46.000          40.000
 112242116.91047  87461379.51847  21358972.6394   21358977.0244   21358972.8224
        53.000          47.000
 116342065.45247  90656141.07347  22139169.4604   22139172.7374   22139169.5524
        50.000          44.000
 111638562.36247  86991079.22047  21244118.7914   21244121.9964   21244118.5644
        53.000          48.000
 112531757.94547  87687073.53047  21414087.7984   21414089.7294   21414088.3504
        53.000          46.000
 124866818.27347  97298810.54647  23761373.2084   23761375.9944   23761373.6654
        46.000          39.000
 128004543.16647  99743775.18747  24358472.0044   24358476.4814   24358471.1094
        43.000          38.000
 113037241.89947  88080943.05247  21510292.6314   21510296.4384   21510292.6334
        52.000          46.000
 128193006.99647  99890661.83447  24394312.8834   24394314.1964   24394312.6114
        44.000          38.000
 09  1  3  0 13  0.0000000  0 10G 5G30G24G14G29G21G18G12G 9G22
 125454423.22447  97756676.35247  23873192.9764   23873198.8464   23873193.5494
        45.000          39.000
 123986464.76147  96612807.88347  23593855.7774   23593860.8664   23593855.4144
        46.000          40.000
 112235741.81747  87456411.91447  21357759.3954   21357763.9944   21357759.5684
        53.000          47.000
 116310491.21347  90631537.82747  22133161.2124   22133164.4334   22133161.6044
        50.000          44.000
 111700273.70847  87039165.96547  21255862.0884   21255865.3914   21255861.8824
        53.000          48.000
 112453592.43147  87626165.34847  21399213.4444   21399215.0774   21399213.9284
        53.000          46.000
 124863010.28047  97295843.30547  23760648.9454   23760651.1314   23760649.4474
        46.000          39.000
 128011945.35947  99749543.17747  24359880.4594   24359885.5994   24359880.2664
        42.000          38.000
 113058238.61047  88097304.14747  21514288.0974   21514292.0684   21514288.0654
        52.000          46.000
 128188821.24547  99887400.27147  24393515.7754   24393518.2284   24393516.1414
        43.000          37.000
 09  1  3  0 13 30.0000000  0 10G 5G30G24G14G29G21G18G12G 9G22
 125447105.08447  97750974.00047  23871800.4884   23871806.1444   23871800.8614
        45.000          39.000
 123979789.37647  96607606.30047  23592585.6584   23592590.6754   23592585.2634
        46.000          40.000
 112229780.18547  87451766.49747  21356625.0514   21356629.4264   21356625.2094
        53.000          47.000
 116279392.47047  90607305.09847  22127243.3244   22127246.4144   22127243.5464
        50.000          44.000
 111762259.73847  87087466.75847  21267657.5414   21267661.0284   21267657.1144
        53.000          48.000
 112375647.20547  87565428.81347  21384380.8394   21384382.5624   21384381.2424
        53.000          46.000
 124858980.97147  97292703.61047  23759882.2494   23759884.3754   23759882.4674
        46.000          39.000
 128019205.69247  99755200.61747  24361261.9114   24361266.8264   24361262.2984
        43.000          38.000
 113079760.44447  88114074.43247  21518383.6724   21518387.3714   21518383.7544
        52.000          46.000
 128184481.38747  99884018.60047  24392689.8204   24392692.1474   24392689.9694
        44.000          37.000
 09  1  3  0 14  0.0000000  0 10G 5G30G24G14G29G21G18G12G 9G22
 125439644.27947  97745160.48647  23870380.2254   23870386.2844   23870380.9874
        45.000          39.000
 123972901.32147  96602238.96447  23591274.4474   23591280.0234   23591274.2684
        46.000          40.000
 112224239.64347  87447449.19047  21355570.7434   21355575.2004   21355570.7914
        54.000          47.000
 116248775.18847  90583447.52547  22121417.1394   22121419.9964   22121417.4264
        50.000          44.000
 111824524.01647  87135984.37647  21279505.9824   21279509.4464   21279505.9324
        53.000          48.000
 112297931.68847  87504871.28147  21369592.1234   21369594.0944   21369592.4834
        53.000          47.000
 124854736.16547  97289396.00947  23759074.1984   23759076.4944   23759074.6354
        45.000          39.000
 128026331.72547  99760753.43047  24362618.3994   24362622.6304   24362618.2414
        42.000          38.000
 113101813.74347  88131258.84347  21522580.2284   21522583.7684   21522580.2984
        52.000          46.000
 128179991.58947  99880520.12547  24391836.4144   24391837.3674   24391836.2474
        44.000          38.000
 09  1  3  0 14 30.0000000  0 10G 5G30G24G14G29G21G18G12G 9G22
 125432038.81547  97739234.24547  23868932.9704   23868938.7034   23868933.8154
        45.000          39.000
 123965797.90847  96596703.84147  23589923.0554   23589928.2124   23589922.8834
        46.000          40.000
 112219118.57547  87443458.75247  21354596.3034   21354600.8514   21354596.5944
        53.000          47.000
 116218636.12647  90559962.59047  22115681.7174   22115684.6014   22115681.7904
        50.000          44.000
 111887060.35047  87184713.98247  21291406.3744   21291409.5604   21291406.2134
        53.000          48.000
 112220445.36947  87444492.34447  21354847.0174   21354848.9794   21354847.4424
        53.000          46.000
 124850272.55947  97285917.89847  23758224.6904   23758227.2794   23758224.7364
        46.000          39.000
 128033321.66447  99766200.17547  24363947.9254   24363953.2544   24363947.5484
        42.000          38.000
 113124395.86147  88148855.32347  21526877.3094   21526881.1014   21526877.5814
        52.000          46.000
 128175347.72047  99876901.58347  24390951.9234   24390953.4224   24390952.2894
        44.000          37.000
 09  1  3  0 15  0.0000000  0 10G 5G30G24G14G29G21G18G12G 9G22
 125424290.27047  97733196.51947  23867458.8274   23867464.0734   23867458.7054
        45.000          39.000
 123958479.93247  96591001.50947  23588530.5744   23588535.6374   23588530.6264
        47.000          40.000
 112214418.36147  87439796.26147  21353701.6944   21353706.2664   21353701.8154
        53.000          47.000
 116188975.22447  90536850.24247  22110037.3854   22110040.4604   22110037.6964
        51.000          44.000
 111949865.89647  87233653.36547  21303357.9194   21303360.9504   21303357.4494
        53.000          48.000
 112143191.86247  87384294.81747  21340145.9414   21340148.0174   21340146.3274
        53.000          46.000
 124845589.88347  97282269.09047  23757334.0664   23757336.3944   23757334.8154
        45.000          39.000
 128040176.66847  99771541.78547  24365252.3694   24365256.9634   24365251.9314
        43.000          38.000
 113147507.29547  88166864.25147  21531275.2604   21531279.0844   21531275.3824
        52.000          46.000
 128170548.64247  99873162.09947  24390038.8134   24390040.2584   24390039.1424
        44.000          37.000
 09  1  3  0 15 30.0000000  0 10G 5G30G24G14G29G21G18G12G 9G22
 125416398.44547  97727047.14047  23865957.1214   23865962.3024   23865957.5714
        45.000          39.000
 123950946.36347  96585131.18747  23587097.2974   23587101.9344   23587097.1644
        47.000          40.000
 112210139.01347  87436461.71847  21352887.3584   21352891.8674   21352887.5244
        53.000          47.000
 116159790.92547  90514109.27547  22104483.5644   22104486.7364   22104483.8484
        50.000          44.000
 112012936.64747  87282799.39447  21315359.8674   21315363.1034   21315359.6324
        53.000          48.000
 112066173.06447  87324280.17447  21325489.8184   21325491.7274   21325490.0814
        53.000          46.000
 124840686.55447  97278448.34547  23756400.6824   23756403.2424   23756401.0224
        46.000          39.000
 128046897.02347  99776778.47047  24366531.5724   24366536.0714   24366531.4944
        43.000          38.000
 113171146.99747  88185284.81247  21535773.8214   21535777.6994   21535773.8654
        53.000          46.000
 128165591.88847  99869299.73747  24389095.6454   24389096.8274   24389095.8304
        44.000          37.000
 09  1  3  0 16  0.0000000  0 11G 5G30G24G31G14G29G21G18G12G 9G22
 125408366.92047  97720788.92047  23864428.3644   23864433.7494   23864428.7524
        46.000          39.000
 123943199.94447  96579095.00147  23585622.9884   23585627.6494   23585622.1304
        47.000          40.000
 112206284.39247  87433458.12947  21352153.7044   21352158.4394   21352153.8144
        53.000          47.000
 142105299.99557  92939162.59957  25138826.2825   25138832.1525   25138826.2465
        39.000          35.000
 116131085.54147  90491741.49747  22099021.3664   22099024.3594   22099021.5174
        50.000          44.000
 112076272.17747  87332151.73347  21327412.2364   21327415.3924   21327412.1314
        53.000          48.000
 111989394.01547  87264452.35147  21310879.2344   21310881.1624   21310879.6024
        53.000          47.000
 124835564.54547  97274457.17747  23755425.7714   23755428.3834   23755426.1954
        46.000          39.000
 128053485.97147  99781912.76847  24367784.7344   24367789.8324   24367784.5884
        42.000          38.000
 113195317.49647  88204118.99347  21540373.3964   21540377.2564   21540373.4364
        52.000          46.000
 128160478.26047  99865315.13447  24388122.4034   24388124.5764   24388122.5654
        43.000          37.000
 09  1  3  0 16 30.0000000  0 11G 5G30G24G31G14G29G21G18G12G 9G22
 125400196.74147  97714422.64347  23862873.1154   23862879.5564   23862873.6514
        45.000          39.000
 123935240.76047  96572893.03947  23584108.4164   23584112.9654   23584107.0494
        46.000          40.000
 112202855.32347  87430786.13247  21351501.1844   21351505.9894   21351501.2534
        53.000          47.000
 142005067.88447  92861059.82947  25119753.5714   25119758.8334   25119751.8554
        39.000          35.000
 116102858.68347  90469746.58347  22093649.8744   22093652.9624   22093650.1934
        50.000          44.000
 112139869.25347  87381707.88747  21339514.3814   21339517.4244   21339514.0754
        53.000          48.000
 111912857.65147  87204813.64547  21296314.6114   21296316.9894   21296314.9434
        53.000          47.000
 124830223.25147  97270295.15047  23754410.0244   23754411.6394   23754410.3504
        46.000          39.000
 128059944.68647  99786945.58847  24369013.7914   24369018.8694   24369013.0974
        43.000          38.000
 113220018.54947  88223366.58947  21545073.7814   21545077.7324   21545073.9634
        52.000          46.000
 128155206.44247  99861207.28347  24387119.3534   24387120.3714   24387119.1744
        43.000          37.000
 09  1  3  0 17  0.0000000  0 11G 5G30G24G31G14G29G21G18G12G 9G22
 125391888.66847  97707948.93847  23861292.4834   23861298.5444   23861292.7934
        45.000          39.000
 123927068.72547  96566525.22047  23582553.1294   23582557.8364   23582552.6324
        47.000          40.000
 112199852.78147  87428446.48847  21350930.0054   21350934.6504   21350930.0904
        53.000          47.000
 141904710.26247  92782859.29847  25100655.5744   25100659.9074   25100653.3884
        39.000          35.000
 116075109.40847  90448123.82247  22088369.2104   22088372.3734   22088369.2974
        50.000          44.000
 112203724.39547  87431465.13047  21351665.6184   21351668.6314   21351665.4824
        53.000          47.000
 111836566.66947  87145366.13547  21281797.0144   21281799.3054   21281797.2154
        53.000          47.000
 124824661.69647  97265961.49647  23753351.5744   23753353.4304   23753351.8744
        46.000          39.000
 128066273.86647  99791877.48347  24370218.2344   24370223.8074   24370217.9864
        43.000          38.000
 113245250.03647  88243027.50847  21549874.9854   21549878.8574   21549875.0474
        52.000          46.000
 128149774.61147  99856974.74447  24386085.8604   24386086.8994   24386085.8364
        43.000          37.000
 09  1  3  0 17 30.0000000  0 11G 5G30G24G31G14G29G21G18G12G 9G22
 125383443.75247  97701368.58847  23859685.3324   23859691.3444   23859685.6804
        45.000          39.000
 123918684.45347  96559992.02947  23580957.6174   23580962.5854   23580957.5104
        47.000          40.000
 112197277.98847  87426440.16647  21350439.9254   21350444.5834   21350440.0114
        53.000          47.000
 141804229.24447  92704562.58247  25081534.5574   25081540.0724   25081532.8324
        39.000          35.000
 116047837.40147  90426872.93747  22083179.2624   22083182.4014   22083179.4044
        50.000          44.000
 112267834.86647  87481421.35247  21363865.3354   21363868.4074   21363865.0264
        53.000          47.000
 111760523.72647  87086111.90547  21267326.5744   21267328.6684   21267327.0564
        53.000          47.000
 124818879.57547  97261455.96347  23752251.3964   23752253.0124   23752251.7794
        46.000          39.000
 128072474.66247  99796709.35047  24371398.7114   24371403.2594   24371398.1204
        44.000          39.000
 113271012.08547  88263101.84847  21554777.2204   21554781.3834   21554777.1314
        52.000          46.000
 128144181.28547  99852616.34047  24385020.5434   24385022.9624   24385020.7474
        42.000          37.000
 09  1  3  0 18  0.0000000  0 11G 5G30G24G31G14G29G21G18G12G 9G22
 125374863.61047  97694682.87947  23858052.6764   23858058.3884   23858053.0514
        45.000          39.000
 123910088.42647  96553293.82547  23579322.3724   23579326.7664   23579322.2864
        47.000          40.000
 112195132.41147  87424768.30347  21350031.5834   21350036.4804   21350031.6624
        53.000          47.000
 141703626.85547  92626171.30647  25062390.5954   25062395.7814   25062388.7244
        39.000          36.000
 116021042.55347  90405993.88047  22078080.8094   22078083.7414   22078081.1704
        50.000          44.000
 112332197.78947  87531574.27647  21376113.2214   21376116.4464   21376112.8204
        53.000          48.000
 111684732.28847  87027053.65347  21252903.8674   21252906.0104   21252904.2734
        53.000          47.000
 124812876.48847  97256778.24447  23751108.5844   23751110.6374   23751108.9984
        45.000          39.000
 128078548.60847  99801442.36447  24372554.9514   24372559.2104   24372554.7134
        44.000          39.000
 113297305.11247  88283589.92747  21559780.8234   21559784.4434   21559780.9164
        52.000          46.000
 128138425.63947  99848131.45047  24383925.3854   24383927.5254   24383925.3584
        43.000          37.000
 09  1  3  0 18 30.0000000  0 11G 5G30G24G31G14G29G21G18G12G 9G22
 125366148.38747  97687891.90247  23856393.9734   23856399.5594   23856394.4564
        45.000          39.000
 123901280.16447  96546430.24447  23577646.0584   23577650.6854   23577646.3124
        47.000          40.000
 112193416.03247  87423430.86747  21349705.1774   21349709.6924   21349705.3634
        53.000          47.000
 141602903.90947  92547686.08047  25043222.5994   25043228.2674   25043221.0404
        39.000          36.000
 115994723.45847  90385485.52747  22073072.4344   22073075.3374   22073072.5024
        50.000          44.000
 112396809.39147  87581920.96847  21388408.6734   21388411.5674   21388408.3634
        53.000          47.000
 111609194.30047  86968192.89647  21238529.4424   21238531.4984   21238529.7754
        53.000          47.000
 124806651.23947  97251927.44647  23749924.2884   23749925.9684   23749924.6554
        46.000          39.000
 128084495.68047  99806076.50647  24373685.7854   24373690.6284   24373685.5924
        44.000          38.000
 113324128.14947  88304491.00447  21564885.1194   21564888.5414   21564885.3504
        52.000          46.000
 128132505.25047  99843518.21947  24382798.9904   24382800.6854   24382798.7034
        43.000          37.000
 09  1  3  0 19  0.0000000  0 11G 5G30G24G31G14G29G21G18G12G 9G22
 125357302.85547  97680999.39647  23854710.3874   23854716.4864   23854711.0104
        45.000          39.000
 123892263.09347  96539403.95147  23575929.7414   23575934.5734   23575930.0644
        47.000          40.000
 112192133.33447  87422431.35747  21349460.7894   21349465.5234   21349460.9174
        53.000          47.000
 141502065.81947  92469111.09347  25024034.1254   25024039.7734   25024032.0404
        39.000          36.000
 115968882.82747  90365350.01447  22068154.9934   22068157.6894   22068155.1374
        50.000          44.000
 112461670.09747  87632461.77447  21400751.2424   21400754.3064   21400751.1514
        53.000          47.000
 111533916.28647  86909534.71547  21224204.6444   21224206.6034   21224205.0584
        53.000          47.000
 124800207.29247  97246906.22147  23748697.5104   23748700.0444   23748698.3314
        46.000          39.000
 128090321.09847  99810615.95047  24374794.1444   24374798.7654   24374793.7784
        43.000          38.000
 113351484.31847  88325807.51747  21570090.7694   21570094.6814   21570090.7164
        52.000          46.000
 128126422.19147  99838778.21647  24381641.4874   24381643.3064   24381641.4134
        43.000          38.000
 09  1  3  0 19 30.0000000  0 11G 5G30G24G31G14G29G21G18G12G 9G22
 125348325.52547  97674004.17047  23853001.9914   23853007.8484   23853002.2494
        45.000          39.000
 123883035.52347  96532213.64747  23574174.0204   23574178.4584   23574173.7644
        46.000          40.000
 112191283.18047  87421768.89047  21349299.2634   21349303.6834   21349299.4384
        53.000          47.000
 141401111.85747  92390445.81847  25004823.2264   25004827.6954   25004820.9514
        39.000          36.000
 115943518.00347  90345585.25347  22063327.9804   22063331.1864   22063328.0554
        50.000          44.000
 112526774.58247  87683192.54847  21413140.2384   21413143.2344   21413139.8544
        52.000          47.000
 111458898.68247  86851079.45347  21209929.3424   21209931.3064   21209929.8754
        53.000          47.000
 124793541.87247  97241712.42047  23747429.4384   23747431.8624   23747429.5614
        46.000          39.000
 128096022.92147  99815059.06647  24375878.7374   24375883.9954   24375878.2994
        44.000          38.000
 113379371.41447  88347537.74447  21575397.6054   21575401.0574   21575397.7854
        52.000          46.000
 128120172.63247  99833908.50047  24380452.4004   24380453.2134   24380452.4574
        43.000          37.000
 09  1  3  0 20  0.0000000  0 11G 5G30G24G31G14G29G21G18G12G 9G22
 125339217.65247  97666907.19347  23851268.7694   23851274.7254   23851269.2754
        45.000          39.000
 123873597.61847  96524859.44247  23572377.7244   23572382.5904   23572377.0934
        46.000          40.000
 112190866.59547  87421444.29147  21349220.0764   21349224.5474   21349220.2414
        53.000          47.000
 141300044.01447  92311691.80247  24985590.7714   24985596.3044   24985588.6704
        39.000          36.000
 115918628.31147  90326190.72247  22058591.8754   22058594.8484   22058592.1064
        50.000          44.000
 112592119.53347  87734110.69547  21425574.6824   21425577.8734   21425574.4094
        53.000          47.000
 111384144.28747  86792829.29247  21195704.0674   21195705.9104   21195704.5854
        53.000          47.000
 124786654.04547  97236345.28647  23746118.3984   23746120.8044   23746118.9084
        46.000          39.000
 128101602.29847  99819406.75547  24376941.5254   24376945.5174   24376940.9454
        44.000          39.000
 113407789.35447  88369681.60947  21580805.3114   21580808.9504   21580805.3744
        52.000          46.000
 128113755.07347  99828907.85347  24379230.5944   24379231.8394   24379230.9694
        43.000          37.000
 09  1  3  0 20 30.0000000  0 11G 5G30G24G31G14G29G21G18G12G 9G22
 125329982.26747  97659710.88547  23849510.7294   23849517.0714   23849511.3964
        45.000          39.000
 123863951.61147  96517343.09147  23570542.3764   23570547.2584   23570541.5034
        47.000          41.000
 112190886.29647  87421459.64547  21349223.7444   21349228.3444   21349223.7824
        53.000          47.000
 141198865.81347  92232851.77847  24966336.7674   24966341.7934   24966336.1604
        41.000          36.000
 115894214.97547  90307167.37547  22053946.1334   22053948.8124   22053946.2804
        50.000          44.000
 112657703.85647  87785215.36147  21438055.0994   21438058.0414   21438054.9004
        52.000          47.000
 111309657.88447  86734787.94247  21181529.6354   21181531.6324   21181529.9834
        53.000          47.000
 124779545.09047  97230805.86747  23744765.9984   23744767.7224   23744766.3564
        47.000          39.000
 128107062.54647  99823661.61347  24377980.3344   24377984.7104   24377980.0294
        44.000          38.000
 113436739.75247  88392240.37647  21586314.3644   21586318.1584   21586314.5064
        52.000          46.000
 128107170.15447  99823776.79747  24377977.9904   24377979.6564   24377978.3594
        44.000          38.000
 09  1  3  0 21  0.0000000  0 11G 5G30G24G31G14G29G21G18G12G 9G22
 125320619.99947  97652415.70447  23847729.6974   23847735.3004   23847729.9344
        45.000          39.000
 123854097.41847  96509664.52447  23568667.3894   23568672.3524   23568667.0584
        47.000          41.000
 112191342.67947  87421815.27247  21349310.5484   21349315.1314   21349310.6844
        53.000          47.000
 141097578.25847  92153926.51547  24947062.3204   24947068.1584   24947061.8084
        41.000          36.000
 115870276.68547  90288514.20547  22049390.8674   22049393.5934   22049390.9954
        50.000          44.000
 112723523.86247  87836503.68547  21450579.9974   21450583.0984   21450579.7234
        52.000          47.000
 111235441.79447  86676957.23047  21167406.8514   21167408.9014   21167407.2344
        53.000          47.000
 124772214.42847  97225093.69247  23743370.8484   23743373.2414   23743371.1444
        47.000          40.000
 128112404.18947  99827824.06747  24378996.3824   24379000.8304   24378996.2644
        43.000          38.000
 113466221.83747  88415213.44947  21591924.4704   21591928.2284   21591924.5154
        52.000          46.000
 128100415.35147  99818513.39047  24376691.9784   24376693.4304   24376692.3764
        43.000          37.000
 09  1  3  0 21 30.0000000  0 11G 5G30G24G31G14G29G21G18G12G 9G22
 125311132.05447  97645022.58547  23845924.2154   23845929.8554   23845924.8774
        45.000          39.000
 123844035.07647  96501823.77147  23566752.2394   23566757.6264   23566752.1974
        47.000          41.000
 112192236.80747  87422511.99747  21349480.9114   21349485.2654   21349481.0674
        53.000          47.000
 140996183.68747  92074917.84047  24927767.5794   24927772.6504   24927767.2814
        42.000          37.000
 115846813.13947  90270230.95747  22044925.7044   22044928.6584   22044925.9414
        50.000          44.000
 112789576.84647  87887973.55147  21463149.6774   21463152.7304   21463149.3574
        53.000          47.000
 111161498.95447  86619339.44147  21153335.9694   21153338.0524   21153336.3624
        53.000          47.000
 124764661.85147  97219208.59247  23741933.6424   23741935.7224   23741934.0144
        46.000          39.000
 128117628.39647  99831894.99947  24379990.0334   24379995.0154   24379989.6394
        44.000          38.000
 113496235.07447  88438600.39447  21597635.6884   21597639.6494   21597635.8704
        52.000          46.000
 128093489.57447  99813116.72747  24375374.5744   24375376.0894   24375374.4684
        43.000          37.000
 09  1  3  0 22  0.0000000  0 11G 5G30G24G31G14G29G21G18G12G 9G22
 125301520.30247  97637532.99047  23844095.1624   23844100.7654   23844095.6714
        45.000          39.000
 123833765.83547  96493821.79347  23564798.0544   23564803.6224   23564797.8444
        47.000          41.000
 112193570.66947  87423551.37047  21349734.5774   21349738.9634   21349734.6484
        53.000          47.000
 140894684.79947  91995827.89447  24908453.4184   24908457.9924   24908452.9814
        42.000          37.000
 115823824.56647  90252317.81347  22040550.9834   22040553.9964   22040550.9464
        50.000          44.000
 112855860.15947  87939622.87147  21475763.0764   21475766.1324   21475763.0544
        52.000          47.000
 111087833.06247  86561937.46147  21139317.7004   21139319.9994   21139318.0534
        53.000          47.000
 124756887.43247  97213150.62247  23740454.1514   23740456.3354   23740454.2434
        46.000          39.000
 128122736.92447  99835875.82847  24380962.5984   24380966.6764   24380962.9074
        43.000          38.000
 113526780.35347  88462401.92547  21603448.3054   21603451.9184   21603448.3674
        52.000          46.000
 128086392.47747  99807586.55147  24374024.0114   24374025.6814   24374024.0724
        44.000          37.000
 09  1  3  0 22 30.0000000  0 11G 5G30G24G31G14G29G21G18G12G 9G22
 125291786.67647  97629948.44747  23842242.3924   23842248.5394   23842243.1854
        45.000          39.000
 123823290.78547  96485659.46747  23562804.8144   23562810.1874   23562805.0064
        47.000          41.000
 112195345.46247  87424934.33047  21350072.0704   21350076.7924   21350072.2184
        53.000          47.000
 140793083.90347  91916658.46347  24889118.8144   24889123.8014   24889118.8824
        41.000          37.000
 115801310.50047  90234774.42347  22036266.8124   22036269.7524   22036267.2754
        50.000          44.000
 112922371.27947  87991449.70347  21488419.7994   21488422.9334   21488419.5574
        52.000          47.000
 111014447.53047  86504753.94247  21125352.8144   21125355.1754   21125353.1274
        53.000          47.000
 124748891.47547  97206920.02347  23738932.3774   23738934.9434   23738932.7274
        46.000          39.000
 128127731.81447  99839768.06547  24381912.8954   24381917.3214   24381912.8234
        44.000          38.000
 113557857.87347  88486618.19847  21609362.4564   21609365.9534   21609362.4294
        52.000          46.000
 128079123.01947  99801922.09547  24372640.8394   24372641.5654   24372640.8324
        44.000          38.000
 09  1  3  0 23  0.0000000  0 11G 5G30G24G31G14G29G21G18G12G 9G22
 125281930.65847  97622268.51547  23840367.0314   23840372.3754   23840367.0574
        45.000          39.000
 123812608.91047  96477335.99647  23560772.5394   23560777.2904   23560772.8124
        47.000          41.000
 112197560.43847  87426660.29547  21350493.5534   21350498.3704   21350493.6224
        53.000          47.000
 140691381.36647  91837409.82747  24869765.0614   24869769.8474   24869765.2884
        41.000          36.000
 115779268.86047  90217599.16147  22032072.1914   22032075.2124   22032072.3694
        50.000          44.000
 112989106.02147  88043450.80447  21501118.8304   21501122.1704   21501118.3014
        52.000          47.000
 110941343.60047  86447789.84447  21111441.8444   21111443.8694   21111442.2554
        54.000          47.000
 124740672.09947  97200515.33847  23737368.1774   23737370.9354   23737368.7124
        46.000          39.000
 128132612.42147  99843571.22247  24382841.4934   24382846.2584   24382841.5504
        44.000          38.000
 113589465.91047  88511247.86747  21615376.9484   21615380.5514   21615377.1244
        52.000          46.000
 128071678.31047  99796121.06547  24371223.9334   24371225.4314   24371224.4164
        43.000          38.000
 09  1  3  0 23 30.0000000  0 11G 5G30G24G31G14G29G21G18G12G 9G22
 125271956.82747  97614496.80747  23838468.9404   23838474.6944   23838469.6374
        45.000          39.000
 123801723.55047  96468853.94647  23558700.7174   23558705.6614   23558700.6064
        47.000          41.000
 112200219.73647  87428732.48047  21350999.7284   21351004.1244   21350999.8574
        53.000          47.000
 140589581.91847  91758085.62747  24850393.6504   24850398.2474   24850393.0564
        42.000          36.000
 115757701.72547  90200793.63047  22027967.9654   22027971.3674   22027968.0704
        50.000          44.000
 113056064.04347  88095625.89747  21513860.5734   21513863.6874   21513860.4534
        52.000          47.000
 110868527.50747  86391050.03547  21097585.5774   21097587.2874   21097585.9554
        54.000          47.000
 124732232.22247  97193938.84047  23735761.9664   23735764.8654   23735762.7994
        46.000          39.000
 128137383.34247  99847289.00747  24383749.1484   24383753.8404   24383748.9334
        43.000          38.000
 113621607.36447  88536293.17947  21621493.5954   21621496.9144   21621493.6614
        52.000          46.000
 128064060.32347  99790185.03247  24369773.9484   24369776.1024   24369773.9494
        43.000          38.000
 09  1  3  0 24  0.0000000  0 11G 5G30G24G31G14G29G21G18G12G 9G22
 125261863.34447  97606631.86447  23836547.7804   23836553.5854   23836548.7514
        45.000          39.000
 123790632.29847  96460211.46447  23556590.1564   23556595.1264   23556589.7994
        47.000          41.000
 112203321.42847  87431149.38547  21351590.0144   21351594.3984   21351590.0944
        53.000          47.000
 140487685.08047  91678685.55847  24831002.4574   24831008.3184   24831002.1574
        42.000          36.000
 115736605.65947  90184355.16447  22023953.6324   22023956.5454   22023953.9704
        50.000          44.000
 113123239.80247  88147970.64547  21526643.6204   21526646.8564   21526643.4704
        52.000          47.000
 110795999.11447  86334534.40147  21083783.9204   21083785.4554   21083784.2894
        54.000          47.000
 124723568.60347  97187187.99047  23734113.3404   23734115.6754   23734113.6804
        46.000          39.000
 128142042.69847  99850919.85147  24384635.8584   24384640.2314   24384635.5454
        43.000          38.000
 113654279.01247  88561751.63847  21627710.5804   21627714.3184   21627710.6844
        52.000          46.000
 128056264.76547  99784110.60447  24368290.0104   24368292.4314   24368290.0894
        43.000          38.000
 09  1  3  0 24 30.0000000  0 11G 5G30G24G31G14G29G21G18G12G 9G22
 125251654.25447  97598676.82347  23834605.1104   23834610.8324   23834605.0284
        45.000          39.000
 123779338.49747  96451411.16847  23554440.9364   23554445.8124   23554440.9394
        47.000          41.000
 112206869.27547  87433913.92747  21352265.0634   21352269.4954   21352265.1594
        53.000          47.000
 140385695.25847  91599213.02747  24811594.7994   24811599.5694   24811593.9614
        40.000          36.000
 115715983.06747  90168285.65147  22020028.9794   22020032.2664   22020029.4634
        50.000          44.000
 113190632.70947  88200484.61447  21539467.8104   21539471.2414   21539467.4734
        52.000          47.000
 110723764.10247  86278247.37647  21070037.8674   21070039.7154   21070038.2684
        54.000          47.000
 124714683.46947  97180264.52647  23732422.9884   23732425.2954   23732423.1314
        46.000          39.000
 128146594.63947  99854466.98047  24385501.7764   24385506.2434   24385501.7254
        43.000          38.000
 113687483.05247  88587624.94147  21634029.1894   21634032.5774   21634029.2574
        52.000          46.000
 128048292.86447  99777898.78447  24366773.9624   24366775.2714   24366773.4984
        45.000          38.000
 09  1  3  0 25  0.0000000  0 11G 5G30G24G31G14G29G21G18G12G 9G22
 125241328.84147  97590631.16247  23832640.2474   23832645.7254   23832640.3064
        45.000          39.000
 123767840.50847  96442451.80047  23552252.8894   23552258.0324   23552252.4454
        47.000          41.000
 112210861.81147  87437024.98147  21353024.9794   21353029.2824   21353025.1234
        53.000          47.000
 140283612.46947  91519668.04747  24792168.9374   24792173.4304   24792168.9044
        41.000          37.000
 115695830.78747  90152582.59947  22016194.4864   22016197.3554   22016194.5374
        50.000          44.000
 113258237.87847  88253163.97347  21552332.6694   21552336.2164   21552332.4214
        52.000          47.000
 110651823.25947  86222189.57547  21056347.9914   21056350.0684   21056348.3694
        54.000          47.000
 124705574.66947  97173166.78047  23730689.3204   23730691.7984   23730690.0634
        46.000          39.000
 128151038.92847  99857930.21547  24386347.3934   24386351.4954   24386347.9094
        42.000          38.000
 113721216.81147  88613911.00447  21640448.3524   21640451.9994   21640448.3234
        52.000          46.000
 128040141.48647  99771547.10547  24365222.7794   24365223.9974   24365222.9874
        45.000          38.000
 09  1  3  0 25 30.0000000  0 11G 5G30G24G31G14G29G21G18G12G 9G22
 125230891.08947  97582497.96347  23830653.9124   23830659.4494   23830654.7504
        45.000          39.000
 123756141.59747  96433335.84347  23550026.5254   23550031.7224   23550026.2574
        47.000          41.000
 112215302.78147  87440485.47447  21353869.8694   21353874.2494   21353869.9524
        53.000          47.000
 140181441.53847  91440054.39847  24772726.6464   24772731.5224   24772726.1894
        41.000          36.000
 115676150.67047  90137247.46947  22012449.3734   22012452.4654   22012449.5924
        50.000          44.000
 113326054.90547  88306008.40647  21565237.5984   21565241.3844   21565237.5144
        52.000          47.000
 110580182.41947  86166365.55847  21042715.0754   21042717.3654   21042715.5554
        54.000          47.000
 124696244.76747  97165896.76147  23728913.8904   23728916.3704   23728914.5254
        46.000          39.000
 128155378.26547  99861311.65147  24387172.6574   24387177.7114   24387172.1804
        43.000          38.000
 113755482.76547  88640611.76347  21646969.1804   21646972.6644   21646969.1534
        52.000          46.000
 128031812.13647  99765056.73747  24363637.4444   24363638.5184   24363637.7154
        44.000          38.000
 09  1  3  0 26  0.0000000  0 11G 5G30G24G31G14G29G21G18G12G 9G22
 125220341.16447  97574277.32047  23828646.5924   23828651.8354   23828647.1124
        45.000          39.000
 123744240.98847  96424062.75647  23547761.7824   23547766.9174   23547761.5054
        47.000          41.000
 112220191.63647  87444294.97647  21354800.3854   21354804.7684   21354800.4724
        53.000          47.000
 140079183.01747  91360372.47647  24753267.1124   24753272.0654   24753267.3594
        42.000          37.000
 115656940.71247  90122278.70047  22008793.7454   22008796.8044   22008793.9874
        50.000          44.000
 113394079.70247  88359014.74147  21578182.3624   21578186.0234   21578182.0384
        52.000          47.000
 110508843.27447  86110776.62247  21029139.4924   21029141.8134   21029140.0034
        54.000          47.000
 124686692.23347  97158453.25347  23727096.0014   23727098.7684   23727096.3644
        46.000          39.000
 128159613.10947  99864611.65547  24387978.8544   24387983.2904   24387978.3184
        43.000          38.000
 113790279.67947  88667726.26547  21653590.8554   21653594.1044   21653590.7204
        52.000          46.000
 128023302.36047  99758425.79547  24362018.0064   24362019.4334   24362017.8144
        44.000          38.000
 09  1  3  0 26 30.0000000  0 11G 5G30G24G31G14G29G21G18G12G 9G22
 125209680.15447  97565970.15247  23826617.6454   23826622.5004   23826618.0354
        44.000          39.000
 123732138.94647  96414632.71147  23545458.5894   23545463.7134   23545458.6264
        47.000          41.000
 112225529.30147  87448454.20647  21355816.0134   21355820.6804   21355816.0654
        53.000          47.000
 139976838.76347  91280623.75947  24733791.7054   24733796.9454   24733791.9264
        41.000          37.000
 115638199.92447  90107675.51647  22005227.5734   22005230.4274   22005227.7954
        50.000          44.000
 113462309.05447  88412180.48047  21591166.0704   21591169.7304   21591165.8424
        52.000          47.000
 110437808.40147  86055424.77947  21015621.9804   21015624.1084   21015622.3224
        53.000          47.000
 124676916.75747  97150836.02847  23725235.9494   23725238.1454   23725236.1664
        46.000          39.000
 128163745.12347  99867831.53747  24388764.8514   24388769.4124   24388764.5174
        43.000          38.000
 113825606.76847  88695253.89147  21660313.3384   21660316.5904   21660313.5284
        52.000          46.000
 128014610.50047  99751652.97347  24360363.7754   24360365.3874   24360363.9134
        44.000          38.000
 09  1  3  0 27  0.0000000  0 11G 5G30G24G31G14G29G21G18G12G 9G22
 125198909.38947  97557577.42347  23824567.8694   23824573.3544   23824567.9654
        45.000          39.000
 123719836.21447  96405046.26147  23543117.5454   23543122.3374   23543117.0954
        46.000          40.000
 112231316.67247  87452963.85247  21356917.0994   21356921.9914   21356917.1624
        53.000          47.000
 139874410.92747  91200809.91147  24714300.5724   24714305.3254   24714299.9294
        42.000          36.000
 115619927.53047  90093437.31647  22001750.2274   22001753.5924   22001750.5544
        50.000          44.000
 113530740.23447  88465503.48047  21604188.0864   21604191.5364   21604188.0174
        52.000          47.000
 110367080.89347  86000312.43647  21002163.1884   21002165.2144   21002163.6264
        54.000          47.000
 124666918.35747  97143045.08747  23723333.5634   23723335.1014   23723333.8984
        47.000          39.000
 128167775.53447  99870972.26247  24389532.2224   24389536.0364   24389531.7824
        43.000          38.000
 113861463.62647  88723194.31647  21667136.5134   21667140.0304   21667136.6544
        52.000          46.000
 128005735.79447  99744737.64647  24358674.8604   24358676.5464   24358674.7534
        44.000          38.000
 09  1  3  0 27 30.0000000  0 11G 5G30G24G31G14G29G21G18G12G 9G22
 125188031.86447  97549101.50747  23822498.0664   23822503.5294   23822498.5374
        45.000          39.000
 123707334.69647  96395304.91447  23540738.1434   23540743.4434   23540737.5004
        46.000          40.000
 112237555.81847  87457825.53047  21358104.4204   21358109.3674   21358104.4734
        53.000          47.000
 139771903.44347  91120933.98047  24694793.6414   24694797.8654   24694793.6804
        41.000          36.000
 115602124.40047  90079564.77047  21998362.5964   21998365.4014   21998362.8534
        50.000          44.000
 113599371.16147  88518982.13147  21617247.9734   21617251.6484   21617247.6634
        52.000          47.000
 110296665.42247  85945443.24247  20988763.5914   20988765.4954   20988764.0854
        54.000          47.000
 124656698.02347  97135081.22647  23721388.3184   23721390.6894   23721388.8984
        47.000          40.000
 128171707.20747  99874036.03947  24390279.3904   24390284.4354   24390279.4184
        44.000          38.000
 113897851.35847  88751548.40647  21674060.9484   21674064.3404   21674060.7834
        52.000          46.000
 127996678.55347  99737680.09647  24356951.5874   24356952.9154   24356951.7764
        45.000          38.000
 09  1  3  0 28  0.0000000  0 11G 5G30G24G31G14G29G21G18G12G 9G22
 125177047.89747  97540542.63147  23820407.8134   23820413.4974   23820408.4104
        45.000          39.000
 123694634.14747  96385408.49147  23538321.2684   23538326.3934   23538320.7244
        46.000          40.000
 112244246.33647  87463038.93147  21359377.6794   21359382.5094   21359377.7854
        53.000          47.000
 139669316.86947  91040996.43047  24675272.0524   24675276.6724   24675272.0304
        40.000          36.000
 115584788.53547  90066056.33347  21995063.7564   21995066.5584   21995063.9514
        50.000          44.000
 113668198.21347  88572613.60147  21630345.5064   21630348.9794   21630345.1654
        52.000          47.000
 110226563.42647  85890818.31747  20975423.7774   20975425.5324   20975424.2944
        54.000          48.000
 124646254.61847  97126943.51747  23719401.1204   23719403.4354   23719401.5644
        46.000          39.000
 128175540.12747  99877022.86347  24391009.2504   24391013.2874   24391008.7534
        44.000          38.000
 113934768.58847  88780315.09247  21681085.9744   21681089.4464   21681086.1004
        52.000          46.000
 127987436.72847  99730478.71547  24355192.7114   24355194.4554   24355192.6454
        44.000          38.000
 09  1  3  0 28 30.0000000  0 11G 5G30G24G31G14G29G21G18G12G 9G22
 125165960.61347  97531903.27847  23818297.7704   23818303.1214   23818298.0994
        44.000          39.000
 123681736.85547  96375358.74747  23535867.2494   23535871.8314   23535867.2844
        46.000          40.000
 112251391.02847  87468606.22647  21360737.3354   21360742.0174   21360737.3164
        53.000          47.000
 139566655.35447  90961000.47347  24655736.2554   24655740.3394   24655735.4404
        41.000          36.000
 115567920.86247  90052912.72747  21991853.6384   21991856.9844   21991854.0294
        50.000          44.000
 113737220.42547  88626397.14947  21643479.9064   21643483.3754   21643479.5774
        52.000          46.000
 110156779.87147  85836441.52447  20962144.2274   20962146.2704   20962144.5354
        54.000          47.000
 124635589.83447  97118633.32947  23717371.7264   23717373.9244   23717371.9704
        46.000          39.000
 128179277.43447  99879935.19247  24391720.0834   24391724.5584   24391720.0544
        43.000          38.000
 113972216.10847  88809494.98347  21688211.8454   21688215.3114   21688211.9204
        52.000          46.000
 127978009.91247  99723133.19847  24353398.6834   24353400.0314   24353399.0934
        45.000          38.000
 09  1  3  0 29  0.0000000  0 11G 5G30G24G31G14G29G21G18G12G 9G22
 125154770.31047  97523183.65747  23816167.9454   23816173.4394   23816168.6034
        44.000          39.000
 123668642.45147  96365155.41047  23533375.0884   23533380.2594   23533375.1314
        46.000          40.000
 112258989.52747  87474527.14847  21362183.4334   21362187.8914   21362183.6114
        53.000          47.000
 139463919.50947  90880946.58747  24636186.3894   24636190.5794   24636185.7334
        41.000          36.000
 115551519.43547  90040132.42347  21988732.7814   21988735.4784   21988732.8554
        50.000          44.000
 113806433.26647  88680329.23547  21656650.7134   21656653.9804   21656650.2494
        52.000          47.000
 110087316.34847  85782314.11647  20948925.4984   20948927.6954   20948925.8294
        54.000          48.000
 124624702.56947  97110149.76547  23715299.7904   23715302.2064   23715300.4394
        46.000          39.000
 128182919.44347  99882773.23247  24392413.0414   24392417.0724   24392412.7184
        43.000          38.000
 114010192.67447  88839087.11347  21695438.4044   21695442.1664   21695438.3774
        52.000          45.000
 127968396.69547  99715642.42547  24351569.7394   24351570.9434   24351569.8844
        44.000          38.000
 09  1  3  0 29 30.0000000  0 12G 5G30G24G31G14G29G21G18G 6G12G 9G22
 125143478.01247  97514384.54947  23814019.2654   23814024.6994   23814019.9114
        45.000          39.000
 123655351.31847  96354798.77947  23530845.6964   23530851.3294   23530845.6574
        47.000          40.000
 112267042.05247  87480801.85047  21363715.7274   21363720.2374   21363715.8944
        53.000          47.000
 139361111.36947  90800836.35247  24616623.1634   24616627.0174   24616622.3024
        42.000          36.000
 115535582.59147  90027714.13147  21985699.8934   21985703.1114   21985700.1644
        50.000          44.000
 113875833.39747  88734407.26147  21669857.2034   21669860.3644   21669856.9444
        52.000          46.000
 110018175.55347  85728438.17247  20935768.6734   20935770.6424   20935768.9684
        54.000          48.000
 124613592.51947  97101492.62647  23713185.7234   23713187.8144   23713186.0044
        46.000          39.000
 142865337.52357  93531419.07457  25283441.8635   25283445.7625   25283441.8905
        40.000          35.000
 128186467.30847  99885537.95947  24393088.4164   24393091.4724   24393087.8104
        43.000          38.000
 114048697.34247  88869090.76847  21702765.5694   21702769.2254   21702765.6644
        52.000          45.000
 127958595.29347  99708004.98247  24349704.0674   24349705.9124   24349704.2894
        44.000          38.000
 09  1  3  0 30  0.0000000  0 12G 5G30G24G31G14G29G21G18G 6G12G 9G22
 125132085.77747  97505507.54347  23811851.9994   23811856.7034   23811852.2244
        46.000          39.000
 123641864.64447  96344289.76447  23528279.5184   23528284.8924   23528278.6894
        46.000          40.000
 112275549.77647  87487431.24547  21365334.6694   21365339.1484   21365334.8414
        53.000          47.000
 139258233.66347  90720671.91047  24597046.1084   24597049.9354   24597045.9234
        42.000          36.000
 115520110.54047  90015658.01647  21982755.5034   21982758.6064   21982755.5034
        50.000          44.000
 113945418.91247  88788629.75347  21683098.9094   21683102.1094   21683098.7724
        52.000          46.000
 109949361.03847  85674816.47547  20922673.6794   20922675.5884   20922674.0774
        54.000          48.000
 124602259.58647  97092661.79547  23711029.0144   23711031.0304   23711029.5374
        46.000          39.000
 142797968.77747  93478923.96147  25270621.5314   25270626.7564   25270621.9514
        40.000          35.000
 128189923.04547  99888230.83847  24393746.0384   24393749.7104   24393745.2754
        43.000          38.000
 114087729.73047  88899505.64447  21710193.2034   21710196.8914   21710193.0964
        52.000          45.000
 127948605.11347  99700220.47247  24347803.5384   24347804.6784   24347803.7194
        45.000          38.000
 09  1  3  0 30 30.0000000  0 12G 5G30G24G31G14G29G21G18G 6G12G 9G22
 125120597.33947  97496555.59247  23809665.6554   23809670.6554   23809666.0634
        45.000          39.000
 123628185.27347  96333630.61147  23525676.4654   23525680.9614   23525676.1044
        47.000          41.000
 112284515.95247  87494417.87547  21367040.8184   21367045.4204   21367040.9684
        53.000          47.000
 139155290.44347  90640456.41647  24577456.5864   24577460.3514   24577456.5414
        43.000          37.000
 115505104.22947  90003964.81647  21979900.0324   21979903.2174   21979900.4154
        50.000          44.000
 114015188.98347  88842996.05547  21696375.7634   21696378.9564   21696375.5794
        51.000          46.000
 109880878.63847  85621453.57047  20909641.9094   20909643.8134   20909642.2164
        54.000          48.000
 124590706.41047  97083659.35347  23708830.7214   23708832.2044   23708831.3324
        46.000          39.000
 142730876.24447  93426644.02847  25257854.6354   25257859.2914   25257854.2754
        41.000          36.000
 128193290.12347  99890854.63547  24394386.8344   24394390.4904   24394386.2304
        44.000          38.000
 114127291.86847  88930333.30247  21717721.9634   21717725.3294   21717721.7884
        52.000          46.000
 127938427.55047  99692289.96847  24345866.2944   24345867.7294   24345866.5124
        45.000          38.000
 09  1  3  0 31  0.0000000  0 12G 5G30G24G31G14G29G21G18G 6G12G 9G22
 125109010.63647  97487527.02347  23807460.4524   23807465.6774   23807460.9784
        45.000          39.000
 123614310.38447  96322819.08147  23523036.2604   23523040.4674   23523035.8964
        47.000          40.000
 112293937.86047  87501759.62847  21368833.5394   21368838.1594   21368833.6914
        53.000          47.000
 139052280.97847  90560189.29347  24557854.3154   24557858.5174   24557854.6824
        43.000          37.000
 115490559.17347  89992631.03247  21977132.2784   21977135.3244   21977132.4024
        51.000          44.000
 114085137.06747  88897501.05947  21709686.4124   21709689.5074   21709686.2724
        52.000          46.000
 109812727.04047  85568348.43547  20896673.2454   20896675.1074   20896673.6114
        54.000          48.000
 124578929.51047  97074482.57147  23706589.4374   23706591.2594   23706590.1274
        46.000          39.000
 142664057.35247  93374577.33947  25245139.1044   25245143.7204   25245139.3774
        43.000          36.000
 128196566.66847  99893407.89747  24395009.4234   24395014.1164   24395009.3024
        43.000          38.000
 114167379.79547  88961570.66847  21725350.3184   21725353.9324   21725350.2694
        52.000          46.000
 127928058.22447  99684210.01947  24343893.3744   24343894.6604   24343893.5544
        44.000          38.000
 09  1  3  0 31 30.0000000  0 12G 5G30G24G31G14G29G21G18G 6G12G 9G22
 125097328.75847  97478424.32447  23805237.5544   23805242.5944   23805237.9934
        46.000          40.000
 123600242.59247  96311857.25347  23520358.9894   23520363.7644   23520358.9874
        47.000          41.000
 112303817.66947  87509458.19447  21370713.7284   21370718.3294   21370713.9344
        53.000          47.000
 138949208.81447  90479873.33247  24538240.9954   24538244.7154   24538241.2814
        43.000          37.000
 115476475.90647  89981657.08047  21974452.3564   21974455.1944   21974452.6564
        50.000          45.000
 114155261.65847  88952143.60747  21723030.5934   21723033.6344   21723030.5544
        51.000          46.000
 109744910.60247  85515504.46247  20883768.0854   20883770.0974   20883768.4164
        54.000          48.000
 124566930.52747  97065132.73847  23704305.9634   23704308.2784   23704306.4524
        47.000          39.000
 142597514.24247  93322725.53847  25232476.7124   25232482.0334   25232476.8664
        40.000          36.000
 128199755.54647  99895892.85647  24395616.6454   24395620.7874   24395616.4004
        43.000          38.000
 114207994.51847  88993218.51647  21733078.9464   21733082.6894   21733079.0134
        51.000          46.000
 127917497.43247  99675980.87147  24341882.9054   24341884.9134   24341883.5084
        44.000          38.000
 09  1  3  0 32  0.0000000  0 12G 5G30G24G31G14G29G21G18G 6G12G 9G22
 125085545.46747  97469242.61747  23802995.4514   23803000.0554   23802996.0954
        46.000          39.000
 123585974.75947  96300739.56947  23517643.7724   23517648.5664   23517643.5554
        47.000          41.000
 112314147.96247  87517507.80347  21372679.4944   21372684.0314   21372679.4344
        53.000          47.000
 138846068.34047  90399504.14547  24518613.6134   24518617.8324   24518613.7694
        43.000          37.000
 115462845.92247  89971036.33947  21971858.7274   21971861.4894   21971858.8934
        50.000          44.000
 114225552.20847  89006915.47947  21736406.3194   21736409.7554   21736405.6994
        51.000          46.000
 109677424.86247  85462918.17547  20870925.8194   20870928.0454   20870926.1194
        54.000          48.000
 124554701.42647  97055603.60047  23701979.0624   23701980.9664   23701979.4754
        47.000          39.000
 142531239.99447  93271083.24947  25219864.8544   25219869.6254   25219865.0574
        40.000          36.000
 128202850.79347  99898304.84547  24396205.4364   24396209.5594   24396204.4534
        43.000          38.000
 114249127.43247  89025270.15547  21740906.2014   21740909.9304   21740906.2794
        52.000          45.000
 127906736.59047  99667595.82947  24339835.7054   24339837.6504   24339835.9404
        44.000          38.000
 09  1  3  0 32 30.0000000  0 12G 5G30G24G31G14G29G21G18G 6G12G 9G22
 125073679.88047  97459996.76947  23800737.5914   23800742.5564   23800738.1364
        45.000          39.000
 123571524.93447  96289480.05747  23514894.2074   23514898.8384   23514893.6504
        47.000          41.000
 112324947.09847  87525922.71447  21374734.6814   21374738.8884   21374734.8164
        53.000          47.000
 138742879.56547  90319097.32047  24498976.7444   24498981.3554   24498977.2344
        42.000          37.000
 115449685.85547  89960781.77047  21969354.3274   21969357.1014   21969354.7084
        50.000          44.000
 114296023.96247  89061828.53647  21749816.8704   21749820.2244   21749816.5644
        52.000          46.000
 109610290.59347  85410605.75347  20858150.7654   20858152.7914   20858151.1094
        54.000          48.000
 124542260.03147  97045909.04547  23699611.5764   23699613.7494   23699611.9024
        47.000          39.000
 142465253.23347  93219664.98047  25207308.0374   25207312.9454   25207308.2154
        41.000          36.000
 128205871.10047  99900658.44047  24396780.1834   24396783.5224   24396779.7474
        43.000          38.000
 114290795.63547  89057738.91147  21748835.6824   21748839.3184   21748835.9254
        51.000          45.000
 127895791.69147  99659067.37647  24337752.7234   24337753.9704   24337752.6314
        43.000          38.000
 09  1  3  0 33  0.0000000  0 12G 5G30G24G31G14G29G21G18G 6G12G 9G22
 125061723.43347  97450680.10647  23798461.8204   23798466.9314   23798461.6904
        44.000          39.000
 123556884.37747  96278071.95647  23512108.1704   23512112.4954   23512107.6334
        47.000          40.000
 112336205.90347  87534695.80147  21376876.9934   21376881.5704   21376877.1934
        53.000          47.000
 138639634.37647  90238646.54347  24479330.2264   24479335.0694   24479329.7774
        42.000          37.000
 115436984.71247  89950884.80047  21966937.2584   21966939.9704   21966937.3504
        50.000          44.000
 114366663.10647  89116872.03647  21763259.0044   21763262.3724   21763258.8974
        52.000          46.000
 109543500.74847  85358561.72247  20845441.0034   20845443.1744   20845441.4954
        54.000          48.000
 124529596.13447  97036041.08247  23697201.7324   23697203.3594   23697202.1244
        46.000          39.000
 142399544.27547  93168463.15247  25194804.3664   25194809.1384   25194804.4104
        40.000          36.000
 128208808.10847  99902947.11247  24397339.1464   24397342.8394   24397338.6694
        43.000          38.000
 114332988.29647  89090616.32147  21756864.2144   21756868.0704   21756864.4604
        51.000          45.000
 127884652.03847  99650387.17947  24335633.0664   24335634.3934   24335632.9044
        45.000          38.000
 09  1  3  0 33 30.0000000  0 12G 5G30G24G31G14G29G21G18G 6G12G 9G22
 125049679.53047  97441295.30947  23796169.7784   23796174.8404   23796170.2084
        44.000          39.000
 123542055.30947  96266516.89947  23509286.6274   23509290.6224   23509286.1884
        47.000          40.000
 112347926.86447  87543829.02447  21379107.4874   21379112.0254   21379107.6674
        53.000          47.000
 138536336.83947  90158154.96547  24459673.4684   24459678.6024   24459672.4364
        42.000          37.000
 115424742.96947  89941345.80547  21964607.8464   21964610.6614   21964607.9354
        50.000          44.000
 114437469.03147  89172045.49547  21776732.7014   21776736.3234   21776732.3494
        51.000          46.000
 109477059.63347  85306789.42947  20832797.6184   20832799.6324   20832797.9424
        54.000          48.000
 124516711.90947  97026001.44847  23694750.0444   23694751.7804   23694750.5634
        47.000          40.000
 142334116.05547  93117480.11347  25182353.1144   25182357.9984   25182353.7654
        41.000          35.000
 128211664.63347  99905173.06747  24397882.6044   24397886.1504   24397882.7084
        43.000          38.000
 114375706.71947  89123903.42647  21764993.4814   21764997.1024   21764993.8154
        51.000          45.000
 127873318.72847  99641556.08047  24333476.7904   24333477.7804   24333476.6594
        44.000          38.000
 09  1  3  0 34  0.0000000  0 12G 5G30G24G31G14G29G21G18G 6G12G 9G22
 125037549.00447  97431842.97747  23793861.6444   23793866.1954   23793862.0354
        45.000          39.000
 123527038.00147  96254815.20047  23506428.4844   23506432.8224   23506428.2754
        47.000          40.000
 112360109.83647  87553322.25247  21381425.6614   21381430.2704   21381425.8244
        53.000          47.000
 138432988.86647  90077624.08947  24440006.7054   24440011.4234   24440005.7844
        42.000          38.000
 115412959.07247  89932163.57747  21962365.5874   21962368.1184   21962365.8964
        51.000          45.000
 114508438.15547  89227346.11647  21790237.7914   21790241.2914   21790237.4964
        51.000          46.000
 109410969.64547  85255290.73547  20820221.3074   20820223.2074   20820221.8214
        54.000          48.000
 124503606.60247  97015789.54347  23692256.4614   23692257.6454   23692256.8414
        47.000          39.000
 142268968.36847  93066715.66747  25169956.4334   25169961.6084   25169956.2784
        41.000          36.000
 128214441.97747  99907337.32247  24398411.0254   24398414.6124   24398410.9674
        43.000          38.000
 114418949.33747  89157598.98647  21773222.2784   21773225.8534   21773222.5124
        51.000          45.000
 127861789.89447  99632572.60347  24331282.0874   24331283.9624   24331282.4524
        44.000          38.000
 09  1  3  0 34 30.0000000  0 12G 5G30G24G31G14G29G21G18G 6G12G 9G22
 125025333.27347  97422324.26347  23791537.0844   23791541.9854   23791537.5254
        45.000          39.000
 123511833.09747  96242967.30647  23503534.8434   23503539.5074   23503534.5694
        47.000          41.000
 112372755.00847  87563175.63647  21383831.9304   21383836.5524   21383832.0764
        53.000          47.000
 138329592.51147  89997055.50647  24420331.0064   24420336.4204   24420330.3084
        44.000          38.000
 115401631.74747  89923337.11547  21960209.8114   21960212.8064   21960210.3094
        50.000          45.000
 114579567.36147  89282771.46247  21803773.1784   21803776.7324   21803773.0684
        51.000          46.000
 109345233.60647  85204067.84947  20807712.2014   20807714.0954   20807712.5384
        54.000          48.000
 124490280.11847  97005405.29447  23689720.3104   23689722.2334   23689720.6004
        47.000          39.000
 142204101.81847  93016170.29347  25157613.4884   25157617.4124   25157612.7284
        43.000          35.000
 128217141.48247  99909440.92247  24398924.7474   24398928.2894   24398924.4644
        44.000          38.000
 114462715.10547  89191702.20147  21781550.4404   21781554.1454   21781550.6564
        51.000          45.000
 127850063.82347  99623435.42847  24329051.3484   24329051.5944   24329051.4644
        44.000          38.000
 09  1  3  0 35  0.0000000  0 12G 5G30G24G31G14G29G21G18G 6G12G 9G22
 125013033.51747  97412740.06947  23789197.0204   23789201.5564   23789197.0984
        45.000          39.000
 123496440.85947  96230973.43747  23500606.1894   23500610.1634   23500605.8804
        47.000          41.000
 112385862.50147  87573389.26447  21386326.2834   21386330.8844   21386326.3654
        53.000          47.000
 138226149.56047  89916450.62947  24400646.8194   24400651.5874   24400645.5564
        42.000          38.000
 115390759.28547  89914865.08747  21958141.0154   21958144.0594   21958141.0804
        50.000          45.000
 114650853.49947  89338319.10047  21817338.7654   21817341.8064   21817338.2494
        51.000          46.000
 109279854.26747  85153122.91147  20795270.9484   20795272.8394   20795271.3894
        54.000          48.000
 124476732.09147  96994848.40347  23687141.7484   23687143.4484   23687142.2664
        45.000          39.000
 142139516.73947  92965844.24647  25145323.4514   25145327.0704   25145323.0324
        40.000          35.000
 128219764.45447  99911484.89147  24399423.9094   24399426.9224   24399423.5934
        44.000          38.000
 114507002.98247  89226212.26847  21789978.5404   21789981.5954   21789978.7024
        52.000          45.000
 127838139.91047  99614144.13847  24326782.2754   24326783.0904   24326782.5644
        44.000          38.000
 09  1  3  0 35 30.0000000  0 12G 5G30G24G31G14G29G21G18G 6G12G 9G22
 125000653.17447  97403093.08947  23786840.7844   23786845.0514   23786841.2784
        46.000          39.000
 123480864.21447  96218835.83947  23497641.9434   23497645.6864   23497641.4304
        47.000          40.000
 112399435.07747  87583965.29047  21388909.0364   21388913.6554   21388909.2264
        53.000          47.000
 138122664.02547  89835812.58947  24380954.1444   24380958.5944   24380953.1824
        43.000          38.000
 115380342.73247  89906748.32647  21956158.6244   21956161.6544   21956158.7294
        50.000          45.000
 114722295.67247  89393988.33547  21830933.7104   21830936.7444   21830933.5494
        51.000          46.000
 109214836.36047  85102459.61647  20782898.4334   20782900.4094   20782898.8884
        54.000          48.000
 124462964.72547  96984120.60947  23684522.0074   23684523.6824   23684522.3484
        46.000          39.000
 142075215.70947  92915739.53447  25133086.5104   25133091.9144   25133086.9814
        40.000          35.000
 128222313.75447  99913471.39347  24399908.9524   24399912.8924   24399908.7584
        44.000          38.000
 114551813.89847  89261129.87747  21798505.7804   21798509.0824   21798505.9754
        52.000          45.000
 127826019.00047  99604699.29947  24324475.8954   24324476.5874   24324475.8704
        45.000          38.000
 09  1  3  0 36  0.0000000  0 12G 5G30G24G31G14G29G21G18G 6G12G 9G22
 124988192.23347  97393383.33147  23784469.1734   23784474.1464   23784469.5554
        45.000          39.000
 123465102.14347  96206553.79047  23494641.9324   23494646.2844   23494641.5114
        47.000          40.000
 112413471.57847  87594902.81347  21391580.2104   21391584.6784   21391580.3734
        53.000          47.000
 138019136.66447  89755141.97147  24361253.2444   24361258.1894   24361252.5554
        42.000          38.000
 115370379.20447  89898984.56047  21954262.7614   21954265.6134   21954262.9574
        51.000          45.000
 114793888.85647  89449775.23447  21844557.2124   21844560.4444   21844556.5734
        51.000          46.000
 109150180.98647  85052078.80947  20770594.7384   20770596.6264   20770595.2024
        54.000          48.000
 124448976.25347  96973220.52047  23681859.9174   23681862.0194   23681860.1424
        46.000          39.000
 142011197.80047  92865855.46747  25120904.4514   25120909.2304   25120904.5504
        41.000          35.000
 128224789.81247  99915400.88647  24400380.3224   24400382.9224   24400379.6794
        44.000          38.000
 114597145.45647  89296453.19147  21807132.1214   21807135.3664   21807132.2154
        52.000          45.000
 127813698.29447  99595098.76647  24322130.6734   24322131.8764   24322131.2574
        43.000          38.000
 09  1  3  0 36 30.0000000  0 12G 5G30G24G31G14G29G21G18G 6G12G 9G22
 124975655.85447  97383614.76647  23782083.8934   23782088.4124   23782084.5314
        46.000          39.000
 123449159.61947  96194131.09047  23491608.2294   23491612.2844   23491608.0094
        47.000          40.000
 112427975.86447  87606204.84747  21394340.2874   21394344.9514   21394340.3934
        53.000          47.000
 137915573.61247  89674443.56947  24341545.3354   24341550.6634   24341545.0644
        41.000          37.000
 115360871.34247  89891575.85347  21952453.3694   21952456.1814   21952453.5114
        50.000          45.000
 114865634.22947  89505680.72147  21858210.0254   21858213.3054   21858209.8794
        51.000          46.000
 109085894.69947  85001985.59247  20758361.4764   20758363.3764   20758361.7844
        54.000          48.000
 124434770.27547  96962150.96147  23679156.8664   23679158.6614   23679156.9914
        46.000          39.000
 141947467.29247  92816195.33447  25108776.9314   25108781.7934   25108777.2034
        40.000          35.000
 128227197.23347  99917276.85947  24400837.4984   24400841.5954   24400837.0714
        43.000          38.000
 114643000.29747  89332184.26147  21815857.9564   21815861.1574   21815858.1044
        51.000          45.000
 127801180.04047  99585344.32447  24319748.4174   24319749.7094   24319748.2584
        44.000          38.000
 09  1  3  0 37  0.0000000  0 12G 5G30G24G31G14G29G21G18G 6G12G 9G22
 124963039.37447  97373783.77547  23779683.0564   23779687.8064   23779683.1974
        45.000          39.000
 123433031.03247  96181563.43747  23488538.7584   23488543.3064   23488538.6474
        46.000          40.000
 112442942.22247  87617866.94747  21397188.3384   21397192.7724   21397188.5834
        53.000          47.000
 137811970.66347  89593714.05447  24321830.9464   24321836.0484   24321830.1754
        42.000          37.000
 115351811.41547  89884516.19647  21950729.4554   21950732.1214   21950729.7524
        50.000          44.000
 114937522.39747  89561697.47547  21871890.0424   21871893.2454   21871890.0904
        51.000          46.000
 109021973.99647  84952177.24847  20746197.7404   20746199.8404   20746198.1834
        54.000          48.000
 124420340.94847  96950907.35347  23676411.2584   23676412.9874   23676411.6594
        46.000          39.000
 141884018.59947  92766754.78047  25096702.8164   25096707.3354   25096703.3244
        40.000          35.000
 128229531.30247  99919095.68347  24401281.2204   24401285.7064   24401280.9854
        43.000          38.000
 114689371.63347  89368317.79247  21824681.8354   21824685.3514   21824682.0044
        51.000          45.000
 127788457.53447  99575430.72447  24317327.0464   24317329.2504   24317327.2554
        43.000          38.000
 09  1  3  0 37 30.0000000  0 12G 5G30G24G31G14G29G21G18G 6G12G 9G22
 124950349.19947  97363895.37847  23777267.5474   23777273.0794   23777268.3354
        45.000          39.000
 123416722.04447  96168855.20147  23485435.1704   23485440.1274   23485435.0834
        47.000          40.000
 112458376.03047  87629893.28147  21400125.0934   21400129.7334   21400125.1854
        53.000          46.000
 137708335.08147  89512959.11447  24302109.3474   24302114.1344   24302109.1964
        42.000          37.000
 115343203.11847  89877808.46047  21949090.9374   21949093.7104   21949091.0734
        51.000          44.000
 115009555.70747  89617827.32647  21885597.3084   21885600.5494   21885596.5554
        51.000          46.000
 108958426.82547  84902659.97047  20734105.1924   20734107.1954   20734105.4564
        54.000          48.000
 124405693.22647  96939493.55547  23673624.1074   23673625.6704   23673624.6574
        46.000          39.000
 141820857.19447  92717538.13447  25084683.3154   25084689.2024   25084683.8194
        40.000          35.000
 128231798.82147  99920862.67047  24401713.2294   24401717.5534   24401712.8704
        43.000          38.000
 114736263.25047  89404856.73547  21833604.8274   21833608.3264   21833604.9584
        51.000          45.000
 127775534.78447  99565361.06647  24314868.6134   24314870.2374   24314868.5404
        44.000          38.000
 09  1  3  0 38  0.0000000  0 12G 5G30G24G31G14G29G21G18G 6G12G 9G22
 124937586.50547  97353950.49947  23774838.6924   23774843.9324   23774839.5714
        46.000          39.000
 123400232.85347  96156006.53847  23482297.5904   23482302.0524   23482297.1734
        47.000          40.000
 112474277.16147  87642283.78747  21403150.9354   21403155.7314   21403151.1054
        53.000          46.000
 137604668.56747  89432180.09447  24282382.0234   24282387.5034   24282382.0684
        44.000          37.000
 115335044.69347  89871451.27347  21947538.6994   21947541.1784   21947538.9584
        50.000          44.000
 115081730.34947  89674067.29847  21899331.5104   21899335.0164   21899331.1604
        51.000          46.000
 108895255.43347  84853435.50847  20722084.1824   20722085.9654   20722084.5744
        54.000          48.000
 124390826.81447  96927909.35447  23670794.7894   23670796.4934   23670795.1364
        47.000          39.000
 141757983.02047  92668545.29547  25072718.4004   25072723.5784   25072719.2514
        41.000          35.000
 128234000.57447  99922578.38547  24402132.0104   24402136.2824   24402132.0474
        44.000          38.000
 114783673.71947  89441799.97447  21842626.5924   21842630.1164   21842626.6704
        51.000          45.000
 127762410.20447  99555134.15847  24312371.0434   24312371.9994   24312371.5154
        45.000          38.000
 09  1  3  0 38 30.0000000  0 12G 5G30G24G31G14G29G21G18G 6G12G 9G22
 124924752.60647  97343950.11747  23772396.6844   23772401.7324   23772397.2884
        46.000          39.000
 123383564.46347  96143018.23347  23479125.6634   23479130.0814   23479125.2194
        47.000          40.000
 112490645.76147  87655038.54047  21406265.8304   21406270.5064   21406265.9694
        53.000          46.000
 137500973.47847  89351378.80547  24262649.6544   24262654.7924   24262649.2594
        43.000          37.000
 115327334.74147  89865443.54247  21946071.2644   21946074.1354   21946071.6394
        50.000          44.000
 115154043.34947  89730415.07747  21913092.4544   21913095.6164   21913092.4264
        51.000          46.000
 108832462.56547  84804506.01147  20710134.9354   20710137.0544   20710135.3144
        54.000          48.000
 124375741.52047  96916154.58847  23667923.7474   23667925.9084   23667924.2354
        46.000          39.000
 141695396.67947  92619776.74147  25060808.8744   25060814.1564   25060809.5454
        41.000          35.000
 128236138.03847  99924243.98547  24402538.8614   24402542.8574   24402538.0384
        43.000          38.000
 114831601.74947  89479146.50347  21851746.8074   21851750.7104   21851746.6314
        51.000          45.000
 127749082.91047  99544749.29347  24309835.2734   24309836.0964   24309835.8754
        45.000          38.000
 09  1  3  0 39  0.0000000  0 12G 5G30G24G31G14G29G21G18G 6G12G 9G22
 124911849.96147  97333896.17947  23769941.4234   23769946.7784   23769941.9704
        45.000          39.000
 123366718.21147  96129891.32947  23475919.9224   23475924.3224   23475919.2554
        47.000          41.000
 112507482.95747  87668158.42447  21409469.9464   21409474.6014   21409469.9494
        53.000          47.000
 137397252.44447  89270557.31247  24242911.9234   24242917.8284   24242910.9764
        42.000          38.000
 115320072.50547  89859784.69647  21944689.4664   21944691.9244   21944689.8734
        50.000          44.000
 115226492.63747  89786869.08047  21926878.9104   21926882.3494   21926878.6024
        51.000          46.000
 108770051.76247  84755874.23247  20698258.6304   20698260.6464   20698258.9344
        54.000          48.000
 124360438.18247  96904229.93047  23665012.0514   23665013.6184   23665012.4314
        46.000          39.000
 141633099.23547  92571233.28547  25048954.5714   25048959.1884   25048955.0894
        41.000          35.000
 128238213.20647  99925861.05847  24402933.5354   24402937.6454   24402933.7364
        43.000          38.000
 114880046.84447  89516895.95747  21860966.0284   21860969.4844   21860966.2014
        51.000          45.000
 127735552.38847  99534206.05247  24307260.3354   24307261.3274   24307260.7114
        45.000          39.000
 09  1  3  0 39 30.0000000  0 11G 5G30G24G31G14G29G21G18G12G 9G22
 124898878.60447  97323788.67747  23767473.0094   23767478.1604   23767473.4764
        46.000          39.000
 123349693.80747  96116625.59247  23472680.0584   23472684.6804   23472679.9044
        47.000          41.000
 112524787.67047  87681642.63047  21412763.0574   21412767.5314   21412763.2344
        53.000          47.000
 137293506.77347  89189716.64847  24223169.6874   24223175.1234   24223168.3774
        42.000          38.000
 115313255.41447  89854472.69947  21943391.9704   21943394.8174   21943392.1974
        50.000          44.000
 115299073.87147  89843425.89047  21940690.6244   21940694.1394   21940690.2064
        51.000          46.000
 108708024.54847  84707541.33847  20686455.4114   20686457.1204   20686455.8544
        54.000          48.000
 124344915.79547  96892134.58247  23662057.5214   23662059.8094   23662057.7834
        46.000          39.000
 128240226.68447  99927430.06147  24403316.7634   24403320.5294   24403316.3844
        42.000          38.000
 114929006.91547  89555046.66947  21870282.8364   21870286.3764   21870282.8454
        51.000          45.000
 127721816.25947  99523502.61347  24304646.3304   24304647.4904   24304646.6054
        45.000          39.000
 09  1  3  0 40  0.0000000  0 12G 5G30G24G31G14G29G21G18G 6G12G 9G22
 124885840.15747  97313628.87947  23764991.7704   23764996.9864   23764992.0254
        44.000          40.000
 123332492.09947  96103221.68047  23469406.9284   23469411.5984   23469406.6464
        47.000          41.000
 112542560.01347  87695491.22547  21416145.0074   21416149.2514   21416145.1734
        53.000          46.000
 137189738.55147  89108858.38647  24203423.2914   24203428.7554   24203422.1664
        43.000          38.000
 115306882.22247  89849506.60647  21942179.3874   21942182.0954   21942179.5634
        50.000          44.000
 115371784.40647  89900083.44347  21954527.3384   21954530.6234   21954527.1954
        51.000          46.000
 108646383.51747  84659509.36747  20674725.3584   20674727.2834   20674725.7144
        54.000          48.000
 124329174.58647  96879868.71047  23659062.5604   23659064.4014   23659062.5644
        46.000          39.000
 121509297.46257 112474749.49957  25025409.5445   25025414.5475   25025410.1245
        41.000          35.000
 128242179.55147  99928951.85747  24403688.4314   24403692.1604   24403687.8754
        43.000          38.000
 114978480.84647  89593597.79747  21879697.3204   21879701.2064   21879697.4204
        51.000          45.000
 127707873.86347  99512638.43647  24301992.9184   24301993.9144   24301993.3384
        44.000          38.000
 09  1  3  0 40 30.0000000  0 12G 5G30G24G31G14G29G21G18G 6G12G 9G22
 124872740.52647  97303421.45347  23762498.9904   23762503.9034   23762499.4354
        46.000          39.000
 123315118.36247  96089683.73747  23466100.7594   23466105.0294   23466100.6364
        47.000          41.000
 112560804.61447  87709707.79547  21419616.5474   21419621.1864   21419616.5254
        53.000          46.000
 137085954.63747  89027987.91747  24183673.6654   24183679.1194   24183673.6254
        43.000          38.000
 115300955.45047  89844888.36347  21941051.3794   21941054.1904   21941051.6034
        51.000          44.000
 115444625.37547  89956842.63847  21968388.4084   21968391.5454   21968387.8554
        51.000          46.000
 108585135.78747  84611783.86547  20663070.1694   20663072.1094   20663070.6294
        54.000          48.000
 124313218.87047  96867435.70547  23656025.9764   23656028.2334   23656026.5334
        46.000          39.000
 121447870.29247 112426884.19547  25013720.9444   25013724.1604   25013720.7674
        41.000          35.000
 128244077.55847  99930430.87347  24404048.9614   24404053.3004   24404048.7614
        42.000          38.000
 115028471.52147  89632551.59447  21889210.3664   21889213.8994   21889210.4764
        51.000          45.000
 127693728.62447  99501616.19747  24299301.1624   24299302.2064   24299301.1164
        45.000          39.000
 09  1  3  0 41  0.0000000  0 12G 5G30G24G31G14G29G21G18G 6G12G 9G22
 124859576.82247  97293164.07947  23759994.2364   23759999.1214   23759994.6254
        45.000          39.000
 123297569.23947  96076009.15747  23462761.3474   23462765.4904   23462761.1114
        47.000          41.000
 112579517.08147  87724288.93247  21423177.6504   21423182.0364   21423177.7574
        53.000          47.000
 136982152.63447  88947103.36147  24163920.6784   24163926.2734   24163921.2144
        44.000          39.000
 115295469.35647  89840613.50847  21940007.9204   21940010.3134   21940008.2434
        51.000          45.000
 115517589.20147  90013697.57247  21982272.9924   21982276.2674   21982272.7124
        51.000          46.000
 108524279.65447  84564363.51047  20651489.4494   20651491.4774   20651489.6884
        54.000          48.000
 124297044.17247  96854832.05847  23652947.9674   23652950.3474   23652948.5104
        46.000          39.000
 121386732.68647 112379244.50047  25002086.5614   25002090.9224   25002086.0814
        40.000          35.000
 128245917.90347  99931864.96547  24404399.3734   24404402.8844   24404398.5664
        43.000          38.000
 115078973.65647  89671903.92447  21898820.7124   21898823.9224   21898820.8264
        51.000          45.000
 127679375.19947  99490431.75847  24296570.1804   24296571.1914   24296570.3164
        45.000          39.000
 09  1  3  0 41 30.0000000  0 12G 5G30G24G31G14G29G21G18G 6G12G 9G22
 124846351.14247  97282858.42247  23757477.2274   23757482.4674   23757477.4944
        45.000          39.000
 123279845.52647  96062198.50247  23459388.5794   23459393.0024   23459387.7194
        47.000          41.000
 112598698.30947  87739235.33847  21426827.5974   21426832.2154   21426827.6874
        53.000          47.000
 136878335.37447  88866206.90547  24144164.9094   24144170.1244   24144164.9824
        43.000          39.000
 115290423.12447  89836681.40947  21939047.3984   21939050.1234   21939047.4994
        50.000          45.000
 115590673.75747  90070646.56147  21996180.5164   21996183.7924   21996180.2664
        51.000          46.000
 108463818.54647  84517250.96047  20639984.4784   20639986.1774   20639984.8804
        54.000          48.000
 124280651.39347  96842058.46947  23649828.5694   23649830.2674   23649828.8854
        46.000          39.000
 121325885.52447 112331831.11147  24990507.0954   24990512.4874   24990507.5254
        41.000          36.000
 128247702.88647  99933255.94747  24404739.3434   24404742.2454   24404739.2524
        43.000          38.000
 115129986.38247  89711654.11547  21908528.0304   21908531.1534   21908528.2194
        51.000          45.000
 127664812.84647  99479084.51047  24293798.9084   24293800.2744   24293798.9454
        44.000          38.000
 09  1  3  0 42  0.0000000  0 12G 5G30G24G31G14G29G21G18G 6G12G 9G22
 124833068.35647  97272508.25047  23754949.4044   23754954.3064   23754949.8624
        45.000          39.000
 123261951.53947  96048255.18047  23455983.3954   23455987.6504   23455982.9144
        47.000          41.000
 112618351.51447  87754549.52347  21430567.5184   21430572.0914   21430567.5764
        53.000          46.000
 136774508.48247  88785302.93947  24124407.1844   24124412.8664   24124406.0934
        43.000          38.000
 115285818.49547  89833093.41747  21938171.0054   21938173.9194   21938171.2814
        51.000          45.000
 115663879.46747  90127689.96847  22010111.1114   22010114.5234   22010110.8124
        51.000          46.000
 108403758.31447  84470450.77947  20628555.4104   20628557.2324   20628555.7504
        55.000          48.000
 124264043.76047  96829117.47747  23646668.5794   23646670.4754   23646669.1014
        46.000          39.000
 121265332.36647 112284646.83647  24978984.3514   24978989.1014   24978984.5424
        40.000          36.000
 128249436.81247  99934607.13247  24405069.2084   24405072.7524   24405068.8474
        43.000          38.000
 115181511.64147  89751803.68847  21918333.0174   21918336.3254   21918333.1734
        51.000          44.000
 127650044.10547  99467576.42047  24290988.2204   24290989.6764   24290988.3564
        45.000          38.000
 09  1  3  0 42 30.0000000  0 12G 5G30G24G31G14G29G21G18G 6G12G 9G22
 124819727.64447  97262112.96347  23752410.6464   23752415.8324   23752411.3204
        46.000          40.000
 123243886.10547  96034178.25247  23452545.8214   23452550.1414   23452545.7754
        47.000          41.000
 112638474.47647  87770229.74847  21434396.7124   21434401.4414   21434397.0314
        53.000          47.000
 136670671.97747  88704391.47847  24104648.3024   24104652.8984   24104646.6764
        43.000          38.000
 115281651.35947  89829846.32947  21937377.9474   21937380.6614   21937378.1164
        51.000          44.000
 115737200.65247  90184823.35647  22024063.6724   22024067.1314   22024063.3084
        51.000          46.000
 108344099.08947  84423963.06547  20617202.5284   20617204.4504   20617202.8644
        55.000          49.000
 124247219.35847  96816007.57247  23643466.8384   23643468.8084   23643467.2894
        46.000          39.000
 121205071.38747 112237690.23547  24967516.2574   24967521.8704   24967516.3764
        40.000          36.000
 128251118.91947  99935917.96047  24405389.0374   24405393.1974   24405388.4174
        43.000          38.000
 115233545.86747  89792349.85247  21928234.6344   21928237.7784   21928234.8424
        51.000          44.000
 127635065.61447  99455904.90247  24288138.1604   24288138.7684   24288138.2024
        44.000          38.000
 09  1  3  0 43  0.0000000  0 12G 5G30G24G31G14G29G21G18G 6G12G 9G22
 124806332.27747  97251675.06747  23749862.1614   23749867.0794   23749862.4244
        46.000          40.000
 123225651.73147  96019969.69247  23449075.6544   23449080.3204   23449075.2794
        46.000          41.000
 112659069.12247  87786277.52047  21438315.9134   21438320.5414   21438316.0364
        53.000          46.000
 136566829.71147  88623475.52447  24084887.8284   24084892.0514   24084886.7014
        43.000          38.000
 115277922.02147  89826940.37947  21936668.3694   21936671.1814   21936668.4584
        50.000          45.000
 115810636.45247  90242046.04047  22038038.1614   22038041.4394   22038037.9374
        51.000          46.000
 108284845.48947  84377791.41147  20605926.9434   20605928.8654   20605927.3854
        54.000          49.000
 124230179.92347  96802730.09247  23640224.2794   23640226.4844   23640224.6094
        46.000          39.000
 121145104.54847 112190962.82147  24956106.3934   24956110.5134   24956105.4284
        42.000          36.000
 128252752.77047  99937191.12547  24405699.7984   24405703.7294   24405699.8324
        43.000          38.000
 115286089.82747  89833293.22347  21938233.5814   21938236.6324   21938233.7274
        50.000          44.000
 127619878.16647  99444070.58847  24285247.8444   24285248.5484   24285247.7264
        44.000          38.000
 09  1  3  0 43 30.0000000  0 12G 5G30G24G31G14G29G21G18G 6G12G 9G22
 124792883.31247  97241195.40047  23747302.8764   23747307.5984   23747303.2224
        45.000          40.000
 123207249.12847  96005630.05947  23445573.1804   23445578.1714   23445572.8224
        47.000          41.000
 112680135.02047  87802692.51447  21442324.6164   21442329.0134   21442324.7824
        53.000          46.000
 136462983.55747  88542556.53547  24065126.6014   24065130.6294   24065126.6304
        44.000          38.000
 115274628.51747  89824374.03847  21936041.5294   21936044.3794   21936041.7874
        50.000          44.000
 115884183.32447  90299355.29147  22052033.5834   22052036.9034   22052033.3114
        51.000          46.000
 108225999.71647  84331937.56747  20594728.9394   20594730.9354   20594729.3374
        54.000          49.000
 124212925.43347  96789285.04147  23636940.7884   23636942.8164   23636941.3834
        46.000          39.000
 121085431.87547 112144464.64847  24944750.8344   24944755.4324   24944750.6974
        40.000          36.000
 128254339.22147  99938427.40747  24406001.8674   24406005.2184   24406001.6084
        44.000          38.000
 115339141.47347  89874632.18547  21948328.5814   21948332.1824   21948328.6874
        50.000          44.000
 127604480.89247  99432072.74247  24282318.0154   24282319.1584   24282318.0734
        44.000          38.000
 09  1  3  0 44  0.0000000  0 11G 5G30G24G31G14G29G21G18G12G 9G22
 124779382.13947  97230675.04247  23744733.2234   23744738.2704   23744733.8994
        44.000          39.000
 123188678.40647  95991159.40047  23442039.9274   23442043.6284   23442039.5284
        47.000          40.000
 112701672.05247  87819474.62147  21446423.0104   21446427.3744   21446423.1684
        52.000          46.000
 136359135.66847  88461636.19147  24045364.8814   24045368.8934   24045365.3434
        44.000          39.000
 115271768.86147  89822145.76947  21935497.2914   21935500.0494   21935497.6264
        50.000          44.000
 115957838.11647  90356748.62847  22066049.5584   22066052.9534   22066049.1764
        51.000          46.000
 108167564.08347  84286403.29947  20583609.3184   20583611.2394   20583609.7094
        55.000          49.000
 124195455.55047  96775672.15047  23633616.2414   23633618.0294   23633616.9974
        46.000          39.000
 128255879.12247  99939627.41947  24406294.7544   24406298.2474   24406294.5044
        43.000          38.000
 115392699.30847  89916365.57047  21958520.0894   21958523.5714   21958520.0174
        50.000          44.000
 127588871.92647  99419909.93047  24279347.3514   24279348.2364   24279347.5774
        44.000          38.000
 09  1  3  0 44 30.0000000  0 12G 5G30G24G31G14G29G21G18G 6G12G 9G22
 124765832.20247  97220116.73347  23742154.6784   23742159.3834   23742155.0054
        45.000          39.000
 123169942.43247  95976559.98647  23438474.6104   23438478.6864   23438474.4764
        47.000          41.000
 112723681.99847  87836625.23547  21450611.0474   21450615.5414   21450611.1424
        52.000          46.000
 136255290.08247  88380717.64647  24025603.7044   24025607.7354   24025604.6244
        45.000          39.000
 115269343.39147  89820255.81247  21935035.5234   21935038.6294   21935035.5534
        50.000          45.000
 116031599.81447  90414225.29247  22080086.1564   22080089.2444   22080085.8824
        51.000          46.000
 108109543.13347  84241192.17747  20572568.0634   20572570.1624   20572568.4284
        55.000          49.000
 124177772.03747  96761892.78647  23630250.9364   23630253.2124   23630251.2824
        46.000          39.000
 140966990.00357  92052176.56157  24922207.4495   24922212.6885   24922207.7355
        39.000          35.000
 128257376.12147  99940794.01547  24406579.9864   24406583.2014   24406579.7314
        43.000          39.000
 115446763.64047  89958493.64047  21968808.6814   21968812.0084   21968808.7384
        50.000          44.000
 127573052.48747  99407583.11947  24276337.7964   24276337.8774   24276338.0244
        44.000          38.000
 09  1  3  0 45  0.0000000  0 12G 5G30G24G31G14G29G21G18G 6G12G 9G22
 124752234.13747  97209520.87447  23739567.3004   23739571.8954   23739567.5724
        46.000          39.000
 123151041.44947  95961831.98147  23434877.2504   23434881.8494   23434877.0894
        47.000          41.000
 112746163.88047  87854143.57947  21454889.2484   21454893.9664   21454889.4724
        52.000          46.000
 136151448.39247  88299802.13847  24005843.3064   24005846.9304   24005843.4864
        44.000          39.000
 115267349.42647  89818702.10147  21934656.4524   21934658.7764   21934656.7234
        51.000          45.000
 116105464.44347  90471782.13347  22094142.1394   22094145.3184   22094141.9924
        50.000          45.000
 108051938.38547  84196305.36147  20561606.2154   20561608.2774   20561606.4994
        55.000          49.000
 124159874.58547  96747946.72647  23626845.5294   23626847.7224   23626845.7044
        46.000          39.000
 140908203.57047  92006368.98347  24911020.3444   24911026.3884   24911021.6504
        39.000          35.000
 128258830.66447  99941927.50547  24406856.9744   24406860.1844   24406856.6684
        45.000          38.000
 115501332.17247  90001014.59247  21979192.3164   21979196.3224   21979192.5454
        50.000          44.000
 127557020.77547  99395090.92647  24273286.6754   24273287.7264   24273286.4284
        44.000          38.000
 09  1  3  0 45 30.0000000  0 12G 5G30G24G31G14G29G21G18G 6G12G 9G22
 124738588.83047  97198888.22747  23736970.7924   23736975.2914   23736971.4914
        46.000          39.000
 123131975.70147  95946975.59147  23431249.6444   23431254.0314   23431248.8604
        47.000          41.000
 112769117.04047  87872029.16147  21459257.0134   21459261.7464   21459257.0094
        53.000          46.000
 136047612.05347  88218890.79447  23986083.7914   23986087.8404   23986083.1674
        45.000          39.000
 115265784.80347  89817482.93547  21934358.5714   21934361.3154   21934358.6534
        51.000          45.000
 116179428.25647  90529416.26247  22108216.8084   22108220.2084   22108216.2724
        50.000          45.000
 107994752.09247  84151744.61147  20550724.1414   20550726.0814   20550724.6854
        54.000          49.000
 124141762.56147  96733833.47747  23623398.8854   23623401.3084   23623399.3694
        46.000          39.000
 140849712.50347  91960791.55647  24899890.9724   24899895.2274   24899891.0614
        40.000          35.000
 128260243.76647  99943028.68947  24407125.7514   24407128.5654   24407125.6384
        44.000          38.000
 115556402.73047  90043926.72147  21989671.8334   21989675.5014   21989671.9234
        50.000          44.000
 127540775.31347  99382432.14147  24270194.8664   24270196.4424   24270194.7144
        44.000          38.000
 09  1  3  0 46  0.0000000  0 12G 5G30G24G31G14G29G21G18G 6G12G 9G22
 124724900.44647  97188222.01147  23734365.2564   23734370.2674   23734365.7244
        46.000          39.000
 123112748.72947  95931993.57347  23427590.8884   23427594.9054   23427590.2724
        47.000          41.000
 112792543.87647  87890283.84147  21463715.2684   21463719.7214   21463715.4474
        53.000          46.000
 135943786.03947  88137987.49347  23966326.0664   23966330.2104   23966325.7404
        44.000          39.000
 115264650.03147  89816598.72447  21934142.6764   21934145.2754   21934143.1744
        51.000          45.000
 116253491.09747  90587127.55447  22122310.4034   22122313.8744   22122310.2464
        50.000          45.000
 107937988.95047  84107513.58847  20539922.1954   20539924.2854   20539922.5614
        54.000          49.000
 124123439.27247  96719555.58947  23619912.1164   23619914.2254   23619912.7404
        46.000          40.000
 140791519.36247  91915446.27447  24888816.2574   24888821.2664   24888816.8904
        41.000          35.000
 128261619.48347  99944100.73847  24407387.1294   24407390.5074   24407387.2184
        43.000          38.000
 115611976.57347  90087231.03147  22000247.4924   22000250.7354   22000247.6014
        50.000          44.000
 127524317.66847  99369608.02447  24267063.8864   24267063.9854   24267063.4854
        44.000          38.000
 09  1  3  0 46 30.0000000  0 12G 5G30G24G31G14G29G21G18G 6G12G 9G22
 124711169.52647  97177522.66647  23731752.6744   23731757.3994   23731752.9134
        46.000          40.000
 123093360.28647  95916885.74547  23423901.4364   23423905.5564   23423901.7024
        47.000          41.000
 112816443.32747  87908906.78747  21468263.1734   21468267.7714   21468263.2534
        53.000          46.000
 135839971.63447  88057093.24347  23946570.6284   23946575.3174   23946570.2214
        45.000          39.000
 115263942.47847  89816047.40747  21934008.0644   21934010.6214   21934008.0514
        51.000          45.000
 116327648.72147  90644912.70447  22136422.4774   22136425.2154   22136422.4964
        50.000          45.000
 107881650.71047  84063613.65647  20529201.5084   20529203.5554   20529201.8754
        54.000          49.000
 124104903.04547  96705111.78647  23616384.9644   23616386.9244   23616385.4024
        47.000          40.000
 140733623.57747  91870332.66547  24877800.2794   24877804.5694   24877800.1884
        42.000          35.000
 128262957.89547  99945143.73347  24407641.6334   24407645.4104   24407641.2254
        43.000          38.000
 115668051.24947  90130925.60247  22010918.0034   22010921.4494   22010918.1404
        50.000          44.000
 127507646.22347  99356617.34947  24263890.7214   24263891.7954   24263890.8464
        43.000          38.000
 09  1  3  0 47  0.0000000  0 12G 5G30G24G31G14G29G21G18G 6G12G 9G22
 124697398.69247  97166792.20747  23729132.5634   23729136.8994   23729133.0194
        46.000          40.000
 123073812.38447  95901653.67147  23420181.4834   23420185.8904   23420181.4404
        47.000          41.000
 112840816.04647  87927898.50647  21472901.1124   21472905.5824   21472901.3174
        53.000          46.000
 135736172.20347  87976210.65347  23926817.8794   23926822.3694   23926817.1514
        44.000          39.000
 115263661.46247  89815828.45847  21933954.5874   21933957.0654   21933954.9634
        51.000          45.000
 116401899.35147  90702770.32747  22150551.6084   22150554.5794   22150551.0894
        50.000          45.000
 107825740.98147  84020047.64247  20518561.9494   20518564.2224   20518562.2884
        54.000          48.000
 124086155.68547  96690503.47147  23612817.1484   23612819.5964   23612817.6704
        46.000          40.000
 140676026.41647  91825451.79047  24866838.8004   24866842.7704   24866839.5864
        42.000          34.000
 128264261.56447  99946159.63047  24407889.5444   24407892.8404   24407889.2974
        44.000          38.000
 115724625.82047  90175009.70247  22021683.8364   22021687.4434   22021684.2394
        51.000          44.000
 127490760.77547  99343459.90147  24260677.6384   24260678.0714   24260677.6024
        44.000          37.000
 09  1  3  0 47 30.0000000  0 12G 5G30G24G31G14G29G21G18G 6G12G 9G22
 124683588.66947  97156031.18947  23726504.5324   23726508.8554   23726505.0154
        46.000          40.000
 123054105.26147  95886297.51647  23416431.0414   23416435.3934   23416431.0224
        47.000          41.000
 112865661.26547  87947258.42447  21477629.2454   21477633.7314   21477629.4574
        53.000          46.000
 135632389.07847  87895340.76547  23907068.5024   23907073.6314   23907067.5864
        44.000          39.000
 115263804.43947  89815939.89047  21933981.6824   21933984.2884   21933981.7854
        51.000          45.000
 116476239.38547  90760697.60247  22164698.1034   22164701.3724   22164697.8354
        50.000          45.000
 107770261.18447  83976816.62947  20508004.5204   20508006.6884   20508004.8294
        54.000          49.000
 124067196.53747  96675730.11647  23609209.6804   23609211.7624   23609210.1014
        47.000          40.000
 140618727.23147  91780803.10047  24855936.0974   24855939.1624   24855935.9564
        42.000          35.000
 128265531.60347  99947149.30847  24408131.5264   24408134.1934   24408131.2524
        44.000          38.000
 115781698.44647  90219481.90147  22032544.6994   22032547.7754   22032544.8454
        51.000          44.000
 127473659.59547  99330134.34247  24257423.2154   24257423.9534   24257423.2664
        43.000          37.000
 09  1  3  0 48  0.0000000  0 12G 5G30G24G31G14G29G21G18G 6G12G 9G22
 124669741.17847  97145240.99247  23723868.8384   23723873.8534   23723869.4134
        45.000          39.000
 123034240.06147  95870818.18347  23412651.1024   23412655.1134   23412650.4854
        47.000          41.000
 112890979.01147  87966986.55447  21482446.8564   21482451.3584   21482447.1154
        52.000          46.000
 135528625.00847  87814485.73347  23887322.9154   23887327.7994   23887322.2954
        45.000          39.000
 115264369.75647  89816380.41947  21934089.1724   21934091.9704   21934089.5454
        51.000          45.000
 116550666.27647  90818692.57847  22178861.2904   22178864.2944   22178860.9394
        50.000          45.000
 107715214.18647  83933922.86447  20497529.8384   20497531.6594   20497530.2324
        54.000          49.000
 124048025.92547  96660791.98547  23605561.4014   23605563.4094   23605561.8004
        46.000          40.000
 140561726.16447  91736386.66147  24845088.5204   24845093.3744   24845088.8174
        41.000          35.000
 128266769.37547  99948113.84147  24408366.9104   24408370.3754   24408366.5254
        44.000          38.000
 115839267.28947  90264340.75647  22043499.5284   22043503.0704   22043499.7314
        50.000          44.000
 127456342.09647  99316640.20647  24254127.7164   24254128.3814   24254127.6644
        44.000          38.000
 09  1  3  0 48 30.0000000  0 12G 5G30G24G31G14G29G21G18G 6G12G 9G22
 124655860.25347  97134424.75447  23721227.7164   23721232.2464   23721228.1254
        45.000          39.000
 123014219.98547  95855218.16147  23408841.5104   23408845.2614   23408841.3064
        47.000          41.000
 112916771.32847  87987084.46847  21487354.9224   21487359.5974   21487355.0074
        52.000          46.000
 135424884.72347  87733649.21547  23867582.0154   23867586.3544   23867581.9454
        45.000          39.000
 115265358.00247  89817150.49547  21934277.2894   21934280.2874   21934277.5034
        51.000          45.000
 116625178.68147  90876754.18847  22193040.3594   22193043.4554   22193040.1554
        50.000          45.000
 107660604.90447  83891370.17047  20487137.8894   20487139.9614   20487138.2364
        55.000          49.000
 124028646.64147  96645691.24147  23601873.5964   23601875.9994   23601873.9944
        46.000          39.000
 140505025.87347  91692204.63047  24834298.7154   24834304.0684   24834299.0394
        42.000          35.000
 128267978.93247  99949056.42947  24408596.6614   24408600.7154   24408596.1844
        43.000          38.000
 115897333.29647  90309587.00647  22054549.3724   22054552.3964   22054549.3814
        50.000          44.000
 127438810.18147  99302978.99847  24250791.7874   24250792.4364   24250791.5924
        43.000          38.000
 09  1  3  0 49  0.0000000  0 12G 5G30G24G31G14G29G21G18G 6G12G 9G22
 124641945.54547  97123582.19947  23718579.4084   23718583.8414   23718580.0524
        45.000          39.000
 122994043.94047  95839496.61947  23405001.9544   23405005.9174   23405001.7994
        47.000          41.000
 112943036.19447  88007550.60547  21492353.0804   21492357.5184   21492353.1494
        53.000          46.000
 135321168.35947  87652831.35147  23847845.2584   23847849.9194   23847845.0644
        45.000          40.000
 115266765.46247  89818247.23347  21934545.1504   21934547.8484   21934545.4484
        50.000          45.000
 116699772.37947  90934879.13047  22207235.0924   22207238.0644   22207234.6044
        50.000          45.000
 107606434.10447  83849159.14647  20476829.6284   20476831.5044   20476830.0914
        55.000          49.000
 124009056.88247  96630426.49947  23598146.2324   23598147.5984   23598146.4474
        46.000          39.000
 140448624.77747  91648255.75347  24823566.6934   24823570.8424   24823566.7654
        42.000          35.000
 128269159.44647  99949976.35347  24408821.7304   24408825.0234   24408821.5234
        43.000          38.000
 115955892.91347  90355217.89747  22065692.8444   22065695.6184   22065692.8554
        51.000          44.000
 127421061.36747  99289148.78847  24247413.3634   24247414.5774   24247413.7214
        42.000          37.000
 09  1  3  0 49 30.0000000  0 12G 5G30G24G31G14G29G21G18G 6G12G 9G22
 124627999.20147  97112714.97947  23715925.5004   23715929.8184   23715926.4444
        46.000          40.000
 122973713.44047  95823654.70947  23401132.9954   23401137.2134   23401132.6834
        47.000          41.000
 112969773.80147  88028385.11547  21497440.9154   21497445.4094   21497441.0964
        52.000          46.000
 135217479.15947  87572034.64047  23828113.9404   23828118.2624   23828113.1024
        46.000          40.000
 115268590.59547  89819669.42947  21934892.3644   21934895.2154   21934892.5294
        51.000          45.000
 116774444.82847  90993065.44647  22221444.9244   22221447.7164   22221444.3294
        50.000          45.000
 107552704.56347  83807291.96147  20466605.0924   20466607.0394   20466605.4344
        54.000          49.000
 123989257.62847  96614998.51247  23594377.7624   23594380.0454   23594378.6004
        46.000          39.000
 140392523.24947  91604540.31347  24812890.9514   24812895.2044   24812890.4864
        42.000          35.000
 128270313.23547  99950875.46047  24409041.1254   24409044.5334   24409040.5254
        43.000          38.000
 116014945.02847  90401232.55447  22076929.9554   22076932.7744   22076929.9864
        50.000          43.000
 127403094.28747  99275148.49847  24243994.7014   24243995.7034   24243994.6554
        43.000          37.000
 09  1  3  0 50  0.0000000  0 12G 5G30G24G31G14G29G21G18G 6G12G 9G22
 124614025.68347  97101826.54147  23713266.4864   23713271.2114   23713267.0444
        46.000          40.000
 122953232.95947  95807695.95347  23397235.3864   23397240.0314   23397235.2634
        46.000          41.000
 112996986.72547  88049589.99347  21502619.3394   21502623.7894   21502619.5154
        52.000          46.000
 135113821.95947  87491262.88547  23808388.4524   23808393.3254   23808388.0084
        45.000          40.000
 115270834.47647  89821417.93347  21935319.4274   21935322.2134   21935319.6794
        50.000          45.000
 116849196.10447  91051313.18347  22235669.5674   22235672.4774   22235669.1634
        50.000          45.000
 107499421.57747  83765772.74047  20456465.7144   20456467.7134   20456466.0724
        54.000          49.000
 123969251.87247  96599409.61547  23590571.2064   23590573.4214   23590571.7054
        46.000          40.000
 140336724.44447  91561060.73247  24802272.7244   24802276.9384   24802272.6344
        41.000          35.000
 128271444.74947  99951757.21747  24409256.2014   24409259.9904   24409255.7254
        43.000          38.000
 116074490.58747  90447631.71447  22088260.9934   22088264.0044   22088261.0344
        49.000          44.000
 127384911.63247  99260980.23047  24240535.0864   24240535.5634   24240535.5414
        43.000          38.000
 09  1  3  0 50 30.0000000  0 12G 5G30G24G31G14G29G21G18G 6G12G 9G22
 124600023.49347  97090915.78647  23710602.1684   23710606.6214   23710602.8954
        46.000          40.000
 122932599.64047  95791618.08347  23393308.9754   23393313.3064   23393308.8514
        46.000          41.000
 113024671.24447  88071162.34147  21507887.3544   21507891.9444   21507887.5594
        52.000          46.000
 135010196.10947  87410515.56747  23788669.2364   23788673.6774   23788668.5724
        45.000          40.000
 115273491.92547  89823488.68847  21935824.8384   21935827.7034   21935825.1444
        50.000          45.000
 116924019.97047  91109617.47347  22249908.2714   22249911.1664   22249908.0474
        50.000          45.000
 107446584.48647  83724600.97847  20446411.1454   20446413.1384   20446411.5334
        54.000          49.000
 123949036.90647  96583657.70947  23586724.3394   23586726.3884   23586724.6844
        47.000          40.000
 140281225.22047  91517814.59947  24791711.9294   24791716.0954   24791711.4964
        40.000          36.000
 128272552.17647  99952620.18847  24409467.2084   24409470.4864   24409467.2494
        44.000          38.000
 116134524.93147  90494411.73347  22099684.7904   22099688.5614   22099684.6744
        50.000          43.000
 127366509.25247  99246640.73047  24237032.7424   24237034.0144   24237033.2564
        43.000          37.000
 09  1  3  0 51  0.0000000  0 12G 5G30G24G31G14G29G21G18G 6G12G 9G22
 124585996.76147  97079985.90047  23707932.7014   23707936.5944   23707933.1534
        46.000          40.000
 122911817.43447  95775424.19947  23389354.1414   23389358.3254   23389353.9514
        46.000          41.000
 113052829.83347  88093104.10847  21513245.7394   21513250.4584   21513245.7924
        52.000          46.000
 134906606.74347  87329796.69747  23768956.7354   23768961.3624   23768955.9194
        45.000          40.000
 115276563.75747  89825882.33447  21936409.3534   21936412.5124   21936409.7824
        50.000          44.000
 116998916.13247  91167978.09347  22264160.6024   22264163.5074   22264160.3794
        50.000          45.000
 107394198.25547  83683780.54647  20436442.2624   20436444.3094   20436442.6894
        54.000          49.000
 123928615.46847  96567744.90147  23582838.3774   23582840.5444   23582839.0784
        47.000          40.000
 140226028.27247  91474804.03247  24781207.4324   24781212.3204   24781207.6814
        40.000          35.000
 128273639.74647  99953467.69647  24409674.8644   24409677.2944   24409674.8794
        44.000          38.000
 116195049.05747  90541573.39547  22111202.1004   22111205.8894   22111202.0904
        50.000          43.000
 127347888.86147  99232131.35947  24233489.2754   24233490.7474   24233489.1844
        43.000          37.000
 09  1  3  0 51 30.0000000  0 12G 5G30G24G31G14G29G21G18G 6G12G 9G22
 124571945.72547  97069037.09647  23705259.0314   23705263.2024   23705259.2724
        46.000          40.000
 122890886.02747  95759114.03847  23385370.9334   23385375.1774   23385370.4064
        46.000          41.000
 113081460.76447  88115413.92747  21518694.1254   21518698.6814   21518694.2264
        52.000          46.000
 134803054.65947  87249106.89147  23749251.2854   23749255.9494   23749250.5724
        45.000          40.000
 115280046.62547  89828596.26647  21937072.2234   21937075.1554   21937072.5304
        50.000          45.000
 117073880.13347  91226391.59247  22278425.6194   22278428.6454   22278425.1284
        50.000          45.000
 107342263.78447  83643312.13147  20426559.6554   20426561.6474   20426560.0784
        54.000          49.000
 123907986.40147  96551670.29947  23578913.1594   23578914.7914   23578913.4924
        47.000          40.000
 140171132.09047  91432027.79047  24770760.9724   24770766.0634   24770761.3104
        41.000          35.000
 128274707.25447  99954299.53947  24409877.9524   24409879.8794   24409878.0954
        44.000          38.000
 116256059.48347  90589114.00347  22122812.1124   22122815.3604   22122812.4214
        50.000          44.000
 127329048.47447  99217450.58847  24229904.0204   24229905.3784   24229904.0534
        42.000          38.000
 09  1  3  0 52  0.0000000  0 12G 5G30G24G31G14G29G21G18G 6G12G 9G22
 124557874.48647  97058072.53047  23702581.3824   23702585.9824   23702581.7704
        46.000          40.000
 122869809.03947  95742690.43847  23381360.3384   23381364.3754   23381360.1454
        47.000          41.000
 113110566.04247  88138093.36447  21524232.8044   21524237.2584   21524232.9584
        52.000          46.000
 134699544.84047  87168450.03847  23729553.8814   23729558.6484   23729553.8034
        45.000          40.000
 115283941.21547  89831631.03047  21937813.1974   21937816.2754   21937813.1894
        50.000          45.000
 117148911.92647  91284857.91847  22292703.6894   22292706.6564   22292703.1934
        50.000          45.000
 107290786.07847  83603199.64947  20416763.6524   20416765.6304   20416764.0584
        54.000          49.000
 123887152.59847  96535436.17347  23574948.5694   23574950.1694   23574948.8914
        46.000          40.000
 140116539.29647  91389487.97947  24760372.6634   24760376.7034   24760372.8164
        42.000          36.000
 128275758.94747  99955119.07147  24410077.5074   24410080.7214   24410077.4014
        44.000          39.000
 116317557.19747  90637034.31247  22134514.5394   22134518.1334   22134514.8364
        50.000          43.000
 127309989.81947  99202599.70447  24226277.1894   24226278.8184   24226276.8594
        43.000          37.000
 09  1  3  0 52 30.0000000  0 12G 5G30G24G31G14G29G21G18G 6G12G 9G22
 124543777.91147  97047088.22347  23699899.3314   23699903.3194   23699899.6414
        46.000          40.000
 122848580.60947  95726148.84547  23377320.6494   23377324.8274   23377321.0094
        47.000          41.000
 113140138.49147  88161136.82747  21529860.0304   21529864.6134   21529860.2504
        52.000          46.000
 134596072.67347  87087822.54847  23709863.9744   23709868.2864   23709863.8684
        45.000          40.000
 115288238.52547  89834979.59247  21938631.2774   21938633.7414   21938631.5124
        51.000          45.000
 117224001.55747  91343369.30747  22306992.7374   22306995.7064   22306992.6714
        50.000          45.000
 107239760.70647  83563439.61847  20407053.8534   20407055.9564   20407054.1834
        54.000          49.000
 123866107.76147  96519037.62647  23570943.6174   23570945.1354   23570944.1934
        47.000          40.000
 140062243.16847  91347179.34447  24750040.2244   24750044.7174   24750040.5824
        42.000          36.000
 128276789.52847  99955922.16947  24410274.0014   24410277.1374   24410273.4174
        44.000          39.000
 116379533.28147  90685327.37547  22146308.3504   22146311.6964   22146308.3834
        50.000          44.000
 127290705.24947  99187572.79347  24222607.8374   24222608.7134   24222608.0404
        43.000          37.000
 09  1  3  0 53  0.0000000  0 12G 5G30G24G31G14G29G21G18G 6G12G 9G22
 124529669.38447  97036094.57647  23697213.6364   23697218.7094   23697214.1464
        45.000          39.000
 122827213.63747  95709499.30947  23373254.5514   23373258.6294   23373253.9574
        47.000          41.000
 113170189.83747  88184553.46047  21535578.7354   21535583.1274   21535578.8144
        52.000          46.000
 134492652.67447  87007235.72247  23690183.3664   23690187.8424   23690183.6454
        46.000          40.000
 115292948.38747  89838649.62947  21939527.4294   21939529.9744   21939527.6684
        51.000          45.000
 117299158.21947  91401932.92247  22321294.6384   22321297.7874   22321294.5264
        50.000          45.000
 107189201.90447  83524043.15147  20397432.9094   20397434.8174   20397433.3274
        54.000          49.000
 123844864.54347  96502484.46647  23566901.3204   23566902.7114   23566901.6144
        47.000          40.000
 140008255.60847  91305111.15347  24739766.2934   24739771.4524   24739766.8904
        42.000          36.000
 128277812.28947  99956719.16547  24410468.7754   24410471.6474   24410468.3014
        45.000          39.000
 116441998.11047  90734001.29447  22158195.1344   22158198.3964   22158195.3634
        50.000          44.000
 127271205.97147  99172378.58347  24218897.6024   24218897.7934   24218897.2914
        43.000          38.000
 09  1  3  0 53 30.0000000  0 12G 5G30G24G31G14G29G21G18G 6G12G 9G22
 124515545.31647  97025088.84247  23694526.1864   23694530.7294   23694527.2004
        46.000          40.000
 122805703.53247  95692738.22647  23369161.4214   23369165.4824   23369160.9814
        47.000          41.000
 113200714.18247  88208338.67047  21541387.1184   21541391.9424   21541387.3254
        52.000          46.000
 134389281.78247  86926687.17247  23670512.7284   23670516.7574   23670512.7614
        46.000          40.000
 115298063.46147  89842635.41447  21940500.7434   21940503.4964   21940500.9574
        51.000          45.000
 117374373.33547  91460542.08847  22335607.5244   22335610.6994   22335606.9934
        50.000          45.000
 107139106.53247  83485007.78747  20387900.0114   20387901.9364   20387900.2984
        54.000          49.000
 123823417.16347  96485772.24247  23562819.7664   23562822.1924   23562820.2634
        47.000          40.000
 139954571.14147  91263279.11647  24729551.2914   24729555.1454   24729551.5744
        41.000          36.000
 128278823.35847  99957507.02547  24410661.0924   24410664.1874   24410660.5744
        45.000          39.000
 116504944.50647  90783050.44847  22170173.3824   22170177.0154   22170173.5504
        50.000          44.000
 127251485.64547  99157012.11547  24215144.6674   24215145.9614   24215144.6094
        44.000          37.000
 09  1  3  0 54  0.0000000  0 12G 5G30G24G31G14G29G21G18G 6G12G 9G22
 124501406.54547  97014071.62047  23691835.6944   23691840.2424   23691836.3074
        46.000          40.000
 122784050.87747  95675866.05847  23365041.4804   23365044.8114   23365041.1064
        47.000          41.000
 113231710.06247  88232491.29147  21547285.6314   21547290.2164   21547285.7734
        52.000          46.000
 134285961.64847  86846178.18547  23650851.5314   23650855.2754   23650851.3884
        46.000          40.000
 115303581.10647  89846934.88747  21941550.6304   21941553.4004   21941550.8664
        50.000          45.000
 117449643.42747  91519194.13147  22349930.8084   22349934.1844   22349930.2384
        50.000          45.000
 107089476.16247  83446334.76847  20378455.8114   20378457.7064   20378456.2654
        54.000          49.000
 123801765.42947  96468900.75747  23558699.8254   23558701.6364   23558700.0494
        48.000          40.000
 139901189.06247  91221682.72947  24719392.7444   24719396.9554   24719392.9254
        41.000          36.000
 128279823.64647  99958286.51847  24410850.9224   24410853.9084   24410850.8624
        44.000          39.000
 116568369.75847  90832472.74347  22182242.9284   22182246.0644   22182243.0754
        50.000          44.000
 127231542.83947  99141472.31047  24211349.0234   24211350.1104   24211349.0674
        44.000          37.000
 09  1  3  0 54 30.0000000  0 12G 5G30G24G31G14G29G21G18G 6G12G 9G22
 124487258.27047  97003047.03947  23689143.4984   23689147.8314   23689143.8454
        46.000          40.000
 122762260.17247  95658886.33347  23360894.7824   23360898.0154   23360894.2554
        47.000          41.000
 113263180.50947  88257013.72147  21553274.3234   21553278.8214   21553274.4944
        52.000          46.000
 134182697.82147  86765713.09047  23631200.6164   23631204.4894   23631200.6784
        46.000          41.000
 115309502.65847  89851549.10047  21942677.5984   21942680.3014   21942677.7404
        50.000          45.000
 117524969.20947  91577889.53847  22364264.9754   22364268.2384   22364264.7674
        50.000          45.000
 107040316.38347  83408028.45747  20369100.7804   20369102.7784   20369101.1944
        54.000          49.000
 123779913.80147  96451873.52047  23554541.5904   23554543.2304   23554541.9834
        47.000          40.000
 139848112.87547  91180324.69547  24709292.7304   24709297.2214   24709292.3284
        42.000          36.000
 128280818.47847  99959061.75647  24411040.1064   24411043.4734   24411039.9714
        44.000          39.000
 116632275.49347  90882269.44747  22194403.7114   22194406.8824   22194403.6844
        50.000          44.000
 127211380.57947  99125761.50047  24207512.4844   24207513.3564   24207512.6184
        43.000          37.000
 09  1  3  0 55  0.0000000  0 12G 5G30G24G31G14G29G21G18G 6G12G 9G22
 124473099.38147  96992014.17447  23686449.1264   23686453.5534   23686449.6444
        46.000          40.000
 122740329.64947  95641797.67447  23356721.1344   23356724.9484   23356720.7774
        47.000          41.000
 113295122.29947  88281903.42947  21559352.8324   21559357.2064   21559353.0184
        52.000          46.000
 134079490.69247  86685292.18447  23611560.6054   23611564.8684   23611560.4034
        45.000          41.000
 115315823.15047  89856474.17647  21943880.2684   21943882.9294   21943880.4294
        51.000          45.000
 117600344.95347  91636623.88347  22378608.6674   22378611.5354   22378608.5694
        49.000          44.000
 106991627.25747  83370088.88347  20359835.6534   20359837.5634   20359835.8954
        54.000          49.000
 123757859.28347  96434688.17347  23550344.4624   23550346.5404   23550344.8014
        47.000          40.000
 139795339.72147  91139202.76947  24699250.3264   24699254.1634   24699250.1914
        42.000          36.000
 128281805.96047  99959831.28247  24411227.6854   24411231.0274   24411227.7794
        44.000          38.000
 116696656.91747  90932436.80647  22206655.1484   22206658.4454   22206655.0424
        49.000          43.000
 127190995.12547  99109876.71847  24203633.4004   24203634.6084   24203633.2024
        43.000          37.000
 09  1  3  0 55 30.0000000  0 12G 5G30G24G31G14G29G21G18G 6G12G 9G22
 124458932.58347  96980975.12247  23683753.1054   23683757.9784   23683753.6714
        46.000          40.000
 122718261.65047  95624601.85747  23352521.6194   23352525.7844   23352521.2274
        47.000          41.000
 113327536.01147  88307160.86347  21565521.0334   21565525.3234   21565521.1994
        52.000          46.000
 133976343.17947  86604917.73247  23591931.6714   23591936.0004   23591931.8574
        45.000          40.000
 115322541.83147  89861709.52947  21945158.9654   21945161.4424   21945159.3264
        50.000          45.000
 117675769.12547  91695395.94847  22392961.0954   22392964.2824   22392960.6224
        50.000          44.000
 106943411.89847  83332518.48447  20350660.6014   20350662.5174   20350661.1304
        54.000          49.000
 123735603.50847  96417346.02447  23546109.2224   23546111.3974   23546109.6674
        47.000          40.000
 139742870.77047  91098317.88447  24689265.7444   24689270.1564   24689265.3384
        42.000          37.000
 128282789.27047  99960597.51647  24411414.4834   24411418.1154   24411414.7974
        43.000          38.000
 116761513.12947  90982974.12047  22218996.7244   22219000.1804   22218996.8844
        49.000          43.000
 127170386.87947  99093818.36147  24199711.7944   24199712.8364   24199712.4284
        44.000          37.000
 09  1  3  0 56  0.0000000  0 12G 5G30G24G31G14G29G21G18G 6G12G 9G22
 124444760.59747  96969932.05547  23681056.4044   23681060.8894   23681056.6194
        46.000          40.000
 122696058.38947  95607300.65247  23348296.8264   23348300.4454   23348296.3264
        47.000          41.000
 113360422.02847  88332786.31647  21571778.9434   21571783.4104   21571779.0934
        52.000          46.000
 133873258.87547  86524592.52147  23572315.3484   23572319.4964   23572314.1954
        46.000          40.000
 115329657.58047  89867254.28147  21946512.7184   21946515.5114   21946512.7694
        50.000          44.000
 117751239.50447  91754204.01247  22407322.7894   22407326.0254   22407322.7134
        50.000          44.000
 106895673.48147  83295319.72247  20341576.2084   20341578.2014   20341576.5404
        54.000          49.000
 123713147.84647  96399848.11147  23541836.2384   23541838.2544   23541836.7584
        47.000          40.000
 139690706.69447  91057670.54347  24679338.8574   24679343.5044   24679339.2994
        42.000          37.000
 128283770.42347  99961362.06347  24411601.3394   24411604.7384   24411601.2464
        43.000          38.000
 116826843.26547  91033880.74347  22231428.5154   22231431.5024   22231428.5454
        49.000          43.000
 127149556.39647  99077586.83347  24195747.8404   24195748.9784   24195747.9804
        43.000          37.000
 09  1  3  0 56 30.0000000  0 12G 5G30G24G31G14G29G21G18G 6G12G 9G22
 124430584.11947  96958885.47947  23678358.3134   23678363.3094   23678358.7444
        46.000          40.000
 122673720.27547  95589894.38447  23344045.4014   23344049.7344   23344045.1694
        47.000          41.000
 113393778.83447  88358778.63847  21578126.5974   21578130.9764   21578126.7314
        52.000          46.000
 133770239.33847  86444317.77147  23552711.2284   23552715.3684   23552709.9284
        45.000          41.000
 115337167.59847  89873106.25747  21947941.7914   21947944.6084   21947941.8844
        50.000          45.000
 117826752.64747  91813045.40947  22421692.3764   22421695.4574   22421691.8544
        49.000          44.000
 106848413.33047  83258493.61947  20332583.0904   20332584.8934   20332583.4284
        54.000          49.000
 123690492.11547  96382194.29847  23537524.9404   23537526.7554   23537525.3584
        47.000          40.000
 139638846.78947  91017260.28647  24669470.0704   24669475.0464   24669470.6124
        42.000          36.000
 128284750.26247  99962125.59647  24411788.5554   24411791.1234   24411788.2994
        44.000          38.000
 116892644.67347  91085154.59047  22243950.2374   22243953.6014   22243950.4484
        50.000          43.000
 127128502.04647  99061180.84947  24191742.0694   24191741.9924   24191741.5014
        44.000          38.000
 09  1  3  0 57  0.0000000  0 12G 5G30G24G31G14G29G21G18G 6G12G 9G22
 124416406.60147  96947838.07647  23675660.4974   23675665.7134   23675661.1104
        46.000          40.000
 122651249.87947  95572385.01347  23339769.3454   23339773.7304   23339768.7624
        47.000          41.000
 113427607.54947  88385138.68147  21584563.7114   21584568.3854   21584563.8464
        52.000          46.000
 133667288.69747  86364096.70347  23533120.0364   23533124.1584   23533119.6054
        45.000          41.000
 115345070.98947  89879264.75347  21949445.8984   21949448.7514   21949446.1974
        51.000          45.000
 117902307.53547  91871919.32747  22436069.8004   22436072.9894   22436069.1524
        50.000          44.000
 106801635.45447  83222043.32147  20323681.3584   20323683.3784   20323681.7694
        54.000          49.000
 123667638.57547  96364386.34247  23533176.4494   23533177.4904   23533176.7864
        47.000          40.000
 139587292.41347  90977088.05247  24659660.2674   24659664.1504   24659659.7454
        42.000          36.000
 128285732.04847  99962890.62747  24411974.9534   24411978.1694   24411975.0124
        43.000          38.000
 116958916.93447  91136795.33447  22256561.6364   22256564.5994   22256561.6964
        50.000          43.000
 127107224.39947  99044600.87947  24187692.9984   24187693.2164   24187693.0064
        45.000          38.000
 09  1  3  0 57 30.0000000  0 12G 5G30G24G31G14G29G21G18G 6G12G 9G22
 124402229.05047  96936790.66247  23672962.9014   23672967.1204   23672963.1554
        45.000          39.000
 122628647.83847  95554773.09247  23335468.4984   23335472.7054   23335468.2684
        47.000          41.000
 113461907.13247  88411865.62347  21591090.6344   21591095.4284   21591090.7294
        52.000          46.000
 133564408.66947  86283930.64647  23513542.5674   23513546.4984   23513542.1644
        46.000          41.000
 115353365.13647  89885727.74347  21951024.0534   21951026.8804   21951024.4064
        50.000          45.000
 117977900.18047  91930822.65747  22450454.8394   22450457.5154   22450454.7374
        49.000          44.000
 106755341.48447  83185970.09847  20314871.9744   20314873.9194   20314872.3874
        54.000          49.000
 123644586.79247  96346423.91447  23528789.8154   23528791.2714   23528790.0954
        47.000          40.000
 139536042.90547  90937153.37547  24649907.2234   24649911.5004   24649907.3774
        41.000          36.000
 128286716.88647  99963658.04447  24412162.6334   24412165.1874   24412162.3174
        44.000          38.000
 117025657.31047  91188800.82647  22269261.4614   22269264.9914   22269261.3364
        49.000          43.000
 127085722.66147  99027846.29647  24183600.9534   24183601.8694   24183601.3374
        45.000          38.000
 09  1  3  0 58  0.0000000  0 12G 5G30G24G31G14G29G21G18G 6G12G 9G22
 124388054.11947  96925745.30247  23670265.3394   23670269.8594   23670265.5624
        46.000          40.000
 122605916.28947  95537060.23047  23331142.8274   23331146.6194   23331142.3974
        47.000          41.000
 113496677.65247  88438959.52547  21597707.4434   21597712.0104   21597707.5934
        52.000          46.000
 133461602.68647  86203822.28447  23493979.1264   23493983.0074   23493978.5554
        45.000          41.000
 115362048.99147  89892494.39547  21952676.6804   21952679.3134   21952676.9564
        51.000          45.000
 118053529.32847  91989754.44747  22464846.7184   22464849.4884   22464846.9334
        50.000          44.000
 106709534.45247  83150276.30547  20306155.1504   20306157.2034   20306155.5204
        55.000          49.000
 123621338.10847  96328308.06647  23524365.6364   23524367.3184   23524366.0084
        47.000          39.000
 139485099.03347  90897456.86647  24640212.4754   24640217.1534   24640213.0254
        42.000          36.000
 128287707.34347  99964429.84347  24412350.7354   24412353.6374   24412350.8474
        43.000          38.000
 117092864.75947  91241170.27647  22282051.1294   22282054.1954   22282051.1424
        49.000          43.000
 127063996.85047  99010917.14547  24179466.5694   24179467.1464   24179467.0714
        44.000          38.000
 09  1  3  0 58 30.0000000  0 12G 5G30G24G31G14G29G21G18G 6G12G 9G22
 124373884.20447  96914703.82947  23667568.9664   23667573.4394   23667569.4764
        45.000          40.000
 122583056.87347  95519247.74547  23326793.1404   23326796.8164   23326792.7084
        48.000          41.000
 113531919.19547  88466420.45447  21604413.6474   21604418.0704   21604413.7194
        52.000          46.000
 133358874.15447  86123774.26147  23474430.5164   23474434.0184   23474430.2324
        46.000          41.000
 115371120.88747  89899563.41347  21954402.9084   21954405.5654   21954403.1394
        51.000          45.000
 118129192.54447  92048712.80747  22479244.9774   22479248.0584   22479244.7924
        49.000          44.000
 106664217.43747  83114964.34247  20297531.7104   20297533.5874   20297532.0274
        55.000          49.000
 123597894.00247  96310039.92847  23519904.1474   23519905.8404   23519904.6214
        47.000          39.000
 139434461.28047  90857998.89947  24630577.4684   24630582.0484   24630577.4074
        42.000          36.000
 128288705.58547  99965207.68847  24412541.0814   24412544.2264   24412540.7374
        43.000          38.000
 117160537.90447  91293902.60347  22294928.6504   22294932.2614   22294928.6094
        49.000          43.000
 127042047.42847  98993813.72147  24175289.4914   24175290.6224   24175289.8344
        44.000          38.000
 09  1  3  0 59  0.0000000  0 12G 5G30G24G31G14G29G21G18G 6G12G 9G22
 124359719.22547  96903666.18547  23664872.9694   23664877.8414   23664873.3504
        45.000          39.000
 122560069.37447  95501335.46147  23322418.6404   23322422.4174   23322418.0444
        47.000          41.000
 113567629.36447  88494246.55347  21611209.1394   21611213.6214   21611209.3424
        52.000          46.000
 133256223.63747  86043787.02847  23454896.9124   23454900.1564   23454896.8384
        46.000          41.000
 115380576.60747  89906931.52547  21956202.6034   21956205.2594   21956202.9414
        51.000          45.000
 118204885.40347  92107694.25247  22493648.4624   22493651.9084   22493647.8324
        49.000          44.000
 106619390.78047  83080034.47947  20289001.5514   20289003.4394   20289001.9204
        55.000          49.000
 123574253.20447  96291618.53047  23515405.6024   23515407.5134   23515405.7584
        47.000          40.000
 139384128.02947  90818778.20747  24620998.6704   24621003.2054   24620998.9854
        41.000          36.000
 128289711.15447  99965991.25247  24412732.0004   24412735.3964   24412732.1244
        43.000          38.000
 117228672.86647  91346994.77847  22307894.3114   22307897.8864   22307894.2164
        50.000          43.000
 127019872.13547  98976534.29347  24171069.7104   24171070.4404   24171069.6474
        44.000          38.000
 09  1  3  0 59 30.0000000  0 12G 5G30G24G31G14G29G21G18G 6G12G 9G22
 124345563.72947  96892635.95947  23662179.5884   23662183.9104   23662179.9974
        45.000          39.000
 122536957.23847  95483326.07547  23318020.3264   23318024.5924   23318020.4034
        47.000          41.000
 113603810.26347  88522439.45647  21618094.0214   21618098.9604   21618094.1974
        52.000          46.000
 133153656.35847  85963864.63947  23435379.0684   23435381.8674   23435378.6314
        46.000          41.000
 115390417.15547  89914599.49447  21958075.1404   21958077.6854   21958075.2664
        51.000          45.000
 118280607.87347  92166698.75947  22508058.1274   22508061.1154   22508057.9554
        49.000          44.000
 106575059.19147  83045490.37947  20280565.5124   20280567.3254   20280565.8744
        55.000          49.000
 123550419.06447  96273046.47047  23510870.1504   23510872.2634   23510870.7024
        47.000          40.000
 139334101.49847  90779796.49747  24611479.1234   24611484.2614   24611478.8284
        42.000          36.000
 128290728.54947  99966784.06547  24412925.3814   24412928.7294   24412925.4724
        43.000          38.000
 117297270.45047  91400447.45947  22320948.4364   22320951.5404   22320948.5934
        50.000          44.000
 126997472.69247  98959080.22447  24166807.3604   24166808.0984   24166807.4904
        43.000          37.000
 09  1  3  1  0  0.0000000  0 12G 5G30G24G31G14G29G21G18G 6G12G 9G22
 124331418.43747  96881613.66847  23659487.9824   23659491.8024   23659488.6724
        45.000          39.000
 122513721.17747  95465220.10647  23313598.3464   23313602.6274   23313598.3264
        47.000          41.000
 113640460.24447  88550997.88247  21625068.1684   21625073.1434   21625068.3934
        52.000          46.000
 133051173.90147  85884008.34947  23415877.0684   23415879.8324   23415877.1774
        47.000          41.000
 115400639.34847  89922564.84547  21960020.1644   21960022.6224   21960020.4844
        51.000          45.000
 118356356.37347  92225723.55947  22522473.0264   22522475.6504   22522472.7564
        49.000          44.000
 106531223.81547  83011332.93247  20272223.9824   20272225.7784   20272224.4094
        54.000          49.000
 123526391.03747  96254323.33047  23506297.6484   23506299.7124   23506297.7724
        47.000          40.000
 139284380.72247  90741053.06047  24602018.0704   24602022.6574   24602017.7634
        42.000          36.000
 128291758.27247  99967586.46247  24413122.1594   24413124.3254   24413121.6374
        44.000          38.000
 117366327.56747  91454258.21347  22334089.2134   22334092.6124   22334089.4504
        49.000          43.000
 126974847.70647  98941450.41847  24162501.4464   24162502.3804   24162501.7244
        43.000          37.000
 09  1  3  1  0 30.0000000  0 12G 5G30G24G31G14G29G21G18G 6G12G 9G22
 124317284.73447  96870600.40647  23656798.1734   23656802.3484   23656798.6834
        45.000          39.000
 122490361.82047  95447018.07147  23309154.1974   23309157.3484   23309153.4044
        48.000          41.000
 113677578.02247  88579920.83647  21632131.5034   21632136.1454   21632131.6654
        52.000          46.000
 132948778.27547  85804219.71547  23396391.5994   23396394.6394   23396391.4714
        47.000          41.000
 115411240.60847  89930825.58247  21962037.6994   21962040.1964   21962038.0774
        51.000          45.000
 118432127.52747  92284765.98547  22536891.5954   22536894.7064   22536891.4904
        49.000          44.000
 106487886.77247  82977563.80547  20263977.1184   20263979.0244   20263977.4494
        55.000          49.000
 123502169.36447  96235449.28247  23501688.8764   23501690.1974   23501689.1974
        47.000          40.000
 139234965.25247  90702547.54847  24592614.1124   24592618.2954   24592614.1774
        42.000          36.000
 128292801.62347  99968399.47247  24413320.2984   24413323.4104   24413319.8904
        43.000          38.000
 117435841.64247  91508425.03147  22347317.0324   22347320.6754   22347317.2074
        49.000          43.000
 126951996.11147  98923643.98747  24158152.7414   24158153.6114   24158152.7834
        44.000          37.000
 09  1  3  1  1  0.0000000  0 12G 5G30G24G31G14G29G21G18G 6G12G 9G22
 124303167.43347  96859599.92747  23654111.8094   23654116.1144   23654111.8434
        46.000          39.000
 122466883.69047  95428723.47747  23304686.1184   23304689.3344   23304685.6184
        47.000          41.000
 113715166.06347  88609210.22547  21639284.3104   21639289.1194   21639284.3044
        52.000          46.000
 132846475.18447  85724503.17547  23376924.0234   23376926.9494   23376923.3624
        47.000          41.000
 115422221.67947  89939382.27247  21964126.9944   21964129.5454   21964127.2224
        51.000          45.000
 118507921.62547  92343826.29347  22551314.8914   22551317.8544   22551314.5164
        49.000          44.000
 106445053.00147  82944186.83747  20255826.2624   20255828.0074   20255826.6944
        54.000          49.000
 123477757.47747  96216427.03747  23497043.0984   23497044.9284   23497043.4184
        47.000          40.000
 139185857.72947  90664282.00047  24583269.6954   24583274.2374   24583269.5834
        43.000          37.000
 128293863.29647  99969226.78447  24413522.2784   24413526.0324   24413521.8984
        44.000          38.000
 117505813.61847  91562948.64647  22360632.6164   22360636.0294   22360632.6804
        49.000          43.000
 126928920.54647  98905663.03047  24153762.0074   24153762.8104   24153762.3274
        44.000          38.000
 09  1  3  1  1 30.0000000  0 12G 5G30G24G31G14G29G21G18G 6G12G 9G22
 124289065.31447  96848611.28947  23651427.8884   23651432.6864   23651428.6284
        45.000          39.000
 122443285.00747  95410334.94247  23300195.3664   23300198.6314   23300195.0654
        47.000          41.000
 113753220.50347  88638863.03747  21646525.8394   21646530.5854   21646525.7934
        52.000          46.000
 132744264.15047  85644858.36647  23357473.7464   23357476.9464   23357473.2214
        46.000          41.000
 115433577.21147  89948230.75447  21966288.0264   21966290.6304   21966288.2764
        51.000          45.000
 118583733.27547  92402900.29247  22565741.4634   22565744.5884   22565741.0864
        49.000          44.000
 106402721.65947  82911201.37747  20247770.7794   20247772.6154   20247771.0684
        55.000          49.000
 123453153.41847  96197255.03347  23492361.1614   23492362.9284   23492361.7524
        47.000          40.000
 139137055.19647  90626254.05947  24573982.9194   24573987.0084   24573983.1274
        42.000          37.000
 128294942.03847  99970067.40847  24413727.4244   24413730.2774   24413727.2174
        43.000          38.000
 117576238.47247  91617825.16147  22374033.5924   22374037.1324   22374033.5274
        49.000          43.000
 126905617.68847  98887504.97747  24149327.7864   24149328.5894   24149327.6554
        44.000          38.000
 09  1  3  1  2  0.0000000  0 12G 5G30G24G31G14G29G21G18G 6G12G 9G22
 124274982.48147  96837637.64047  23648748.2764   23648752.6674   23648748.5534
        46.000          39.000
 122419569.57247  95391855.42347  23295682.0984   23295685.8594   23295682.0424
        47.000          41.000
 113791742.86247  88668880.46647  21653856.2484   21653861.1634   21653856.4774
        52.000          46.000
 132642150.02147  85565289.06847  23338041.9324   23338045.1674   23338041.7524
        46.000          41.000
 115445307.61947  89957371.34147  21968520.1084   21968522.8034   21968520.2314
        51.000          44.000
 118659561.91947  92461987.51747  22580171.2134   22580174.2034   22580170.9894
        49.000          44.000
 106360897.27547  82878610.93647  20239811.9504   20239813.9384   20239812.3094
        54.000          49.000
 123428359.94747  96177935.45747  23487642.7824   23487644.7954   23487643.2964
        46.000          40.000
 139088559.67447  90588465.38747  24564753.9474   24564758.7234   24564754.0474
        42.000          36.000
 128296041.68447  99970924.30147  24413936.5574   24413939.3394   24413936.3604
        44.000          39.000
 117647116.65547  91673054.91847  22387521.5354   22387524.7474   22387521.4314
        49.000          43.000
 126882089.28347  98869171.19247  24144850.8564   24144851.5204   24144850.6484
        45.000          38.000
 09  1  3  1  2 30.0000000  0 12G 5G30G24G31G14G29G21G18G 6G12G 9G22
 124260920.07147  96826679.93447  23646072.5634   23646076.5154   23646072.8234
        46.000          39.000
 122395737.87747  95373285.31347  23291146.9734   23291150.9264   23291146.3944
        47.000          41.000
 113830731.71747  88699261.39147  21661275.5514   21661280.3044   21661275.6744
        52.000          45.000
 132540134.76947  85485796.82147  23318628.6504   23318632.1214   23318628.5214
        46.000          41.000
 115457409.54647  89966801.42947  21970823.1354   21970825.4564   21970823.6314
        51.000          45.000
 118735404.28947  92521085.42947  22594603.3844   22594606.6434   22594603.2644
        49.000          43.000
 106319581.02047  82846416.45347  20231949.4234   20231951.6194   20231949.6834
        54.000          49.000
 123403376.91047  96158468.14647  23482888.9864   23482890.3844   23482889.5294
        47.000          40.000
 139040370.23047  90550915.18447  24555583.7364   24555588.8664   24555584.0934
        41.000          37.000
 128297163.10947  99971798.15147  24414150.2874   24414153.1334   24414150.0684
        45.000          39.000
 117718444.98647  91728635.46147  22401095.1144   22401097.8584   22401095.3694
        49.000          43.000
 126858334.07347  98850660.67947  24140330.3194   24140330.9584   24140330.3204
        44.000          39.000
 09  1  3  1  3  0.0000000  0 12G 5G30G24G31G14G29G21G18G 6G12G 9G22
 124246880.26347  96815739.82647  23643400.9384   23643404.5884   23643401.3274
        45.000          39.000
 122371791.85347  95354626.12147  23286590.1774   23286593.9264   23286590.0834
        47.000          41.000
 113870186.86147  88730005.66147  21668783.8744   21668788.1964   21668784.0754
        52.000          46.000
 132438221.49847  85406384.03547  23299235.3654   23299238.6704   23299235.0494
        46.000          41.000
 115469881.67747  89976519.98547  21973196.5454   21973199.0824   21973196.7924
        51.000          45.000
 118811258.31347  92580192.45947  22609037.7774   22609041.0634   22609037.9764
        49.000          43.000
 106278775.52647  82814619.97647  20224184.5084   20224186.3884   20224184.9214
        54.000          49.000
 123378205.68947  96138854.22447  23478099.1524   23478100.4984   23478099.6674
        47.000          40.000
 138992487.13247  90513603.70347  24546472.5024   24546477.4714   24546472.5084
        42.000          37.000
 128298308.60647  99972690.79147  24414367.7744   24414371.2124   24414367.9464
        43.000          38.000
 117790222.01347  91784565.62547  22414753.3814   22414756.9564   22414753.4694
        49.000          43.000
 126834352.19647  98831973.52447  24135765.9974   24135767.5674   24135765.5264
        43.000          38.000
 09  1  3  1  3 30.0000000  0 12G 5G30G24G31G14G29G21G18G 6G12G 9G22
 124232864.71547  96804818.63747  23640733.5394   23640737.6324   23640733.9874
        46.000          39.000
 122347732.65547  95335878.72347  23282012.0674   23282015.6044   23282011.3544
        47.000          41.000
 113910107.19047  88761112.40747  21676380.6074   21676384.9374   21676380.5754
        52.000          46.000
 132336412.43847  85327052.45547  23279861.6844   23279864.9214   23279861.2104
        47.000          41.000
 115482721.39147  89986524.96947  21975639.9114   21975642.1744   21975640.1494
        51.000          45.000
 118887120.92147  92639306.16647  22623474.0464   22623477.2304   22623473.9164
        48.000          44.000
 106238482.57347  82783222.87847  20216517.0404   20216518.8674   20216517.4884
        54.000          49.000
 123352846.63647  96119093.92747  23473273.0734   23473275.1554   23473273.3444
        47.000          40.000
 138944910.00447  90476530.65447  24537418.5714   24537422.7074   24537418.8244
        43.000          37.000
 128299479.35747  99973603.06647  24414591.2104   24414593.2114   24414590.4884
        44.000          38.000
 117862444.95847  91840843.25047  22428496.8634   22428500.2394   22428496.9404
        49.000          42.000
 126810143.03147  98813109.26547  24131158.9114   24131160.3304   24131158.7534
        45.000          38.000
 09  1  3  1  4  0.0000000  0 12G 5G30G24G31G14G29G21G18G 6G12G 9G22
 124218876.63147  96793918.87847  23638072.0084   23638076.0754   23638072.3454
        46.000          40.000
 122323562.89147  95317045.19247  23277412.6944   23277416.2384   23277412.7354
        47.000          41.000
 113950493.21247  88792582.03847  21684065.6164   21684070.1954   21684065.7894
        52.000          45.000
 132234711.66547  85247805.25047  23260508.5584   23260511.6664   23260508.2154
        47.000          41.000
 115495927.61147  89996815.54247  21978153.0124   21978155.2074   21978153.2724
        51.000          45.000
 118962990.88247  92698425.58247  22637911.5934   22637915.1134   22637911.0474
        49.000          44.000
 106198705.59547  82752227.84247  20208947.6864   20208949.4654   20208948.0714
        55.000          49.000
 123327301.91447  96099188.92847  23468412.3534   23468414.2754   23468412.6284
        48.000          40.000
 138897639.90747  90439696.82747  24528423.2754   24528427.7824   24528423.8264
        42.000          37.000
 128300678.49547  99974537.51047  24414819.1704   24414821.5544   24414819.1674
        43.000          38.000
 117935113.39847  91897468.00747  22442325.1934   22442328.5804   22442325.0594
        48.000          42.000
 126785707.30047  98794068.47447  24126509.8734   24126510.3674   24126509.8084
        45.000          39.000
 09  1  3  1  4 30.0000000  0 12G 5G30G24G31G14G29G21G18G 6G12G 9G22
 124204918.13047  96783042.19947  23635415.4524   23635419.8214   23635415.7974
        47.000          40.000
 122299284.04247  95298126.64947  23272792.1914   23272795.8224   23272791.9934
        47.000          41.000
 113991344.21647  88824413.99147  21691839.2844   21691843.8944   21691839.3234
        52.000          45.000
 132133122.25347  85168644.82347  23241176.3974   23241179.5434   23241176.1444
        47.000          41.000
 115509498.38547  90007390.17247  21980735.4154   21980737.6764   21980735.7234
        51.000          45.000
 119038865.76447  92757548.85147  22652350.0124   22652353.5184   22652349.9394
        49.000          43.000
 106159447.13647  82721636.83547  20201477.1364   20201479.0694   20201477.5644
        54.000          49.000
 123301572.54747  96079140.09947  23463515.9354   23463518.1024   23463516.1834
        48.000          40.000
 138850676.78547  90403102.21947  24519486.6334   24519491.2774   24519486.3364
        42.000          37.000
 128301908.13347  99975495.68647  24415053.4314   24415055.5754   24415052.9204
        44.000          38.000
 118008224.97347  91954438.07047  22456238.0374   22456241.0694   22456238.2394
        49.000          42.000
 126761045.09447  98774851.21547  24121816.8814   24121817.3084   24121817.0114
        45.000          39.000
 09  1  3  1  5  0.0000000  0 12G 5G30G24G31G14G29G21G18G 6G12G 9G22
 124190989.57147  96772188.80847  23632765.0774   23632769.1594   23632765.3774
        46.000          40.000
 122274896.26647  95279123.22847  23268151.1224   23268155.3174   23268150.5804
        47.000          41.000
 114032658.18547  88856606.69947  21699701.1204   21699705.3064   21699701.1374
        52.000          45.000
 132031645.01847  85089571.81347  23221865.8144   23221868.9884   23221865.2344
        47.000          41.000
 115523429.96447  90018245.96247  21983386.4254   21983389.2254   21983386.5284
        51.000          45.000
 119114741.76647  92816672.98347  22666788.7444   22666792.3094   22666788.6804
        49.000          43.000
 106120707.78747  82691450.32147  20194105.3444   20194107.1624   20194105.7324
        55.000          49.000
 123275657.88547  96058946.85447  23458584.5284   23458586.3134   23458585.1194
        48.000          40.000
 138804019.28247  90366745.74847  24510607.6944   24510612.8884   24510608.6414
        43.000          37.000
 128303168.44247  99976477.77747  24415293.3154   24415295.4864   24415292.8804
        44.000          38.000
 118081776.44347  92011750.92747  22470234.7274   22470237.6464   22470234.7744
        49.000          43.000
 126736154.57747  98755456.04347  24117079.8344   24117080.9634   24117080.3344
        45.000          39.000
 09  1  3  1  5 30.0000000  0 12G 5G30G24G31G14G29G21G18G 6G12G 9G22
 124177094.21747  96761361.26847  23630120.9474   23630124.7604   23630121.2774
        46.000          40.000
 122250402.36947  95260037.10847  23263489.9704   23263494.3124   23263489.6604
        47.000          41.000
 114074435.52147  88889160.47047  21707651.0834   21707655.3724   21707651.0454
        52.000          45.000
 131930284.10147  85010589.43647  23202577.2514   23202580.6004   23202576.6514
        47.000          42.000
 115537721.62747  90029382.33647  21986106.0894   21986108.5114   21986106.1354
        51.000          44.000
 119190617.50447  92875796.88847  22681227.4014   22681231.0124   22681227.2094
        49.000          44.000
 106082490.68947  82661670.75947  20186832.9394   20186834.6054   20186833.3924
        54.000          49.000
 123249560.07647  96038610.91147  23453618.4714   23453619.9384   23453618.9924
        47.000          40.000
 138757668.17047  90330628.03147  24501786.9494   24501792.0184   24501787.2604
        40.000          37.000
 128304462.69147  99977486.34247  24415539.1904   24415541.9174   24415539.0014
        43.000          39.000
 118155766.75847  92069405.73047  22484314.5464   22484317.5984   22484314.6344
        48.000          42.000
 126711036.71547  98735883.71347  24112299.8344   24112300.7084   24112299.9334
        45.000          38.000
 09  1  3  1  6  0.0000000  0 12G 5G30G24G31G14G29G21G18G 6G12G 9G22
 124163234.45647  96750561.49247  23627483.3104   23627487.5474   23627483.7294
        46.000          40.000
 122225803.91247  95240869.50747  23258808.8064   23258813.1394   23258808.4724
        47.000          41.000
 114116676.03347  88922075.16047  21715689.1874   21715693.6504   21715689.2884
        52.000          45.000
 131829042.36447  84931699.94047  23183311.1854   23183314.7404   23183311.3324
        47.000          42.000
 115552371.70547  90040797.97947  21988894.0974   21988896.3044   21988894.4024
        51.000          45.000
 119266491.07047  92934919.13147  22695665.8624   22695669.3344   22695665.6224
        49.000          44.000
 106044798.19647  82632299.99847  20179659.8764   20179662.0704   20179660.2764
        54.000          49.000
 123223280.32747  96018133.19647  23448617.1574   23448619.4294   23448617.7144
        46.000          40.000
 138711623.88147  90294749.41547  24493025.2524   24493030.3394   24493025.1534
        42.000          37.000
 128305793.08247  99978523.05847  24415792.4244   24415795.2234   24415791.9974
        44.000          38.000
 118230194.55647  92127401.42347  22498477.4524   22498480.4834   22498477.4264
        49.000          42.000
 126685691.88847  98716134.50447  24107476.7754   24107477.8074   24107476.6244
        45.000          39.000
 09  1  3  1  6 30.0000000  0 12G 5G30G24G31G14G29G21G18G 6G12G 9G22
 124149410.86047  96739789.87947  23624852.7094   23624857.5234   23624853.2194
        46.000          40.000
 122201101.74047  95221621.09147  23254108.5564   23254112.1644   23254108.3224
        47.000          41.000
 114159377.36047  88955348.92247  21723814.6974   21723819.4214   21723814.8104
        52.000          45.000
 131727921.75747  84852904.83247  23164068.2504   23164072.0264   23164068.2934
        46.000          41.000
 115567376.56247  90052490.08747  21991749.0454   21991751.7304   21991749.1404
        51.000          44.000
 119342358.53847  92994036.62147  22710103.0454   22710106.4634   22710102.8974
        48.000          43.000
 106007631.23647  82603338.72447  20172587.6454   20172589.3694   20172588.1284
        55.000          49.000
 123196818.08547  95997513.25447  23443581.7634   23443583.6394   23443582.1314
        47.000          40.000
 138665884.74047  90259108.55847  24484321.0934   24484326.8424   24484321.2484
        42.000          37.000
 128307159.32147  99979587.68947  24416052.1074   24416054.8564   24416052.4354
        43.000          38.000
 118305056.37647  92185735.32047  22512723.4094   22512726.4144   22512723.3774
        49.000          42.000
 126660118.19847  98696206.97847  24102611.1494   24102611.3624   24102610.9084
        46.000          39.000
 09  1  3  1  7  0.0000000  0 12G 5G30G24G31G14G29G21G18G 6G12G 9G22
 124135628.49347  96729050.42347  23622229.9734   23622234.2774   23622230.0824
        45.000          39.000
 122176300.21447  95202295.26247  23249389.3294   23249392.6964   23249388.7194
        47.000          41.000
 114202542.01647  88988983.72147  21732028.8094   21732033.3414   21732028.8544
        52.000          45.000
 131626927.91847  84774208.48347  23144849.6814   23144853.1334   23144849.0174
        47.000          42.000
 115582736.63847  90064458.98747  21994671.8404   21994674.5494   21994672.0094
        51.000          44.000
 119418220.58047  93053149.89547  22724539.0144   22724542.5584   22724538.7154
        49.000          43.000
 105970994.93347  82574790.94447  20165615.8594   20165617.7214   20165616.2374
        54.000          49.000
 123170177.46847  95976754.33747  23438512.3184   23438514.0034   23438512.8104
        47.000          39.000
 138620453.67047  90223707.74447  24475676.1904   24475680.4434   24475676.0454
        43.000          37.000
 128308566.91347  99980684.54747  24416319.5064   24416323.3494   24416319.3284
        43.000          38.000
 118380352.70847  92244407.79747  22527051.8294   22527054.9364   22527051.7994
        48.000          42.000
 126634318.52347  98676103.35747  24097701.6664   24097701.8824   24097701.6974
        46.000          39.000
 09  1  3  1  7 30.0000000  0 12G 5G30G24G31G14G29G21G18G 6G12G 9G22
 124121886.48247  96718342.40647  23619614.2924   23619619.1464   23619614.4174
        45.000          39.000
 122151397.82147  95182890.83047  23244650.3624   23244654.3314   23244650.1084
        47.000          41.000
 114246166.08947  89022976.50847  21740330.1824   21740334.9674   21740330.2354
        52.000          45.000
 131526060.79047  84695610.88147  23125655.4594   23125658.7674   23125655.0754
        47.000          42.000
 115598447.38747  90076701.12947  21997661.7494   21997664.2204   21997661.9774
        51.000          45.000
 119494071.83647  93112254.73747  22738973.2974   22738976.8344   22738973.1704
        49.000          44.000
 105934888.47347  82546656.02747  20158745.1134   20158746.7564   20158745.5114
        54.000          49.000
 123143356.68847  95955855.01347  23433407.9524   23433410.7554   23433408.5904
        46.000          40.000
 138575327.64747  90188544.61447  24467089.3584   24467093.7434   24467088.9904
        41.000          37.000
 128310014.55647  99981812.62947  24416595.4024   24416598.2674   24416595.2984
        43.000          38.000
 118456078.61347  92303414.99147  22541461.5314   22541464.9914   22541461.7284
        49.000          42.000
 126608290.05947  98655821.46247  24092748.3434   24092748.8914   24092748.3414
        45.000          39.000
 09  1  3  1  8  0.0000000  0 12G 5G30G24G31G14G29G21G18G 6G12G 9G22
 124108187.37647  96707667.81647  23617007.4944   23617012.1284   23617008.0844
        45.000          39.000
 122126396.85147  95163409.58347  23239892.8464   23239896.7234   23239892.6234
        48.000          41.000
 114290249.03447  89057326.85847  21748719.0914   21748723.5704   21748719.1454
        52.000          45.000
 131425323.55247  84617114.47347  23106485.7514   23106488.8154   23106485.3294
        47.000          42.000
 115614506.79647  90089214.96547  22000717.9104   22000720.2124   22000718.0924
        51.000          45.000
 119569910.51847  93171349.80547  22753405.0144   22753408.1154   22753404.9804
        49.000          43.000
 105899314.49347  82518936.03547  20151975.4904   20151977.3104   20151975.8854
        54.000          49.000
 123116357.04047  95934816.32647  23428270.4674   23428273.0804   23428271.1014
        47.000          40.000
 138530506.96047  90153619.42947  24458559.5644   24458564.8374   24458559.6194
        40.000          36.000
 128311504.75847  99982973.85147  24416878.6194   24416882.2124   24416878.0504
        43.000          38.000
 118532232.35847  92362755.58147  22555953.3394   22555956.4084   22555953.3164
        48.000          42.000
 126582033.24247  98635361.63047  24087751.7344   24087752.5604   24087751.4504
        46.000          39.000
 09  1  3  1  8 30.0000000  0 12G 5G30G24G31G14G29G21G18G 6G12G 9G22
 124094534.58647  96697029.29447  23614409.9364   23614414.0824   23614410.4974
        46.000          39.000
 122101300.64147  95143854.13747  23235117.0994   23235120.7464   23235116.8054
        47.000          41.000
 114334791.73247  89092035.44947  21757195.1794   21757199.5784   21757195.2934
        52.000          45.000
 131324720.49147  84538722.60447  23087341.6864   23087344.5664   23087341.1244
        47.000          42.000
 115630914.20447  90101999.97047  22003840.0014   22003842.2304   22003840.2124
        50.000          45.000
 119645735.70447  93230434.32847  22767833.8904   22767837.1184   22767833.5514
        49.000          43.000
 105864276.52747  82491633.71147  20145307.9974   20145309.8814   20145308.4574
        54.000          49.000
 123089181.18047  95913640.31947  23423099.2874   23423100.8214   23423099.7664
        47.000          40.000
 138485992.58847  90118932.91947  24450089.3764   24450093.4864   24450089.3814
        41.000          36.000
 128313040.66247  99984170.67447  24417171.1854   24417174.5074   24417170.8884
        43.000          38.000
 118608813.32847  92422429.07947  22570526.0064   22570529.0844   22570525.8824
        47.000          42.000
 126555549.06247  98614724.63547  24082712.0194   24082712.7824   24082712.1094
        46.000          40.000
 09  1  3  1  9  0.0000000  0 12G 5G30G24G31G14G29G21G18G 6G12G 9G22
 124080930.74047  96686428.92147  23611820.7944   23611825.0864   23611821.4354
        46.000          39.000
 122076110.97247  95124225.83547  23230323.6834   23230327.3464   23230322.9374
        47.000          41.000
 114379793.82747  89127102.01847  21765758.8104   21765763.1804   21765759.0504
        52.000          45.000
 131224255.00847  84460437.93747  23068223.7824   23068226.2324   23068223.0264
        48.000          42.000
 115647668.03947  90115054.91347  22007027.8904   22007030.6624   22007028.2154
        51.000          45.000
 119721545.71447  93289507.03647  22782259.8694   22782263.2404   22782259.7524
        49.000          43.000
 105829777.23447  82464751.13447  20138742.9064   20138745.0304   20138743.2624
        54.000          49.000
 123061830.52747  95892328.11347  23417894.8004   23417896.1884   23417895.3224
        48.000          40.000
 138441785.33947  90084485.74947  24441677.0514   24441680.9954   24441676.9274
        41.000          37.000
 128314624.85347  99985405.12847  24417472.8924   24417475.4454   24417472.5744
        42.000          38.000
 118685819.88247  92482434.18847  22585179.6434   22585183.0804   22585179.4124
        47.000          42.000
 126528838.07347  98593910.89447  24077629.2484   24077629.5524   24077629.0284
        45.000          39.000
 09  1  3  1  9 30.0000000  0 12G 5G30G24G31G14G29G21G18G 6G12G 9G22
 124067374.92447  96675865.98647  23609241.6784   23609245.6414   23609242.2714
        46.000          40.000
 122050826.63747  95104523.75947  23225512.3044   23225515.5684   23225511.9644
        48.000          41.000
 114425251.31347  89162523.44447  21774409.2884   21774413.5374   21774409.3594
        52.000          45.000
 131123926.89847  84382260.30647  23049131.9774   23049134.4174   23049131.8814
        48.000          42.000
 115664762.92347  90128375.61247  22010280.9854   22010283.5514   22010281.4234
        50.000          44.000
 119797335.18147  93348563.75647  22796681.8404   22796685.3654   22796681.9694
        48.000          43.000
 105795815.05247  82438287.09547  20132280.1944   20132282.2284   20132280.6114
        54.000          49.000
 123034303.06947  95870878.15047  23412656.7114   23412658.4334   23412657.0014
        48.000          40.000
 138397881.80147  90050275.20647  24433322.5684   24433326.2724   24433322.8584
        40.000          37.000
 128316256.09647  99986676.24447  24417782.7234   24417785.8604   24417782.2214
        42.000          38.000
 118763246.53947  92542766.63647  22599913.4304   22599917.0444   22599913.5564
        47.000          42.000
 126501897.11047  98572917.95047  24072502.2334   24072502.8724   24072502.7754
        45.000          40.000
 09  1  3  1 10  0.0000000  0 12G 5G30G24G31G14G29G21G18G 6G12G 9G22
 124053871.56647  96665343.91647  23606671.6324   23606675.9444   23606672.3184
        45.000          39.000
 122025452.24047  95084751.52547  23220683.5294   23220687.2344   23220683.4934
        48.000          41.000
 114471165.88547  89198301.02747  21783146.5804   21783150.8534   21783146.6944
        52.000          45.000
 131023741.63447  84304193.98347  23030067.2434   23030069.7434   23030067.1984
        48.000          42.000
 115682199.27247  90141962.39947  22013599.0224   22013601.6624   22013599.1704
        50.000          45.000
 119873103.81147  93407604.22447  22811100.2724   22811103.8614   22811100.0424
        49.000          43.000
 105762394.63147  82412245.20847  20125920.6984   20125922.4234   20125921.1764
        54.000          49.000
 123006602.52947  95849293.30147  23407385.3334   23407386.6104   23407385.8764
        48.000          40.000
 138354284.34147  90016303.18347  24425025.5774   24425030.0164   24425025.4284
        42.000          36.000
 128317938.77047  99987987.45647  24418103.3344   24418105.8114   24418103.1264
        44.000          38.000
 118841094.19047  92603427.15047  22614727.4334   22614731.0514   22614727.8894
        48.000          42.000
 126474728.52947  98551747.64847  24067332.3544   24067333.1904   24067332.4434
        46.000          40.000
 09  1  3  1 10 30.0000000  0 12G 5G30G24G31G14G29G21G18G 6G12G 9G22
 124040422.61647  96654864.23647  23604112.5474   23604116.5004   23604112.7884
        46.000          39.000
 121999988.85247  95064909.96447  23215837.9804   23215841.7004   23215837.5984
        48.000          41.000
 114517536.62647  89234434.07547  21791970.4834   21791975.0974   21791970.6074
        52.000          45.000
 130923701.81147  84226240.96547  23011030.2554   23011032.6604   23011029.4074
        48.000          42.000
 115699974.42147  90155813.18047  22016981.3484   22016984.1874   22016981.7214
        50.000          44.000
 119948849.42247  93466626.76947  22825514.4664   22825517.6634   22825514.0834
        48.000          43.000
 105729517.96247  82386627.02547  20119664.2054   20119666.4144   20119664.4894
        54.000          50.000
 122978729.73947  95827574.22947  23402081.3134   23402082.6934   23402081.6434
        48.000          40.000
 138310992.25047  89982569.08947  24416787.7574   24416792.1374   24416787.8224
        43.000          36.000
 128319674.41847  99989339.93447  24418433.8564   24418435.6514   24418433.5264
        43.000          38.000
 118919360.13947  92664413.61347  22629621.2344   22629624.3714   22629621.1794
        48.000          42.000
 126447332.28047  98530399.92447  24062118.7514   24062119.8804   24062118.6244
        45.000          39.000
 09  1  3  1 11  0.0000000  0 12G 5G30G24G31G14G29G21G18G 6G12G 9G22
 124027029.80847  96644428.32547  23601563.7574   23601568.3974   23601564.1894
        45.000          39.000
 121974437.80347  95045000.07847  23210975.3384   23210979.6904   23210974.7724
        47.000          41.000
 114564361.98847  89270921.36947  21800880.9644   21800885.7054   21800881.1934
        51.000          45.000
 130823809.91847  84148403.22247  22992021.5134   22992023.9244   22992020.8454
        48.000          42.000
 115718085.71647  90169925.89047  22020427.8214   22020430.7914   22020428.2414
        50.000          44.000
 120024569.36447  93525629.30447  22839923.5704   22839927.0974   22839923.1674
        48.000          43.000
 105697186.45047  82361433.62547  20113511.9424   20113513.9394   20113512.3764
        54.000          50.000
 122950685.37247  95805721.47747  23396744.4684   23396746.1804   23396745.2804
        48.000          40.000
 138268005.19447  89949072.69747  24408607.6054   24408611.4424   24408607.4754
        43.000          37.000
 128321464.91547  99990735.15847  24418774.3494   24418776.0744   24418774.0754
        44.000          38.000
 118998041.97847  92725724.14647  22644594.0274   22644597.0044   22644593.9174
        48.000          42.000
 126419707.94147  98508874.49547  24056862.1314   24056862.8104   24056862.5244
        46.000          39.000
 09  1  3  1 11 30.0000000  0 12G 5G30G24G31G14G29G21G18G 6G12G 9G22
 124013695.15347  96634037.73247  23599026.2364   23599031.0254   23599026.6694
        45.000          39.000
 121948800.82947  95025023.25147  23206097.1564   23206101.1114   23206097.0604
        47.000          41.000
 114611641.12247  89307762.25047  21809877.7324   21809882.8834   21809877.7194
        52.000          45.000
 130724068.71647  84070682.89547  22973041.1574   22973043.9814   22973040.9914
        48.000          43.000
 115736531.28647  90184299.07147  22023938.0714   22023940.8834   22023938.4624
        50.000          45.000
 120100261.32147  93584610.01147  22854327.3214   22854330.8904   22854326.7934
        49.000          43.000
 105665402.14347  82336666.63147  20107463.4404   20107465.5694   20107463.8754
        54.000          49.000
 122922470.49847  95783735.86247  23391375.6124   23391376.8184   23391375.7324
        47.000          40.000
 138225322.82247  89915813.73547  24400484.9784   24400489.8884   24400485.3874
        43.000          37.000
 128323311.79047  99992174.30147  24419125.2664   24419127.9894   24419125.2934
        42.000          38.000
 119077137.23247  92787356.82847  22659645.3424   22659648.4054   22659645.3894
        47.000          41.000
 126391855.37347  98487171.22547  24051561.8804   24051562.3484   24051562.0634
        45.000          39.000
 09  1  3  1 12  0.0000000  0 12G 5G30G24G31G14G29G21G18G 6G12G 9G22
 124000420.89347  96623694.17047  23596500.7654   23596504.7114   23596501.2524
        46.000          39.000
 121923080.03447  95004981.08647  23201202.6064   23201206.2204   23201202.2344
        47.000          41.000
 114659373.16147  89344956.04947  21818961.0424   21818965.3914   21818961.0044
        51.000          45.000
 130624481.16347  83993082.30047  22954090.0924   22954093.0204   22954089.8604
        48.000          43.000
 115755308.71847  90198930.85147  22027511.0934   22027513.9794   22027511.2724
        50.000          44.000
 120175923.26947  93643567.34347  22868725.5754   22868728.9294   22868725.0784
        48.000          43.000
 105634166.95647  82312327.51547  20101519.7464   20101521.5344   20101520.1254
        54.000          49.000
 122894086.33847  95761618.33147  23385974.2534   23385975.8534   23385974.6994
        47.000          40.000
 138182944.93647  89882792.02047  24392421.5014   24392425.6004   24392421.7384
        44.000          37.000
 128325217.06347  99993658.95047  24419488.1054   24419491.4144   24419487.7514
        44.000          38.000
 119156643.96247  92849310.12047  22674774.7174   22674777.9224   22674774.8424
        46.000          41.000
 126363775.19347  98465290.57547  24046218.1784   24046219.0844   24046218.0654
        45.000          39.000
 09  1  3  1 12 30.0000000  0 12G 5G30G24G31G14G29G21G18G 6G12G 9G22
 123987208.49147  96613398.83547  23593986.5734   23593990.2384   23593987.1494
        45.000          39.000
 121897276.51647  94984874.47447  23196292.4244   23196296.0484   23196291.9864
        47.000          41.000
 114707556.56347  89382501.56447  21828129.9634   21828134.4684   21828129.8884
        51.000          45.000
 130525049.76447  83915603.38247  22935168.8574   22935171.6644   22935168.4444
        48.000          43.000
 115774415.40047  90213819.18247  22031147.0484   22031149.7704   22031147.2664
        50.000          44.000
 120251552.14247  93702498.87847  22883117.3114   22883120.5324   22883117.0184
        48.000          43.000
 105603482.38547  82288417.45547  20095680.5124   20095682.3454   20095680.9504
        54.000          49.000
 122865533.64247  95739369.49747  23380540.2934   23380542.7664   23380540.6444
        48.000          40.000
 138140870.63247  89850006.87047  24384414.4564   24384418.6874   24384414.1374
        42.000          37.000
 128327182.22547  99995190.29847  24419862.4324   24419864.4584   24419862.4504
        44.000          38.000
 119236559.19047  92911581.72647  22689981.8944   22689985.4894   22689981.8224
        46.000          41.000
 126335465.89347  98443231.38547  24040830.8554   24040831.9924   24040830.8904
        45.000          39.000
 09  1  3  1 13  0.0000000  0 12G 5G30G24G31G14G29G21G18G 6G12G 9G22
 123974061.62747  96603154.56347  23591484.5504   23591488.2194   23591484.9954
        46.000          39.000
 121871393.28147  94964705.76147  23191366.9914   23191370.5294   23191366.5104
        48.000          41.000
 114756192.02947  89420399.33047  21837384.7354   21837389.6284   21837384.9404
        51.000          45.000
 130425779.01147  83838249.63147  22916278.2974   22916280.9124   22916277.6774
        48.000          43.000
 115793850.57447  90228963.48847  22034845.4244   22034848.0934   22034845.6204
        50.000          45.000
 120327147.45947  93761404.27247  22897502.3044   22897505.9224   22897502.0254
        48.000          43.000
 105573351.64147  82264938.95447  20089946.9094   20089948.8614   20089947.3264
        54.000          49.000
 122836814.95447  95716991.28847  23375075.9574   23375077.5704   23375076.1914
        48.000          40.000
 138099101.19847  89817459.26547  24376466.1554   24376470.8334   24376465.8624
        44.000          37.000
 128329210.54147  99996770.82047  24420248.5034   24420250.5554   24420248.4914
        44.000          38.000
 119316882.34747  92974171.20347  22705267.1284   22705270.5094   22705267.1144
        47.000          41.000
 126306929.36147  98420995.15247  24035401.0894   24035401.2264   24035401.2414
        46.000          39.000
 09  1  3  1 13 30.0000000  0 12G 5G30G24G31G14G29G21G18G 6G12G 9G22
 123960981.55047  96592962.33947  23588995.7754   23588999.8724   23588996.0354
        46.000          39.000
 121845431.24247  94944475.62147  23186426.6834   23186430.1274   23186426.4164
        48.000          41.000
 114805277.66147  89458647.87647  21846725.4704   21846730.2934   21846725.6054
        51.000          45.000
 130326670.72647  83761022.48947  22897418.2844   22897420.8284   22897418.1124
        48.000          43.000
 115813610.82847  90244361.10647  22038605.6724   22038608.5444   22038605.9304
        51.000          45.000
 120402706.07047  93820281.07647  22911880.6224   22911884.0294   22911880.2764
        47.000          43.000
 105543775.81347  82241892.85547  20084318.7534   20084320.8164   20084319.0254
        54.000          50.000
 122807930.43647  95694483.86047  23369579.1934   23369581.2314   23369579.8024
        48.000          40.000
 138057635.66147  89785148.44347  24368575.8054   24368579.3114   24368576.3284
        42.000          37.000
 128331303.24647  99998401.54047  24420646.3954   24420648.5854   24420646.8884
        44.000          38.000
 119397610.05947  93037075.92647  22720629.0594   22720632.3924   22720629.2054
        47.000          41.000
 126278164.84047  98398581.25447  24029927.2614   24029927.6534   24029927.4774
        46.000          39.000
 09  1  3  1 14  0.0000000  0 12G 5G30G24G31G14G29G21G18G 6G12G 9G22
 123947969.93447  96582823.46147  23586519.1944   23586523.5474   23586519.5084
        46.000          39.000
 121819392.04347  94924185.35947  23181471.4494   23181475.2954   23181471.2284
        47.000          41.000
 114854811.97147  89497246.03447  21856151.9254   21856156.3394   21856152.1504
        51.000          45.000
 130227727.54447  83683923.98947  22878589.9744   22878592.4144   22878588.7744
        47.000          43.000
 115833693.52847  90260009.97747  22042427.2054   22042430.0614   22042427.4644
        50.000          45.000
 120478225.34047  93879127.23247  22926251.3384   22926255.0524   22926250.8764
        48.000          43.000
 105514756.25047  82219280.21247  20078796.5774   20078798.5814   20078797.0044
        54.000          49.000
 122778881.32247  95671848.19747  23364051.5954   23364053.8554   23364052.0704
        48.000          41.000
 138016473.18247  89753073.79847  24360741.8604   24360746.8954   24360742.0304
        43.000          37.000
 128333461.83647 100000083.59447  24421057.1424   24421058.9534   24421056.8344
        45.000          38.000
 119478739.79747  93100293.91047  22736067.4254   22736070.7044   22736067.4544
        47.000          41.000
 126249172.09647  98375989.52847  24024410.2684   24024410.6274   24024410.3764
        47.000          40.000
 09  1  3  1 14 30.0000000  0 12G 5G30G24G31G14G29G21G18G 6G12G 9G22
 123935031.25147  96572741.43047  23584057.0604   23584061.2904   23584057.5354
        46.000          39.000
 121793280.09347  94903838.39347  23176502.5334   23176506.0424   23176501.8664
        48.000          41.000
 114904796.40547  89536194.95147  21865663.3254   21865668.2164   21865663.4074
        51.000          45.000
 130128954.41147  83606957.98347  22859794.2124   22859796.4094   22859793.8564
        49.000          42.000
 115854098.89447  90275910.27647  22046310.6464   22046313.2624   22046310.8394
        51.000          45.000
 120553705.35747  93937942.79347  22940614.7754   22940618.2534   22940614.3084
        47.000          43.000
 105486297.46447  82197104.53747  20073380.9054   20073382.8974   20073381.2344
        54.000          49.000
 122749670.96347  95649086.86747  23358493.0174   23358494.5354   23358493.5484
        48.000          40.000
 137975615.75347  89721236.83747  24352968.1434   24352972.4824   24352968.3454
        43.000          37.000
 128335690.44147 100001820.17347  24421481.2364   24421484.0864   24421481.2594
        44.000          39.000
 119560271.71947  93163825.28147  22751582.4474   22751585.7194   22751582.2504
        46.000          41.000
 126219953.63847  98353221.92247  24018849.9464   24018850.8784   24018849.9464
        46.000          40.000
 09  1  3  1 15  0.0000000  0 12G 5G30G24G31G14G29G21G18G 6G12G 9G22
 123922162.63247  96562713.96947  23581607.9554   23581612.4654   23581608.5274
        46.000          39.000
 121767091.68247  94883431.87747  23171518.8364   23171522.6814   23171518.8494
        47.000          41.000
 114955224.65847  89575489.70047  21875259.5944   21875264.1594   21875259.7644
        51.000          45.000
 130030349.73447  83530123.25447  22841030.2374   22841032.1364   22841030.1974
        49.000          43.000
 115874819.51047  90292056.22747  22050253.4804   22050256.0904   22050253.5724
        50.000          45.000
 120629138.92647  93996722.16847  22954969.1474   22954973.0894   22954968.7544
        48.000          43.000
 105458395.50347  82175362.74247  20068071.4114   20068073.5044   20068071.8304
        54.000          49.000
 122720295.38347  95626196.80547  23352903.0034   23352904.2924   23352903.6184
        48.000          40.000
 137935057.92547  89689633.37147  24345249.7564   24345253.8974   24345249.2244
        42.000          37.000
 128337985.98047 100003608.94347  24421917.9304   24421920.6594   24421917.2574
        44.000          39.000
 119642198.42347  93227664.28147  22767172.5904   22767176.2854   22767172.2674
        47.000          41.000
 126190504.18047  98330274.30247  24013245.5504   24013246.4994   24013245.7264
        45.000          39.000
 09  1  3  1 15 30.0000000  0 12G 5G30G24G31G14G29G21G18G 6G12G 9G22
 123909372.43647  96552747.64547  23579173.9224   23579178.3104   23579174.5794
        46.000          39.000
 121740835.19547  94862972.29447  23166522.4594   23166526.0324   23166522.1084
        48.000          41.000
 115006102.15347  89615134.50547  21884941.2064   21884945.8784   21884941.3274
        51.000          45.000
 129931922.58447  83453426.85247  22822300.5134   22822302.1234   22822300.4004
        49.000          43.000
 115895859.37947  90308450.94047  22054257.1644   22054259.7834   22054257.4184
        50.000          45.000
 120704530.17247  94055468.56547  22969315.7374   22969319.4724   22969315.7734
        47.000          42.000
 105431058.91847  82154061.49847  20062869.4274   20062871.4664   20062869.8464
        54.000          49.000
 122690762.01147  95603183.79747  23347282.8654   23347284.4704   23347283.2984
        48.000          41.000
 137894805.92447  89658268.18447  24337590.4454   24337594.6184   24337590.5554
        42.000          37.000
 128340356.66747 100005456.29547  24422369.0574   24422371.5144   24422368.6314
        45.000          38.000
 119724523.35347  93291813.58147  22782838.5134   22782841.8354   22782838.7334
        47.000          41.000
 126160830.40747  98307151.91247  24007598.7084   24007599.5744   24007598.7154
        45.000          39.000
 09  1  3  1 16  0.0000000  0 12G 5G30G24G31G14G29G21G18G 6G12G 9G22
 123896658.33247  96542840.59147  23576755.1794   23576758.7294   23576755.3654
        46.000          39.000
 121714507.85447  94842457.50247  23161512.4844   23161516.1614   23161512.0994
        48.000          42.000
 115057423.17347  89655124.92347  21894707.6234   21894711.7384   21894707.6954
        51.000          45.000
 129833671.15147  83376867.37447  22803603.6524   22803605.1744   22803603.5454
        48.000          43.000
 115917211.77947  90325089.18447  22058320.1924   22058323.2624   22058320.5164
        50.000          45.000
 120779872.37047  94114176.74347  22983653.0824   22983656.5824   22983652.9504
        48.000          42.000
 105404284.86347  82133198.59247  20057774.5764   20057776.5074   20057774.9074
        54.000          50.000
 122661067.98247  95580045.59247  23341632.6354   23341634.2304   23341633.0224
        48.000          40.000
 137854854.58747  89627137.28747  24329987.3894   24329991.9404   24329987.1254
        42.000          37.000
 128342799.79047 100007360.03047  24422834.1504   24422836.5044   24422833.7994
        44.000          38.000
 119807240.25047  93356268.30947  22798579.1334   22798582.7974   22798579.1934
        47.000          41.000
 126130927.65447  98283851.10547  24001909.1614   24001909.6374   24001909.1754
        46.000          40.000
 09  1  3  1 16 30.0000000  0 12G 5G30G24G31G14G29G21G18G 6G12G 9G22
 123884024.32347  96532995.95847  23574350.4894   23574354.0954   23574350.9644
        46.000          39.000
 121688113.39947  94821890.43447  23156489.9314   23156493.6124   23156489.5714
        47.000          42.000
 115109188.67047  89695461.68147  21904557.9764   21904562.3194   21904558.2384
        51.000          45.000
 129735600.44947  83300448.71647  22784941.3734   22784943.0674   22784940.2724
        49.000          43.000
 115938876.18947  90341970.55547  22062443.0974   22062445.6384   22062443.2844
        50.000          44.000
 120855165.48647  94172846.68547  22997980.9834   22997984.4404   22997980.9164
        48.000          42.000
 105378076.94547  82112776.82347  20052787.3144   20052789.3664   20052787.7284
        54.000          49.000
 122631216.53747  95556784.73547  23335952.0484   23335953.5394   23335952.4674
        48.000          40.000
 137815205.71947  89596242.06247  24322442.7484   24322447.2834   24322442.9104
        43.000          37.000
 128345319.25047 100009323.28247  24423313.4234   24423316.2204   24423313.1254
        44.000          39.000
 119890348.53247  93421028.02347  22814393.7654   22814397.6624   22814393.6854
        47.000          41.000
 126100798.43747  98260373.80847  23996175.4214   23996176.2984   23996175.2824
        46.000          39.000
 09  1  3  1 17  0.0000000  0 12G 5G30G24G31G14G29G21G18G 6G12G 9G22
 123871472.81847  96523215.60147  23571962.0964   23571966.2714   23571962.6254
        46.000          40.000
 121661653.83847  94801272.62547  23151454.7514   23151458.5824   23151454.2564
        47.000          42.000
 115161397.53547  89736143.91047  21914493.0104   21914497.3814   21914493.2384
        51.000          45.000
 129637713.54047  83224173.28147  22766313.7344   22766315.7884   22766313.8924
        49.000          43.000
 115960850.63347  90359093.50647  22066624.3124   22066627.1774   22066624.5154
        50.000          44.000
 120930407.70447  94231476.95947  23012299.1654   23012302.7284   23012298.8984
        48.000          43.000
 105352436.83147  82092797.49447  20047908.2054   20047910.1504   20047908.5734
        54.000          50.000
 122601208.90047  95533402.17347  23330241.1424   23330242.9834   23330241.6674
        47.000          40.000
 137775859.07447  89565582.36147  24314954.9214   24314959.6714   24314955.1134
        42.000          37.000
 128347917.55347 100011347.95347  24423807.6124   24423810.6804   24423807.6044
        44.000          38.000
 119973846.11347  93486091.09247  22830282.7774   22830286.8484   22830282.9824
        47.000          41.000
 126070442.82947  98236720.10647  23990398.7254   23990399.5084   23990398.6324
        45.000          39.000
 09  1  3  1 17 30.0000000  0 12G 5G30G24G31G14G29G21G18G 6G12G 9G22
 123859002.22447  96513498.29847  23569589.3464   23569592.9494   23569589.7234
        46.000          40.000
 121635127.59847  94780602.85547  23146407.4804   23146410.7284   23146407.0834
        49.000          42.000
 115214045.06847  89777167.96347  21924511.7924   21924516.1184   21924511.8604
        52.000          45.000
 129540009.84547  83148040.60747  22747721.3044   22747723.3964   22747720.9514
        48.000          43.000
 115983128.80147  90376453.13647  22070863.7964   22070866.4744   22070864.1604
        50.000          44.000
 121005593.07747  94290062.95147  23026606.3424   23026609.9704   23026606.1054
        47.000          42.000
 105327363.13447  82073259.54647  20043136.8044   20043138.9584   20043137.1294
        54.000          49.000
 122571042.80847  95509896.12047  23324500.9454   23324502.6684   23324501.2144
        47.000          40.000
 137736810.49147  89535154.91747  24307524.5944   24307529.0824   24307524.2564
        43.000          37.000
 128350592.59747 100013432.43447  24424316.7584   24424320.1024   24424316.5944
        43.000          38.000
 120057726.95147  93551452.79447  22846245.2424   22846248.5984   22846245.3834
        47.000          41.000
 126039857.70347  98212887.56047  23984578.2584   23984578.9284   23984578.8114
        45.000          39.000
 09  1  3  1 18  0.0000000  0 12G 5G30G24G31G14G29G21G18G 6G12G 9G22
 123846621.39547  96503850.90947  23567233.3564   23567236.9044   23567233.9274
        47.000          40.000
 121608543.29547  94759887.84747  23141348.4614   23141351.7494   23141348.2464
        48.000          42.000
 115267136.84447  89818538.18047  21934614.8334   21934618.9814   21934615.0064
        51.000          45.000
 129442498.67247  83072057.94247  22729165.5714   22729167.4804   22729165.0344
        49.000          43.000
 116005715.43847  90394053.12247  22075162.1034   22075164.6934   22075162.4114
        50.000          45.000
 121080726.18847  94348608.22347  23040903.5994   23040907.4334   23040903.4134
        47.000          42.000
 105302863.92547  82054169.25247  20038474.8354   20038476.7574   20038475.1574
        54.000          49.000
 122540726.00247  95486272.62847  23318732.0404   23318733.3474   23318732.3804
        47.000          40.000
 137698066.29347  89504964.64047  24300151.6374   24300156.2444   24300151.4174
        42.000          37.000
 128353353.03347 100015583.45247  24424842.1534   24424845.1684   24424841.9844
        44.000          38.000
 120141995.41447  93617116.54747  22862281.1274   22862284.4044   22862281.1574
        47.000          41.000
 126009049.33247  98188881.07247  23978716.1664   23978716.4414   23978716.2224
        44.000          39.000
 09  1  3  1 18 30.0000000  0 12G 5G30G24G31G14G29G21G18G 6G12G 9G22
 123834326.41647  96494270.43347  23564893.1364   23564897.1144   23564893.6104
        46.000          39.000
 121581896.52447  94739124.14847  23136277.7294   23136280.5334   23136277.2434
        48.000          42.000
 115320665.79447  89860249.07047  21944800.8964   21944805.3324   21944801.0104
        51.000          45.000
 129345177.25547  82996223.12847  22710645.7044   22710647.9284   22710645.3264
        48.000          43.000
 116028601.91247  90411886.75547  22079517.1304   22079519.7044   22079517.4954
        50.000          44.000
 121155798.66447  94407106.23547  23055189.7514   23055193.4034   23055189.4864
        47.000          42.000
 105278934.31947  82035522.80947  20033921.2124   20033922.9774   20033921.6494
        54.000          49.000
 122510253.77947  95462528.04347  23312933.2514   23312935.2404   23312933.5614
        47.000          40.000
 137659619.88547  89475006.41647  24292835.6204   24292839.8884   24292835.4454
        43.000          37.000
 128356194.74247 100017797.79047  24425382.5754   24425385.1234   24425382.3564
        43.000          38.000
 120226643.09747  93683075.77447  22878388.8374   22878392.5954   22878389.1314
        47.000          41.000
 125978012.21047  98164696.32747  23972809.5014   23972810.6954   23972809.4274
        44.000          39.000
 09  1  3  1 19  0.0000000  0 12G 5G30G24G31G14G29G21G18G 6G12G 9G22
 123822122.71947  96484761.10647  23562571.0054   23562574.7834   23562571.5624
        46.000          40.000
 121555192.53747  94718315.86447  23131195.9384   23131199.3544   23131195.8084
        48.000          42.000
 115374633.90347  89902302.15547  21955070.6154   21955075.3034   21955070.8554
        51.000          45.000
 129248051.86347  82920541.07247  22692163.4174   22692165.5364   22692163.0574
        49.000          43.000
 116051788.93247  90429954.57447  22083929.4264   22083932.1334   22083929.5024
        51.000          45.000
 121230811.92147  94465558.10647  23069464.3754   23069467.8034   23069464.1764
        47.000          42.000
 105255579.58847  82017324.30847  20029476.9084   20029478.8214   20029477.3014
        54.000          49.000
 122479630.98247  95438666.12447  23307106.0334   23307107.7064   23307106.4834
        47.000          40.000
 137621474.31047  89445282.62347  24285576.4824   24285581.7324   24285576.8274
        43.000          37.000
 128359122.88747 100020079.50747  24425939.8484   24425943.1054   24425939.7624
        44.000          38.000
 120311670.75347  93749331.10247  22894569.1174   22894571.9434   22894569.2974
        46.000          41.000
 125946749.59147  98140335.86347  23966860.8134   23966861.3064   23966860.3604
        45.000          39.000
 09  1  3  1 19 30.0000000  0 12G 5G30G24G31G14G29G21G18G 6G12G 9G22
 123810010.29847  96475322.88547  23560265.4854   23560270.1124   23560266.1384
        46.000          40.000
 121528431.31747  94697462.99747  23126103.4274   23126106.7404   23126103.2324
        48.000          42.000
 115429037.82947  89944694.83347  21965423.3534   21965428.0824   21965423.4484
        51.000          45.000
 129151123.02747  82845012.16747  22673718.3404   22673720.7824   22673717.8564
        49.000          43.000
 116075272.35247  90448253.36147  22088398.3174   22088400.8274   22088398.5724
        51.000          45.000
 121305761.75047  94523960.54447  23083726.9024   23083730.3674   23083726.8574
        47.000          42.000
 105232799.09047  81999573.25947  20025141.8404   20025143.8104   20025142.2834
        54.000          49.000
 122448856.82847  95414686.25147  23301249.6264   23301251.7024   23301249.9424
        47.000          40.000
 137583626.90047  89415791.14847  24278374.0584   24278378.6914   24278374.7434
        43.000          37.000
 128362137.14247 100022428.32147  24426512.9864   24426516.9084   24426512.9904
        43.000          38.000
 120397073.73647  93815878.89247  22910820.8224   22910823.6974   22910820.7454
        47.000          40.000
 125915259.38147  98115798.06247  23960868.5334   23960868.4464   23960868.3334
        46.000          39.000
 09  1  3  1 20  0.0000000  0 12G 5G30G24G31G14G29G21G18G 6G12G 9G22
 123797994.74547  96465960.12447  23557979.6334   23557983.4104   23557980.1714
        46.000          40.000
 121501617.87947  94676569.41947  23121000.9954   23121004.2684   23121001.0624
        48.000          41.000
 115483879.86947  89987428.87947  21975859.2244   21975863.9824   21975859.4224
        51.000          45.000
 129054397.21947  82769641.46247  22655312.0544   22655314.3544   22655311.5574
        49.000          43.000
 116099053.19247  90466783.88947  22092923.6974   22092926.0394   22092924.0774
        50.000          45.000
 121380649.59847  94582314.67347  23097977.5774   23097980.8044   23097977.3774
        47.000          42.000
 105210597.91147  81982273.62647  20020917.2854   20020919.1534   20020917.6974
        54.000          50.000
 122417936.43647  95390592.45047  23295365.9004   23295367.2904   23295366.3954
        47.000          40.000
 137546080.66647  89386534.33347  24271229.8314   24271234.2114   24271229.6094
        43.000          37.000
 128365243.14347 100024848.62947  24427104.3004   24427107.1224   24427104.3454
        42.000          38.000
 120482853.30447  93882720.12447  22927143.7964   22927146.7664   22927144.1114
        47.000          40.000
 125883545.60547  98091086.04647  23954833.4164   23954833.8204   23954833.8044
        46.000          39.000
 09  1  3  1 20 30.0000000  0 12G 5G30G24G31G14G29G21G18G 6G12G 9G22
 123786074.93847  96456671.97547  23555711.6664   23555715.3024   23555712.1984
        46.000          40.000
 121474751.09447  94655634.29647  23115887.9604   23115891.4114   23115887.4804
        47.000          41.000
 115539155.10147  90030500.48047  21986377.7804   21986382.5524   21986377.8344
        51.000          45.000
 128957873.98647  82694428.60847  22636944.1754   22636946.6974   22636943.8134
        49.000          44.000
 116123125.65247  90485541.66447  22097504.5794   22097506.8814   22097504.7144
        51.000          45.000
 121455469.84047  94640616.10747  23112215.6524   23112218.5864   23112215.4584
        47.000          42.000
 105188974.17347  81965423.94947  20016802.3294   20016804.3394   20016802.6434
        54.000          50.000
 122386867.15947  95366382.63047  23289453.3894   23289455.3244   23289453.7454
        47.000          40.000
 137508831.87647  89357509.30847  24264141.2534   24264145.3104   24264141.5154
        42.000          37.000
 128368439.41847 100027339.26147  24427712.5474   24427715.4024   24427711.9274
        43.000          38.000
 120569003.25147  93949849.97547  22943537.5024   22943540.6734   22943537.7954
        46.000          40.000
 125851605.02047  98066197.28247  23948755.1754   23948756.1164   23948755.6304
        46.000          39.000
 09  1  3  1 21  0.0000000  0 12G 5G30G24G31G14G29G21G18G 6G12G 9G22
 123774254.85847  96447461.54347  23553462.0064   23553465.9674   23553462.5034
        46.000          40.000
 121447834.44547  94634660.29947  23110766.0724   23110769.5884   23110765.6224
        48.000          41.000
 115594864.42847  90073910.34447  21996978.9984   21996983.5824   21996979.2844
        51.000          44.000
 128861558.35147  82619377.51547  22618615.9434   22618618.3254   22618615.6814
        49.000          44.000
 116147489.01947  90504526.11647  22102140.6624   22102143.2484   22102140.7004
        50.000          45.000
 121530222.56247  94698864.93647  23126440.2854   23126443.4924   23126440.0044
        47.000          42.000
 105167931.42547  81949026.99047  20012798.0874   20012799.9454   20012798.4594
        54.000          50.000
 122355652.80247  95342059.73747  23283513.7554   23283515.4484   23283514.1474
        47.000          41.000
 137471881.83247  89328717.08447  24257109.5254   24257114.0814   24257109.4414
        42.000          37.000
 128371729.85547 100029903.27647  24428338.5654   24428341.1184   24428338.5814
        43.000          38.000
 120655523.50647  94017268.35547  22960001.8384   22960005.6044   22960001.9174
        46.000          40.000
 125819439.82147  98041133.50547  23942634.5414   23942635.3784   23942634.6784
        46.000          39.000
 09  1  3  1 21 30.0000000  0 12G 5G30G24G31G14G29G21G18G 6G12G 9G22
 123762534.11047  96438328.51247  23551231.5264   23551235.7194   23551232.0854
        45.000          40.000
 121420867.31447  94613646.97547  23105634.4704   23105637.8324   23105634.1394
        48.000          41.000
 115651004.06547  90117655.52047  22007662.0324   22007666.6854   22007661.9854
        51.000          44.000
 128765450.27047  82544488.15247  22600327.3264   22600329.6564   22600326.5634
        49.000          44.000
 116172138.62647  90523733.60747  22106831.3644   22106833.8624   22106831.5764
        50.000          45.000
 121604903.09947  94757057.54347  23140651.2574   23140654.8084   23140650.9874
        47.000          42.000
 105147468.25647  81933081.66247  20008903.9994   20008906.0684   20008904.3624
        54.000          50.000
 122324291.91747  95317622.69847  23277546.0644   23277547.6564   23277546.4934
        47.000          41.000
 137435227.55747  89300155.32147  24250134.7884   24250139.4254   24250134.9794
        41.000          37.000
 128375113.52347 100032539.98047  24428982.1314   24428985.1244   24428981.6334
        43.000          38.000
 120742408.69047  94084971.09947  22976535.5694   22976538.7374   22976535.9734
        46.000          40.000
 125787047.73647  98015892.91847  23936469.9024   23936470.7144   23936470.0954
        45.000          39.000
 09  1  3  1 22  0.0000000  0 12G 5G30G24G31G14G29G21G18G 6G12G 9G22
 123750919.31447  96429278.04647  23549021.2824   23549025.7264   23549021.6954
        45.000          40.000
 121393856.49547  94592599.62447  23100494.4084   23100497.7694   23100494.3534
        48.000          41.000
 115707576.91747  90161738.27247  22018427.7804   22018431.9574   22018427.6954
        51.000          44.000
 128669557.49847  82469766.56447  22582079.3474   22582081.5344   22582079.1874
        50.000          44.000
 116197076.67047  90543165.85747  22111576.6374   22111579.6024   22111576.8324
        50.000          44.000
 121679513.73447  94815195.65847  23154849.5944   23154852.5034   23154849.5354
        47.000          42.000
 105127590.61247  81917592.57747  20005121.4394   20005123.4034   20005121.8404
        54.000          49.000
 122292790.35147  95293076.02147  23271551.3424   23271553.2414   23271551.9724
        47.000          41.000
 137398872.78547  89271826.94947  24243216.2914   24243221.7114   24243216.4894
        41.000          36.000
 128378597.04547 100035254.47647  24429645.5044   24429648.2424   24429644.8974
        42.000          38.000
 120829660.90747  94152959.84147  22993139.2374   22993142.1074   22993139.2454
        46.000          40.000
 125754433.69047  97990479.39947  23930264.1504   23930264.4214   23930264.2174
        45.000          39.000
 09  1  3  1 22 30.0000000  0 12G 5G30G24G31G14G29G21G18G 6G12G 9G22
 123739407.83747  96420308.08747  23546830.7834   23546835.2724   23546831.2054
        46.000          39.000
 121366799.42347  94571516.23247  23095345.2154   23095348.8954   23095344.6964
        48.000          41.000
 115764576.98147  90206153.91447  22029274.2234   22029278.9604   22029274.3534
        51.000          44.000
 128573878.56647  82395211.60247  22563872.1644   22563874.4954   22563872.2554
        49.000          44.000
 116222295.68447  90562817.05747  22116375.7594   22116378.3454   22116375.9424
        50.000          44.000
 121754047.94747  94873274.22047  23169032.7794   23169035.9814   23169032.6404
        47.000          42.000
 105108295.27347  81902557.24447  20001449.6044   20001451.5974   20001449.9724
        54.000          50.000
 122261144.71047  95268417.06847  23265529.3264   23265531.3004   23265529.6574
        47.000          41.000
 137362812.44047  89243727.99447  24236353.7104   24236359.0694   24236354.8274
        42.000          37.000
 128382177.32147 100038044.35947  24430326.3484   24430329.2664   24430326.2144
        43.000          38.000
 120917273.10147  94221229.08847  23009811.0924   23009814.5734   23009811.2504
        46.000          40.000
 125721592.89647  97964889.17947  23924014.9744   23924015.4014   23924014.9804
        46.000          39.000
 09  1  3  1 23  0.0000000  0 12G 5G30G24G31G14G29G21G18G 6G12G 9G22
 123728005.16647  96411422.92047  23544660.7394   23544665.2464   23544661.2934
        45.000          39.000
 121339700.83747  94550400.47547  23090189.0274   23090192.2034   23090188.6364
        48.000          42.000
 115822006.34847  90250904.06647  22040202.4044   22040207.3264   22040202.5654
        50.000          44.000
 128478419.26847  82320827.78147  22545706.6494   22545709.1674   22545706.2544
        49.000          44.000
 116247796.68747  90582687.97547  22121228.3784   22121231.3094   22121228.2624
        50.000          44.000
 121828506.85647  94931294.10147  23183201.8274   23183205.3924   23183201.4924
        47.000          42.000
 105089586.97547  81887979.35847  19997889.6534   19997891.5684   19997890.0614
        54.000          50.000
 122229359.98647  95243649.75347  23259480.9474   23259482.7934   23259481.3274
        47.000          41.000
 137327049.09247  89215860.48147  24229548.8184   24229554.3754   24229548.5704
        43.000          37.000
 128385859.66347 100040913.76847  24431027.3354   24431030.0674   24431027.1174
        43.000          38.000
 121005245.86347  94289779.30847  23026551.5754   23026554.9814   23026551.9314
        47.000          40.000
 125688529.01047  97939125.12947  23917723.0374   23917723.6274   23917723.2284
        46.000          39.000
 09  1  3  1 23 30.0000000  0 12G 5G30G24G31G14G29G21G18G 6G12G 9G22
 123716711.55047  96402622.70647  23542511.5544   23542515.4244   23542512.0964
        46.000          39.000
 121312561.13247  94529252.68247  23085024.3634   23085027.8484   23085024.1174
        48.000          42.000
 115879861.95247  90295986.36647  22051212.0904   22051216.7864   22051212.2214
        51.000          44.000
 128383180.91247  82246616.12647  22527583.4384   22527585.7574   22527582.8284
        49.000          44.000
 116273574.93547  90602774.92747  22126133.7924   22126136.6734   22126134.1584
        50.000          44.000
 121902886.64747  94989252.32347  23197355.8014   23197359.5064   23197355.2494
        47.000          42.000
 105071465.16047  81873858.45847  19994441.2644   19994443.0524   19994441.6604
        54.000          50.000
 122197435.59847  95218773.61847  23253405.4744   23253407.9624   23253405.8454
        47.000          41.000
 137291580.42647  89188222.57447  24222799.7414   24222803.7894   24222800.0884
        42.000          37.000
 128389644.22647 100043862.83947  24431747.7914   24431750.2914   24431747.3124
        44.000          39.000
 121093574.79047  94358607.04147  23043360.3394   23043363.4024   23043360.3614
        46.000          40.000
 125655240.48247  97913186.01347  23911387.9884   23911388.5664   23911388.2374
        45.000          39.000
 09  1  3  1 24  0.0000000  0 12G 5G30G24G31G14G29G21G18G 6G12G 9G22
 123705531.00447  96393910.59947  23540383.9874   23540387.8344   23540384.2924
        45.000          39.000
 121285383.78747  94508075.55847  23079852.3224   23079856.2104   23079851.8244
        48.000          42.000
 115938144.07947  90341401.00647  22062303.0204   22062307.0704   22062303.2424
        51.000          44.000
 128288168.21747  82172580.30747  22509502.9864   22509505.6304   22509502.3284
        50.000          44.000
 116299630.24947  90623077.77147  22131092.0094   22131094.4774   22131092.3424
        50.000          44.000
 121977187.35247  95047148.92047  23211495.0164   23211498.6574   23211494.5904
        47.000          42.000
 105053932.97647  81860197.01147  19991104.9574   19991106.8724   19991105.3924
        54.000          49.000
 122165374.68947  95193791.08647  23247304.8074   23247306.9034   23247305.1734
        47.000          41.000
 137256407.57347  89160815.18647  24216105.8584   24216111.1504   24216105.3724
        43.000          37.000
 128393534.59647 100046894.36647  24432487.8374   24432490.4684   24432487.4554
        43.000          39.000
 121182259.09147  94427711.70347  23060236.2384   23060239.2964   23060236.4864
        46.000          40.000
 125621729.64247  97887073.69547  23905011.5684   23905011.8664   23905011.7134
        46.000          40.000
 09  1  3  1 24 30.0000000  0 12G 5G30G24G31G14G29G21G18G 6G12G 9G22
 123694463.18547  96385286.36447  23538278.0674   23538282.2934   23538278.6874
        46.000          40.000
 121258168.57947  94486868.92847  23074673.3784   23074677.2534   23074673.2894
        48.000          42.000
 115996848.89447  90387145.02047  22073474.2444   22073478.4714   22073474.2794
        51.000          44.000
 128193381.57247  82098720.63647  22491465.6854   22491468.2764   22491465.3224
        49.000          44.000
 116325957.77447  90643592.73447  22136102.0344   22136104.3164   22136102.4784
        50.000          44.000
 122051404.37247  95104980.33747  23225618.4814   23225621.6484   23225617.8944
        48.000          42.000
 105036989.10747  81846993.99547  19987880.5894   19987882.6464   19987881.0204
        54.000          49.000
 122133176.63647  95168701.69447  23241177.7824   23241179.8964   23241178.2634
        47.000          40.000
 137221527.51647  89133635.91147  24209469.3734   24209474.1224   24209469.4044
        43.000          38.000
 128397530.12147 100050007.79247  24433247.8324   24433250.7304   24433247.8854
        43.000          38.000
 121271293.83347  94497089.44347  23077179.0714   23077181.8544   23077179.3734
        46.000          40.000
 125587994.18147  97860786.34547  23898592.1484   23898592.3634   23898592.5424
        46.000          40.000
 09  1  3  1 25  0.0000000  0 12G 5G30G24G31G14G29G21G18G 6G12G 9G22
 123683512.30547  96376753.25847  23536194.1044   23536198.4874   23536194.5984
        46.000          40.000
 121230919.73547  94465636.10847  23069488.3004   23069492.0694   23069487.9414
        48.000          42.000
 116055977.18947  90433219.01947  22084726.0364   22084730.0544   22084726.0594
        51.000          44.000
 128098826.31147  82025041.26347  22473472.4624   22473474.7314   22473471.8674
        50.000          44.000
 116352557.00747  90664319.41547  22141163.5114   22141166.3204   22141163.6894
        50.000          44.000
 122125537.98747  95162746.76747  23239725.7224   23239729.0904   23239725.1404
        48.000          42.000
 105020636.90247  81834252.01547  19984768.8634   19984770.7574   19984769.2994
        54.000          49.000
 122100844.80047  95143508.03747  23235025.4544   23235027.1464   23235025.9324
        48.000          41.000
 137186941.96847  89106686.15047  24202887.4914   24202892.1344   24202887.4394
        43.000          38.000
 128401635.18847 100053206.58347  24434028.4484   24434031.8054   24434028.5494
        43.000          38.000
 121360678.98547  94566740.21647  23094188.9164   23094191.8464   23094189.0134
        46.000          39.000
 125554036.73947  97834326.00047  23892130.0454   23892130.4804   23892129.9664
        46.000          40.000
 09  1  3  1 25 30.0000000  0 12G 5G30G24G31G14G29G21G18G 6G12G 9G22
 123672679.97947  96368312.52347  23534132.6774   23534137.0454   23534133.5024
        46.000          40.000
 121203638.37047  94444377.90747  23064296.6834   23064300.4774   23064296.2844
        48.000          42.000
 116115526.99947  90479621.46947  22096057.8374   22096062.3194   22096057.9584
        51.000          44.000
 128004504.35547  81951543.68347  22455523.5594   22455525.9134   22455523.3894
        49.000          44.000
 116379424.73947  90685255.31447  22146276.3254   22146279.0034   22146276.5014
        50.000          44.000
 122199585.32547  95220445.95147  23253816.0494   23253820.0594   23253815.9424
        47.000          42.000
 105004877.04947  81821971.59947  19981769.9294   19981771.7374   19981770.3114
        54.000          49.000
 122068379.90547  95118210.72247  23228847.3364   23228848.9634   23228847.6854
        48.000          40.000
 137152649.42547  89079964.71347  24196361.6814   24196366.0894   24196361.9874
        42.000          37.000
 128405850.87147 100056491.54547  24434831.5194   24434833.8204   24434830.9024
        43.000          39.000
 121450410.75747  94636661.09347  23111264.0514   23111267.4524   23111264.0654
        46.000          40.000
 125519856.84047  97807692.32247  23885625.5164   23885626.0084   23885625.5424
        46.000          40.000
 09  1  3  1 26  0.0000000  0 12G 5G30G24G31G14G29G21G18G 6G12G 9G22
 123661967.95547  96359965.52447  23532094.1914   23532098.1224   23532094.5504
        46.000          40.000
 121176326.40447  94423095.90247  23059099.6684   23059103.0074   23059099.3764
        48.000          42.000
 116175496.27547  90526350.76447  22107469.4714   22107473.9874   22107469.5864
        50.000          44.000
 127910418.63047  81878230.17947  22437619.6494   22437622.0184   22437619.4284
        50.000          44.000
 116406558.36547  90706398.40247  22151439.4864   22151442.1194   22151439.9244
        50.000          44.000
 122273544.37847  95278076.35447  23267890.2484   23267894.0974   23267889.9754
        47.000          42.000
 104989710.48447  81810153.48647  19978883.7454   19978885.6754   19978884.2024
        54.000          50.000
 122035783.17847  95092810.67047  23222644.9144   23222646.3024   23222645.1844
        47.000          41.000
 137118649.11547  89053470.98647  24189891.9254   24189896.4434   24189891.3954
        43.000          37.000
 128410178.68547 100059863.89947  24435654.9084   24435657.4144   24435654.9434
        44.000          39.000
 121540486.50847  94706849.98947  23128404.8334   23128408.4334   23128404.5814
        46.000          40.000
 125485454.68247  97780885.47147  23879079.3394   23879079.6504   23879079.4144
        47.000          40.000
 09  1  3  1 26 30.0000000  0 12G 5G30G24G31G14G29G21G18G 6G12G 9G22
 123651379.15647  96351714.56747  23530079.4274   23530083.4454   23530079.6914
        46.000          40.000
 121148986.32047  94401791.97547  23053897.2654   23053900.3324   23053896.7654
        49.000          42.000
 116235884.25047  90573406.33647  22118960.8914   22118965.3574   22118960.7564
        50.000          44.000
 127816572.46047  81805103.34047  22419761.4384   22419763.5614   22419760.8174
        50.000          44.000
 116433956.00747  90727747.21347  22156653.5114   22156656.0734   22156653.6554
        50.000          44.000
 122347414.00347  95335637.06147  23281946.8854   23281950.8414   23281946.5084
        47.000          42.000
 104975139.22947  81798799.25847  19976111.0934   19976112.8874   19976111.4794
        54.000          49.000
 122003056.82347  95067309.62647  23216416.8634   23216418.8014   23216417.2504
        47.000          40.000
 137084940.91847  89027204.86647  24183477.3074   24183482.1234   24183476.4944
        42.000          37.000
 128414621.29947 100063325.68147  24436500.3654   24436503.2414   24436500.0984
        44.000          39.000
 121630904.26547  94777305.39147  23145611.0374   23145614.1514   23145610.8944
        46.000          40.000
 125450830.94647  97753905.94347  23872490.4244   23872490.8224   23872490.4974
        46.000          39.000
 09  1  3  1 27  0.0000000  0 12G 5G30G24G31G14G29G21G18G 6G12G 9G22
 123640914.81847  96343560.58247  23528088.2904   23528091.8544   23528088.7914
        46.000          40.000
 121121619.35747  94380467.09947  23048689.4164   23048692.6154   23048689.0724
        48.000          42.000
 116296688.69347  90620786.41947  22130531.6434   22130536.3454   22130531.6114
        50.000          44.000
 127722968.16047  81732164.97147  22401949.5404   22401951.3654   22401949.0604
        51.000          45.000
 116461614.49847  90749299.29047  22161916.6794   22161919.2934   22161916.7504
        50.000          44.000
 122421191.43747  95393125.93847  23295986.1774   23295990.3544   23295985.8964
        46.000          42.000
 104961163.58847  81787909.14847  19973451.3764   19973453.4424   19973451.7714
        54.000          49.000
 121970201.74547  95041708.26147  23210164.8814   23210166.6734   23210165.3844
        47.000          40.000
 137051523.52947  89001165.35247  24177118.5124   24177122.1714   24177118.3354
        43.000          37.000
 128419179.84747 100066877.80547  24437368.1764   24437370.8414   24437367.8794
        44.000          39.000
 121721661.00547  94848024.93647  23162881.0794   23162884.5854   23162881.4234
        46.000          40.000
 125415985.82147  97726753.88747  23865859.7994   23865860.4694   23865859.8504
        46.000          40.000
 09  1  3  1 27 30.0000000  0 12G 5G30G24G31G14G29G21G18G 6G12G 9G22
 123630577.01047  96335505.16547  23526120.8744   23526124.7914   23526120.8824
        46.000          40.000
 121094227.39847  94359122.74947  23043476.9504   23043479.9224   23043476.8004
        49.000          42.000
 116357908.12447  90668489.87547  22142181.4804   22142185.8794   22142181.3994
        50.000          44.000
 127629608.71947  81659417.40947  22384183.7474   22384185.5804   22384183.4374
        50.000          44.000
 116489531.12847  90771052.52047  22167228.7904   22167231.6684   22167228.8914
        50.000          44.000
 122494874.58747  95450541.36447  23310007.7594   23310011.6964   23310007.4464
        46.000          41.000
 104947784.35747  81777483.77147  19970905.5234   19970907.3924   19970905.9304
        54.000          50.000
 121937219.22347  95016007.59047  23203888.5004   23203890.1534   23203888.9144
        47.000          40.000
 137018395.95947  88975351.65647  24170814.2884   24170818.5834   24170813.8434
        43.000          37.000
 128423855.82847 100070521.43347  24438257.8574   24438260.5314   24438257.7274
        45.000          39.000
 121812753.70747  94919006.26647  23180215.6754   23180219.0654   23180215.7914
        46.000          40.000
 125380919.41947  97699429.42747  23859186.5904   23859186.9974   23859186.6004
        46.000          39.000
 09  1  3  1 28  0.0000000  0 12G 5G30G24G31G14G29G21G18G 6G12G 9G22
 123620368.56347  96327550.55547  23524178.2604   23524182.4534   23524178.7994
        46.000          40.000
 121066813.46747  94337761.28247  23038260.3824   23038263.5674   23038259.9124
        49.000          42.000
 116419541.78847  90716516.10747  22153909.8444   22153914.3474   22153909.9754
        50.000          44.000
 127536497.33247  81586863.12847  22366465.0244   22366466.7944   22366464.2964
        50.000          45.000
 116517704.08447  90793005.48447  22172589.9684   22172592.6474   22172590.3034
        50.000          44.000
 122568462.26447  95507882.36847  23324011.0114   23324014.8964   23324011.1104
        47.000          41.000
 104935003.72747  81767524.82847  19968473.3734   19968475.2334   19968473.7704
        54.000          49.000
 121904111.87847  94990209.65047  23197588.1134   23197590.3814   23197588.4544
        47.000          40.000
 136985558.37047  88949763.94847  24164565.3364   24164569.6684   24164565.5704
        43.000          37.000
 128428652.08347 100074258.77647  24439170.2464   24439173.0244   24439170.2054
        44.000          39.000
 121904180.60647  94990248.01547  23197613.4234   23197616.7754   23197613.8994
        45.000          40.000
 125345632.71547  97671933.29747  23852471.7114   23852472.4804   23852471.7924
        46.000          39.000
 09  1  3  1 28 30.0000000  0 12G 5G30G24G31G14G29G21G18G 6G12G 9G22
 123610292.96947  96319699.46847  23522260.4504   23522265.0644   23522260.9824
        46.000          40.000
 121039380.80147  94316385.21247  23033039.9084   23033043.1884   23033039.6334
        48.000          42.000
 116481589.24447  90764864.77147  22165717.2404   22165721.5544   22165717.3684
        50.000          44.000
 127443638.61247  81514505.72647  22348794.4604   22348796.3024   22348793.9644
        50.000          44.000
 116546132.33147  90815157.36647  22177999.8104   22178002.5094   22177999.9654
        50.000          44.000
 122641953.92047  95565148.54247  23337996.2984   23337999.7294   23337996.2664
        46.000          41.000
 104922823.74947  81758033.92447  19966155.7144   19966157.6694   19966156.1094
        54.000          50.000
 121870882.44047  94964316.58447  23191264.3964   23191266.8974   23191264.7494
        47.000          40.000
 136953011.23247  88924402.58147  24158371.5584   24158376.0854   24158372.0204
        43.000          37.000
 128433571.86847 100078092.36747  24440106.7164   24440108.9904   24440106.6454
        44.000          39.000
 121995940.23047  95061749.03147  23215074.9004   23215077.5284   23215074.8724
        45.000          40.000
 125310127.03747  97644266.56647  23845714.9374   23845715.7324   23845714.7734
        46.000          39.000
 09  1  3  1 29  0.0000000  0 12G 5G30G24G31G14G29G21G18G 6G12G 9G22
 123600348.41847  96311950.50347  23520368.3764   23520372.4004   23520369.0484
        46.000          40.000
 121011927.39947  94294992.97047  23027815.4464   23027818.9514   23027815.0704
        49.000          42.000
 116544045.05947  90813531.63747  22177602.3924   22177606.5184   22177602.3954
        50.000          44.000
 127351031.80547  81442344.62647  22331171.9334   22331173.8164   22331171.7094
        50.000          45.000
 116574809.10447  90837502.91947  22183456.7964   22183459.2524   22183457.0294
        50.000          44.000
 122715343.77447  95622335.41547  23351961.9514   23351965.6044   23351961.6374
        46.000          41.000
 104911241.49847  81749008.78147  19963951.7354   19963953.6644   19963952.1234
        54.000          50.000
 121837528.19147  94938326.27147  23184917.3514   23184919.7214   23184917.5704
        46.000          40.000
 136920749.96347  88899263.93047  24152233.0884   24152237.4684   24152233.7744
        43.000          37.000
 128438612.76747 100082020.35947  24441065.6614   24441068.1224   24441065.5084
        43.000          38.000
 122088025.79647  95133504.02447  23232598.0364   23232600.9924   23232598.3474
        45.000          39.000
 125274399.39647  97616426.84647  23838916.4474   23838917.2984   23838916.2744
        46.000          40.000
 09  1  3  1 29 30.0000000  0 12G 5G30G24G31G14G29G21G18G 6G12G 9G22
 123590541.89947  96304309.08647  23518501.9374   23518506.3414   23518502.1524
        46.000          40.000
 120984460.43647  94273590.17347  23022588.7354   23022592.1084   23022588.5014
        48.000          42.000
 116606912.60547  90862519.30747  22189565.7394   22189570.1724   22189566.0184
        51.000          44.000
 127258684.32647  81370385.59247  22313598.5704   22313600.7174   22313598.2064
        50.000          45.000
 116603736.78047  90860043.97547  22188961.4394   22188964.1464   22188961.5724
        50.000          44.000
 122788634.80447  95679445.26147  23365908.7394   23365912.1274   23365908.9734
        46.000          41.000
 104900263.08747  81740454.16847  19961862.4984   19961864.5724   19961862.8994
        54.000          50.000
 121804055.56347  94912243.70847  23178548.0584   23178549.9714   23178548.4984
        47.000          40.000
 136888778.80847  88874351.37447  24146148.5514   24146153.1534   24146148.6944
        42.000          37.000
 128443781.84347 100086048.24547  24442048.8444   24442052.2494   24442048.6564
        43.000          38.000
 122180439.79347  95205514.92547  23250183.8824   23250186.7074   23250184.0594
        45.000          39.000
 125238455.55347  97588418.67047  23832077.0264   23832077.4384   23832076.8034
        47.000          40.000
 09  1  3  1 30  0.0000000  0 12G 5G30G24G31G14G29G21G18G 6G12G 9G22
 123580872.69147  96296774.66347  23516662.2844   23516666.1624   23516663.0204
        46.000          40.000
 120956978.96347  94252176.05347  23017358.7474   23017362.2724   23017358.2834
        48.000          42.000
 116670187.56647  90911824.45947  22201606.6564   22201611.0224   22201606.8504
        50.000          44.000
 127166596.40147  81298628.81647  22296074.7774   22296076.7544   22296074.7144
        50.000          45.000
 116632910.38547  90882776.65947  22194513.0724   22194515.8764   22194513.1724
        50.000          44.000
 122861822.38547  95736474.51947  23379835.9624   23379838.6854   23379835.9484
        46.000          41.000
 104889886.50047  81732368.51147  19959887.8804   19959889.9004   19959888.2774
        54.000          49.000
 121770463.27647  94886067.89547  23172156.2344   23172157.2684   23172156.8534
        47.000          40.000
 136857093.97747  88849661.90947  24140119.7524   24140124.1834   24140119.8184
        43.000          37.000
 128449077.96747 100090175.12747  24443056.5214   24443059.7504   24443056.1094
        44.000          38.000
 122273176.89147  95277777.59447  23267831.1754   23267834.2084   23267831.1934
        45.000          39.000
 125202292.36347  97560239.58347  23825194.8964   23825195.3494   23825195.4214
        46.000          39.000
 09  1  3  1 30 30.0000000  0 12G 5G30G24G31G14G29G21G18G 6G12G 9G22
 123571343.17247  96289349.08047  23514848.8984   23514852.2474   23514848.9764
        46.000          40.000
 120929485.36247  94230752.50647  23012126.9864   23012130.3014   23012126.6334
        48.000          42.000
 116733868.56347  90961446.01547  22213724.7364   22213728.8124   22213724.8344
        50.000          44.000
 127074771.07147  81227076.65447  22278600.6244   22278603.0584   22278600.1624
        50.000          44.000
 116662327.50247  90905699.08847  22200110.9314   22200113.3394   22200111.2024
        50.000          44.000
 122934904.68947  95793421.74247  23393743.1674   23393745.9164   23393743.1934
        47.000          41.000
 104880112.87947  81724752.69047  19958027.9734   19958030.0774   19958028.2904
        54.000          49.000
 121736753.29347  94859800.36847  23165741.2224   23165742.7164   23165741.6504
        47.000          40.000
 136825695.03647  88825195.20747  24134143.9944   24134148.8024   24134144.4514
        43.000          38.000
 128454503.28347 100094402.66847  24444090.3904   24444092.2744   24444089.6924
        45.000          39.000
 122366234.48247  95350290.01147  23285539.1554   23285542.5784   23285539.4064
        45.000          39.000
 125165910.69847  97531890.23147  23818271.7684   23818272.1284   23818271.8004
        46.000          39.000
 09  1  3  1 31  0.0000000  0 12G 5G30G24G31G14G29G21G18G 6G12G 9G22
 123561954.80047  96282033.49347  23513062.5114   23513066.0194   23513063.2734
        46.000          40.000
 120901981.10647  94209320.65347  23006893.0004   23006896.6464   23006892.8304
        48.000          42.000
 116797953.37747  91011382.22647  22225919.3014   22225923.6684   22225919.4494
        50.000          44.000
 126983210.66447  81155730.92547  22261177.4834   22261179.4874   22261176.7204
        50.000          45.000
 116691984.69147  90928808.59847  22205754.5164   22205757.0064   22205754.6954
        50.000          44.000
 123007879.43147  95850285.13347  23407629.7664   23407632.7484   23407629.9084
        47.000          41.000
 104870942.45647  81717606.89647  19956283.0664   19956284.9284   19956283.4944
        54.000          49.000
 121702926.62347  94833441.93447  23159303.5984   23159305.6524   23159303.9694
        47.000          40.000
 136794580.60547  88800950.21847  24128224.1754   24128227.7814   24128224.0814
        43.000          38.000
 128460058.98547 100098731.81647  24445147.3444   24445149.2564   24445146.5674
        44.000          38.000
 122459609.38847  95423049.68847  23303307.9584   23303310.7604   23303308.1544
        45.000          39.000
 125129310.85347  97503370.88247  23811307.4594   23811307.5994   23811307.5584
        46.000          39.000
 09  1  3  1 31 30.0000000  0 12G 5G30G24G31G14G29G21G18G 6G12G 9G22
 123552711.13147  96274830.65647  23511303.1244   23511307.5284   23511303.8104
        46.000          40.000
 120874469.46047  94187883.05647  23001657.8504   23001661.3734   23001657.8124
        48.000          42.000
 116862441.57447  91061632.77147  22238191.0624   22238195.5424   22238191.2714
        50.000          43.000
 126891919.58147  81084595.05847  22243805.5324   22243807.5554   22243805.4404
        50.000          45.000
 116721880.99047  90952104.41447  22211443.5624   22211446.1094   22211443.4824
        50.000          44.000
 123080746.13947  95907064.34447  23421496.1894   23421498.6684   23421495.9354
        47.000          41.000
 104862377.72447  81710933.07547  19954653.1954   19954655.1864   19954653.5884
        54.000          50.000
 121668986.44647  94806995.06547  23152845.3724   23152847.3304   23152845.7454
        47.000          40.000
 136763751.14147  88776927.28447  24122356.3154   24122361.2194   24122356.7574
        43.000          37.000
 128465748.50847 100103165.26447  24446229.6664   24446231.8964   24446229.3534
        44.000          38.000
 122553300.36247  95496055.64647  23321136.9594   23321140.2284   23321137.2414
        46.000          40.000
 125092494.22747  97474682.60947  23804301.3274   23804301.4094   23804301.1094
        46.000          39.000
 09  1  3  1 32  0.0000000  0 12G 5G30G24G31G14G29G21G18G 6G12G 9G22
 123543615.15847  96267742.91047  23509572.2254   23509575.8324   23509572.6924
        45.000          39.000
 120846953.71947  94166442.26647  22996421.6664   22996425.4214   22996421.5614
        48.000          42.000
 116927332.41947  91112197.06247  22250539.3804   22250543.7644   22250539.5064
        50.000          43.000
 126800901.66747  81013672.05047  22226485.2634   22226487.3144   22226485.2294
        50.000          45.000
 116752014.77347  90975585.29347  22217178.1554   22217180.2254   22217178.1274
        50.000          44.000
 123153504.27147  95963758.94647  23435341.3534   23435344.2004   23435341.3744
        47.000          41.000
 104854420.31647  81704732.49147  19953139.0134   19953141.0264   19953139.4164
        54.000          50.000
 121634935.45947  94780461.82947  23146365.3744   23146367.3384   23146365.7064
        47.000          41.000
 136733206.76947  88753126.49847  24116544.7334   24116548.7434   24116544.9234
        43.000          37.000
 128471574.38447 100107704.96847  24447337.5964   24447340.5884   24447336.8474
        43.000          38.000
 122647305.36847  95569306.31747  23339025.3994   23339029.1614   23339025.7764
        46.000          40.000
 125055462.53047  97445826.75147  23797254.0394   23797254.7604   23797253.9244
        46.000          39.000
 09  1  3  1 32 30.0000000  0 12G 5G30G24G31G14G29G21G18G 6G12G 9G22
 123534666.53447  96260769.96747  23507869.0714   23507873.3934   23507869.9224
        46.000          40.000
 120819433.41647  94144997.91047  22991185.2264   22991188.2084   22991184.9024
        48.000          42.000
 116992621.93447  91163071.99447  22262963.3664   22262968.0174   22262963.6104
        50.000          43.000
 126710157.15547  80942962.08147  22209217.0174   22209219.3404   22209216.5104
        50.000          45.000
 116782381.10747  90999247.37547  22222956.2694   22222958.5664   22222956.5284
        50.000          44.000
 123226149.44547  96020365.52847  23449165.2614   23449168.3874   23449164.7264
        46.000          41.000
 104847068.60547  81699003.87647  19951740.0214   19951741.9124   19951740.3394
        54.000          50.000
 121600772.23747  94753841.12247  23139864.5374   23139866.4654   23139865.0334
        48.000          41.000
 136702944.33747  88729545.39547  24110786.0904   24110789.8504   24110786.2754
        43.000          37.000
 128477536.05947 100112350.47047  24448472.1514   24448474.7844   24448471.9614
        43.000          38.000
 122741619.09847  95642797.53847  23356972.8934   23356976.5734   23356973.1164
        46.000          40.000
 125018213.55647  97416801.58347  23790165.8244   23790166.7044   23790165.9374
        46.000          39.000
 09  1  3  1 33  0.0000000  0 12G 5G30G24G31G14G29G21G18G 6G12G 9G22
 123525869.35447  96253915.01647  23506195.8194   23506199.0114   23506196.0934
        45.000          40.000
 120791912.23647  94123552.84847  22985947.9774   22985951.1064   22985947.6794
        49.000          42.000
 117058310.41247  91214257.79647  22275463.7784   22275468.1624   22275464.1414
        50.000          43.000
 126619690.90247  80872468.93747  22192001.7224   22192004.0714   22192001.1934
        50.000          45.000
 116812978.91047  91023089.81947  22228778.8254   22228781.0644   22228779.0644
        49.000          44.000
 123298681.40447  96076883.89047  23462967.7724   23462971.0024   23462967.3414
        46.000          41.000
 104840325.32247  81693749.35547  19950457.0084   19950458.8424   19950457.4014
        54.000          50.000
 121566500.48447  94727135.82647  23133343.2664   23133345.0584   23133343.5724
        48.000          41.000
 136672964.80347  88706184.74247  24105080.6824   24105084.8604   24105080.7334
        42.000          37.000
 128483637.29247 100117104.70847  24449632.7924   24449635.9524   24449633.0584
        42.000          38.000
 122836241.22247  95716529.06347  23374978.8204   23374982.5294   23374979.1324
        45.000          40.000
 124980750.04447  97387609.25847  23783036.8044   23783037.4674   23783036.8564
        46.000          39.000
 09  1  3  1 33 30.0000000  0 12G 5G30G24G31G14G29G21G18G 6G12G 9G22
 123517224.49447  96247178.78847  23504550.3014   23504554.4364   23504550.7744
        46.000          40.000
 120764391.18747  94102107.91147  22980710.6434   22980714.0484   22980710.1284
        48.000          42.000
 117124394.82747  91265752.15747  22288039.0944   22288043.7204   22288038.9704
        50.000          43.000
 126529504.67747  80802193.98747  22174839.7204   22174842.2144   22174839.2754
        50.000          45.000
 116843805.06647  91047110.19947  22234644.7424   22234647.4574   22234644.9414
        50.000          44.000
 123371097.86747  96133312.26947  23476748.1584   23476751.4984   23476747.2394
        46.000          41.000
 104834190.27147  81688968.78647  19949289.4104   19949291.2344   19949289.8504
        54.000          50.000
 121532120.98647  94700346.61647  23126800.6104   23126802.6654   23126801.1084
        48.000          41.000
 136643266.40147  88683043.14247  24099429.9874   24099433.7514   24099430.0114
        43.000          38.000
 128489878.85347 100121968.30247  24450820.5534   24450823.8384   24450820.1754
        43.000          38.000
 122931167.76147  95790497.77347  23393042.8444   23393046.4534   23393042.6204
        45.000          39.000
 124943071.40447  97358249.29147  23775866.8814   23775867.5164   23775866.8714
        46.000          39.000
 09  1  3  1 34  0.0000000  0 12G 5G30G24G31G14G29G21G18G 6G12G 9G22
 123508734.15147  96240562.95347  23502934.7534   23502938.7054   23502934.8804
        46.000          40.000
 120736872.51347  94080664.79647  22975473.8504   22975477.7694   22975473.4734
        49.000          42.000
 117190873.40947  91317553.65247  22300689.4124   22300693.9774   22300689.9444
        49.000          43.000
 126439601.18547  80732139.35247  22157731.6224   22157733.7704   22157731.0664
        50.000          45.000
 116874856.41047  91071306.05947  22240553.7694   22240556.2544   22240553.8744
        50.000          44.000
 123443396.35347  96189648.72147  23490505.4564   23490509.7884   23490505.1694
        45.000          41.000
 104828664.00147  81684662.59847  19948237.9284   19948239.5664   19948238.2904
        54.000          49.000
 121497635.21947  94673474.59747  23120238.2194   23120240.2214   23120238.6414
        48.000          41.000
 136613847.80947  88660119.59547  24093830.7824   24093835.4974   24093830.7684
        42.000          37.000
 128496262.08247 100126942.27147  24452035.0484   24452038.8124   24452035.3644
        43.000          38.000
 123026395.83047  95864701.46947  23411164.0954   23411167.4394   23411164.0764
        45.000          39.000
 124905178.60247  97328722.45047  23768655.8314   23768656.5464   23768655.9954
        45.000          39.000
 09  1  3  1 34 30.0000000  0 12G 5G30G24G31G14G29G21G18G 6G12G 9G22
 123500401.43047  96234069.95747  23501349.1534   23501352.4714   23501349.7694
        46.000          40.000
 120709359.49947  94059226.08747  22970238.3404   22970241.9604   22970238.1874
        48.000          42.000
 117257745.69147  91369661.92647  22313414.7664   22313419.1334   22313414.5314
        49.000          43.000
 126349984.99047  80662308.58047  22140678.3264   22140680.2144   22140677.9204
        51.000          45.000
 116906131.76547  91095676.46247  22246505.3464   22246508.1654   22246505.6014
        50.000          44.000
 123515576.27847  96245892.79347  23504241.0474   23504245.0744   23504240.6824
        45.000          41.000
 104823747.67247  81680831.68647  19947302.2674   19947304.1504   19947302.6824
        54.000          49.000
 121463045.90947  94646521.90247  23113656.1564   23113658.0584   23113656.6614
        48.000          41.000
 136584709.51747  88637414.41447  24088286.9724   24088290.8344   24088286.8154
        44.000          37.000
 128502790.34147 100132029.24147  24453277.6754   24453280.5794   24453277.6534
        43.000          38.000
 123121923.63747  95939138.73847  23429342.2934   23429345.6544   23429342.4504
        44.000          39.000
 124867071.93647  97299028.95947  23761404.3224   23761405.0574   23761404.3954
        46.000          39.000
 09  1  3  1 35  0.0000000  0 12G 5G30G24G31G14G29G21G18G 6G12G 9G22
 123492228.85447  96227701.74847  23499793.8094   23499797.3584   23499794.0534
        46.000          40.000
 120681854.74747  94037793.86647  22965004.6134   22965007.7614   22965003.9804
        49.000          42.000
 117325010.33047  91422075.92447  22326214.7554   22326219.1834   22326215.0564
        50.000          43.000
 126260659.08047  80592703.99847  22123680.1164   22123682.0554   22123679.7704
        51.000          45.000
 116937628.96547  91120219.74447  22252499.0064   22252501.6214   22252499.2264
        50.000          44.000
 123587636.47447  96302043.58647  23517953.7544   23517957.9004   23517953.7354
        45.000          41.000
 104819443.25747  81677477.57947  19946483.1894   19946484.9614   19946483.6154
        54.000          50.000
 121428355.14247  94619490.12047  23107054.9104   23107056.2004   23107055.1924
        48.000          41.000
 136555850.93347  88614927.23147  24082794.5014   24082798.6294   24082794.1224
        43.000          38.000
 128509465.85847 100137230.96047  24454547.9744   24454550.5464   24454547.8404
        42.000          38.000
 123217749.11947  96013807.94847  23447576.9704   23447580.9124   23447577.2074
        45.000          39.000
 124828753.34247  97269170.32947  23754112.7894   23754113.3564   23754112.9304
        46.000          40.000
 09  1  3  1 35 30.0000000  0 12G 5G30G24G31G14G29G21G18G 6G12G 9G22
 123484216.34647  96221458.27347  23498269.1924   23498272.7144   23498269.8144
        46.000          40.000
 120654358.37147  94016368.13247  22959771.8304   22959775.3454   22959771.3414
        48.000          42.000
 117392663.47247  91474792.66247  22339088.8694   22339093.2694   22339089.1234
        49.000          43.000
 126171624.09447  80523326.11947  22106737.2914   22106739.1734   22106736.8404
        51.000          45.000
 116969343.15647  91144932.10947  22258533.9784   22258536.2034   22258534.2684
        50.000          44.000
 123659573.50247  96358098.39547  23531642.6714   23531647.2414   23531642.5264
        45.000          40.000
 104815748.97347  81674598.90647  19945780.0604   19945782.0554   19945780.3954
        54.000          49.000
 121393562.52647  94592378.99347  23100434.1364   23100435.4154   23100434.3844
        48.000          41.000
 136527269.14247  88592655.70947  24077356.4654   24077360.0774   24077356.4974
        44.000          38.000
 128516288.17647 100142547.06547  24455846.6954   24455848.1054   24455846.3004
        44.000          38.000
 123313867.42447  96088705.33147  23465867.8354   23465871.2424   23465868.1334
        45.000          39.000
 124790221.49147  97239145.50847  23746780.2394   23746780.8694   23746780.3534
        45.000          39.000
 09  1  3  1 36  0.0000000  0 12G 5G30G24G31G14G29G21G18G 6G12G 9G22
 123476367.39247  96215342.23247  23496774.9354   23496779.2914   23496775.3574
        45.000          40.000
 120626873.69047  93994951.51847  22954541.6094   22954544.9284   22954541.1704
        49.000          42.000
 117460704.44647  91527811.59147  22352036.7414   22352041.0004   22352036.9514
        49.000          43.000
 126082884.27947  80454178.23947  22089850.6614   22089852.5414   22089850.3784
        51.000          45.000
 117001273.06747  91169812.55947  22264610.2354   22264612.8674   22264610.3804
        50.000          44.000
 123731386.64547  96414056.66247  23545308.1274   23545312.8814   23545307.9174
        45.000          40.000
 104812666.66947  81672197.10347  19945193.4894   19945195.5884   19945193.8164
        54.000          49.000
 121358671.29147  94565191.02347  23093794.0294   23093796.6914   23093794.6304
        48.000          41.000
 136498964.49247  88570600.15447  24071969.5324   24071973.5494   24071969.8494
        43.000          38.000
 128523260.54247 100147980.11747  24457173.3914   24457175.7824   24457172.8004
        43.000          38.000
 123410277.31747  96163829.93547  23484214.1724   23484217.6644   23484214.0034
        46.000          39.000
 124751477.71747  97208955.56147  23739407.4924   23739408.5184   23739407.4134
        46.000          40.000
 09  1  3  1 36 30.0000000  0 12G 5G30G24G31G14G29G21G18G 6G12G 9G22
 123468684.28147  96209355.42647  23495312.8954   23495317.1594   23495313.0314
        45.000          40.000
 120599403.07347  93973545.87147  22949314.1624   22949317.7794   22949314.1184
        49.000          42.000
 117529131.68547  91581131.52347  22365057.9764   22365062.2234   22365058.2284
        49.000          43.000
 125994442.78447  80385262.81547  22073021.0144   22073022.6844   22073020.6054
        51.000          45.000
 117033416.64447  91194859.51047  22270726.6164   22270729.3294   22270726.9104
        50.000          44.000
 123803074.46047  96469917.26347  23558950.4224   23558954.5784   23558949.6534
        45.000          41.000
 104810197.13847  81670272.78647  19944723.5894   19944725.6334   19944723.9644
        54.000          49.000
 121323683.13147  94537927.52047  23087136.1744   23087138.0124   23087136.5094
        48.000          41.000
 136470936.17747  88548759.92647  24066636.5104   24066640.4934   24066636.5204
        43.000          38.000
 128530384.65347 100153531.37847  24458528.7064   24458531.1364   24458528.5074
        44.000          38.000
 123506975.92247  96239179.51547  23502615.5304   23502618.9364   23502615.4894
        46.000          39.000
 124712522.98147  97178601.22347  23731994.9774   23731995.2854   23731995.2694
        47.000          40.000
 09  1  3  1 37  0.0000000  0 12G 5G30G24G31G14G29G21G18G 6G12G 9G22
 123461168.14547  96203498.71847  23493882.7764   23493886.7554   23493882.9314
        46.000          40.000
 120571947.68247  93952152.12447  22944090.0474   22944092.6084   22944089.5414
        49.000          42.000
 117597942.54647  91634750.36847  22378151.9964   22378156.5964   22378152.2844
        50.000          43.000
 125906301.60247  80316581.39847  22056248.5934   22056250.0944   22056248.1184
        51.000          45.000
 117065770.23447  91220070.10247  22276883.5484   22276885.8524   22276883.6304
        49.000          44.000
 123874634.13647  96525677.98947  23572567.9294   23572572.1024   23572567.3974
        45.000          41.000
 104808340.06547  81668825.71447  19944370.1474   19944372.2974   19944370.5664
        54.000          49.000
 121288598.89747  94510589.15047  23080459.7414   23080461.6184   23080460.1914
        48.000          41.000
 136443182.34647  88527133.57047  24061354.9024   24061358.9804   24061354.5724
        43.000          37.000
 128537661.62647 100159201.76747  24459913.5104   24459915.7864   24459913.3724
        44.000          38.000
 123603959.36747  96314751.06147  23521070.7204   23521073.7404   23521070.9264
        46.000          39.000
 124673357.43947  97148082.64347  23724542.3524   23724542.4114   23724542.7744
        47.000          40.000
 09  1  3  1 37 30.0000000  0 12G 5G30G24G31G14G29G21G18G 6G12G 9G22
 123453822.62047  96197774.96947  23492485.1264   23492488.9814   23492485.5654
        46.000          40.000
 120544511.02647  93930772.93947  22938868.8784   22938872.0064   22938868.5274
        49.000          42.000
 117667136.64847  91688667.84047  22391319.5264   22391323.5564   22391319.7344
        49.000          43.000
 125818464.98347  80248137.29947  22039533.5964   22039535.4114   22039533.3764
        51.000          46.000
 117098332.53547  91245443.33247  22283079.6894   22283082.3764   22283080.0384
        50.000          44.000
 123946065.43747  96581338.73347  23586160.4434   23586165.1154   23586159.9634
        45.000          41.000
 104807097.55847  81667857.51847  19944133.7584   19944135.8174   19944134.1394
        54.000          49.000
 121253421.77347  94483178.41747  23073766.0274   23073767.8394   23073766.1924
        48.000          41.000
 136415703.61047  88505721.57547  24056125.8944   24056129.5814   24056125.7084
        42.000          38.000
 128545094.81247 100164993.91047  24461328.1224   24461330.7754   24461328.0574
        44.000          39.000
 123701226.33347  96390543.51947  23539579.9044   23539582.5004   23539580.0984
        45.000          39.000
 124633982.79147  97117401.10847  23717049.0494   23717049.8584   23717049.3134
        46.000          40.000
 09  1  3  1 38  0.0000000  0 12G 5G30G24G31G14G29G21G18G 6G12G 9G22
 123446647.76147  96192184.20447  23491119.6894   23491123.6194   23491119.8954
        46.000          40.000
 120517093.58647  93909408.76447  22933651.5404   22933654.6144   22933651.4614
        49.000          42.000
 117736710.26047  91742881.04447  22404558.7974   22404563.4444   22404558.8244
        50.000          43.000
 125730933.79147  80179931.19047  22022877.0874   22022878.7904   22022876.8274
        51.000          46.000
 117131099.24747  91270975.83547  22289315.0524   22289317.5634   22289315.2204
        50.000          44.000
 124017364.86747  96636896.68947  23599728.3184   23599732.8994   23599727.9024
        45.000          40.000
 104806467.70647  81667366.71647  19944013.9764   19944015.8964   19944014.3974
        54.000          49.000
 121218151.74947  94455695.29147  23067054.0824   23067055.8524   23067054.5914
        48.000          41.000
 136388497.02147  88484521.64047  24050948.4614   24050952.6854   24050948.2294
        43.000          37.000
 128552683.91847 100170907.51047  24462772.6744   24462775.2624   24462772.0654
        43.000          39.000
 123798772.32947  96466553.38747  23558142.3374   23558145.8164   23558142.2294
        45.000          39.000
 124594398.45747  97086556.16447  23709516.6434   23709517.1314   23709516.7634
        46.000          40.000
 09  1  3  1 38 30.0000000  0 12G 5G30G24G31G14G29G21G18G 6G12G 9G22
 123439648.98547  96186730.63147  23489787.5564   23489792.1944   23489787.9134
        45.000          40.000
 120489700.50147  93888063.53247  22928438.5554   22928441.8744   22928438.1614
        49.000          42.000
 117806664.91047  91797391.16147  22417870.8364   22417875.3754   22417870.8904
        50.000          43.000
 125643714.15747  80111967.85647  22006279.4614   22006281.7214   22006279.0734
        51.000          46.000
 117164070.76147  91296667.93947  22295589.3794   22295591.9564   22295589.4684
        49.000          44.000
 124088534.22747  96692353.31447  23613271.5794   23613275.7224   23613271.3084
        46.000          40.000
 104806454.95747  81667356.77847  19944011.6564   19944013.4804   19944012.0024
        54.000          49.000
 121182793.87247  94428143.68647  23060325.8604   23060327.7224   23060326.1544
        47.000          41.000
 136361564.87047  88463535.54147  24045823.1574   24045827.4444   24045823.1184
        42.000          37.000
 128560434.09847 100176946.64247  24464247.3414   24464249.7234   24464246.5774
        44.000          39.000
 123896598.00647  96542781.19647  23576757.7214   23576761.2024   23576757.9104
        44.000          38.000
 124554607.47447  97055550.21247  23701944.3634   23701945.2784   23701944.3314
        47.000          40.000
 09  1  3  1 39  0.0000000  0 12G 5G30G24G31G14G29G21G18G 6G12G 9G22
 123432825.42947  96181413.62847  23488489.3244   23488493.2184   23488489.6384
        46.000          40.000
 120462331.29447  93866736.89847  22923230.8674   22923233.8504   22923230.3174
        49.000          42.000
 117876995.90347  91852194.53447  22431254.8414   22431259.0094   22431254.8754
        50.000          43.000
 125556806.24147  80044247.42247  21989741.4844   21989743.5684   21989740.8504
        51.000          46.000
 117197241.77147  91322515.48447  22301901.3714   22301904.5274   22301901.6344
        50.000          44.000
 124159568.92147  96747704.99047  23626789.3244   23626792.9574   23626789.4474
        45.000          40.000
 104807056.47347  81667825.48847  19944125.9104   19944128.0204   19944126.3434
        54.000          49.000
 121147346.72147  94400522.53447  23053580.1274   23053582.1174   23053580.8424
        47.000          41.000
 136334903.25947  88442760.26847  24040749.6964   24040753.8514   24040749.9964
        43.000          37.000
 128568344.25047 100183110.43847  24465752.7584   24465754.7414   24465752.4314
        44.000          38.000
 123994697.77147  96619222.57747  23595425.5374   23595428.4234   23595425.2744
        44.000          38.000
 124514608.43747  97024382.14247  23694332.9264   23694333.8484   23694332.5994
        46.000          40.000
 09  1  3  1 39 30.0000000  0 12G 5G30G24G31G14G29G21G18G 6G12G 9G22
 123426180.56747  96176235.84047  23487224.8924   23487229.1024   23487225.0744
        46.000          40.000
 120434989.49047  93845431.63247  22918027.6114   22918030.5174   22918027.3544
        49.000          42.000
 117947702.39447  91907290.50647  22444709.5414   22444714.0114   22444709.3154
        50.000          43.000
 125470214.24947  79976773.16347  21973263.5654   21973265.6984   21973263.3094
        51.000          46.000
 117230610.89547  91348517.40747  22308251.8494   22308254.2954   22308252.2554
        50.000          44.000
 124230468.65847  96802951.52247  23640281.0264   23640284.8544   23640281.0974
        45.000          40.000
 104808274.33547  81668774.46647  19944357.6284   19944359.7054   19944357.9914
        54.000          49.000
 121111813.34947  94372834.18947  23046819.0424   23046820.8694   23046819.3294
        47.000          41.000
 136308512.55247  88422196.08347  24035727.8634   24035731.9064   24035728.3504
        43.000          37.000
 128576417.38747 100189401.24047  24467289.1444   24467291.2294   24467288.4484
        44.000          39.000
 124093069.84447  96695876.12947  23614144.9994   23614148.6044   23614145.2884
        44.000          38.000
 124474403.28847  96993053.44347  23686682.1824   23686682.8734   23686682.1994
        47.000          40.000
 09  1  3  1 40  0.0000000  0 12G 5G30G24G31G14G29G21G18G 6G12G 9G22
 123419715.65847  96171198.27147  23485994.7964   23485998.7734   23485994.9604
        46.000          40.000
 120407676.36047  93824148.69247  22912829.8504   22912833.0884   22912829.5044
        48.000          42.000
 118018782.24647  91962677.40047  22458235.5094   22458240.0674   22458235.6024
        49.000          43.000
 125383940.09847  79909546.57347  21956846.4174   21956847.9964   21956845.9394
        52.000          46.000
 117264174.93447  91374671.21247  22314638.9374   22314641.4414   22314638.9794
        50.000          44.000
 124301231.01947  96858090.99647  23653746.5554   23653750.7334   23653746.5404
        45.000          40.000
 104810107.47147  81670202.88247  19944706.5734   19944708.5624   19944706.9734
        54.000          49.000
 121076195.12247  94345079.72447  23040040.9684   23040042.8664   23040041.6604
        48.000          41.000
 136282391.11147  88401841.72547  24030757.0194   24030761.6264   24030757.3404
        43.000          37.000
 128584654.74847 100195819.98247  24468855.7094   24468858.8154   24468855.9704
        44.000          38.000
 124191710.58147  96772739.04747  23632915.8144   23632919.2694   23632916.0724
        44.000          39.000
 124433991.01947  96961563.36847  23678992.1514   23678992.3764   23678992.2064
        47.000          40.000
 09  1  3  1 40 30.0000000  0 12G 5G30G24G31G14G29G21G18G 6G12G 9G22
 123413432.57747  96166302.40447  23484799.0034   23484802.7464   23484799.4274
        46.000          40.000
 120380394.05647  93802889.79747  22907638.0004   22907641.2034   22907637.5914
        49.000          42.000
 118090233.02447  92018353.32647  22471832.1574   22471836.6154   22471832.0064
        49.000          43.000
 125297986.46947  79842569.75247  21940489.7324   21940491.4294   21940489.7844
        51.000          46.000
 117297930.87447  91400974.54247  22321062.0304   22321064.8864   22321062.3414
        50.000          44.000
 124371854.28347  96913122.06047  23667185.8474   23667189.7504   23667185.6684
        45.000          40.000
 104812556.31847  81672111.06547  19945172.5684   19945174.5484   19945172.9974
        54.000          49.000
 121040493.48047  94317260.23447  23033247.4444   23033249.3784   23033248.0614
        48.000          41.000
 136256537.41747  88381696.01447  24025836.9824   24025842.0474   24025837.2914
        42.000          37.000
 128593057.56447 100202367.67547  24470455.4214   24470457.5744   24470455.2704
        44.000          39.000
 124290616.97447  96849808.97247  23651737.2054   23651740.2844   23651737.1114
        44.000          38.000
 124393373.21247  96929913.11747  23671262.7104   23671262.9514   23671262.6664
        48.000          40.000
 09  1  3  1 41  0.0000000  0 12G 5G30G24G31G14G29G21G18G 6G12G 9G22
 123407334.13747  96161550.39247  23483638.2794   23483642.1774   23483638.5854
        46.000          40.000
 120353145.38847  93781657.11547  22902452.7684   22902455.9514   22902452.4464
        49.000          42.000
 118162053.47747  92074317.32747  22485498.8544   22485503.6004   22485499.1594
        49.000          43.000
 125212357.01747  79775845.52447  21924194.7334   21924196.6264   21924194.0314
        51.000          46.000
 117331877.02247  91427426.08847  22327522.2134   22327524.6054   22327522.2824
        50.000          44.000
 124442337.60347  96968044.08547  23680598.1694   23680602.1704   23680597.9724
        45.000          40.000
 104815622.19047  81674500.04347  19945755.9384   19945758.0414   19945756.3104
        54.000          49.000
 121004711.21847  94289377.93847  23026437.9244   23026439.7364   23026438.3594
        47.000          41.000
 136230951.35347  88361758.80847  24020968.0494   24020972.7524   24020968.1784
        43.000          37.000
 128601628.45047 100209046.33547  24472085.7874   24472088.2254   24472085.8114
        44.000          39.000
 124389787.03447  96927084.32747  23670608.3814   23670611.4954   23670608.6514
        44.000          38.000
 124352550.72447  96898103.39047  23663494.7464   23663495.0014   23663494.6284
        47.000          40.000
 09  1  3  1 41 30.0000000  0 12G 5G30G24G31G14G29G21G18G 6G12G 9G22
 123401422.11547  96156943.63147  23482513.4574   23482516.8524   23482513.8054
        46.000          40.000
 120325932.31647  93760452.16647  22897274.6044   22897277.5054   22897274.0754
        49.000          42.000
 118234241.64147  92130567.84547  22499235.6854   22499240.5504   22499236.0744
        49.000          43.000
 125127054.34947  79709375.94147  21907962.4064   21907964.1534   21907961.8534
        52.000          46.000
 117366010.40147  91454023.53147  22334017.7604   22334019.7844   22334017.6914
        49.000          44.000
 124512679.11947  97022855.64047  23693983.7514   23693987.8554   23693983.5844
        45.000          40.000
 104819304.71547  81677369.52847  19946456.7504   19946458.8304   19946457.1494
        54.000          49.000
 120968849.91947  94261434.06347  23019613.5804   23019615.8424   23019614.0094
        47.000          41.000
 136205631.43147  88342029.00347  24016149.4014   24016154.3154   24016149.9064
        43.000          38.000
 128610368.89147 100215857.11747  24473748.9514   24473751.5714   24473748.6574
        44.000          38.000
 124489218.10347  97004563.07347  23689529.5534   23689532.6424   23689529.6414
        44.000          38.000
 124311524.26647  96866134.71347  23655687.6754   23655688.0324   23655688.0324
        46.000          40.000
 09  1  3  1 42  0.0000000  0 12G 5G30G24G31G14G29G21G18G 6G12G 9G22
 123395700.33447  96152485.12447  23481424.7924   23481428.3864   23481425.2484
        46.000          40.000
 120298758.83747  93739278.04447  22892103.1324   22892106.3424   22892102.8774
        48.000          42.000
 118306797.20747  92187104.65347  22513042.3314   22513047.0174   22513042.4144
        49.000          43.000
 125042082.75647  79643164.34047  21891792.8424   21891794.6314   21891792.8534
        52.000          46.000
 117400330.29547  91480766.30347  22340548.0144   22340551.0754   22340548.0754
        50.000          44.000
 124582878.73247  97077556.62547  23707342.3334   23707346.6874   23707342.0684
        45.000          40.000
 104823605.99847  81680721.16547  19947275.3994   19947277.2094   19947275.7914
        54.000          49.000
 120932912.91447  94233431.19147  23012775.2414   23012776.8414   23012775.7474
        48.000          41.000
 136180578.54547  88322507.28347  24011383.3404   24011387.2724   24011383.1614
        43.000          38.000
 128619282.39047 100222802.73647  24475444.7184   24475447.4824   24475444.6424
        44.000          38.000
 124588908.70747  97082244.04547  23708500.0704   23708503.4354   23708500.1974
        44.000          38.000
 124270296.37047  96834009.08347  23647841.8754   23647842.4644   23647841.8144
        46.000          40.000
 09  1  3  1 42 30.0000000  0 12G 5G30G24G31G14G29G21G18G 6G12G 9G22
 123390167.10547  96148173.52547  23480371.7714   23480375.0094   23480371.8654
        46.000          40.000
 120271623.50647  93718133.65347  22886939.6134   22886942.8944   22886939.3324
        49.000          42.000
 118379714.64547  92243923.44047  22526918.4394   22526922.9114   22526918.6864
        49.000          42.000
 124957441.16247  79577209.87547  21875685.9164   21875687.7904   21875685.3194
        51.000          46.000
 117434830.21347  91507649.36747  22347113.3674   22347115.7954   22347113.5984
        49.000          44.000
 124652931.44647  97132143.14947  23720673.2754   23720677.3464   23720672.9574
        45.000          40.000
 104828522.68147  81684552.33747  19948211.0354   19948212.8674   19948211.4114
        54.000          49.000
 120896898.45447  94205367.95447  23005921.6754   23005924.0414   23005921.9944
        48.000          41.000
 136155787.66347  88303189.71147  24006665.3664   24006670.0104   24006665.2784
        42.000          38.000
 128628366.97547 100229881.63847  24477174.0834   24477176.2134   24477173.2584
        43.000          38.000
 124688852.42347  97160122.26247  23727518.1364   23727522.3274   23727518.4404
        44.000          38.000
 124228863.94147  96801724.08047  23639957.8294   23639958.1124   23639957.6314
        47.000          40.000
 09  1  3  1 43  0.0000000  0 12G 5G30G24G31G14G29G21G18G 6G12G 9G22
 123384828.35547  96144013.51147  23479355.8594   23479359.5304   23479356.3274
        46.000          40.000
 120244532.29947  93697023.66247  22881784.3884   22881787.2664   22881784.1394
        49.000          42.000
 118452995.86247  92301025.68147  22540862.9144   22540867.7424   22540863.0884
        49.000          42.000
 124873136.77847  79511518.18147  21859643.4144   21859645.3824   21859643.1734
        52.000          46.000
 117469511.41047  91534673.68047  22353713.0834   22353715.4914   22353713.3774
        50.000          44.000
 124722839.54747  97186616.94447  23733976.3404   23733980.1054   23733976.1184
        45.000          40.000
 104834058.69947  81688866.11047  19949264.4254   19949266.3704   19949264.7864
        54.000          49.000
 120860812.22147  94177248.77247  22999054.4824   22999056.8044   22999054.7314
        48.000          41.000
 136131261.81347  88284078.68047  24001998.0704   24002002.8244   24001998.3234
        43.000          38.000
 128637628.28747 100237098.29547  24478936.4704   24478938.7564   24478936.2814
        44.000          38.000
 124789050.31447  97238198.54447  23746585.1284   23746589.1004   23746585.4984
        43.000          38.000
 124187231.57347  96769283.28547  23632035.4044   23632036.1074   23632035.3204
        46.000          40.000
 09  1  3  1 43 30.0000000  0 12G 5G30G24G31G14G29G21G18G 6G12G 9G22
 123379684.57247  96140005.41147  23478377.3604   23478380.4414   23478377.4884
        47.000          40.000
 120217485.82047  93675948.50047  22876637.6964   22876640.4934   22876637.2934
        48.000          42.000
 118526637.38347  92358408.70447  22554877.0614   22554881.3234   22554877.3474
        49.000          42.000
 124789170.73347  79446090.12647  21843665.1914   21843667.1584   21843664.7794
        52.000          46.000
 117504369.77347  91561836.03747  22360346.1214   22360348.9004   22360346.4114
        49.000          44.000
 124792600.07647  97240975.72847  23747251.4854   23747254.9044   23747251.0194
        45.000          40.000
 104840212.65247  81693661.38847  19950435.3924   19950437.4464   19950435.7334
        54.000          49.000
 120824654.51547  94149073.92147  22992173.8974   22992176.2824   22992174.5574
        48.000          41.000
 136106998.14247  88265171.92747  23997381.1264   23997385.1334   23997380.7534
        43.000          38.000
 128647066.47547 100244452.73547  24480732.9344   24480735.0294   24480732.3584
        44.000          39.000
 124889497.97747  97316469.45447  23765700.4794   23765704.3364   23765700.5024
        44.000          38.000
 124145398.79747  96736686.33147  23624074.5484   23624075.3414   23624074.4014
        46.000          40.000
 09  1  3  1 44  0.0000000  0 12G 5G30G24G31G14G29G21G18G 6G12G 9G22
 123374736.59647  96136149.86147  23477435.1794   23477438.7594   23477435.9134
        46.000          40.000
 120190485.18147  93654909.05247  22871499.4514   22871502.4424   22871498.6564
        49.000          42.000
 118600635.73947  92416069.76847  22568958.3304   22568962.8844   22568958.6754
        48.000          42.000
 124705544.49647  79380926.86147  21827751.4754   21827753.6884   21827751.2984
        52.000          46.000
 117539401.52047  91589133.51947  22367012.3104   22367015.0914   22367012.5594
        49.000          44.000
 124862210.08547  97295217.26447  23760497.9344   23760501.2464   23760497.6314
        45.000          40.000
 104846983.56447  81698937.41547  19951723.9534   19951726.0314   19951724.3684
        54.000          49.000
 120788426.03347  94120843.91947  22985279.9764   22985282.6154   22985280.2764
        48.000          41.000
 136082994.43047  88246467.73747  23992813.4184   23992817.5184   23992813.1024
        44.000          38.000
 128656682.07647 100251945.45347  24482562.9684   24482564.5344   24482562.6544
        44.000          38.000
 124990191.11347  97394931.63947  23784861.5914   23784865.4034   23784861.6474
        44.000          38.000
 124103365.26147  96703932.92147  23616075.8454   23616076.7254   23616075.4844
        47.000          40.000
 09  1  3  1 44 30.0000000  0 12G 5G30G24G31G14G29G21G18G 6G12G 9G22
 123369988.62447  96132450.17147  23476531.6364   23476535.6844   23476531.8924
        46.000          40.000
 120163534.86847  93633908.82547  22866371.0794   22866374.4204   22866370.9164
        49.000          42.000
 118674991.18147  92474009.08047  22583107.3754   22583112.1804   22583107.5334
        48.000          42.000
 124622263.18247  79316032.35847  21811903.7464   21811905.6504   21811903.3054
        52.000          46.000
 117574606.39647  91616565.88847  22373711.5074   22373714.2144   22373711.8554
        49.000          44.000
 124931670.35347  97349342.12347  23773715.7874   23773719.3224   23773715.6684
        45.000          40.000
 104854373.77047  81704696.01047  19953130.3164   19953132.1614   19953130.7094
        54.000          49.000
 120752131.08547  94092562.10947  22978373.6404   22978375.8934   22978374.0524
        48.000          41.000
 136059251.72347  88227966.92947  23988295.5274   23988299.4184   23988295.7424
        43.000          38.000
 128666479.14547 100259579.57847  24484426.4364   24484429.0324   24484426.1684
        43.000          38.000
 125091129.09847  97473584.62447  23804069.7664   23804072.8634   23804069.9944
        44.000          37.000
 124061133.75147  96671025.25847  23608039.6044   23608040.0934   23608039.7944
        48.000          41.000
 09  1  3  1 45  0.0000000  0 12G 5G30G24G31G14G29G21G18G 6G12G 9G22
 123365441.91247  96128907.31747  23475666.0994   23475670.2094   23475666.6704
        46.000          40.000
 120136636.60247  93612949.13547  22861252.7754   22861255.2824   22861252.1264
        49.000          43.000
 118749700.98647  92532224.51847  22597324.4224   22597329.0064   22597324.5284
        48.000          42.000
 124539328.84347  79251408.22947  21796121.8594   21796123.5844   21796121.2924
        52.000          46.000
 117609980.64747  91644130.24447  22380443.4934   22380446.0164   22380443.4844
        50.000          44.000
 125000978.63347  97403348.53347  23786904.7124   23786908.0134   23786904.3364
        45.000          40.000
 104862382.34247  81710936.45247  19954654.3964   19954656.1944   19954654.8224
        54.000          49.000
 120715770.52247  94064229.18547  22971454.6634   22971456.6364   22971455.0714
        49.000          42.000
 136035768.26047  88209668.13547  23983826.3824   23983831.0524   23983825.5684
        43.000          38.000
 128676458.17347 100267355.48347  24486325.3434   24486328.0264   24486324.5594
        44.000          38.000
 125192308.54147  97552425.74447  23823323.4784   23823326.8644   23823323.5684
        44.000          37.000
 124018704.63747  96637963.62447  23599965.7864   23599966.2484   23599965.7774
        47.000          41.000
 09  1  3  1 45 30.0000000  0 12G 5G30G24G31G14G29G21G18G 6G12G 9G22
 123361096.78347  96125521.51347  23474839.6554   23474843.7744   23474840.0874
        46.000          40.000
 120109790.29647  93592029.93547  22856143.9614   22856146.8774   22856143.7804
        49.000          43.000
 118824761.50347  92590713.24647  22611607.8314   22611612.2984   22611607.8164
        49.000          42.000
 124456742.27947  79187055.09547  21780406.0194   21780407.8014   21780405.6134
        52.000          46.000
 117645520.07847  91671823.31447  22387206.2194   22387208.3934   22387206.5894
        49.000          44.000
 125070131.95247  97457234.22347  23800063.9554   23800067.8314   23800063.9324
        45.000          40.000
 104871007.56247  81717657.39447  19956295.8404   19956297.5454   19956296.2884
        54.000          49.000
 120679344.47347  94035845.22347  22964523.1494   22964524.9264   22964523.3934
        49.000          42.000
 136012540.88247  88191568.86447  23979406.5804   23979410.4264   23979406.7214
        44.000          38.000
 128686619.35547 100275273.31947  24488259.4474   24488261.5054   24488259.1454
        45.000          38.000
 125293724.96247  97631451.52447  23842622.6644   23842625.6914   23842622.3274
        44.000          37.000
 123976076.72447  96604747.06847  23591853.7834   23591854.1214   23591853.9114
        47.000          41.000
 09  1  3  1 46  0.0000000  0 12G 5G30G24G31G14G29G21G18G 6G12G 9G22
 123356958.76747  96122297.12247  23474051.9424   23474056.1144   23474052.4434
        46.000          40.000
 120083002.22547  93571156.12147  22851046.3144   22851049.3574   22851045.7934
        49.000          42.000
 118900174.08347  92649476.29847  22625958.6764   22625963.1244   22625958.3594
        48.000          42.000
 124374509.56847  79122977.69247  21764757.4164   21764759.4744   21764757.0824
        52.000          46.000
 117681225.54347  91699645.76347  22394000.8344   22394003.3034   22394001.1124
        50.000          44.000
 125139132.17547  97511000.58047  23813194.1184   23813198.3754   23813193.9474
        45.000          40.000
 104880252.95947  81724861.60447  19958055.0224   19958057.0134   19958055.4264
        54.000          49.000
 120642858.63447  94007414.67347  22957580.0644   22957581.9994   22957580.5034
        49.000          42.000
 135989572.19047  88173671.17447  23975035.9274   23975040.0674   23975035.9794
        44.000          38.000
 128696968.18447 100283337.35047  24490228.3254   24490230.2284   24490227.9894
        44.000          38.000
 125395379.05247  97710662.51547  23861966.2024   23861969.9964   23861966.7184
        44.000          37.000
 123933254.41147  96571379.03147  23583704.8554   23583705.5754   23583704.6934
        47.000          41.000
 09  1  3  1 46 30.0000000  0 12G 5G30G24G31G14G29G21G18G 6G12G 9G22
 123353026.01647  96119232.67747  23473303.6934   23473307.4644   23473303.8914
        46.000          40.000
 120056270.82947  93550326.47247  22845959.6994   22845962.2664   22845959.2064
        49.000          43.000
 118975932.92847  92708509.16047  22640374.9294   22640379.4954   22640375.4124
        49.000          42.000
 124292630.14847  79059175.57147  21749176.1214   21749178.2864   21749175.4144
        52.000          46.000
 117717090.74647  91727592.67347  22400825.7524   22400828.3184   22400825.9084
        49.000          43.000
 125207974.11547  97564643.61547  23826294.4174   23826298.7394   23826294.1654
        44.000          40.000
 104890114.90347  81732546.23347  19959931.6574   19959933.6604   19959932.1404
        54.000          49.000
 120606310.99747  93978935.98147  22950625.0554   22950626.8814   22950625.3384
        48.000          41.000
 135966857.14247  88155971.14347  23970712.9474   23970717.4864   23970713.1864
        43.000          38.000
 128707502.37647 100291545.86747  24492232.9574   24492234.7464   24492233.0054
        44.000          38.000
 125497263.96847  97790053.37047  23881355.0814   23881357.5344   23881354.9134
        43.000          37.000
 123890235.15547  96537857.53447  23575518.7224   23575519.2834   23575518.5504
        47.000          41.000
 09  1  3  1 47  0.0000000  0 12G 5G30G24G31G14G29G21G18G 6G12G 9G22
 123349304.06347  96116332.48647  23472595.6604   23472599.3824   23472595.9754
        46.000          40.000
 120029601.67447  93529545.32347  22840884.7924   22840887.3634   22840884.1924
        50.000          43.000
 119052039.49047  92767812.96747  22654857.6124   22654862.2784   22654857.6994
        48.000          42.000
 124211110.30347  78995653.64447  21733663.4224   21733665.4894   21733663.0604
        52.000          46.000
 117753116.56747  91755664.75647  22407681.1194   22407683.5024   22407681.2454
        49.000          43.000
 125276659.81947  97618164.93047  23839364.8964   23839368.8324   23839364.9674
        45.000          39.000
 104900596.87547  81740713.99347  19961926.2364   19961928.3304   19961926.5494
        54.000          49.000
 120569706.90747  93950413.30047  22943659.0264   22943661.8204   22943659.4514
        48.000          42.000
 135944398.09447  88138470.58947  23966439.1534   23966443.3054   23966439.4144
        43.000          38.000
 128718226.98847 100299902.73147  24494273.9054   24494276.2634   24494273.7664
        44.000          38.000
 125599380.27047  97869624.51147  23900786.8284   23900790.0604   23900786.9134
        43.000          37.000
 123847022.83847  96504185.61347  23567295.3064   23567296.3414   23567295.5364
        47.000          41.000
 09  1  3  1 47 30.0000000  0 12G 5G30G24G31G14G29G21G18G 6G12G 9G22
 123345791.95447  96113595.80847  23471926.9944   23471931.3514   23471927.4804
        46.000          40.000
 120002993.79547  93508811.94347  22835821.2514   22835823.9574   22835821.0814
        49.000          43.000
 119128488.66747  92827383.75547  22669405.2954   22669410.0354   22669405.5314
        49.000          42.000
 124129949.64447  78932411.59347  21718218.9934   21718221.1854   21718218.4414
        52.000          46.000
 117789297.19747  91783857.46147  22414566.1914   22414568.5004   22414566.3064
        49.000          43.000
 125345184.81447  97671561.04847  23852404.5974   23852408.4884   23852404.5234
        45.000          39.000
 104911695.91147  81749362.59047  19964038.3944   19964040.3944   19964038.7824
        54.000          49.000
 120533045.49447  93921845.94747  22936682.8924   22936685.2954   22936683.3034
        48.000          42.000
 135922190.68147  88121166.12547  23962213.0124   23962217.6074   23962213.3304
        43.000          38.000
 128729140.88447 100308407.11047  24496350.4404   24496352.4014   24496350.1054
        43.000          38.000
 125701722.30947  97949371.56947  23920261.5584   23920264.6974   23920261.8084
        42.000          37.000
 123803615.75747  96470361.93947  23559035.6234   23559036.0934   23559035.5184
        47.000          40.000
 09  1  3  1 48  0.0000000  0 12G 5G30G24G31G14G29G21G18G 6G12G 9G22
 123342494.45147  96111026.33247  23471299.4804   23471303.7174   23471300.1154
        47.000          40.000
 119976452.48547  93488130.42047  22830770.6024   22830773.4274   22830770.3274
        49.000          43.000
 119205280.99747  92887221.93047  22684018.3814   22684023.1204   22684018.7374
        48.000          42.000
 124049153.35347  78869453.46647  21702844.1814   21702846.1194   21702843.9104
        52.000          46.000
 117825632.86247  91812170.96347  22421480.2024   22421482.9184   22421480.4824
        50.000          43.000
 125413550.47047  97724832.98247  23865414.4584   23865417.7874   23865414.1364
        45.000          39.000
 104923414.37847  81758493.85847  19966268.2204   19966270.0104   19966268.6514
        54.000          49.000
 120496331.47947  93893237.60647  22929696.6504   22929699.0624   22929697.1004
        49.000          42.000
 135900236.68347  88104059.12147  23958035.4484   23958039.9584   23958035.4264
        43.000          38.000
 128740248.40247 100317062.35847  24498464.1254   24498466.5664   24498463.8694
        44.000          38.000
 125804289.88447  98029294.32547  23939779.2524   23939782.3704   23939779.7384
        42.000          36.000
 123760017.42747  96436389.20047  23550739.0144   23550739.2214   23550738.9024
        47.000          40.000
 09  1  3  1 48 30.0000000  0 12G 5G30G24G31G14G29G21G18G 6G12G 9G22
 123339412.63547  96108624.96547  23470713.2084   23470716.6354   23470713.8984
        46.000          40.000
 119949979.38547  93467502.05147  22825733.1584   22825735.7324   22825732.8324
        50.000          43.000
 119282413.92747  92947325.51647  22698696.0674   22698701.2464   22698696.2944
        48.000          42.000
 123968723.80547  78806781.11247  21687539.0424   21687540.8614   21687538.5784
        52.000          46.000
 117862120.28947  91840602.73247  22428424.0364   22428425.8834   22428424.4554
        50.000          43.000
 125481754.64647  97777979.10747  23878393.2094   23878397.0054   23878393.0454
        44.000          39.000
 104935751.15347  81768106.92247  19968615.8484   19968617.8404   19968616.1744
        54.000          49.000
 120459565.85447  93864589.04047  22922700.5434   22922702.6044   22922700.9264
        49.000          42.000
 135878533.93947  88087147.89847  23953905.5254   23953910.0874   23953905.7424
        44.000          39.000
 128751550.18947 100325868.97647  24500614.6804   24500616.9824   24500614.2044
        43.000          38.000
 125907079.18047  98109389.89247  23959339.6754   23959343.0414   23959339.5534
        42.000          36.000
 123716228.06147  96402267.63247  23542406.0714   23542406.8584   23542406.1694
        47.000          40.000
 09  1  3  1 49  0.0000000  0 12G 5G30G24G31G14G29G21G18G 6G12G 9G22
 123336547.00547  96106392.01547  23470167.7244   23470171.2674   23470168.1924
        46.000          40.000
 119923575.13747  93446927.33947  22820708.6204   22820711.3504   22820708.4554
        49.000          43.000
 119359883.56247  93007691.46747  22713438.6574   22713442.9014   22713438.8044
        48.000          42.000
 123888661.87147  78744395.20347  21672303.7804   21672305.5354   21672303.2264
        52.000          47.000
 117898755.38747  91869149.55647  22435395.5954   22435397.5104   22435395.6724
        49.000          43.000
 125549794.15647  97830996.88047  23891340.5494   23891344.7604   23891340.4554
        44.000          39.000
 104948704.83047  81778200.68847  19971080.8904   19971082.7884   19971081.3144
        54.000          49.000
 120422749.37247  93835900.84847  22915694.6554   22915696.6094   22915694.9464
        49.000          42.000
 135857079.65647  88070430.27347  23949823.5274   23949827.5014   23949823.2724
        43.000          38.000
 128763046.55647 100334827.23347  24502802.1064   24502804.6684   24502801.7004
        43.000          38.000
 126010085.90047  98189654.86347  23978940.2994   23978944.3154   23978940.6654
        40.000          37.000
 123672246.93847  96367996.63347  23534036.7514   23534037.3634   23534036.9974
        47.000          40.000
 09  1  3  1 49 30.0000000  0 12G 5G30G24G31G14G29G21G18G 6G12G 9G22
 123333900.61347  96104329.91747  23469664.5304   23469667.8034   23469664.9424
        47.000          40.000
 119897242.95547  93426408.76747  22815697.8114   22815700.1044   22815697.2044
        49.000          43.000
 119437689.16947  93068319.22947  22728244.3444   22728248.7194   22728244.2714
        48.000          42.000
 123808971.34047  78682298.71047  21657139.1254   21657141.0094   21657139.1064
        52.000          46.000
 117935536.41647  91897810.11147  22442394.5534   22442396.8854   22442394.6534
        49.000          43.000
 125617668.81847  97883886.19647  23904256.7074   23904260.8344   23904256.0314
        43.000          39.000
 104962276.09447  81788775.69647  19973663.4714   19973665.2924   19973663.8044
        54.000          49.000
 120385885.15247  93807175.46047  22908679.0734   22908681.4244   22908679.8494
        48.000          41.000
 135835873.82747  88053906.25347  23945787.4064   23945792.2804   23945787.5964
        43.000          38.000
 128774740.41647 100343939.35047  24505027.8814   24505029.9744   24505027.1924
        43.000          38.000
 126113308.54047  98270088.06647  23998583.6904   23998586.9694   23998583.3174
        42.000          37.000
 123628076.35847  96333578.00047  23525631.6124   23525632.1884   23525631.7194
        46.000          40.000
