     2.11           OBSERVATION DATA    G (GPS)             RINEX VERSION / TYPE
teqc  2008Oct2      gpsops              20090113 00:05:44UTCPGM / RUN BY / DATE
    30.0000                                                 INTERVAL
     1     1                                                WAVELENGTH FACT L1/2
     7    L1    L2    P1    P2    C1    S1    S2            # / TYPES OF OBSERV
Linux 2.4.20-8|Pentium IV|gcc -static|Linux|486/DX+         COMMENT
     2.10           OBSERVATION DATA    GPS                 COMMENT
soc2rnx ver 1.20    gpsops              13-Jan-2009 00:05:42COMMENT
S1, if present, is the SNR for the C/A data stream on L1.   COMMENT
 SNR is mapped to RINEX snr flag value [1,4-9]              COMMENT
    SNR:   >316  >100  >31.6  >10  >3.2    >0 bad=0         COMMENT
L1 & L2:      9     8     7     6     5     4     1         COMMENT
                                                            COMMENT
This data is provided as a public service by NASA/JPL.      COMMENT
No warranty is expressed or implied regarding suitability   COMMENT
for use.  For further information, contact:                 COMMENT
Dave Stowers, NASA/JPL m/s 238-600                          COMMENT
4800 Oak Grove Drive, Pasadena CA 91109 USA                 COMMENT
                                                            COMMENT
Forced Modulo Decimation to 30 seconds                      COMMENT
  2009     1    12     0     0    0.0000000     GPS         TIME OF FIRST OBS
DSN                 JPL                                     OBSERVER / AGENCY
451-U               AOAD/M_T        NONE                    ANT # / TYPE
  4849202.3940  -360328.9929  4114913.1862                  APPROX POSITION XYZ
        0.0254        0.0000        0.0000                  ANTENNA: DELTA H/E/N
LP03574             ASHTECH Z-XII3      CC00                REC # / TYPE / VERS
MADR                                                        MARKER NAME
13407S012                                                   MARKER NUMBER
                                                            END OF HEADER
 09  1 12  0  0  0.0000000  0 11G 9G24G26G15G28G17G 8G27G21G18G10
 117885497.33348  91858814.90648  22432875.4724   22432878.5664   22432875.7034
       234.000         193.000
 131678414.88448 102606536.40148  25057585.6814   25057589.8884   25057584.4334
       208.000         149.000
 105978866.86948  82580915.26448  20167124.5004   20167126.7764   20167124.5644
       250.000         228.000
 108267517.27748  84364296.40248  20602625.5174   20602626.9004   20602625.0504
       250.000         234.000
 116619057.68848  90871989.79148  22191870.2664   22191872.0864   22191871.0434
       239.000         204.000
 129874170.05348 101200637.06648  24714244.8294   24714246.4804   24714244.2124
       211.000         162.000
 126335690.53248  98443376.02948  24040897.7734   24040902.2294   24040897.5414
       213.000         159.000
 123294661.64948  96073750.36148  23462203.4934   23462206.0424   23462203.1834
       232.000         190.000
 129714182.53548 101076004.68248  24683769.9974   24683771.7934   24683768.7724
       204.000         143.000
 126455971.59848  98537113.32648  24063775.9954   24063778.9734   24063776.5674
       215.000         162.000
 119102560.62248  92807175.48548  22664473.2534   22664476.4954   22664474.1354
       234.000         192.000
 09  1 12  0  0 30.0000000  0 11G 9G24G26G15G28G17G 8G27G21G18G10
 117799380.34948  91791710.80448  22416487.5724   22416490.7174   22416487.6374
       233.000         192.000
 131753421.57548 102664983.15548  25071857.8654   25071862.8194   25071857.8014
       202.000         145.000
 105997363.32748  82595328.08148  20170644.3654   20170646.6274   20170644.2854
       251.000         228.000
 108235134.45348  84339063.03348  20596463.2884   20596464.5454   20596463.1534
       251.000         234.000
 116667641.35848  90909847.20148  22201115.2144   22201116.9634   22201115.5284
       239.000         202.000
 129801507.70348 101144017.04848  24700418.3224   24700419.8414   24700418.5994
       217.000         167.000
 126425771.89148  98513569.31248  24058040.5054   24058043.6754   24058040.7604
       210.000         159.000
 123364903.29148  96128484.13348  23475570.0904   23475572.3824   23475570.5644
       231.000         190.000
 129748439.12848 101102698.07648  24690288.7064   24690289.5644   24690288.9894
       206.000         140.000
 126365867.15848  98466902.07048  24046629.7284   24046631.9344   24046628.8464
       217.000         161.000
 119203033.06448  92885465.69348  22683592.5694   22683595.8864   22683593.2944
       235.000         192.000
 09  1 12  0  1  0.0000000  0 11G 9G24G26G15G28G17G 8G27G21G18G10
 117713490.99948  91724784.06848  22400143.2974   22400146.3954   22400143.4334
       235.000         193.000
 131828477.30948 102723468.10148  25086140.1714   25086145.9674   25086141.2324
       197.000         141.000
 106016248.54248  82610043.82448  20174238.1644   20174240.3594   20174238.2024
       250.000         228.000
 108203070.43648  84314078.08548  20590361.5424   20590362.9584   20590361.3944
       251.000         234.000
 116716671.91348  90948052.82648  22210445.6114   22210447.3424   22210446.4024
       239.000         203.000
 129729005.54848 101087521.86848  24686621.3444   24686623.6414   24686621.7904
       211.000         162.000
 126515885.94748  98583788.06148  24075188.5094   24075191.6254   24075189.5754
       213.000         157.000
 123435174.22848  96183240.69048  23488940.7864   23488944.5334   23488941.3454
       228.000         187.000
 129783086.36948 101129695.93148  24696881.7214   24696883.4414   24696882.9274
       203.000         136.000
 126276049.90148  98396914.61748  24029537.8304   24029540.3594   24029540.3854
       218.000         160.000
 119303739.46048  92963938.21048  22702756.5654   22702759.7094   22702757.4684
       235.000         192.000
 09  1 12  0  1 30.0000000  0 11G 9G24G26G15G28G17G 8G27G21G18G10
 117627831.43248  91658036.37048  22383843.3384   22383845.7084   22383843.6974
       233.000         191.000
 131903580.49648 102781990.04548  25100431.8354   25100437.2064   25100431.7084
       201.000         136.000
 106035523.63548  82625063.36748  20177906.0634   20177908.3634   20177905.9044
       251.000         228.000
 108171327.91048  84289343.64748  20584321.0864   20584322.5254   20584320.9214
       250.000         235.000
 116766148.45448  90986605.97348  22219860.6674   22219862.5044   22219861.2834
       239.000         202.000
 129656667.68948 101031154.67448  24672856.0174   24672858.2484   24672856.2234
       216.000         169.000
 126606032.89848  98654032.40048  24092342.9804   24092346.2304   24092343.6214
       212.000         156.000
 123505474.78948  96238020.34348  23502319.1934   23502322.4184   23502318.8924
       231.000         189.000
 129818123.56748 101156997.63748  24703549.5334   24703551.3944   24703549.0454
       211.000         145.000
 126186523.83548  98327154.05348  24012502.1874   24012503.8494   24012503.7344
       220.000         162.000
 119404678.61548  93042592.08648  22721964.3634   22721967.7524   22721965.3154
       232.000         190.000
 09  1 12  0  2  0.0000000  0 11G 9G24G26G15G28G17G 8G27G21G18G10
 117542401.82948  91591467.87748  22367586.0444   22367588.7784   22367586.6364
       234.000         190.000
 131978727.96448 102840546.52648  25114730.9514   25114737.1924   25114730.5314
       209.000         133.000
 106055188.45648  82640386.60248  20181648.0514   20181650.4204   20181648.0894
       250.000         228.000
 108139907.68148  84264860.35048  20578341.9934   20578343.5224   20578341.6464
       251.000         235.000
 116816068.89348  91025505.02348  22229360.2214   22229361.8654   22229360.4664
       239.000         202.000
 129584496.72348 100974917.55048  24659122.9174   24659124.5514   24659123.4404
       216.000         169.000
 126696211.44148  98724301.39648  24109503.1844   24109506.9914   24109504.9864
       210.000         160.000
 123575804.09348  96292822.39648  23515702.5804   23515705.4844   23515702.9814
       229.000         187.000
 129853548.10848 101184601.15248  24710291.0114   24710293.3124   24710291.2584
       209.000         150.000
 126097291.36348  98257622.21548  23995522.1264   23995523.1894   23995524.3334
       218.000         160.000
 119505847.29848  93121424.81748  22741216.0924   22741219.5764   22741216.5844
       232.000         191.000
 09  1 12  0  2 30.0000000  0 11G 9G24G26G15G28G17G 8G27G21G18G10
 117457203.39848  91525079.50348  22351373.6254   22351376.1784   22351374.0344
       237.000         193.000
 132053917.84748 102899136.09848  25129040.5814   25129044.8784   25129042.1224
       208.000         137.000
 106075244.55948  82656014.72648  20185464.5764   20185466.8674   20185464.4694
       251.000         228.000
 108108812.07448  84240630.01148  20572424.6384   20572426.1864   20572424.2834
       250.000         235.000
 116866432.34148  91064749.26548  22238944.0854   22238945.5904   22238944.2774
       239.000         201.000
 129512496.27048 100918813.31548  24645421.1574   24645423.5484   24645421.1804
       216.000         167.000
 126786421.44648  98794594.86048  24126670.3694   24126673.2804   24126671.2844
       213.000         161.000
 123646162.57648  96347647.16648  23529090.8194   23529093.9184   23529090.9154
       230.000         186.000
 129889358.88048 101212505.57348  24717106.2754   24717107.7864   24717106.2784
       217.000         158.000
 126008355.32748  98188321.41448  23978597.3064   23978599.2494   23978598.6724
       217.000         159.000
 119607243.94448  93200435.18348  22760511.6274   22760514.8824   22760512.2614
       233.000         191.000
 09  1 12  0  3  0.0000000  0 11G 9G24G26G15G28G17G 8G27G21G18G10
 117372236.93348  91458871.88548  22335205.2364   22335207.9884   22335205.7434
       235.000         194.000
 132129147.15348 102957756.32048  25143356.4244   25143362.0454   25143356.8854
       209.000         139.000
 106095691.87848  82671947.68748  20189355.5014   20189357.8884   20189355.3994
       251.000         228.000
 108078042.34848  84216653.58948  20566569.4714   20566570.7944   20566569.1254
       251.000         235.000
 116917237.03648  91104337.34548  22248612.0304   22248613.3454   22248612.9614
       240.000         202.000
 129440669.47948 100862844.36248  24631752.9694   24631754.6824   24631753.1924
       217.000         166.000
 126876661.48448  98864911.77748  24143842.1504   24143845.8284   24143843.6464
       209.000         160.000
 123716549.44948  96402494.07448  23542485.5524   23542488.1394   23542485.6254
       232.000         187.000
 129925553.28148 101240708.97648  24723993.2194   24723995.1694   24723994.6574
       214.000         159.000
 125919718.40348  98119253.70048  23961730.4964   23961732.9034   23961730.5194
       216.000         163.000
 119708865.87648  93279621.08348  22779849.2934   22779852.8534   22779850.5864
       233.000         190.000
 09  1 12  0  3 30.0000000  0 11G 9G24G26G15G28G17G 8G27G21G18G10
 117287503.94948  91392846.21248  22319080.5624   22319084.0374   22319080.3334
       233.000         193.000
 132204413.43948 103016405.39348  25157678.7254   25157684.2394   25157679.8644
       207.000         143.000
 106116531.24948  82688186.14848  20193321.2804   20193323.6354   20193321.2524
       251.000         228.000
 108047600.39648  84192932.58848  20560776.5564   20560777.9094   20560776.3464
       251.000         235.000
 116968481.55748  91144268.14448  22258363.3024   22258365.3134   22258363.4014
       239.000         202.000
 129369019.92548 100807013.55348  24618118.6504   24618120.2294   24618118.6294
       219.000         169.000
 126966931.36348  98935251.92148  24161020.3384   24161022.9114   24161020.2744
       210.000         159.000
 123786964.98548  96457363.31348  23555884.7954   23555888.0444   23555885.5554
       229.000         186.000
 129962129.84848 101269210.16548  24730952.8754   24730954.8354   24730952.2984
       212.000         156.000
 125831383.87348  98050421.61448  23944921.2844   23944923.3994   23944920.8484
       220.000         164.000
 119810710.99648  93358980.91548  22799229.7294   22799233.5764   22799230.2174
       233.000         191.000
 09  1 12  0  4  0.0000000  0 11G 9G24G26G15G28G17G 8G27G21G18G10
 117203004.17048  91327002.24948  22303000.9694   22303004.1884   22303001.2844
       232.000         193.000
 132279713.29048 103075080.57148  25172008.9274   25172013.7814   25172009.4894
       203.000         145.000
 106137762.02648  82704729.60348  20197361.3734   20197363.6854   20197361.3404
       251.000         228.000
 108017486.71948  84169467.37848  20555046.2254   20555047.5224   20555045.9704
       251.000         235.000
 117020163.31748  91184539.64648  22268198.3104   22268200.0724   22268198.9614
       240.000         202.000
 129297549.45948 100751322.26148  24604518.4734   24604519.7614   24604517.4654
       216.000         165.000
 127057229.04548  99005613.73348  24178202.6654   24178206.5124   24178205.2694
       205.000         158.000
 123857407.73948  96512253.74048  23569289.6254   23569292.7274   23569289.3984
       229.000         185.000
 129999085.59048 101298006.80848  24737985.5404   24737987.3094   24737984.5074
       211.000         151.000
 125743353.22048  97981826.31348  23928169.7664   23928170.8634   23928170.5764
       220.000         165.000
 119912775.90848  93438512.00348  22818652.3704   22818655.9944   22818653.3454
       233.000         191.000
 09  1 12  0  4 30.0000000  0 11G 9G24G26G15G28G17G 8G27G21G18G10
 117118738.68448  91261340.86548  22286965.5954   22286968.7154   22286965.5144
       231.000         192.000
 132355044.26848 103133779.96148  25186343.3734   25186349.6014   25186343.4634
       206.000         148.000
 106159384.92348  82721578.61048  20201476.0484   20201478.2404   20201476.1214
       251.000         228.000
 107987703.15648  84146259.40448  20549378.5004   20549379.9114   20549378.3714
       251.000         235.000
 117072281.01248  91225150.83348  22278115.7434   22278117.2884   22278116.1764
       238.000         201.000
 129226261.40848 100695773.12448  24590952.4654   24590954.1324   24590951.9554
       212.000         166.000
 127147554.13048  99075996.89448  24195391.7474   24195394.3014   24195391.7584
       209.000         158.000
 123927877.38748  96567165.12948  23582699.6824   23582702.5444   23582699.7534
       230.000         185.000
 130036418.69248 101327097.51648  24745089.6344   24745091.9844   24745090.8054
       206.000         148.000
 125655629.35148  97913470.08348  23911476.4354   23911477.1364   23911475.7764
       219.000         163.000
 120015058.04048  93518212.36848  22838115.9444   22838119.3594   22838116.7974
       231.000         189.000
 09  1 12  0  5  0.0000000  0 11G 9G24G26G15G28G17G 8G27G21G18G10
 117034708.36248  91195862.71848  22270974.9304   22270977.8194   22270975.4014
       234.000         192.000
 132430403.33048 103192501.25448  25200684.2774   25200688.6774   25200684.8514
       208.000         150.000
 106181400.10148  82738733.29948  20205665.3864   20205667.6314   20205665.2454
       251.000         228.000
 107958251.23148  84123309.84848  20543774.0284   20543775.3384   20543773.8434
       251.000         235.000
 117124832.81048  91266100.29248  22288116.1334   22288117.2654   22288116.5294
       241.000         201.000
 129155159.15848 100640368.77348  24577422.5654   24577424.2054   24577421.6804
       218.000         169.000
 127237905.80548  99146400.78848  24212585.2634   24212587.9714   24212585.3704
       212.000         158.000
 123998373.23148  96622096.95148  23596114.8554   23596117.3314   23596115.1414
       228.000         184.000
 130074126.77848 101356480.40248  24752265.6124   24752268.1254   24752267.0474
       204.000         144.000
 125568214.95248  97845354.93548  23894842.1244   23894842.5214   23894841.4454
       222.000         165.000
 120117555.24748  93598080.32048  22857620.2404   22857623.7764   22857620.7574
       232.000         187.000
 09  1 12  0  5 30.0000000  0 11G 9G24G26G15G28G17G 8G27G21G18G10
 116950913.06048  91130567.70348  22255029.4524   22255032.2994   22255029.6274
       234.000         193.000
 132505787.02148 103251241.75448  25215029.7304   25215033.6784   25215029.9504
       208.000         148.000
 106203807.11048  82756193.29348  20209929.3664   20209931.5524   20209929.1924
       251.000         227.000
 107929131.31348  84100618.99548  20538232.6734   20538234.0064   20538232.5044
       251.000         236.000
 117177816.12548  91307385.98948  22298198.5354   22298199.9144   22298199.1774
       239.000         202.000
 129084244.51248 100585110.58648  24563926.9044   24563929.4854   24563925.9084
       213.000         165.000
 127328282.35048  99216824.06448  24229782.6654   24229785.6614   24229783.1004
       213.000         162.000
 124068894.10748  96677048.27148  23609534.1224   23609537.1434   23609534.3754
       226.000         184.000
 130112207.13148 101386153.33848  24759513.0894   24759513.4434   24759512.1124
       207.000         148.000
 125481111.71148  97777482.32248  23878266.3454   23878268.5364   23878268.0304
       222.000         165.000
 120220264.19948  93678113.25348  22877165.2624   22877168.7004   22877166.6634
       229.000         187.000
 09  1 12  0  6  0.0000000  0 11G 9G24G26G15G28G17G 8G27G21G18G10
 116867354.36548  91065457.04948  22239128.7884   22239131.6844   22239128.7234
       234.000         195.000
 132581193.14348 103309999.73748  25229378.8194   25229383.1264   25229379.2844
       199.000         136.000
 106226606.57348  82773959.10548  20214267.9234   20214270.2384   20214267.8274
       251.000         227.000
 107900345.45148  84078188.44948  20532754.7914   20532756.2994   20532754.6744
       251.000         236.000
 117231229.39448  91349006.71048  22308362.6544   22308364.9054   22308363.0144
       239.000         202.000
 129013521.03148 100530001.37448  24550469.9604   24550471.4934   24550469.1524
       219.000         171.000
 127418683.28448  99287266.32348  24246985.7614   24246989.3024   24246986.5034
       213.000         161.000
 124139439.88848  96732018.99048  23622958.7364   23622961.6604   23622958.7794
       228.000         183.000
 130150657.61348 101416114.72648  24766829.2284   24766831.4464   24766829.2134
       206.000         151.000
 125394322.77948  97709854.54248  23861751.8044   23861752.6654   23861751.8694
       221.000         164.000
 120323182.58148  93758309.37448  22896749.5314   22896753.3064   22896749.9724
       228.000         186.000
 09  1 12  0  6 30.0000000  0 11G 9G24G26G15G28G17G 8G27G21G18G10
 116784031.97248  91000530.53748  22223273.2094   22223276.0254   22223273.4234
       235.000         195.000
 132656618.00048 103368772.37048  25243732.6434   25243735.8794   25243732.4464
       189.000         129.000
 106249798.27048  82792030.54748  20218681.1034   20218683.4974   20218681.0064
       250.000         227.000
 107871894.27448  84056018.69348  20527340.8624   20527342.1134   20527340.4954
       251.000         236.000
 117285070.20448  91390960.59948  22318608.1764   22318610.1914   22318608.5434
       240.000         201.000
 128942991.13848 100475043.00648  24537048.8234   24537050.1804   24537048.8914
       213.000         166.000
 127509107.06348  99357726.37048  24264192.9564   24264196.4534   24264193.2844
       213.000         160.000
 124210009.50448  96787008.27748  23636388.0924   23636390.5014   23636388.3654
       228.000         183.000
 130189475.32548 101446362.26648  24774215.2504   24774218.2324   24774216.5874
       207.000         151.000
 125307849.97448  97642473.17748  23845296.3914   23845297.6454   23845297.3154
       219.000         167.000
 120426307.43748  93838666.39848  22916373.9964   22916377.5914   22916374.5074
       232.000         188.000
 09  1 12  0  7  0.0000000  0 10G 9G26G15G28G17G 8G27G21G18G10
 116700947.31448  90935789.28148  22207462.1564   22207465.5414   22207462.3964
       233.000         194.000
 106273382.91748  82810408.18648  20223169.2404   20223171.4484   20223169.1334
       251.000         227.000
 107843779.87648  84034111.36548  20521990.8464   20521992.2054   20521990.5374
       251.000         236.000
 117339337.28248  91433246.62748  22328935.0234   22328936.5014   22328935.4584
       240.000         202.000
 128872658.30848 100420238.16748  24523664.3134   24523665.8864   24523663.3134
       216.000         165.000
 127599553.24548  99428203.89948  24281403.8944   24281407.4584   24281404.5344
       209.000         160.000
 124280603.13748  96842016.28048  23649821.3504   23649824.0274   23649821.3734
       229.000         183.000
 130228658.83748 101476894.82848  24781671.8464   24781674.2334   24781671.9614
       201.000         143.000
 125221696.25748  97575340.40848  23828901.7854   23828903.0034   23828901.4164
       220.000         168.000
 120529636.45848  93919182.50948  22936036.9674   22936040.4634   22936037.9514
       232.000         188.000
 09  1 12  0  7 30.0000000  0 10G 9G26G15G28G17G 8G27G21G18G10
 116618101.20048  90871233.90648  22191697.2814   22191700.5974   22191697.6004
       236.000         198.000
 106297360.44948  82829091.96648  20227732.0914   20227734.2334   20227732.1294
       251.000         227.000
 107816003.31248  84012467.28248  20516705.1324   20516706.4274   20516704.7794
       251.000         236.000
 117394028.88448  91475863.45548  22339342.5194   22339343.8554   22339343.0684
       240.000         201.000
 128802525.21148 100365589.02148  24510318.2404   24510319.7624   24510318.2844
       211.000         163.000
 127690020.75848  99498698.04748  24298619.6204   24298622.3274   24298619.9494
       213.000         160.000
 124351220.01948  96897042.40148  23663259.9834   23663262.2354   23663260.3104
       228.000         183.000
 130268205.41448 101507710.34648  24789197.9134   24789200.1244   24789198.5324
       200.000         138.000
 125135864.50648  97508458.53748  23812567.9014   23812569.3594   23812569.9864
       220.000         165.000
 120633166.89248  93999855.56748  22955738.3294   22955741.5824   22955739.0844
       231.000         186.000
 09  1 12  0  8  0.0000000  0 10G 9G26G15G28G17G 8G27G21G18G10
 116535493.65248  90806864.40248  22175978.2854   22175980.7124   22175978.3784
       237.000         198.000
 106321731.16648  82848082.12948  20232369.5854   20232371.8114   20232369.5084
       251.000         227.000
 107788565.88348  83991087.47048  20511483.9964   20511485.2564   20511483.6364
       251.000         236.000
 117449142.89548  91518809.44548  22349830.3824   22349831.8614   22349830.9804
       240.000         202.000
 128732594.90448 100311097.84548  24497011.1234   24497013.4114   24497010.0014
       220.000         168.000
 127780508.39248  99569207.89348  24315838.5274   24315841.5784   24315839.3594
       210.000         160.000
 124421859.66148  96952086.27148  23676701.8434   23676704.1274   23676702.1604
       227.000         182.000
 130308113.01948 101538807.13448  24796790.0044   24796792.1264   24796791.5684
       184.000         129.000
 125050357.08848  97441829.41848  23796296.5434   23796298.1644   23796297.1754
       221.000         168.000
 120736896.07948  94080683.49948  22975477.1334   22975480.4444   22975478.2304
       231.000         185.000
 09  1 12  0  8 30.0000000  0 10G 9G26G15G28G17G 8G27G21G18G10
 116453125.83948  90742681.72548  22160303.8114   22160306.6644   22160303.9784
       234.000         196.000
 106346495.43648  82867378.94848  20237081.9064   20237084.3794   20237081.6354
       251.000         227.000
 107761469.02848  83969973.03548  20506327.6574   20506328.8374   20506327.4254
       251.000         236.000
 117504677.15048  91562082.89148  22360398.1964   22360400.1794   22360399.1774
       239.000         201.000
 128662870.56748 100256767.19048  24483743.4784   24483745.3684   24483743.6004
       218.000         167.000
 127871015.73748  99639733.06848  24333061.8694   24333064.6804   24333062.1034
       216.000         160.000
 124492521.71948  97007147.58248  23690148.0354   23690150.8414   23690148.5694
       225.000         179.000
 130348379.31748 101570183.43548  24804452.0714   24804453.1424   24804454.8894
       194.000         126.000
 124965176.18448  97375454.65648  23780087.5794   23780089.2534   23780087.4674
       220.000         169.000
 120840821.62748  94161664.43948  22995253.7584   22995256.7514   22995255.0074
       232.000         185.000
 09  1 12  0  9  0.0000000  0  9G 9G26G15G28G17G 8G27G18G10
 116370998.70348  90678686.58048  22144675.2654   22144678.0684   22144675.8304
       235.000         195.000
 106371653.58848  82886982.69348  20241869.5214   20241871.8094   20241869.4284
       251.000         227.000
 107734714.73448  83949125.53048  20501236.4634   20501237.7064   20501236.2054
       251.000         236.000
 117560630.52348  91605682.92248  22371045.7304   22371047.6164   22371046.3164
       240.000         201.000
 128593355.36848 100202599.51748  24470515.2154   24470515.9854   24470515.1174
       216.000         165.000
 127961542.06048  99710273.05048  24350288.3414   24350291.5804   24350288.6144
       208.000         160.000
 124563206.16848  97062226.35948  23703598.8374   23703601.7924   23703599.0734
       227.000         179.000
 124880324.91248  97309336.82948  23763940.0904   23763942.5404   23763940.1574
       217.000         165.000
 120944941.28948  94242796.65748  23015067.0484   23015069.9944   23015068.5154
       230.000         185.000
 09  1 12  0  9 30.0000000  0  9G 9G26G15G28G17G 8G27G18G10
 116289113.10348  90614879.64848  22129093.0714   22129096.0524   22129093.4834
       236.000         197.000
 106397205.99848  82906893.64648  20246732.1134   20246734.2724   20246732.0694
       251.000         227.000
 107708304.59048  83928546.19848  20496210.8154   20496212.0894   20496210.5404
       251.000         236.000
 117617001.35048  91649608.25248  22381772.7034   22381774.2424   22381773.0994
       239.000         201.000
 128524052.30948 100148597.14648  24457326.2064   24457327.7724   24457326.9454
       214.000         163.000
 128052086.74148  99780827.33648  24367518.0194   24367521.4184   24367516.9744
       212.000         160.000
 124633912.39448  97117322.10748  23717053.7314   23717056.6744   23717054.1564
       228.000         180.000
 124795805.93548  97243477.87148  23747856.9194   23747858.2854   23747856.5224
       223.000         167.000
 121049252.27648  94324077.93948  23034916.6714   23034920.0744   23034917.1024
       229.000         185.000
 09  1 12  0 10  0.0000000  0  9G 9G26G15G28G17G 8G27G18G10
 116207469.45448  90551261.25848  22113556.7114   22113559.5524   22113556.6134
       235.000         196.000
 106423152.60048  82927111.77648  20251669.5644   20251671.6244   20251669.5964
       252.000         227.000
 107682239.20348  83908235.50448  20491250.6404   20491252.0364   20491250.2494
       252.000         237.000
 117673786.97048  91693856.77848  22392578.6044   22392580.1984   22392579.5194
       238.000         200.000
 128454963.85848 100094761.97848  24444179.6914   24444180.9474   24444178.8834
       216.000         168.000
 128142648.41948  99851394.84348  24384751.7374   24384755.0964   24384752.5764
       214.000         163.000
 124704639.76948  97172434.33948  23730512.6484   23730516.1534   23730513.1964
       225.000         180.000
 124711621.50248  97177879.61248  23731837.9294   23731838.9394   23731839.3614
       221.000         170.000
 121153751.75648  94405506.09848  23054802.3274   23054805.7604   23054803.0764
       230.000         186.000
 09  1 12  0 10 30.0000000  0  9G 9G26G15G28G17G 8G27G18G10
 116126068.59148  90487832.03448  22098066.4554   22098069.1634   22098065.9434
       236.000         196.000
 106449493.56348  82947637.18748  20256682.1224   20256684.1754   20256682.0264
       251.000         227.000
 107656520.08148  83888194.61848  20486356.4774   20486357.9274   20486356.2644
       252.000         237.000
 117730985.94748  91738427.41148  22403463.1264   22403465.2444   22403463.5144
       240.000         200.000
 128386093.27448 100041096.60148  24431073.7264   24431075.9394   24431072.9594
       216.000         168.000
 128233226.45448  99921975.12248  24401987.6554   24401991.5334   24401988.2834
       213.000         163.000
 124775387.97048  97227562.79548  23743975.3844   23743979.0414   23743975.5264
       223.000         179.000
 124627774.28648  97112544.14548  23715881.9024   23715883.5934   23715881.3764
       219.000         169.000
 121258437.46248  94487079.35848  23074723.7944   23074726.8514   23074724.7254
       230.000         186.000
 09  1 12  0 11  0.0000000  0  9G 9G26G15G28G17G 8G27G18G10
 116044911.17748  90424592.51248  22082622.7894   22082625.6784   22082622.9814
       236.000         197.000
 106476229.14948  82968470.10248  20261769.5604   20261771.8734   20261769.4714
       251.000         227.000
 107631148.75948  83868424.75848  20481528.5254   20481529.8724   20481528.3744
       252.000         237.000
 117788595.99848  91783318.36348  22414426.1494   22414428.4814   22414426.4974
       239.000         201.000
 128317443.59748  99987603.34248  24418011.0214   24418011.7654   24418010.7724
       218.000         173.000
 128323819.80148  99992567.32948  24419227.8404   24419231.0554   24419227.8424
       216.000         165.000
 124846156.34348  97282706.96948  23757441.8634   23757445.7274   23757442.5954
       223.000         179.000
 124544266.64048  97047473.23948  23699990.5464   23699992.7374   23699990.5124
       222.000         170.000
 121363306.47248  94568795.46648  23094679.4184   23094682.8124   23094680.3484
       229.000         185.000
 09  1 12  0 11 30.0000000  0  9G 9G26G15G28G17G 8G27G18G10
 115963997.10848  90361542.61348  22067225.1704   22067228.3334   22067225.8644
       236.000         196.000
 106503358.82748  82989610.09648  20266932.2554   20266934.5714   20266932.1694
       252.000         227.000
 107606126.09548  83848926.57548  20476766.9704   20476768.2464   20476766.7754
       253.000         238.000
 117846614.53848  91828527.61648  22425466.6494   22425468.8914   22425466.8904
       240.000         200.000
 128249017.24248  99934284.11448  24404988.9004   24404991.3144   24404988.8054
       214.000         169.000
 128414427.08048 100063170.37948  24436469.3364   24436473.0164   24436470.1164
       218.000         164.000
 124916944.19248  97337866.32948  23770912.5614   23770916.2624   23770912.8594
       223.000         179.000
 124461100.53748  96982668.47448  23684165.2384   23684166.2244   23684165.4624
       221.000         170.000
 121468356.11048  94650652.31148  23114669.3204   23114673.3084   23114670.1934
       227.000         184.000
 09  1 12  0 12  0.0000000  0  9G 9G26G15G28G17G 8G27G18G10
 115883327.61448  90298683.27748  22051874.5744   22051877.3254   22051875.1844
       236.000         197.000
 106530883.21648  83011057.66348  20272169.9754   20272172.2864   20272169.9014
       251.000         227.000
 107581453.83348  83829701.42848  20472072.1194   20472073.3464   20472072.0164
       252.000         238.000
 117905040.19148  91874054.09648  22436584.6234   22436586.1714   22436585.5014
       240.000         200.000
 128180817.47948  99881141.46048  24392011.0514   24392013.2374   24392010.1944
       217.000         169.000
 128505048.05648 100133784.09848  24453713.8294   24453717.6054   24453715.0814
       215.000         165.000
 124987751.42348  97393040.76648  23784386.7514   23784390.2424   23784386.8714
       224.000         178.000
 124378278.97648  96918132.17748  23668405.1174   23668406.0364   23668404.5494
       220.000         172.000
 121573583.57948  94732647.73748  23134693.2384   23134697.2274   23134694.1794
       227.000         184.000
 09  1 12  0 12 30.0000000  0  9G 9G26G15G28G17G 8G27G18G10
 115802903.71748  90236015.33648  22036570.2714   22036573.1784   22036570.6794
       237.000         199.000
 106558802.69948  83032813.08948  20277482.9444   20277485.1624   20277482.8194
       251.000         227.000
 107557133.46648  83810750.49148  20467444.1024   20467445.3654   20467443.9264
       252.000         238.000
 117963871.24548  91919896.47848  22447779.5554   22447781.0854   22447779.9574
       240.000         199.000
 128112846.95748  99828177.42548  24379076.8734   24379078.9164   24379076.8484
       219.000         175.000
 128595682.01148 100204407.93148  24470961.9554   24470964.6424   24470961.6514
       214.000         166.000
 125058577.50948  97448229.92548  23797864.9574   23797868.0644   23797865.2764
       224.000         179.000
 124295804.70148  96853866.54548  23652710.1754   23652712.0894   23652710.5134
       222.000         172.000
 121678986.85148  94814780.15548  23154750.4694   23154754.8444   23154750.9334
       227.000         182.000
 09  1 12  0 13  0.0000000  0  9G 9G26G15G28G17G 8G27G18G10
 115722725.37448  90173538.71748  22021312.9364   22021315.7024   22021313.1964
       238.000         199.000
 106587116.62748  83054875.87948  20282870.8554   20282873.0744   20282870.7734
       251.000         227.000
 107533165.68048  83792074.28848  20462883.0604   20462884.4454   20462882.7664
       252.000         238.000
 118023105.12748  91966052.76348  22459051.6014   22459053.2464   22459051.8544
       240.000         199.000
 128045108.40348  99775394.11448  24366187.4074   24366188.4404   24366187.6194
       218.000         170.000
 128686327.28248 100275040.62348  24488210.4404   24488213.4024   24488210.6194
       218.000         165.000
 125129421.73348  97503433.20648  23811346.4944   23811349.3724   23811346.9434
       224.000         178.000
 124213679.66748  96789872.99848  23637082.5854   23637084.3784   23637083.7134
       223.000         173.000
 121784562.31648  94897046.75748  23174841.0394   23174845.0414   23174841.5784
       228.000         181.000
 09  1 12  0 13 30.0000000  0  9G 9G26G15G28G17G 8G27G18G10
 115642793.61848  90111254.24748  22006102.5684   22006105.0464   22006102.6074
       236.000         199.000
 106615825.57348  83077246.47248  20288334.0284   20288336.1604   20288333.9534
       251.000         227.000
 107509551.96648  83773673.98948  20458389.5034   20458390.8134   20458389.2584
       252.000         238.000
 118082740.04448  92012521.52748  22470399.7524   22470401.9234   22470400.8734
       239.000         199.000
 127977604.98448  99722794.07148  24353340.9464   24353343.0234   24353340.8874
       218.000         173.000
 128776983.37148 100345681.70748  24505462.3424   24505465.1904   24505463.1094
       219.000         167.000
 125200283.76048  97558650.36748  23824830.8214   23824833.8094   23824831.0584
       225.000         178.000
 124131906.18348  96726153.40848  23621520.9524   23621522.3844   23621521.5274
       223.000         171.000
 121890307.93448  94979445.93548  23194963.5344   23194967.9804   23194964.6544
       227.000         181.000
 09  1 12  0 14  0.0000000  0  9G 9G26G15G28G17G 8G27G18G10
 115563109.21148  90049162.52048  21990939.0544   21990941.7794   21990939.2864
       237.000         199.000
 106644929.69948  83099925.00348  20293872.3224   20293874.5994   20293872.2984
       251.000         227.000
 107486293.91848  83755550.82748  20453963.7754   20453965.0184   20453963.5504
       252.000         238.000
 118142773.95948  92059301.20948  22481823.8374   22481825.7984   22481824.4104
       237.000         198.000
 127910340.02848  99670379.86048  24340540.9284   24340543.0114   24340540.8464
       217.000         172.000
 128867649.71348 100416330.77548  24522716.1574   24522718.5824   24522717.5884
       217.000         166.000
 125271163.40548  97613881.24848  23838319.0014   23838321.9574   23838319.2744
       225.000         177.000
 124050487.28248  96662710.07948  23606028.2344   23606028.7184   23606028.8104
       227.000         172.000
 121996221.13548  95061975.70448  23215118.4684   23215122.3904   23215119.1384
       227.000         181.000
 09  1 12  0 14 30.0000000  0  9G 9G26G15G28G17G 8G27G18G10
 115483673.04048  89987264.22848  21975822.6044   21975825.1674   21975822.8654
       237.000         199.000
 106674429.41048  83122911.78148  20299486.1264   20299488.2554   20299486.0514
       252.000         227.000
 107463393.18148  83737706.09148  20449605.8234   20449607.2074   20449605.5454
       252.000         238.000
 118203205.25648  92106390.52848  22493323.4434   22493324.7394   22493323.4994
       238.000         197.000
 127843316.41048  99618153.64648  24327787.2504   24327788.3904   24327786.6354
       218.000         171.000
 128958325.72048 100486987.36548  24539970.0524   24539973.6894   24539970.0324
       217.000         164.000
 125342060.37548  97669125.61848  23851810.1034   23851813.0814   23851810.4364
       223.000         177.000
 123969425.39948  96599544.96548  23590603.0414   23590603.5144   23590603.8034
       224.000         173.000
 122102299.36248  95144634.06648  23235304.5244   23235308.3694   23235305.4444
       225.000         179.000
 09  1 12  0 15  0.0000000  0  9G 9G26G15G28G17G 8G27G18G10
 115404485.58248  89925559.75648  21960753.6704   21960756.8154   21960753.7384
       237.000         200.000
 106704324.72648  83146206.82648  20305175.0194   20305177.1684   20305175.0554
       252.000         227.000
 107440851.14348  83720140.85948  20445316.2314   20445317.5754   20445316.0164
       252.000         238.000
 118264032.23848  92153788.16848  22504898.3714   22504898.8324   22504898.2474
       238.000         196.000
 127776537.01948  99566117.76148  24315078.9184   24315081.2614   24315078.9154
       218.000         168.000
 129049010.53848 100557650.85448  24557226.9974   24557230.7254   24557227.0324
       217.000         164.000
 125412974.29048  97724383.21348  23865304.3454   23865307.3534   23865305.0864
       221.000         175.000
 123888723.37748  96536660.27448  23575245.3994   23575246.8384   23575245.9224
       224.000         174.000
 122208540.55748  95227419.40548  23255521.1524   23255525.0484   23255522.2204
       224.000         178.000
 09  1 12  0 15 30.0000000  0  9G 9G26G15G28G17G 8G27G18G10
 115325547.59848  89864049.66348  21945732.2824   21945735.4034   21945732.9354
       238.000         201.000
 106734615.84848  83169810.28348  20310939.2624   20310941.3754   20310939.2864
       252.000         227.000
 107418668.85948  83702855.95248  20441095.0924   20441096.4284   20441094.8544
       252.000         238.000
 118325252.54048  92201492.29048  22516548.5034   22516548.7844   22516548.7524
       239.000         197.000
 127710004.70548  99514274.38548  24302418.9304   24302419.8644   24302419.1724
       215.000         171.000
 129139703.35248 100628320.54548  24574484.6864   24574488.6904   24574485.2524
       217.000         165.000
 125483904.76648  97779653.68848  23878802.0294   23878805.3034   23878802.3784
       223.000         176.000
 123808383.54748  96474057.80248  23559957.4994   23559959.0054   23559957.6004
       225.000         175.000
 122314941.65848  95310329.34448  23275769.0584   23275772.5844   23275769.1354
       225.000         180.000
 09  1 12  0 16  0.0000000  0  9G 9G26G15G28G17G 8G27G18G10
 115246859.48448  89802734.26248  21930758.6614   21930761.5904   21930758.7004
       239.000         201.000
 106765302.27048  83193721.77448  20316778.5904   20316780.8034   20316778.5514
       252.000         227.000
 107396847.08548  83685851.96748  20436942.5604   20436943.8534   20436942.4384
       252.000         238.000
 118386863.65248  92249500.94048  22528272.7404   22528273.9184   22528274.0384
       239.000         198.000
 127643721.88648  99462625.48348  24289804.5074   24289807.5984   24289803.7014
       218.000         173.000
 129230403.12248 100698995.63748  24591744.7504   24591748.3264   24591745.4864
       216.000         161.000
 125554850.76548  97834936.27448  23892303.0104   23892306.1034   23892303.1014
       224.000         176.000
 123728407.80848  96411739.04348  23544738.6854   23544739.7304   23544739.6134
       224.000         174.000
 122421499.47948  95393361.40848  23296046.6994   23296050.2364   23296047.1124
       227.000         181.000
 09  1 12  0 16 30.0000000  0  9G 9G26G15G28G17G 8G27G18G10
 115168421.90248  89741614.09548  21915832.4654   21915835.0884   21915832.9764
       238.000         200.000
 106796384.29048  83217941.51848  20322693.3274   20322695.5744   20322693.2434
       252.000         227.000
 107375387.58148  83669130.27448  20432858.8694   20432860.2734   20432858.6744
       252.000         238.000
 118448863.57148  92297812.57348  22540070.7894   22540073.1544   22540071.5684
       238.000         200.000
 127577691.84348  99411173.51748  24277240.0174   24277241.6544   24277240.1584
       216.000         167.000
 129321108.60548 100769675.22648  24609005.0134   24609008.4564   24609004.9474
       212.000         160.000
 125625812.15948  97890230.86148  23905806.5654   23905809.7734   23905806.5594
       225.000         176.000
 123648798.57748  96349705.88148  23529589.1454   23529591.0124   23529589.6724
       225.000         177.000
 122528211.52448  95476513.64048  23316353.0774   23316356.5964   23316354.0574
       227.000         180.000
 09  1 12  0 17  0.0000000  0 10G 9G26G15G28G17G 8G12G27G18G10
 115090235.57948  89680689.71148  21900954.1954   21900956.5124   21900954.2104
       239.000         201.000
 106827862.07948  83242469.65548  20328683.3804   20328685.7034   20328683.3214
       251.000         227.000
 107354291.84348  83652692.03048  20428844.5704   20428845.8864   20428844.2704
       252.000         238.000
 118511250.40148  92346425.69748  22551942.4364   22551945.5594   22551942.5744
       238.000         200.000
 127511917.66948  99359920.90948  24264723.7734   24264726.0584   24264723.5134
       218.000         167.000
 129411819.59448 100840359.08648  24626266.3264   24626269.8344   24626267.0484
       212.000         159.000
 131307460.49358 102317488.74458  24986988.5465   24986991.5025   24986987.1175
       208.000         155.000
 125696789.06148  97945537.52148  23919312.9594   23919316.1314   23919313.4094
       223.000         176.000
 123569558.99648  96287960.74448  23514510.6574   23514512.3624   23514509.9514
       224.000         176.000
 122635075.69248  95559784.41948  23336688.7704   23336692.5634   23336689.5864
       227.000         181.000
 09  1 12  0 17 30.0000000  0 10G 9G26G15G28G17G 8G12G27G18G10
 115012301.71148  89619962.04948  21886123.7514   21886126.2364   21886124.2214
       238.000         201.000
 106859735.89048  83267306.38348  20334748.6904   20334751.0814   20334748.6054
       251.000         227.000
 107333561.28648  83636538.34548  20424899.5964   20424900.9074   20424899.4174
       252.000         238.000
 118574022.42548  92395338.96948  22563887.7014   22563890.8454   22563888.2754
       239.000         200.000
 127446402.22348  99308869.90348  24252256.5414   24252257.4324   24252256.7914
       218.000         165.000
 129502535.78648 100911047.01148  24643530.1224   24643532.4144   24643530.6404
       216.000         161.000
 131192303.01648 102227755.70048  24965075.2374   24965077.1174   24965074.9604
       212.000         154.000
 125767780.89248  98000855.82148  23932822.0654   23932825.2414   23932822.1224
       224.000         174.000
 123490691.35348  96226505.43248  23499502.5544   23499504.1324   23499501.7044
       224.000         177.000
 122742089.77148  95643172.00848  23357052.8054   23357056.5624   23357053.5574
       227.000         179.000
 09  1 12  0 18  0.0000000  0 10G 9G26G15G28G17G 8G12G27G18G10
 114934619.73648  89559430.64948  21871341.2644   21871343.7194   21871341.1124
       237.000         200.000
 106892004.99848  83292451.13448  20340889.2034   20340891.6054   20340889.2004
       251.000         227.000
 107313196.26948  83620669.49048  20421024.3384   20421025.6084   20421024.1674
       252.000         238.000
 118637177.04348  92444550.36048  22575905.8024   22575908.6724   22575905.9904
       238.000         199.000
 127381147.51248  99258022.08248  24239838.9284   24239840.6474   24239838.8944
       218.000         168.000
 129593255.21048 100981737.45148  24660793.6984   24660796.6174   24660794.9664
       215.000         165.000
 131077187.40848 102138055.23848  24943170.4014   24943171.2244   24943170.0274
       212.000         153.000
 125838786.47548  98056184.81848  23946333.8244   23946337.0714   23946334.2924
       220.000         172.000
 123412197.37748  96165341.29048  23484565.8394   23484567.3524   23484564.6934
       226.000         176.000
 122849249.34148  95726672.98248  23377444.5634   23377447.8704   23377445.4794
       225.000         177.000
 09  1 12  0 18 30.0000000  0 10G 9G26G15G28G17G 8G12G27G18G10
 114857191.26548  89499096.77448  21856607.1294   21856609.2724   21856607.5274
       237.000         200.000
 106924670.11948  83317904.46748  20347105.1554   20347107.4754   20347105.0994
       251.000         226.000
 107293199.21648  83605087.36948  20417218.9854   20417220.2524   20417218.7544
       252.000         239.000
 118700712.76248  92494058.71548  22587996.1914   22587998.7044   22587996.6454
       238.000         198.000
 127316157.30848  99207380.36448  24227471.5564   24227473.3474   24227471.5034
       220.000         165.000
 129683977.99348 101052430.49248  24678057.1374   24678060.7314   24678057.2674
       213.000         163.000
 130962117.01948 102048390.04048  24921272.4034   24921273.2524   24921271.9954
       211.000         153.000
 125909806.30948  98111524.94948  23959848.5594   23959851.6554   23959847.8254
       222.000         174.000
 123334080.27548  96104470.81448  23469700.9194   23469702.2974   23469701.5724
       227.000         179.000
 122956553.33048  95810286.46248  23397863.3604   23397867.7844   23397864.2624
       224.000         178.000
 09  1 12  0 19  0.0000000  0 10G 9G26G15G28G17G 8G12G27G18G10
 114780016.46948  89438960.59548  21841921.1424   21841924.1334   21841921.2914
       239.000         202.000
 106957731.17648  83343666.32448  20353396.4124   20353398.7754   20353396.4074
       251.000         226.000
 107273570.93348  83589792.59748  20413483.9224   20413485.1194   20413483.6784
       252.000         239.000
 118764626.93748  92543861.97348  22600158.8014   22600160.8224   22600159.6144
       237.000         195.000
 127251434.04048  99156946.71448  24215154.7664   24215157.0614   24215154.6494
       215.000         165.000
 129774702.93548 101123125.19748  24695321.6514   24695325.0064   24695321.2174
       214.000         162.000
 130847093.68148 101958761.48448  24899384.8074   24899384.6044   24899385.0794
       208.000         150.000
 125980839.90448  98166875.77848  23973365.9654   23973369.0564   23973365.8154
       223.000         176.000
 123256342.20148  96043895.69248  23454907.6444   23454909.1124   23454907.6764
       226.000         177.000
 123063998.74748  95894010.14948  23418310.1384   23418313.6934   23418310.9424
       225.000         177.000
 09  1 12  0 19 30.0000000  0 10G 9G26G15G28G17G 8G12G27G18G10
 114703096.18948  89379022.72348  21827284.0094   21827286.6654   21827284.4154
       238.000         203.000
 106991187.94648  83369736.52448  20359763.2234   20359765.3804   20359763.1044
       251.000         226.000
 107254312.46948  83574786.00448  20409819.1284   20409820.4064   20409818.9024
       252.000         239.000
 118828917.63448  92593958.61248  22612392.7624   22612394.0384   22612393.6004
       238.000         193.000
 127186980.38848  99106723.07248  24202889.0864   24202891.6814   24202888.7974
       217.000         167.000
 129865429.21148 101193820.95748  24712586.6004   24712589.5184   24712587.2714
       216.000         159.000
 130732119.55148 101869171.30348  24877505.7354   24877505.4794   24877506.8274
       210.000         150.000
 126051886.65948  98222236.86648  23986885.5464   23986889.1124   23986886.0174
       222.000         174.000
 123178985.47548  95983617.72048  23440187.1434   23440188.0814   23440188.9924
       224.000         177.000
 123171582.52148  95977841.67748  23438782.6244   23438785.6284   23438783.7114
       226.000         177.000
 09  1 12  0 20  0.0000000  0 10G 9G26G15G28G17G 8G12G27G18G10
 114626430.52348  89319283.25748  21812694.9544   21812697.8384   21812694.6554
       238.000         203.000
 107025040.19748  83396114.89848  20366205.0704   20366207.4244   20366204.9524
       251.000         227.000
 107235424.96348  83560068.46848  20406224.9584   20406226.2224   20406224.7684
       253.000         239.000
 118893582.41648  92644346.73848  22624698.1264   22624698.6234   22624699.3884
       236.000         191.000
 127122799.38948  99056711.89748  24190677.4524   24190678.6584   24190676.5844
       219.000         168.000
 129956155.90548 101264517.06048  24729851.0244   24729854.2364   24729851.5734
       213.000         159.000
 130617196.91748 101779621.21648  24855636.5514   24855636.4834   24855637.8014
       208.000         149.000
 126122946.16948  98277607.90348  24000407.7794   24000410.4684   24000407.8034
       222.000         171.000
 123102012.12148  95923638.49148  23425539.3704   23425540.8634   23425539.4274
       227.000         177.000
 123279302.09448  96061779.00248  23459280.8144   23459284.4364   23459282.1284
       226.000         177.000
 09  1 12  0 20 30.0000000  0 10G 9G26G15G28G17G 8G12G27G18G10
 114550020.91748  89259743.31448  21798154.6034   21798157.4664   21798155.0744
       239.000         203.000
 107059288.80448  83422802.11748  20372722.2724   20372724.8524   20372722.1814
       251.000         227.000
 107216910.43548  83545641.56148  20402701.6774   20402703.0004   20402701.4954
       253.000         239.000
 118958619.92248  92695025.29848  22637074.1474   22637073.6644   22637074.7394
       236.000         189.000
 127058894.40348  99006915.80948  24178515.7254   24178518.1714   24178515.8814
       217.000         170.000
 130046882.87848 101335213.39048  24747116.0774   24747119.7554   24747116.5914
       220.000         162.000
 130502328.49148 101690113.39448  24833777.1494   24833778.4304   24833777.9854
       209.000         149.000
 126194018.62448  98332989.03248  24013932.3124   24013934.7914   24013932.0674
       222.000         169.000
 123025425.17248  95863960.35848  23410965.4514   23410966.9434   23410967.2304
       228.000         178.000
 123387155.09448  96145820.31648  23479804.1494   23479807.8524   23479804.6914
       224.000         176.000
 09  1 12  0 21  0.0000000  0 10G 9G26G15G28G17G 8G12G27G18G10
 114473868.05848  89200403.43248  21783663.0044   21783665.8784   21783663.2404
       238.000         203.000
 107093933.79648  83449798.20948  20379315.2304   20379317.5674   20379315.3074
       252.000         227.000
 107198770.35648  83531506.43548  20399249.8104   20399251.0464   20399249.7464
       253.000         239.000
 119024028.26148  92745992.82448  22649521.0994   22649519.9494   22649521.3894
       236.000         189.000
 126995268.43948  98957337.13648  24166408.7604   24166410.9904   24166408.1954
       222.000         173.000
 130137609.87348 101405909.72648  24764380.7194   24764384.1814   24764382.2674
       217.000         160.000
 130387516.63948 101600649.62648  24811928.7264   24811930.6454   24811928.8944
       204.000         153.000
 126265104.02448  98388380.22948  24027459.7134   24027462.0244   24027460.2514
       220.000         170.000
 122949227.55748  95804585.60048  23396465.1094   23396467.1174   23396466.2574
       227.000         179.000
 123495139.47948  96229963.97148  23500352.4124   23500356.8054   23500353.3834
       222.000         173.000
 09  1 12  0 21 30.0000000  0 10G 9G26G15G28G17G 8G12G27G18G10
 114397972.31048  89141263.90848  21769220.5614   21769223.2924   21769220.3244
       238.000         203.000
 107128974.71248  83477102.80948  20385983.2274   20385985.4694   20385983.2144
       251.000         226.000
 107181005.55548  83517663.72848  20395869.2624   20395870.5284   20395869.1414
       252.000         239.000
 119089804.83048  92797247.27848  22662037.9304   22662037.2964   22662038.4414
       236.000         189.000
 126931923.93048  98907977.80248  24154355.1114   24154355.9834   24154355.9314
       220.000         172.000
 130228335.74048 101476605.15648  24781645.1974   24781649.0014   24781645.7224
       218.000         163.000
 130272763.33348 101511231.49748  24790092.1114   24790093.8014   24790090.3974
       205.000         152.000
 126336201.51748  98443780.85448  24040989.0034   24040991.3074   24040989.5914
       224.000         171.000
 122873421.11048  95745515.61248  23382040.5384   23382041.8034   23382040.9584
       228.000         179.000
 123603252.09748  96314207.58148  23520926.4434   23520929.7014   23520927.6624
       223.000         173.000
 09  1 12  0 22  0.0000000  0 10G 9G26G15G28G17G 8G12G27G18G10
 114322333.93148  89082324.91748  21754827.0274   21754829.5724   21754827.4694
       238.000         203.000
 107164411.18348  83504715.64048  20392726.4594   20392728.7164   20392726.3144
       251.000         226.000
 107163616.97148  83504114.17648  20392560.3224   20392561.5654   20392560.0984
       252.000         239.000
 119155947.32548  92848786.88048  22674624.3324   22674624.6134   22674624.3634
       236.000         190.000
 126868863.20648  98858839.57148  24142354.2524   24142356.3184   24142353.6654
       219.000         173.000
 130319059.24048 101547298.76448  24798909.5974   24798912.9424   24798909.8164
       217.000         160.000
 130158070.38548 101421860.38848  24768266.7574   24768269.7174   24768266.0024
       213.000         155.000
 126407310.29548  98499190.27648  24054520.8084   24054523.0554   24054521.0434
       227.000         171.000
 122798007.87348  95686752.05648  23367689.3424   23367691.0234   23367690.6714
       227.000         179.000
 123711489.92348  96398548.75048  23541523.3344   23541526.5834   23541524.1524
       223.000         172.000
 09  1 12  0 22 30.0000000  0 10G 9G26G15G28G17G 8G12G27G18G10
 114246954.39848  89023587.63148  21740482.6664   21740485.4994   21740482.4814
       239.000         203.000
 107200243.79648  83532637.15148  20399545.1804   20399547.4934   20399545.0684
       252.000         226.000
 107146606.58748  83490859.32748  20389323.3074   20389324.6214   20389323.1124
       253.000         239.000
 119222454.29448  92900610.48348  22687280.1924   22687281.4244   22687280.7754
       236.000         191.000
 126806090.15948  98809925.52048  24130409.5104   24130411.4164   24130409.3954
       219.000         173.000
 130409780.26548 101617990.43548  24816172.7764   24816175.8744   24816172.9244
       218.000         160.000
 130043440.98748 101332538.77948  24746454.3974   24746456.2864   24746455.2864
       211.000         157.000
 126478430.93048  98554608.94448  24068054.1304   24068057.4554   24068054.4494
       223.000         173.000
 122722990.76448  95628297.16148  23353414.1364   23353415.3184   23353414.2684
       228.000         178.000
 123819851.03748  96482985.96548  23562143.9444   23562147.3804   23562144.0504
       225.000         175.000
 09  1 12  0 23  0.0000000  0 10G 9G26G15G28G17G 8G12G27G18G10
 114171833.84548  88965052.14548  21726187.7714   21726190.4504   21726188.0914
       238.000         202.000
 107236472.54448  83560867.34448  20406439.2984   20406441.6774   20406439.3464
       251.000         226.000
 107129975.42948  83477899.98148  20386158.6014   20386159.7904   20386158.3234
       253.000         239.000
 119289323.34348  92952716.24148  22700004.8804   22700006.8294   22700005.2274
       235.000         192.000
 126743607.04548  98761237.36448  24118519.4744   24118521.0144   24118519.0174
       220.000         173.000
 130500498.16648 101688679.67248  24833436.1384   24833439.7624   24833436.7944
       217.000         157.000
 129928877.38248 101243268.48748  24724653.4504   24724655.1384   24724652.5684
       209.000         156.000
 126549562.90848  98610036.43848  24081589.9354   24081593.8564   24081590.2484
       223.000         171.000
 122648372.12048  95570152.74648  23339215.0844   23339215.7574   23339214.6564
       227.000         177.000
 123928332.91048  96567517.32648  23582787.3144   23582790.6604   23582787.9404
       222.000         174.000
 09  1 12  0 23 30.0000000  0 10G 9G26G15G28G17G 8G12G27G18G10
 114096970.30448  88906716.94148  21711941.5994   21711944.4794   21711941.7494
       238.000         203.000
 107273094.70148  83589404.08948  20413408.3384   20413410.6804   20413408.2164
       251.000         226.000
 107113721.96748  83465234.94248  20383065.6834   20383066.8654   20383065.4564
       253.000         239.000
 119356549.54148  93005100.29548  22712797.4534   22712800.0484   22712797.6094
       236.000         193.000
 126681413.98848  98712775.27948  24106684.1754   24106685.3614   24106684.0224
       219.000         169.000
 130591209.32648 101759363.66448  24850698.5554   24850700.6184   24850698.8864
       218.000         163.000
 129814378.86448 101154048.88348  24702864.4914   24702867.0844   24702864.2254
       208.000         156.000
 126620703.11848  98665470.33448  24095127.4324   24095131.0154   24095127.4924
       220.000         170.000
 122574151.70148  95512318.66048  23325090.8514   23325092.2794   23325091.4394
       226.000         178.000
 124036929.87448  96652138.34348  23603452.1364   23603455.8304   23603452.6034
       224.000         172.000
 09  1 12  0 24  0.0000000  0 10G 9G26G15G28G17G 8G12G27G18G10
 114022368.11948  88848585.38148  21697745.4434   21697748.1784   21697745.5244
       238.000         203.000
 107310113.68948  83618250.05448  20420452.7924   20420455.1154   20420452.7424
       251.000         226.000
 107097851.25348  83452868.14548  20380045.5434   20380046.8354   20380045.3254
       253.000         239.000
 119424134.56548  93057763.95148  22725658.6064   22725661.2524   22725659.2504
       236.000         194.000
 126619517.76148  98664544.43948  24094905.3124   24094907.1334   24094905.3264
       218.000         171.000
 130681916.94648 101830044.90148  24867959.1984   24867962.3414   24867959.5084
       219.000         162.000
 129699951.37548 101064884.63848  24681089.0204   24681091.5794   24681089.1124
       213.000         155.000
 126691855.04748  98720913.38348  24108667.7854   24108670.4204   24108667.5184
       222.000         167.000
 122500335.20748  95454799.31448  23311043.9624   23311045.3254   23311043.6534
       226.000         178.000
 124145643.30148  96736850.11248  23624140.2904   23624143.1574   23624141.3474
       225.000         174.000
 09  1 12  0 24 30.0000000  0 10G 9G26G15G28G17G 8G12G27G18G10
 113948027.36148  88790657.53348  21683598.7174   21683601.5864   21683598.7514
       238.000         203.000
 107347528.89748  83647404.75648  20427572.5734   20427574.9484   20427572.6004
       251.000         226.000
 107082363.79948  83440799.99348  20377098.3484   20377099.7434   20377098.1124
       253.000         239.000
 119492075.75948  93110705.13248  22738587.4834   22738590.1304   22738588.0744
       235.000         194.000
 126557920.44048  98616546.55848  24083183.7724   24083185.4964   24083183.6764
       217.000         168.000
 130772619.66348 101900722.32748  24885219.1834   24885222.8014   24885219.5944
       217.000         164.000
 129585596.89848 100975777.25248  24659329.5374   24659329.6124   24659329.6234
       214.000         159.000
 126763017.73448  98776364.82248  24122209.6334   24122212.6194   24122209.5834
       221.000         167.000
 122426924.80148  95397596.39448  23297074.3644   23297076.0974   23297074.7394
       228.000         181.000
 124254469.68348  96821649.88648  23644848.9574   23644852.2474   23644849.7284
       225.000         173.000
 09  1 12  0 25  0.0000000  0 10G 9G26G15G28G17G 8G12G27G18G10
 113873947.79248  88732933.21348  21669501.7944   21669504.4364   21669501.7694
       239.000         204.000
 107385339.75448  83676867.75648  20434767.7764   20434770.2524   20434767.7874
       251.000         225.000
 107067260.32448  83429031.04948  20374224.2704   20374225.6514   20374223.9644
       253.000         240.000
 119560370.31448  93163921.67648  22751583.5014   22751586.1704   22751584.2934
       236.000         195.000
 126496624.35148  98568783.36048  24071519.6114   24071521.2934   24071519.4524
       215.000         170.000
 130863316.11348 101971394.84548  24902478.3324   24902481.6584   24902479.5084
       218.000         165.000
 129471316.80748 100886727.80648  24637583.2614   24637582.6864   24637582.7294
       210.000         160.000
 126834190.30048  98831823.95048  24135753.1294   24135756.5294   24135753.4814
       222.000         169.000
 122353922.25948  95340711.27848  23283182.7994   23283184.5264   23283183.4764
       227.000         181.000
 124363406.07848  96906535.38048  23665578.8704   23665582.3404   23665580.0824
       223.000         173.000
 09  1 12  0 25 30.0000000  0 10G 9G26G15G28G17G 8G12G27G18G10
 113800130.49048  88675413.25248  21655455.0304   21655457.5244   21655455.0544
       239.000         204.000
 107423546.54248  83706639.27648  20442038.3574   20442040.7214   20442038.2114
       251.000         225.000
 107052542.38948  83417562.52348  20371423.5544   20371424.8684   20371423.2854
       253.000         240.000
 119629016.18748  93217411.97548  22764646.3454   22764649.3194   22764646.8414
       237.000         195.000
 126435632.25848  98521257.04948  24059913.5204   24059915.1974   24059912.5004
       214.000         168.000
 130954006.07348 102042062.37048  24919736.0974   24919739.8324   24919737.2364
       218.000         163.000
 129357113.82548 100797738.46948  24615849.9314   24615850.5974   24615849.9264
       212.000         157.000
 126905372.87348  98887290.87348  24149298.8824   24149302.5954   24149298.8894
       222.000         170.000
 122281329.76848  95284145.69748  23269368.7434   23269370.8624   23269368.7254
       230.000         181.000
 124472449.91648  96991504.61148  23686329.5414   23686332.6324   23686330.4934
       222.000         173.000
 09  1 12  0 26  0.0000000  0 10G 9G26G15G28G17G 8G12G27G18G10
 113726575.97348  88618098.07048  21641457.8904   21641460.3524   21641458.3264
       237.000         203.000
 107462148.85148  83736718.99348  20449383.9394   20449386.4304   20449383.9324
       250.000         225.000
 107038210.89748  83406395.12748  20368696.3544   20368697.6944   20368696.1684
       253.000         240.000
 119698010.99148  93271174.16148  22777775.7254   22777778.4784   22777776.6204
       237.000         195.000
 126374946.86448  98473969.75448  24048363.6874   24048366.7154   24048363.3554
       216.000         169.000
 131044688.76748 102112724.18248  24936992.6514   24936995.7594   24936993.3954
       219.000         167.000
 129242990.07848 100708810.84848  24594132.6954   24594133.4094   24594133.1404
       215.000         159.000
 126976564.88848  98942765.16348  24162846.1334   24162849.9884   24162846.3924
       221.000         170.000
 122209149.37648  95227901.22648  23255633.8124   23255634.7114   23255634.9674
       227.000         180.000
 124581598.35248  97076555.34448  23707098.9934   23707103.1564   23707100.2694
       220.000         170.000
 09  1 12  0 26 30.0000000  0 10G 9G26G15G28G17G 8G12G27G18G10
 113653284.72448  88560988.03148  21627510.8954   21627513.4104   21627510.7714
       239.000         203.000
 107501146.61148  83767106.85348  20456805.1044   20456807.6284   20456804.8444
       251.000         226.000
 107024267.50748  83395530.15048  20366043.0284   20366044.3494   20366042.7854
       253.000         240.000
 119767352.82948  93325206.75548  22790971.2624   22790973.6994   22790972.2434
       235.000         194.000
 126314571.04648  98426923.64748  24036876.4864   24036877.8184   24036875.6634
       215.000         170.000
 131135363.41448 102183379.70548  24954247.4024   24954250.4414   24954248.1504
       220.000         171.000
 129128947.78848 100619946.68348  24572431.3084   24572431.9254   24572432.1814
       214.000         160.000
 127047766.12148  98998246.62448  24176395.7394   24176398.4094   24176396.5174
       221.000         167.000
 122137383.78848  95171980.00248  23241976.6654   23241978.1034   23241977.6164
       226.000         179.000
 124690848.95348  97161685.67048  23727888.8074   23727892.9554   23727888.6304
       221.000         170.000
 09  1 12  0 27  0.0000000  0 10G 9G26G15G28G17G 8G12G27G18G10
 113580257.30548  88504083.56748  21613614.5804   21613616.7834   21613614.7324
       239.000         204.000
 107540539.96148  83797802.96848  20464301.4644   20464303.9404   20464301.4354
       250.000         225.000
 107010713.06148  83384968.24548  20363463.7654   20363465.0394   20363463.5284
       253.000         240.000
 119837039.61948  93379508.14948  22804232.1954   22804234.3774   22804232.5764
       236.000         194.000
 126254507.58848  98380120.95148  24025446.8854   24025447.7084   24025446.6074
       215.000         172.000
 131226029.55448 102254028.64248  24971500.1784   24971504.1594   24971500.7824
       219.000         165.000
 129014989.28248 100531147.82448  24550746.6274   24550747.5674   24550747.3104
       215.000         164.000
 127118976.39648  99053735.15548  24189946.2694   24189949.7004   24189946.3064
       220.000         166.000
 122066035.44848  95116383.87848  23228399.2514   23228400.6274   23228399.8424
       228.000         179.000
 124800199.20348  97246893.67748  23748697.6464   23748701.2294   23748699.0004
       220.000         169.000
 09  1 12  0 27 30.0000000  0 10G 9G26G15G28G17G 8G12G27G18G10
 113507493.77848  88447384.73848  21599767.9914   21599770.4014   21599768.0274
       238.000         204.000
 107580328.12048  83828806.72548  20471872.7724   20471875.2444   20471872.7034
       251.000         225.000
 106997548.35648  83374710.02648  20360958.5094   20360959.9044   20360958.2154
       253.000         240.000
 119907068.48748  93434076.10148  22817557.9744   22817560.0254   22817558.5664
       234.000         193.000
 126194758.96848  98333563.58648  24014076.6034   24014078.9094   24014076.3624
       217.000         172.000
 131316686.05948 102324670.05448  24988751.8574   24988755.2894   24988752.8414
       214.000         153.000
 128901116.82348 100442416.03748  24529076.8734   24529079.0534   24529077.4174
       219.000         168.000
 127190195.20248  99109230.32748  24203498.8634   24203502.4154   24203499.0114
       220.000         167.000
 121995106.35248  95061114.44948  23214901.9324   23214903.4714   23214903.7634
       226.000         178.000
 124909646.01448  97332176.90248  23769524.7974   23769528.6084   23769525.1564
       221.000         171.000
 09  1 12  0 28  0.0000000  0 10G 9G26G15G28G17G 8G12G27G18G10
 113434995.54148  88390892.62748  21585971.8184   21585974.5374   21585971.8524
       239.000         205.000
 107620511.92248  83860118.77348  20479519.6274   20479521.9314   20479519.3144
       251.000         225.000
 106984775.57048  83364757.20248  20358528.0584   20358529.4084   20358527.8374
       253.000         240.000
 119977438.47548  93488909.84948  22830948.7664   22830950.6574   22830948.9174
       234.000         192.000
 126135328.65948  98287254.28348  24002767.6904   24002769.3834   24002766.6454
       218.000         172.000
 131407333.08048 102395304.06148  25006001.6344   25006005.1324   25006002.3014
       202.000         143.000
 128787333.08848 100353753.34148  24507424.7584   24507426.8304   24507423.9784
       218.000         169.000
 127261423.06748  99164732.55248  24217052.8794   24217056.2384   24217052.4594
       217.000         166.000
 121924598.96848  95006173.61948  23201484.5384   23201485.9044   23201485.6554
       228.000         179.000
 125019187.46648  97417533.86848  23790369.9854   23790373.9434   23790371.1354
       224.000         170.000
 09  1 12  0 28 30.0000000  0 10G 9G26G15G28G17G 8G12G27G18G10
 113362763.22948  88334607.73748  21572226.5184   21572229.2364   21572226.4794
       240.000         206.000
 107661090.91548  83891738.76348  20487241.5224   20487243.9854   20487241.5614
       251.000         225.000
 106972395.59248  83355110.46848  20356172.1374   20356173.7244   20356171.8654
       253.000         240.000
 120048146.83048  93544007.26848  22844404.4234   22844405.8994   22844405.0854
       235.000         192.000
 126076219.25648  98241194.99348  23991519.3654   23991521.2044   23991518.9094
       215.000         171.000
 141497955.17158  92465919.33558  25023246.5895   25023248.4895   25023250.0605
       195.000         128.000
 128673640.38048 100265161.59048  24485789.9724   24485791.8484   24485789.8134
       219.000         169.000
 127332659.40748  99220241.38148  24230609.0704   24230612.1544   24230609.0734
       219.000         166.000
 121854515.58948  94951563.19348  23188148.1784   23188149.7874   23188148.9914
       229.000         180.000
 125128820.60848  97502962.31648  23811232.1934   23811235.6024   23811233.1984
       223.000         170.000
 09  1 12  0 29  0.0000000  0  9G 9G26G15G28G17G12G27G18G10
 113290796.81748  88278530.02248  21558532.2164   21558534.2074   21558532.3464
       240.000         206.000
 107702064.16548  83923665.97248  20495038.5564   20495041.0034   20495038.4984
       251.000         225.000
 106960408.80648  83345770.10748  20353891.1464   20353892.6794   20353890.7894
       253.000         241.000
 120119190.66548  93599366.09548  22857923.4914   22857925.0214   22857923.7484
       234.000         191.000
 126017432.63448  98195387.23848  23980333.7734   23980334.3104   23980332.7574
       218.000         173.000
 128560040.12748 100176641.88848  24464172.6644   24464174.9194   24464173.7224
       219.000         170.000
 127403903.29248  99275756.10348  24244166.5234   24244169.1024   24244167.2524
       218.000         164.000
 121784858.27248  94897284.72348  23174893.3094   23174894.3074   23174893.6074
       227.000         180.000
 125238542.06048  97588459.55048  23832111.6914   23832115.0794   23832113.1294
       223.000         169.000
 09  1 12  0 29 30.0000000  0  9G 9G26G15G28G17G12G27G18G10
 113219096.71348  88222659.83448  21544887.6574   21544890.1534   21544887.8074
       239.000         205.000
 107743431.76148  83955900.45348  20502910.5914   20502912.9104   20502910.5824
       251.000         225.000
 106948816.58148  83336737.19848  20351685.3064   20351686.5724   20351685.0904
       254.000         240.000
 120190568.13048  93654984.89348  22871506.5094   22871507.9054   22871507.0764
       234.000         192.000
 125958971.37748  98149833.01148  23969208.1794   23969209.3834   23969208.2654
       217.000         170.000
 128446534.33848 100088195.80548  24442572.9494   24442575.3994   24442574.0094
       217.000         168.000
 127475154.58848  99331276.58648  24257724.5204   24257727.2894   24257725.0344
       216.000         161.000
 121715628.71048  94843339.62448  23161718.8824   23161720.9594   23161719.4164
       228.000         181.000
 125348350.01148  97674024.18348  23853007.3934   23853011.5394   23853008.9194
       222.000         171.000
 09  1 12  0 30  0.0000000  0  9G 9G26G15G28G17G12G27G18G10
 113147664.23948  88166998.18548  21531294.2164   21531297.3554   21531293.8224
       239.000         206.000
 107785194.06948  83988442.50148  20510857.5214   20510859.9724   20510857.5664
       250.000         225.000
 106937620.78648  83328013.19448  20349554.7924   20349556.0364   20349554.6064
       254.000         241.000
 120262277.53748  93710862.34848  22885152.1114   22885153.8904   22885152.4944
       232.000         190.000
 125900839.31848  98104535.31948  23958146.0314   23958147.5914   23958146.3274
       217.000         172.000
 128333126.41548  99999825.96548  24420991.4304   24420994.0154   24420991.4874
       219.000         166.000
 127546413.65448  99386803.11748  24271284.9084   24271287.7684   24271283.4304
       217.000         161.000
 121646830.28948  94789730.45248  23148627.5894   23148629.4344   23148629.3094
       229.000         183.000
 125458242.02948  97759654.33148  23873918.9094   23873923.2454   23873919.6394
       220.000         169.000
 09  1 12  0 30 30.0000000  0  9G 9G26G15G28G17G12G27G18G10
 113076500.05948  88111545.58348  21517752.4764   21517755.1244   21517752.3874
       241.000         207.000
 107827351.04848  84021292.08848  20518880.0824   20518882.1214   20518879.7504
       252.000         226.000
 106926822.57248  83319599.00248  20347499.9834   20347501.1184   20347499.7924
       253.000         240.000
 120334316.62148  93766996.70448  22898860.4274   22898862.1954   22898860.4644
       231.000         189.000
 125843039.02348  98059496.11648  23947146.4054   23947148.4134   23947146.4264
       217.000         171.000
 128219818.62348  99911534.14448  24399429.5184   24399431.2054   24399429.8424
       219.000         166.000
 127617680.25948  99442335.54148  24284846.0524   24284849.1904   24284846.4214
       218.000         161.000
 121578464.96148  94736458.76348  23135617.6394   23135619.5834   23135619.1104
       227.000         179.000
 125568215.49048  97845347.93848  23894846.8264   23894849.9424   23894847.2104
       221.000         172.000
 09  1 12  0 31  0.0000000  0  9G 9G26G15G28G17G12G27G18G10
 113005604.44848  88056302.28848  21504261.4374   21504264.3014   21504261.6914
       238.000         206.000
 107869902.10748  84054448.73948  20526976.8014   20526979.2814   20526976.9924
       249.000         225.000
 106916422.59448  83311495.12148  20345520.7984   20345522.0504   20345520.4394
       253.000         240.000
 120406682.86348  93823385.97948  22912631.1474   22912633.1634   22912630.8124
       231.000         190.000
 125785572.76848  98014717.23248  23936211.3284   23936212.5704   23936211.5314
       222.000         172.000
 128106612.64348  99823321.67848  24377887.0394   24377888.5804   24377886.6674
       218.000         164.000
 127688953.83048  99497873.36448  24298409.4914   24298412.7134   24298409.8254
       214.000         161.000
 121510534.66248  94683526.04648  23122691.5174   23122692.5294   23122692.6794
       228.000         181.000
 125678267.46548  97931102.72748  23915789.0944   23915792.3324   23915790.4344
       222.000         169.000
 09  1 12  0 31 30.0000000  0  9G 9G26G15G28G17G12G27G18G10
 112934977.76348  88001268.52848  21490821.5114   21490824.4844   21490821.4414
       241.000         207.000
 107912847.01948  84087912.30548  20535149.3904   20535151.5214   20535149.0334
       251.000         225.000
 106906421.78348  83303702.28148  20343617.7384   20343618.9924   20343617.5954
       254.000         240.000
 120479374.01348  93880028.42348  22926463.9684   22926465.5604   22926464.5244
       232.000         189.000
 125728442.97848  97970200.52148  23925339.8744   23925341.3884   23925339.4924
       220.000         173.000
 127993511.05148  99735190.56348  24356364.9154   24356366.3664   24356364.6014
       218.000         162.000
 127760234.19648  99553416.52648  24311973.3854   24311976.5204   24311973.4324
       214.000         160.000
 121443041.47748  94630933.98048  23109847.2994   23109849.1384   23109849.0584
       227.000         180.000
 125788394.95948  98016916.33048  23936745.0204   23936748.6654   23936746.1294
       218.000         164.000
 09  1 12  0 32  0.0000000  0  9G 9G26G15G28G17G12G27G18G10
 112864620.57248  87946444.74748  21477433.2114   21477435.8784   21477433.3784
       240.000         207.000
 107956185.49048  84121682.52448  20543395.8374   20543398.7324   20543395.8414
       250.000         225.000
 106896821.11648  83296221.23248  20341790.8824   20341792.1084   20341790.4884
       253.000         241.000
 120552387.60448  93936922.13448  22940358.1084   22940359.4254   22940358.7534
       234.000         188.000
 125671652.34248  97925948.11048  23914532.6634   23914534.6724   23914533.1774
       216.000         170.000
 127880515.67948  99647142.20648  24334863.4504   24334863.9224   24334864.0034
       221.000         166.000
 127831521.02948  99608964.69248  24325538.6604   24325542.5404   24325538.8454
       214.000         159.000
 121375987.23048  94578683.91848  23097087.5314   23097088.9374   23097088.1884
       228.000         181.000
 125898596.03948  98102787.33248  23957715.8604   23957718.2404   23957716.7804
       223.000         166.000
 09  1 12  0 32 30.0000000  0  9G 9G26G15G28G17G12G27G18G10
 112794533.45448  87891831.42248  21464096.0494   21464098.5224   21464096.3274
       242.000         207.000
 107999917.30048  84155759.25748  20551718.2864   20551720.5794   20551718.2134
       251.000         225.000
 106887622.62948  83289053.58048  20340040.5684   20340041.7594   20340040.5094
       254.000         241.000
 120625721.50448  93994065.43348  22954312.9094   22954314.2824   22954314.0914
       233.000         187.000
 125615203.78148  97881962.21248  23903790.9054   23903792.4974   23903790.8174
       218.000         172.000
 127767629.13748  99559178.62548  24313381.7664   24313382.8374   24313382.0684
       217.000         164.000
 127902814.16148  99664517.77848  24339105.8504   24339109.1574   24339106.1034
       212.000         158.000
 121309374.77148  94526778.10148  23084411.9174   23084413.1424   23084412.8774
       227.000         180.000
 126008867.23148  98188712.92948  23978699.9634   23978702.7304   23978700.9604
       223.000         167.000
 09  1 12  0 33  0.0000000  0  9G 9G26G15G28G17G12G27G18G10
 112724717.30748  87837429.23348  21450810.5624   21450813.2234   21450810.4284
       242.000         208.000
 108044042.60348  84190142.59448  20560114.6554   20560117.3294   20560114.5854
       251.000         225.000
 106878827.12248  83282199.94048  20338366.8494   20338368.0474   20338366.4724
       254.000         241.000
 120699374.02748  94051456.99948  22968328.5594   22968329.9694   22968329.1554
       230.000         186.000
 125559100.21448  97838245.15548  23893115.2654   23893116.5984   23893115.4454
       220.000         173.000
 127654853.93248  99471301.83548  24291920.9684   24291922.7214   24291919.6244
       219.000         165.000
 127974113.54648  99720075.72248  24352672.9504   24352676.9734   24352673.0224
       212.000         156.000
 121243206.32848  94475218.28748  23071819.7754   23071822.1804   23071819.9334
       226.000         181.000
 126119206.79148  98274691.80148  23999697.0584   23999700.6954   23999698.1414
       219.000         168.000
 09  1 12  0 33 30.0000000  0  9G 9G26G15G28G17G12G27G18G10
 112655172.95048  87783238.82348  21437576.6764   21437579.4894   21437576.7864
       241.000         207.000
 108088561.73648  84224832.82148  20568586.6754   20568589.1524   20568586.6344
       251.000         226.000
 106870436.20448  83275661.56248  20336769.8224   20336771.1874   20336769.7384
       253.000         241.000
 120773343.19948  94109095.33148  22982404.4534   22982405.8624   22982404.5974
       232.000         186.000
 125503344.74148  97794799.31148  23882505.0124   23882506.4004   23882504.8274
       221.000         176.000
 127542192.63748  99383513.78248  24270482.4504   24270484.5724   24270482.4214
       221.000         169.000
 128045419.49748  99775638.81148  24366242.4984   24366245.5234   24366242.6984
       212.000         156.000
 121177484.67648  94424006.58548  23059313.5454   23059315.3394   23059313.0914
       227.000         180.000
 126229612.84548  98360722.46748  24020706.9404   24020711.0314   24020708.0864
       222.000         168.000
 09  1 12  0 34  0.0000000  0  9G 9G26G15G28G17G12G27G18G10
 112585899.97548  87729259.90248  21424394.1724   21424397.1424   21424394.2494
       242.000         208.000
 108133473.42848  84259828.93848  20577133.0774   20577135.5334   20577132.9104
       252.000         226.000
 106862450.24648  83269438.73148  20335250.3014   20335251.5364   20335249.8334
       254.000         241.000
 120847625.89048  94166977.95848  22996540.0534   22996541.6194   22996540.2224
       231.000         186.000
 125447938.69048  97751625.77248  23871960.9284   23871962.7834   23871961.0514
       218.000         172.000
 127429646.53348  99295815.51548  24249065.2884   24249068.3564   24249066.3404
       219.000         167.000
 128116731.15148  99831206.30948  24379813.3794   24379815.4934   24379813.6414
       214.000         157.000
 121112210.39348  94373143.51848  23046892.7034   23046894.1694   23046892.8784
       227.000         180.000
 126340081.45248  98446801.90248  24041728.1054   24041731.0964   24041729.4904
       221.000         164.000
 09  1 12  0 34 30.0000000  0  9G 9G26G15G28G17G12G27G18G10
 112516899.81348  87675493.54548  21411264.3364   21411266.7884   21411264.6154
       243.000         209.000
 108178778.19048  84295131.34648  20585754.4754   20585756.5564   20585754.6144
       251.000         225.000
 106854870.93348  83263532.76448  20333808.0804   20333809.3744   20333807.9234
       254.000         241.000
 120922220.62948  94225103.72848  23010734.9634   23010736.6954   23010734.7784
       230.000         186.000
 125392885.80048  97708727.44248  23861485.5584   23861487.3994   23861485.5124
       220.000         173.000
 127317218.97448  99208209.66248  24227670.8264   24227673.6864   24227669.9094
       217.000         169.000
 128188048.91948  99886778.57848  24393384.1234   24393386.8364   24393384.4664
       212.000         155.000
 121047387.01548  94322631.79048  23034557.3024   23034558.6704   23034558.0234
       228.000         182.000
 126450611.13448  98532928.92648  24062760.7084   24062763.6954   24062762.0514
       218.000         165.000
 09  1 12  0 35  0.0000000  0  9G 9G26G15G28G17G12G27G18G10
 112448172.78248  87621940.02748  21398185.7264   21398188.5644   21398186.2724
       241.000         207.000
 108224475.19148  84330739.38748  20594450.2214   20594452.5964   20594450.0694
       251.000         225.000
 106847698.94048  83257944.20048  20332443.2034   20332444.5514   20332443.0174
       254.000         241.000
 120997124.94648  94283470.73248  23024988.9664   23024990.4924   23024989.2724
       231.000         188.000
 125338188.42448  97666106.08348  23851076.5164   23851078.5484   23851076.4074
       217.000         174.000
 127204911.58248  99120697.39348  24206299.7994   24206301.9204   24206298.8154
       218.000         169.000
 128259372.09648  99942355.07448  24406955.3384   24406959.1684   24406955.4704
       206.000         154.000
 120983016.08548  94272472.63048  23022307.5984   23022309.7074   23022308.3154
       229.000         181.000
 126561198.28848  98619100.73248  24083805.5794   24083808.4094   24083806.3274
       221.000         166.000
 09  1 12  0 35 30.0000000  0  9G 9G26G15G28G17G12G27G18G10
 122379722.24158  77568602.61958  21385159.2395   21385162.2005   21385159.4165
       241.000         208.000
 108270564.15648  84366652.85548  20603220.5124   20603222.9114   20603220.3404
       251.000         225.000
 106840935.16048  83252673.72548  20331156.1214   20331157.3244   20331155.9234
       254.000         241.000
 121072336.23348  94342076.93748  23039301.1014   23039302.5554   23039301.5764
       230.000         185.000
 125283848.59048  97623763.36048  23840736.6384   23840738.5224   23840736.3314
       221.000         174.000
 127092726.49648  99033280.44748  24184951.2354   24184952.9744   24184951.4584
       217.000         164.000
 128330700.44148  99997935.58248  24420529.5424   24420533.0764   24420530.6154
       210.000         154.000
 120919099.49948  94222667.48948  23010144.7654   23010146.6674   23010145.6414
       230.000         183.000
 126671840.24248  98705315.26048  24104859.5904   24104861.7704   24104860.0324
       217.000         160.000
 09  1 12  0 36  0.0000000  0  9G 9G26G15G28G17G12G27G18G10
 122311542.60448  77515475.64348  21372185.1544   21372188.1034   21372185.1624
       242.000         209.000
 108317044.87848  84402871.58948  20612065.7454   20612067.9464   20612065.6804
       252.000         225.000
 106834580.73448  83247722.21748  20329946.9894   20329948.1174   20329946.7544
       254.000         241.000
 121147852.34448  94400920.66348  23053671.1734   23053672.5924   23053671.9974
       231.000         187.000
 125229869.19148  97581701.50348  23830463.8434   23830465.3874   23830463.7114
       219.000         172.000
 126980665.99148  98945960.56448  24163627.4164   24163628.4354   24163626.9144
       220.000         168.000
 128402033.98848 100053520.12448  24434104.4834   24434107.3074   24434106.2684
       205.000         154.000
 120855639.45848  94173218.11648  22998068.9954   22998070.5864   22998069.5444
       230.000         182.000
 126782535.15048  98791571.01848  24125924.0884   24125926.7834   24125924.5254
       221.000         165.000
 09  1 12  0 36 30.0000000  0  9G 9G26G15G28G17G12G27G18G10
 122243637.41748  77462562.53748  21359263.1164   21359266.0684   21359263.9484
       241.000         208.000
 108363917.11048  84439395.39848  20620985.2534   20620987.6014   20620985.2924
       252.000         225.000
 106828636.45848  83243090.31148  20328815.7114   20328816.9294   20328815.4614
       254.000         241.000
 121223671.28848  94460000.36648  23068099.1524   23068100.6404   23068099.8084
       230.000         187.000
 125176252.72048  97539922.43548  23820261.0714   23820262.5794   23820259.9694
       218.000         170.000
 126868732.30548  98858739.49948  24142327.6254   24142329.0744   24142328.0574
       222.000         171.000
 128473372.26548 100109108.39648  24447679.6124   24447682.5264   24447678.8694
       208.000         154.000
 120792637.93148  94124126.01648  22986080.3094   22986081.6584   22986080.9894
       229.000         183.000
 126893279.87948  98877865.60448  24146999.2104   24147001.8654   24147000.9174
       220.000         166.000
 09  1 12  0 37  0.0000000  0  9G 9G26G15G28G17G12G27G18G10
 122176007.55348  77409863.95148  21346393.8764   21346396.2754   21346393.8854
       243.000         209.000
 108411180.62148  84476224.10148  20629979.1254   20629981.3864   20629978.9994
       252.000         225.000
 106823103.91348  83238779.23748  20327762.8764   20327764.1234   20327762.6504
       254.000         241.000
 121299790.75148  94519314.23048  23082584.2454   23082585.4544   23082584.7404
       230.000         187.000
 125123001.99548  97498428.35948  23810128.3314   23810129.9354   23810128.5464
       218.000         171.000
 126756927.93948  98771619.20948  24121051.7374   24121053.4854   24121051.9654
       217.000         169.000
 128544715.33148 100164700.35848  24461254.7944   24461258.6164   24461255.2874
       208.000         153.000
 120730097.27448  94075393.03148  22974179.1264   22974180.7714   22974180.0024
       232.000         183.000
 127004071.75548  98964196.92248  24168081.0074   24168084.5674   24168082.0644
       216.000         163.000
 09  1 12  0 37 30.0000000  0  9G 9G26G15G28G17G12G27G18G10
 122108652.98948  77357379.90548  21333576.4634   21333579.1964   21333577.0914
       240.000         209.000
 108458834.73148  84513357.16648  20639047.2764   20639049.6954   20639047.2314
       251.000         225.000
 106817983.65648  83234789.42348  20326788.6664   20326789.8084   20326788.4644
       253.000         241.000
 121376207.93348  94578860.09648  23097125.9274   23097127.2564   23097126.6634
       231.000         188.000
 125070119.08848  97457220.91348  23800064.7844   23800066.0304   23800065.0664
       218.000         173.000
 126645254.95948  98684601.28148  24099800.8144   24099802.6904   24099800.1204
       219.000         169.000
 128616062.78348 100220295.75748  24474832.4334   24474835.0654   24474833.2574
       210.000         154.000
 120668019.08548  94027020.43948  22962366.0374   22962367.8944   22962367.7254
       231.000         184.000
 127114908.29248  99050563.03048  24189171.6134   24189175.7004   24189171.7754
       214.000         162.000
 09  1 12  0 38  0.0000000  0  9G 9G26G15G28G17G12G27G18G10
 122041575.37648  77305111.66248  21320811.9014   21320814.9244   21320811.6384
       241.000         209.000
 108506880.26148  84550795.23148  20648190.0504   20648192.4474   20648189.9784
       251.000         225.000
 106813277.71748  83231122.45548  20325893.2294   20325894.3474   20325892.9084
       254.000         241.000
 121452921.81548  94638637.14348  23111723.9684   23111725.5604   23111724.3754
       230.000         187.000
 125017607.79448  97416303.01748  23790072.4144   23790074.1604   23790072.3974
       218.000         173.000
 126533716.31548  98597688.08348  24078575.5864   24078577.6684   24078575.6384
       220.000         170.000
 128687415.51148 100275895.26748  24488410.3234   24488413.6734   24488411.3594
       207.000         155.000
 120606406.54248  93979010.65948  22950641.3264   22950643.0274   22950642.7164
       231.000         182.000
 127225788.37148  99136963.08148  24210272.0474   24210275.9784   24210272.3614
       219.000         165.000
 09  1 12  0 38 30.0000000  0  9G 9G26G15G28G17G12G27G18G10
 121974774.83948  77253059.30348  21308100.4554   21308102.9404   21308100.3954
       241.000         208.000
 108555316.33548  84588537.61948  20657407.0774   20657409.6244   20657406.8904
       251.000         225.000
 106808986.71248  83227778.81448  20325076.6104   20325077.8084   20325076.4804
       254.000         241.000
 121529929.64648  94698643.24848  23126378.3124   23126379.5284   23126378.7844
       231.000         187.000
 124965469.86448  97375676.08448  23780149.9144   23780152.8874   23780149.7534
       220.000         175.000
 126422313.94348  98510881.06248  24057376.5514   24057377.9734   24057377.1464
       222.000         171.000
 128758772.82148 100331498.33148  24501989.3434   24501992.5554   24501989.0684
       211.000         156.000
 120545261.22648  93931364.95348  22939006.2334   22939007.4614   22939007.7394
       232.000         184.000
 127336707.90148  99223393.87648  24231378.8704   24231382.7154   24231379.4534
       218.000         161.000
 09  1 12  0 39  0.0000000  0  9G 9G26G15G28G17G12G27G18G10
 121908251.68248  77201223.09248  21295441.2444   21295443.7594   21295440.7504
       241.000         208.000
 108604142.28748  84626583.80748  20666698.5434   20666700.9124   20666698.4794
       251.000         225.000
 106805111.58448  83224759.22748  20324339.1584   20324340.4174   20324338.9234
       254.000         241.000
 121607228.88848  94758876.42148  23141088.0764   23141089.0404   23141089.0894
       231.000         186.000
 124913707.58848  97335341.85148  23770300.8924   23770301.9824   23770301.5954
       218.000         174.000
 126311049.71248  98424181.63848  24036203.7424   24036204.6714   24036204.5984
       222.000         169.000
 128830134.28748 100387104.65148  24515569.2874   24515572.0544   24515569.5254
       211.000         154.000
 120484584.80748  93884084.63048  22927459.2504   22927461.3034   22927459.9744
       230.000         185.000
 127447664.75248  99309853.79748  24252493.6724   24252495.8794   24252493.7004
       217.000         158.000
 09  1 12  0 39 30.0000000  0  9G 9G26G15G28G17G12G27G18G10
 121842006.77348  77149603.70548  21282835.3424   21282837.9744   21282834.9534
       243.000         209.000
 108653358.39048  84664934.01648  20676063.9854   20676066.3964   20676063.8834
       250.000         225.000
 106801653.85348  83222064.88448  20323681.3914   20323682.4484   20323681.3984
       254.000         241.000
 121684818.00648  94819335.48348  23155852.5454   23155853.7554   23155852.6994
       231.000         185.000
 124862324.28348  97295302.91148  23760522.7044   23760524.5564   23760522.6324
       219.000         176.000
 126199926.55548  98337592.16748  24015057.1074   24015059.2834   24015057.7664
       218.000         169.000
 128901500.34248 100442714.56348  24529149.0294   24529152.6684   24529150.1844
       207.000         153.000
 120424379.96948  93837171.77248  22916002.8214   22916004.7094   22916002.9274
       230.000         185.000
 127558656.89848  99396341.18148  24273614.8064   24273617.4394   24273615.3304
       221.000         161.000
 09  1 12  0 40  0.0000000  0  9G 9G26G15G28G17G12G27G18G10
 121776040.58448  77098201.48948  21270282.7354   21270284.7544   21270283.3974
       241.000         208.000
 108702964.32548  84703587.99148  20685503.6154   20685506.1264   20685503.4054
       251.000         225.000
 106798614.25448  83219696.36748  20323102.7974   20323103.9904   20323102.5074
       254.000         241.000
 121762694.50448  94880018.46348  23170672.0954   23170673.1614   23170672.2744
       229.000         186.000
 124811322.11148  97255560.96548  23750817.4164   23750818.8544   23750816.6594
       222.000         178.000
 126088946.62448  98251114.30448  23993937.9844   23993940.9584   23993937.5644
       219.000         169.000
 128972870.90848 100498327.97948  24542730.8954   24542733.4894   24542730.7954
       211.000         155.000
 120364648.46748  93790627.75248  22904636.5884   22904637.9254   22904637.4034
       231.000         185.000
 127669681.39648  99482853.78948  24294742.4804   24294745.2564   24294743.2464
       217.000         160.000
 09  1 12  0 40 30.0000000  0  9G 9G26G15G28G17G12G27G18G10
 121710353.48348  77047016.76248  21257782.6434   21257784.9314   21257782.9654
       241.000         209.000
 108752959.36948  84742545.15548  20695017.4404   20695019.8554   20695017.3154
       250.000         225.000
 106795993.61548  83217654.31648  20322603.9584   20322605.3494   20322603.6724
       254.000         241.000
 121840855.95248  94940923.49048  23185545.5594   23185546.6604   23185545.8274
       230.000         184.000
 124760703.42248  97216117.82948  23741184.8004   23741186.5524   23741184.4854
       223.000         178.000
 125978111.76448  98164749.46948  23972847.8154   23972849.8974   23972847.4654
       221.000         170.000
 129044245.40648 100553944.43748  24556313.5744   24556315.8014   24556313.7974
       213.000         158.000
 120305392.26848  93744454.08548  22893360.5864   22893361.9254   22893360.6304
       232.000         186.000
 127780735.51748  99569389.44648  24315874.7494   24315878.7594   24315875.6254
       219.000         162.000
 09  1 12  0 41  0.0000000  0  9G 9G26G15G28G17G12G27G18G10
 121644945.65648  76996049.64248  21245335.6924   21245338.4034   21245336.4104
       242.000         209.000
 108803342.35648  84781804.62148  20704604.9684   20704607.4304   20704604.8614
       250.000         224.000
 106793792.17648  83215938.90148  20322185.0654   20322186.4424   20322184.9104
       254.000         241.000
 121919299.23048  95002048.12548  23200472.9804   23200473.6694   23200473.9294
       231.000         183.000
 124710470.14648  97176975.01948  23731625.9134   23731627.7524   23731626.0554
       220.000         177.000
 125867423.72748  98078499.03548  23951784.6384   23951786.0244   23951784.2064
       222.000         173.000
 129115623.17348 100609563.45848  24569895.9354   24569898.5744   24569896.0634
       210.000         158.000
 120246612.82448  93698651.93048  22882174.8614   22882176.3044   22882176.0374
       233.000         186.000
 127891816.20948  99655945.81448  24337012.9924   24337016.9224   24337013.8434
       221.000         163.000
 09  1 12  0 41 30.0000000  0  9G 9G26G15G28G17G12G27G18G10
 121579817.82548  76945300.69348  21232942.3254   21232944.8604   21232942.8614
       241.000         209.000
 108854113.82148  84821366.79448  20714266.5034   20714268.9154   20714266.3904
       251.000         224.000
 106792011.64548  83214551.46548  20321846.3504   20321847.7094   20321846.0764
       254.000         241.000
 121998022.78748  95063391.15948  23215453.5094   23215454.5894   23215454.6454
       229.000         183.000
 124660625.28048  97138134.87748  23722140.7534   23722142.8814   23722140.1274
       223.000         178.000
 125756885.20448  97992365.12748  23930749.5954   23930750.9554   23930749.0934
       221.000         173.000
 129187004.65448 100665185.39048  24583479.5374   24583481.9154   24583479.4964
       206.000         158.000
 120188312.11748  93653222.81048  22871080.9664   22871082.1074   22871081.2224
       234.000         187.000
 128002921.24448  99742521.16848  24358155.6794   24358159.3934   24358156.1364
       218.000         159.000
 09  1 12  0 42  0.0000000  0  9G 9G26G15G28G17G12G27G18G10
 121514970.54648  76894770.34548  21220602.1474   21220604.7874   21220602.3584
       242.000         210.000
 108905273.30548  84861231.32748  20724001.8654   20724004.1324   20724001.7724
       251.000         224.000
 106790652.81148  83213492.62348  20321587.7674   20321589.0984   20321587.5334
       254.000         241.000
 122077024.53048  95124950.94048  23230486.8254   23230488.1274   23230487.1254
       229.000         181.000
 124611171.29648  97099599.30748  23712729.9384   23712731.5354   23712729.8974
       221.000         175.000
 125646498.73748  97906349.70148  23909743.3604   23909745.1004   23909742.9874
       222.000         172.000
 129258389.85448 100720810.20048  24597062.5904   24597066.7484   24597062.5444
       208.000         156.000
 120130492.57148  93608168.63648  22860077.8534   22860079.4604   22860078.4214
       232.000         186.000
 128114048.17848  99829113.59048  24379303.0784   24379304.4594   24379302.9634
       219.000         155.000
 09  1 12  0 42 30.0000000  0  9G 9G26G15G28G17G12G27G18G10
 121450404.83848  76844459.41148  21208315.9684   21208318.4924   21208316.4204
       242.000         210.000
 108956820.58248  84901398.03348  20733810.9754   20733813.3404   20733810.8864
       250.000         224.000
 106789716.71548  83212763.19848  20321409.6564   20321410.8774   20321409.5474
       255.000         241.000
 122156302.35648  95186725.88848  23245572.8274   23245574.1204   23245574.6194
       229.000         182.000
 124562110.76148  97061370.33148  23703393.8524   23703395.1754   23703393.4144
       223.000         176.000
 125536266.48648  97820454.45248  23888766.3504   23888769.3494   23888766.5924
       222.000         174.000
 129329778.87248 100776437.96848  24610647.3674   24610651.1424   24610647.4984
       212.000         156.000
 120073156.04648  93563490.84548  22849167.1914   22849168.9454   22849167.7344
       231.000         185.000
 128225194.83248  99915721.39648  24400454.1444   24400454.6584   24400454.7364
       215.000         154.000
 09  1 12  0 43  0.0000000  0  9G 9G26G15G28G17G12G27G18G10
 121386120.69848  76794367.88448  21196083.1234   21196085.5874   21196083.3934
       243.000         210.000
 109008755.05848  84941866.44848  20743693.8334   20743696.0764   20743693.7034
       250.000         224.000
 106789204.51148  83212364.06648  20321312.2994   20321313.3764   20321312.1264
       254.000         241.000
 122235853.93348  95248714.13348  23260710.8774   23260712.7414   23260711.1974
       228.000         183.000
 124513445.97348  97023449.71248  23694133.7784   23694134.9134   23694133.3944
       223.000         176.000
 125426190.63148  97734681.05748  23867820.2104   23867823.1334   23867821.0634
       222.000         175.000
 129401171.26848 100832068.39348  24624233.9834   24624236.4274   24624234.4684
       213.000         160.000
 120016304.47348  93519190.90148  22838348.5404   22838350.1224   22838348.8824
       232.000         185.000
 128336358.45448 100002342.37848  24421606.6744   24421609.7014   24421606.4494
       215.000         158.000
 09  1 12  0 43 30.0000000  0  9G 9G26G15G28G17G12G27G18G10
 121322118.77948  76744496.26548  21183904.0404   21183906.2564   21183904.4164
       243.000         210.000
 109061076.37848  84982636.29948  20753650.2474   20753652.4464   20753650.2984
       251.000         223.000
 106789117.06748  83212295.92148  20321295.6734   20321296.7004   20321295.4914
       254.000         241.000
 122315676.92148  95310913.85548  23275900.6104   23275902.8384   23275901.5854
       229.000         182.000
 124465179.38948  96985839.40148  23684948.0924   23684950.6454   23684947.9884
       223.000         175.000
 125316273.55548  97649031.40548  23846903.6904   23846906.8304   23846903.6144
       221.000         175.000
 129472566.88048 100887701.33048  24637820.5164   24637823.1064   24637821.2584
       212.000         162.000
 119959939.64648  93475270.27548  22827622.4764   22827624.5054   22827623.2754
       232.000         185.000
 128447536.37948 100088974.51748  24442763.4394   24442766.2084   24442763.7494
       219.000         162.000
 09  1 12  0 44  0.0000000  0  9G 9G26G15G28G17G12G27G18G10
 121258399.65348  76694845.01948  21171778.4254   21171781.1444   21171779.1894
       242.000         211.000
 109113784.04748  85023707.20648  20763680.0954   20763682.5304   20763679.8994
       250.000         223.000
 106789455.31648  83212559.49148  20321360.0924   20321361.1304   20321360.0014
       255.000         241.000
 122395768.86148  95373323.15148  23291141.6254   23291143.7774   23291142.9324
       228.000         182.000
 124417313.41648  96948541.25648  23675839.9884   23675841.7364   23675840.2024
       221.000         175.000
 125206517.11548  97563506.91148  23826017.4024   23826021.1454   23826016.9344
       221.000         176.000
 129543965.87048 100943336.87648  24651407.4574   24651409.7694   24651406.7084
       211.000         163.000
 119904063.38748  93431730.33448  22816990.0844   22816991.2514   22816990.6394
       230.000         185.000
 128558725.84748 100175615.66748  24463922.6844   24463924.5534   24463923.5614
       221.000         161.000
 09  1 12  0 44 30.0000000  0  9G 9G26G15G28G17G12G27G18G10
 121194963.79248  76645414.48548  21159706.9044   21159709.5744   21159707.2574
       243.000         211.000
 109166877.52248  85065078.73348  20773783.3774   20773786.0544   20773783.2724
       249.000         223.000
 106790220.20448  83213155.50048  20321505.6074   20321506.6254   20321505.3564
       254.000         241.000
 122476127.76448  95435940.47548  23306433.7924   23306435.3714   23306433.3104
       229.000         183.000
 124369850.30748  96911557.00748  23666807.7744   23666810.1914   23666807.8774
       221.000         176.000
 125096923.88048  97478109.58048  23805162.9544   23805166.0024   23805162.0054
       223.000         177.000
 129615368.22448 100998975.05648  24664994.0914   24664997.1904   24664993.5364
       213.000         161.000
 119848677.75548  93388572.70148  22806450.4604   22806451.5604   22806450.7754
       231.000         185.000
 128669924.88848 100262264.28948  24485082.9584   24485085.5324   24485085.0614
       215.000         155.000
 09  1 12  0 45  0.0000000  0  9G 9G26G15G28G17G12G27G18G10
 121131812.05848  76596205.35048  21147690.0074   21147692.2244   21147689.6694
       244.000         212.000
 109220356.77948  85106750.86748  20783960.2544   20783962.7044   20783960.2794
       250.000         223.000
 106791412.75748  83214084.75348  20321732.3604   20321733.5854   20321731.9764
       254.000         241.000
 122556751.57048  95498764.21348  23321775.9904   23321777.3654   23321775.8254
       228.000         182.000
 124322792.82348  96874888.83948  23657853.6664   23657854.9444   23657853.0324
       223.000         176.000
 124987496.17448  97392841.22548  23784339.8504   23784342.2754   23784340.1384
       223.000         177.000
 129686773.94948 101054615.84848  24678582.1204   24678585.1654   24678582.7404
       213.000         160.000
 119793784.71848  93345798.90848  22796004.5324   22796006.1094   22796005.7324
       231.000         186.000
 128781131.28448 100348918.58648  24506243.8344   24506248.5524   24506244.4484
       211.000         154.000
 09  1 12  0 45 30.0000000  0  9G 9G26G15G28G17G12G27G18G10
 121068944.32248  76547217.51448  21135726.5534   21135728.9954   21135726.8084
       243.000         212.000
 109274220.84048  85148722.85848  20794210.2914   20794212.6584   20794210.1574
       250.000         223.000
 106793033.34148  83215347.53648  20322040.8014   20322041.9994   20322040.5614
       254.000         241.000
 122637637.41648  95561792.14348  23337168.3054   23337169.2934   23337168.8284
       229.000         183.000
 124276142.73048  96838538.11948  23648976.0554   23648977.1944   23648975.8944
       220.000         176.000
 124878235.65148  97307703.17648  23763547.4144   23763550.3564   23763548.1254
       219.000         176.000
 129758182.22148 101110258.65948  24692170.7034   24692173.5854   24692171.6714
       216.000         163.000
 119739385.71348  93303410.07148  22785652.7874   22785654.0174   22785652.4134
       233.000         188.000
 128892341.67848 100435576.02248  24527406.6134   24527410.8574   24527407.4374
       214.000         155.000
 09  1 12  0 46  0.0000000  0  9G 9G26G15G28G17G12G27G18G10
 121006361.75448  76498451.87548  21123817.4734   21123819.9384   21123817.7504
       243.000         213.000
 109328469.73048  85190994.71548  20804533.5044   20804535.8904   20804533.3034
       250.000         223.000
 106795083.41848  83216944.99348  20322430.8854   20322432.0164   20322430.6524
       254.000         241.000
 122718783.62848  95625022.95148  23352609.7994   23352610.9144   23352610.7074
       228.000         182.000
 124229903.01348  96802507.14748  23640176.7424   23640178.8354   23640175.8544
       221.000         177.000
 124769145.08348  97222697.53648  23742788.4704   23742791.0764   23742787.6164
       220.000         177.000
 129829593.74048 101165903.96848  24705760.1244   24705762.6624   24705760.7094
       216.000         165.000
 119685483.06248  93261408.00748  22775395.9014   22775397.1494   22775396.2954
       231.000         187.000
 129003553.96648 100522234.96548  24548569.5344   24548572.9554   24548570.0484
       214.000         152.000
 09  1 12  0 46 30.0000000  0  9G 9G26G15G28G17G12G27G18G10
 120944064.59848  76449908.65948  21111962.3104   21111965.3274   21111962.3764
       243.000         213.000
 109383102.66748  85233565.82848  20814929.7384   20814932.0984   20814929.7524
       249.000         222.000
 106797563.78248  83218877.73648  20322902.8764   20322904.0914   20322902.6304
       254.000         241.000
 122800187.77348  95688454.75948  23368100.5034   23368101.5194   23368100.6974
       229.000         183.000
 124184075.53548  96766797.47348  23631456.4494   23631458.0264   23631456.9554
       222.000         177.000
 124660226.57048  97137825.97848  23722061.3744   23722064.5894   23722061.4474
       222.000         178.000
 129901008.10948 101221551.50348  24719349.9364   24719352.4764   24719350.4854
       216.000         164.000
 119632078.07448  93219793.73348  22765232.6084   22765234.5204   22765233.2684
       232.000         187.000
 129114765.62748 100608893.43348  24569732.3784   24569735.2234   24569733.2844
       216.000         152.000
 09  1 12  0 47  0.0000000  0  9G 9G26G15G28G17G12G27G18G10
 120882053.25848  76401588.13448  21100162.2124   21100164.6734   21100161.9434
       244.000         212.000
 109438119.43748  85276436.02948  20825399.0604   20825401.4994   20825399.0954
       248.000         222.000
 106800475.24148  83221146.40048  20323457.0344   20323458.2164   20323456.7274
       254.000         241.000
 122881847.53048  95752085.72748  23383639.7124   23383641.0354   23383639.5824
       228.000         182.000
 124138663.11148  96731411.17148  23622814.7694   23622815.9934   23622814.4514
       225.000         178.000
 124551482.28948  97053090.17248  23701368.3704   23701371.2554   23701368.0474
       225.000         178.000
 129972425.13448 101277201.12648  24732940.0014   24732943.0954   24732940.8164
       212.000         163.000
 119579172.95148  93178568.96048  22755165.3014   22755166.8084   22755166.1484
       230.000         187.000
 129225974.10548 100695549.40448  24590895.0644   24590898.2724   24590896.4554
       215.000         157.000
 09  1 12  0 47 30.0000000  0 10G 9G 5G26G15G28G17G12G27G18G10
 120820328.03248  76353490.56848  21088416.2724   21088418.8644   21088416.5304
       244.000         213.000
 141064212.68758  92127943.33458  24940702.2145   24940705.3135   24940701.5795
       212.000         156.000
 109493519.19548  85319604.66048  20835941.3024   20835943.6954   20835941.2884
       249.000         222.000
 106803818.45448  83223751.49448  20324093.2484   20324094.4204   20324092.9804
       254.000         241.000
 122963760.33748  95815913.89948  23399227.0824   23399228.4524   23399227.1024
       229.000         181.000
 124093667.44748  96696349.62148  23614253.0074   23614253.8024   23614253.0734
       225.000         177.000
 124442914.22748  96968491.67348  23680709.7014   23680711.6814   23680709.7204
       227.000         180.000
 130043844.92348 101332852.90148  24746529.9174   24746533.3334   24746530.3954
       212.000         162.000
 119526769.32148  93137734.96848  22745193.3344   22745194.9454   22745193.7344
       232.000         188.000
 129337176.33548 100782200.45848  24612056.8994   24612060.5334   24612057.7174
       214.000         157.000
 09  1 12  0 48  0.0000000  0 10G 9G 5G26G15G28G17G12G27G18G10
 120758889.35048  76305616.28048  21076725.0664   21076727.3974   21076725.3684
       244.000         213.000
 140948895.00548  92038085.36348  24918757.9994   24918761.4674   24918758.8194
       210.000         156.000
 109549301.57948  85363071.44548  20846556.4044   20846558.7454   20846556.2384
       249.000         221.000
 106807593.93648  83226693.41848  20324811.5724   20324812.8624   20324811.4164
       254.000         241.000
 123045924.31948  95879937.77048  23414862.3284   23414863.7574   23414862.6944
       228.000         180.000
 124049091.04648  96661614.75748  23605769.4364   23605771.1574   23605769.8454
       222.000         175.000
 124334524.63748  96884032.23148  23660084.3954   23660085.6174   23660084.9744
       227.000         180.000
 130115267.31148 101388506.69648  24760121.9104   24760124.9134   24760122.0504
       215.000         165.000
 119474868.50748  93097292.76848  22735317.2534   22735318.0294   22735317.8694
       232.000         189.000
 129448370.37848 100868845.10648  24633215.5044   24633219.9364   24633216.7624
       209.000         151.000
 09  1 12  0 48 30.0000000  0 10G 9G 5G26G15G28G17G12G27G18G10
 120697737.79148  76257965.72848  21065088.0094   21065090.5974   21065088.4464
       245.000         214.000
 140833650.31248  91948284.30648  24896826.8964   24896830.9394   24896827.2384
       210.000         155.000
 109605466.25648  85406836.12448  20857244.1194   20857246.3594   20857244.0824
       250.000         221.000
 106811803.16048  83229973.31948  20325612.6414   20325613.8494   20325612.4334
       254.000         241.000
 123128337.04048  95944155.47048  23430545.0864   23430546.6024   23430545.2274
       228.000         181.000
 124004936.30548  96627208.48448  23597367.2744   23597368.4734   23597367.0624
       225.000         179.000
 124226315.80748  96799713.66948  23639492.3754   23639494.5944   23639492.0074
       223.000         180.000
 130186692.68648 101444162.79348  24773713.7904   24773716.7754   24773714.2784
       215.000         165.000
 119423472.65248  93057244.06648  22725536.7864   22725538.1404   22725536.8334
       234.000         189.000
 129559553.83348 100955481.55848  24654373.4304   24654375.8514   24654374.0944
       215.000         152.000
 09  1 12  0 49  0.0000000  0 10G 9G 5G26G15G28G17G12G27G18G10
 120636872.70048  76210538.40048  21053506.0704   21053508.6644   21053506.3924
       244.000         214.000
 140718479.06848  91858540.41348  24874910.8994   24874914.4854   24874911.4104
       211.000         154.000
 109662011.13848  85450897.06548  20868004.2154   20868006.5984   20868004.1634
       248.000         221.000
 106816445.58848  83233590.78348  20326496.1834   20326497.3014   20326495.9654
       254.000         241.000
 123210994.74948  96008564.07548  23446274.2354   23446276.1264   23446274.7704
       227.000         181.000
 123961204.06748  96593131.41148  23589045.1584   23589047.3394   23589045.9394
       223.000         179.000
 124118288.58648  96715536.60548  23618935.1484   23618937.2994   23618934.6484
       224.000         178.000
 130258119.26848 101499819.87348  24787305.5674   24787309.2144   24787306.1394
       216.000         166.000
 119372582.17548  93017589.16348  22715852.0534   22715853.8304   22715853.4854
       231.000         187.000
 129670722.43648 101042106.50948  24675527.9144   24675529.6334   24675528.7024
       215.000         151.000
 09  1 12  0 49 30.0000000  0 10G 9G 5G26G15G28G17G12G27G18G10
 120576296.29048  76163336.01148  21041978.4754   21041981.2934   21041978.4214
       244.000         215.000
 140603385.09748  91768856.75448  24853008.8544   24853011.5804   24853009.2834
       207.000         154.000
 109718937.45048  85495255.21348  20878836.8994   20878839.2994   20878836.7804
       248.000         221.000
 106821523.60048  83237547.67148  20327462.3344   20327463.5874   20327462.0234
       254.000         241.000
 123293897.32948  96073163.48548  23462049.8034   23462051.8894   23462050.1864
       229.000         181.000
 123917898.30448  96559386.64548  23580804.6574   23580806.0984   23580804.0824
       223.000         178.000
 124010447.03248  96631504.22748  23598412.7844   23598415.8494   23598413.8934
       224.000         179.000
 130329548.80048 101555479.26748  24800898.0794   24800901.3984   24800898.2704
       212.000         163.000
 119322200.33148  92978330.56748  22706264.7174   22706266.3744   22706265.5574
       231.000         188.000
 129781875.85148 101128719.58148  24696679.5934   24696682.8624   24696681.0304
       212.000         151.000
 09  1 12  0 50  0.0000000  0 10G 9G 5G26G15G28G17G12G27G18G10
 120516010.07448  76116359.75748  21030506.5044   21030509.1734   21030506.6504
       245.000         215.000
 140488370.87548  91679235.25748  24831122.6154   24831124.5624   24831122.5504
       213.000         156.000
 109776245.30948  85539910.66548  20889742.4144   20889744.6104   20889742.4844
       247.000         221.000
 106827038.42048  83241844.93048  20328511.7984   20328513.0314   20328511.5664
       254.000         241.000
 123377042.92148  96137952.25348  23477871.8894   23477873.9054   23477873.2774
       227.000         180.000
 123875021.89748  96525976.47748  23572645.2174   23572647.0414   23572645.7544
       224.000         179.000
 123902794.02548  96547618.76548  23577926.7624   23577929.9834   23577926.6794
       225.000         179.000
 130400981.89348 101611141.37548  24814490.6994   24814495.0154   24814490.1604
       215.000         166.000
 119272329.63748  92939470.28748  22696774.8834   22696776.6564   22696775.1544
       232.000         188.000
 129893011.78348 101215318.96948  24717827.7674   24717831.2234   24717829.1264
       211.000         153.000
 09  1 12  0 50 30.0000000  0 10G 9G 5G26G15G28G17G12G27G18G10
 120456013.94148  76069609.53548  21019089.6224   21019092.1734   21019089.8294
       245.000         215.000
 140373438.03648  91589677.14548  24809252.3574   24809254.1274   24809253.9684
       214.000         155.000
 109833933.88448  85584862.79348  20900720.0354   20900722.5864   20900719.6074
       248.000         221.000
 106832990.66148  83246483.03248  20329644.4844   20329645.6734   20329644.2624
       253.000         241.000
 123460429.08448  96202928.48848  23493739.8274   23493741.6144   23493740.5224
       227.000         179.000
 123832576.79948  96492902.37348  23564567.7284   23564569.9744   23564567.9124
       223.000         178.000
 123795331.09448  96463881.40748  23557477.8664   23557479.8884   23557477.6154
       226.000         180.000
 130472418.05348 101666805.90948  24828085.5284   24828088.5724   24828085.5994
       213.000         166.000
 119222971.33648  92901009.26648  22687382.2994   22687383.7944   22687382.9574
       232.000         188.000
 130004128.03748 101301903.03448  24738972.7254   24738975.4784   24738972.2524
       213.000         155.000
 09  1 12  0 51  0.0000000  0 10G 9G 5G26G15G28G17G12G27G18G10
 120396307.57248  76023085.10048  21007727.7724   21007730.2444   21007727.9204
       245.000         214.000
 140258587.99348  91500183.60348  24787397.1094   24787400.2004   24787398.4114
       207.000         154.000
 109892001.86148  85630110.56848  20911770.0854   20911772.4344   20911769.9564
       250.000         220.000
 106839380.41848  83251462.05748  20330860.4114   20330861.5924   20330860.1384
       253.000         240.000
 123544052.72348  96268089.76548  23509652.9504   23509654.6454   23509653.5784
       229.000         179.000
 123790564.40148  96460165.45648  23556573.5374   23556575.3674   23556573.1764
       224.000         179.000
 123688059.72048  96380293.32348  23537065.2774   23537066.5804   23537066.0504
       224.000         180.000
 130543856.58448 101722472.29048  24841679.1784   24841683.2134   24841678.6484
       214.000         166.000
 119174126.59348  92862948.42148  22678087.3974   22678088.7494   22678088.2814
       231.000         187.000
 130115220.94848 101388468.94948  24760113.0184   24760115.8424   24760113.9514
       216.000         157.000
 09  1 12  0 51 30.0000000  0 10G 9G 5G26G15G28G17G12G27G18G10
 120336891.46248  75976786.84048  20996421.2324   20996423.8734   20996421.3994
       245.000         215.000
 140143822.92648  91410756.27948  24765556.4814   24765561.2894   24765556.0444
       202.000         152.000
 109950448.96248  85675653.75848  20922892.3334   20922894.5454   20922892.4084
       250.000         220.000
 106846208.96848  83256783.00148  20332159.7274   20332161.0914   20332159.5054
       254.000         240.000
 123627912.01948  96333434.67448  23525611.2954   23525612.6634   23525611.5294
       227.000         179.000
 123748987.37448  96427767.77248  23548661.6954   23548663.4944   23548661.3654
       225.000         179.000
 123580982.53348  96296856.57748  23516689.4414   23516690.2294   23516689.1904
       227.000         182.000
 130615297.66448 101778140.65148  24855274.1794   24855277.5364   24855274.2474
       214.000         165.000
 119125796.93448  92825288.93748  22668890.4604   22668891.9884   22668890.7154
       232.000         187.000
 130226288.41648 101475015.00948  24781249.0484   24781251.5514   24781250.1584
       217.000         156.000
 09  1 12  0 52  0.0000000  0 10G 9G 5G26G15G28G17G12G27G18G10
 120277766.89848  75930715.76148  20985170.3114   20985172.7474   20985170.8244
       245.000         214.000
 140029145.08248  91321396.90148  24743733.4434   24743738.9784   24743733.4904
       204.000         151.000
 110009274.99548  85721492.22048  20934086.4254   20934088.8284   20934086.4374
       248.000         220.000
 106853477.19748  83262446.55248  20333542.8154   20333544.2764   20333542.5644
       254.000         241.000
 123712004.89548  96398961.59248  23541613.0934   23541615.2224   23541613.0174
       227.000         179.000
 123707847.88148  96395711.04048  23540833.1744   23540834.8614   23540833.1564
       224.000         179.000
 123474101.96848  96213573.01848  23496351.1724   23496351.5504   23496351.4794
       226.000         181.000
 130686741.58248 101833811.22248  24868869.6524   24868872.9264   24868869.1264
       219.000         168.000
 119077984.55748  92788032.53248  22659792.2734   22659793.7544   22659791.8574
       232.000         187.000
 130337328.19248 101561539.49048  24802379.7994   24802382.1174   24802381.5794
       213.000         150.000
 09  1 12  0 52 30.0000000  0 10G 9G 5G26G15G28G17G12G27G18G10
 120218933.67448  75884871.70148  20973974.6154   20973977.1074   20973975.0274
       246.000         215.000
 139914555.88948  91232106.62348  24721927.7514   24721932.6594   24721927.9144
       211.000         153.000
 110068478.63948  85767624.92248  20945352.4814   20945354.9124   20945352.4294
       248.000         220.000
 106861185.27648  83268452.83648  20335009.7944   20335011.0444   20335009.6574
       254.000         241.000
 123796328.59148  96464668.36948  23557659.5714   23557661.2954   23557660.7824
       227.000         178.000
 123667147.67448  96363996.59648  23533088.2294   23533089.7384   23533087.5754
       223.000         178.000
 123367419.43548  96130443.79548  23476049.4204   23476050.9304   23476048.6514
       225.000         180.000
 130758187.79148 101889483.58748  24882465.4634   24882468.8504   24882465.6214
       216.000         165.000
 119030690.38848  92751179.92648  22650792.5684   22650793.8734   22650793.0214
       233.000         187.000
 130448337.42348 101648040.24048  24823502.1194   24823505.9054   24823504.2944
       207.000         146.000
 09  1 12  0 53  0.0000000  0 10G 9G 5G26G15G28G17G12G27G18G10
 120160392.83048  75839255.47048  20962834.8494   20962837.2084   20962835.2224
       246.000         216.000
 139800057.80048  91142887.31248  24700140.7814   24700143.9394   24700142.3024
       213.000         155.000
 110128059.89848  85814051.85848  20956690.4414   20956692.9654   20956690.2454
       248.000         220.000
 106869334.25948  83274802.69148  20336560.6074   20336561.6844   20336560.4584
       254.000         241.000
 123880881.17248  96530553.49348  23573748.9834   23573751.1344   23573749.6214
       227.000         178.000
 123626889.39648  96332626.51748  23525427.1844   23525428.9214   23525426.3384
       225.000         178.000
 123260937.99248  96047471.24848  23455786.3724   23455788.5584   23455786.4084
       225.000         180.000
 130829636.86448 101945158.16948  24896061.4724   24896065.3734   24896061.4624
       217.000         165.000
 118983916.40248  92714732.66548  22641891.8984   22641893.2194   22641892.8494
       232.000         187.000
 130559314.28448 101734515.69848  24844620.2574   24844623.6854   24844620.1804
       207.000         150.000
 09  1 12  0 53 30.0000000  0 10G 9G 5G26G15G28G17G12G27G18G10
 120102144.16748  75793866.91148  20951750.4464   20951752.8874   20951750.6694
       246.000         216.000
 139685652.37548  91053740.21348  24678371.1594   24678372.9564   24678371.3444
       215.000         153.000
 110188017.78448  85860772.28248  20968100.0364   20968102.5034   20968099.9104
       247.000         220.000
 106877924.48948  83281496.37048  20338195.3034   20338196.3924   20338195.1834
       254.000         241.000
 123965660.11248  96596614.98748  23589881.7014   23589884.0994   23589882.3674
       225.000         178.000
 123587074.66448  96301602.04548  23517850.9174   23517852.5424   23517850.7124
       223.000         179.000
 123154659.12748  95964656.56148  23435562.0024   23435564.8634   23435562.3144
       226.000         183.000
 130901088.30248 102000834.58948  24909658.2304   24909661.9764   24909658.2474
       214.000         164.000
 118937663.75848  92678691.65248  22633090.1384   22633091.8024   22633090.6334
       231.000         187.000
 130670255.53548 101820963.40548  24865733.1814   24865735.3374   24865732.9534
       215.000         161.000
 09  1 12  0 54  0.0000000  0 10G 9G 5G26G15G28G17G12G27G18G10
 120044188.10948  75748706.35548  20940721.8834   20940724.0654   20940722.2384
       246.000         216.000
 139571341.63248  90964666.87748  24656618.7684   24656619.7214   24656619.6484
       212.000         153.000
 110248351.62048  85907785.65548  20979581.2074   20979583.5984   20979581.3334
       248.000         219.000
 106886957.05748  83288534.72848  20339914.0444   20339915.2144   20339913.8174
       253.000         241.000
 124050663.10048  96662851.08248  23606057.7134   23606059.3254   23606057.9314
       228.000         177.000
 123547705.50848  96270924.78048  23510359.0174   23510360.3144   23510358.4784
       222.000         179.000
 123048585.03748  95882001.43048  23415377.0554   23415379.7594   23415376.6354
       226.000         182.000
 130972542.36848 102056513.07648  24923255.3164   24923259.3534   24923255.6204
       215.000         164.000
 118891934.18648  92643058.19948  22624387.9474   22624389.5094   22624388.3944
       232.000         188.000
 130781158.70748 101907381.43648  24886837.6424   24886840.6304   24886838.8704
       214.000         158.000
 09  1 12  0 54 30.0000000  0 10G 9G 5G26G15G28G17G12G27G18G10
 119986525.40248  75703774.37948  20929749.0084   20929751.1714   20929749.4844
       246.000         216.000
 139457127.39648  90875668.75548  24634883.1934   24634885.9724   24634882.7394
       209.000         152.000
 110309060.66348  85955091.39348  20991133.7094   20991136.1954   20991133.7194
       248.000         219.000
 106896432.15448  83295917.91248  20341717.0964   20341718.2644   20341716.8594
       254.000         241.000
 124135887.94548  96729260.06148  23622275.2994   23622276.9704   23622277.1544
       227.000         177.000
 123508784.19048  96240596.48648  23502952.7984   23502954.0584   23502952.3914
       225.000         180.000
 122942717.66848  95799507.37648  23395231.6214   23395233.5374   23395231.4674
       227.000         183.000
 131043998.61148 102112193.23948  24936853.3544   24936857.0334   24936853.6364
       218.000         166.000
 118846729.14248  92607833.48748  22615785.7104   22615787.4674   22615786.3224
       234.000         188.000
 130892021.44548 101993767.95348  24907933.4474   24907937.9504   24907933.3744
       205.000         143.000
 09  1 12  0 55  0.0000000  0 10G 9G 5G26G15G28G17G12G27G18G10
 119929156.12948  75659071.06548  20918831.7754   20918834.4854   20918832.2214
       246.000         216.000
 139343011.58348  90786747.34248  24613167.6904   24613171.0754   24613168.2224
       211.000         154.000
 110370144.45748  86002689.14448  21002757.6644   21002760.1024   21002757.6724
       248.000         219.000
 106906350.60948  83303646.57148  20343604.5114   20343605.7334   20343604.2604
       253.000         241.000
 124221332.35948  96795840.12448  23638535.1144   23638536.5114   23638536.0614
       225.000         176.000
 123470312.54948  96210618.57848  23495631.1854   23495633.2214   23495631.1974
       223.000         179.000
 122837059.36248  95717176.22748  23375125.4324   23375126.8594   23375125.1334
       228.000         183.000
 131115456.95748 102167875.07248  24950451.5054   24950454.7154   24950452.6204
       217.000         164.000
 118802050.20548  92573018.72448  22607284.0564   22607285.5454   22607284.8684
       234.000         189.000
 131002841.47648 102080121.25948  24929022.5014   24929024.8194   24929021.8134
       209.000         139.000
 09  1 12  0 55 30.0000000  0 10G 9G 5G26G15G28G17G12G27G18G10
 119872082.01048  75614597.73348  20907971.0224   20907973.4534   20907971.3384
       246.000         216.000
 139228997.27548  90697905.03248  24591472.2844   24591475.6774   24591472.0694
       215.000         159.000
 110431603.30848  86050579.15548  21014452.9244   21014455.2694   21014452.8614
       248.000         219.000
 106916713.95148  83311721.89448  20345576.5934   20345577.9054   20345576.3124
       253.000         240.000
 124306995.30748  96862590.46848  23654835.9324   23654837.5334   23654836.7384
       224.000         177.000
 123432293.94248  96180993.70548  23488396.7964   23488398.4104   23488396.5414
       225.000         181.000
 122731613.11048  95635010.31648  23355059.7324   23355060.7294   23355060.3014
       227.000         183.000
 131186918.67448 102223559.50648  24964050.4934   24964053.8224   24964050.8774
       215.000         164.000
 118757899.78448  92538615.79948  22598882.0694   22598883.7894   22598882.3744
       233.000         188.000
 131113617.12048 102166439.99948  24950102.7874   24950104.9234   24950103.5744
       220.000         156.000
 09  1 12  0 56  0.0000000  0 10G 9G 5G26G15G28G17G12G27G18G10
 119815301.29948  75570353.03148  20897166.0224   20897168.4404   20897166.0504
       246.000         217.000
 139115084.33548  90609141.71748  24569794.7414   24569799.1664   24569795.4034
       213.000         160.000
 110493434.51048  86098759.30748  21026218.9984   21026221.3044   21026218.9884
       248.000         219.000
 106927520.76648  83320142.78148  20347632.9184   20347634.3694   20347632.6434
       253.000         240.000
 124392872.25348  96929507.57448  23671177.9664   23671179.5204   23671177.6504
       226.000         177.000
 123394728.14348  96151721.66948  23481248.2604   23481250.1074   23481248.6244
       226.000         181.000
 122626379.17148  95553009.85448  23335034.0234   23335035.8624   23335033.5544
       227.000         185.000
 131258381.61148 102279244.90348  24977648.7594   24977651.7654   24977649.3094
       217.000         163.000
 118714277.08948  92504624.08348  22590580.8224   22590582.3634   22590581.3124
       232.000         187.000
 131224344.00148 102252720.68948  24971173.6494   24971175.6334   24971175.0514
       213.000         157.000
 09  1 12  0 56 30.0000000  0 10G 9G 5G26G15G28G17G12G27G18G10
 119758816.74248  75526339.10048  20886417.2614   20886419.6574   20886417.7414
       246.000         216.000
 139001276.51048  90520460.29548  24548137.3594   24548142.0804   24548138.2244
       211.000         159.000
 110555638.86448  86147230.22448  21038056.0264   21038058.6054   21038055.9884
       248.000         219.000
 106938774.04748  83328911.56548  20349774.3564   20349775.7624   20349774.2174
       253.000         240.000
 124478962.76748  96996591.07248  23687560.7284   23687562.3304   23687561.6144
       227.000         178.000
 123357618.95748  96122805.43548  23474186.5494   23474188.4944   23474186.1734
       229.000         182.000
 122521361.60048  95471177.99348  23315049.8704   23315051.7174   23315049.5994
       228.000         184.000
 131329847.50348 102334932.57948  24991248.8264   24991251.5344   24991248.1544
       214.000         163.000
 118671185.39348  92471046.13848  22582380.7764   22582382.1814   22582381.4284
       234.000         188.000
 131335021.68848 102338962.93048  24992233.5944   24992237.7774   24992233.7464
       204.000         150.000
 09  1 12  0 57  0.0000000  0 10G 9G 5G26G15G28G17G12G27G18G10
 119702628.06548  75482555.71848  20875725.0534   20875727.3364   20875725.4194
       247.000         217.000
 138887575.30948  90431861.96848  24526500.5844   24526504.9834   24526500.9704
       215.000         159.000
 110618215.65048  86195991.34648  21049963.8634   21049966.6644   21049963.5874
       247.000         218.000
 106950473.72648  83338028.19448  20352000.8124   20352002.1104   20352000.5664
       252.000         240.000
 124565264.26748  97063838.98948  23703983.2674   23703984.5924   23703984.0074
       226.000         174.000
 123320967.95648  96094246.21948  23467212.2554   23467214.0574   23467212.7644
       226.000         180.000
 122416561.72748  95389515.75848  23295106.9314   23295109.2614   23295107.0844
       227.000         185.000
 131401315.95848 102390622.26848  25004848.4104   25004851.9424   25004848.4994
       215.000         165.000
 118628625.88148  92437882.86848  22574282.1494   22574283.1664   22574282.5184
       233.000         188.000
 131445647.01448 102425164.45848  25013285.1554   25013289.2104   25013284.5554
       213.000         148.000
 09  1 12  0 57 30.0000000  0 10G 9G 5G26G15G28G17G12G27G18G10
 119646735.73048  75439003.25948  20865088.9994   20865091.2574   20865089.3194
       246.000         216.000
 138773982.70148  90343348.22648  24504885.4964   24504888.5964   24504887.5054
       214.000         159.000
 110681164.06848  86245042.05648  21061942.6114   21061945.1224   21061942.4174
       248.000         218.000
 106962620.01848  83347492.83248  20354312.0664   20354313.4274   20354311.6824
       253.000         240.000
 124651774.40448  97131249.49548  23720445.5744   23720446.7064   23720446.5044
       225.000         175.000
 123284777.23748  96066045.66148  23460324.9684   23460326.9384   23460324.4474
       224.000         179.000
 122311981.70848  95308024.84748  23275206.0074   23275208.2984   23275205.6514
       228.000         185.000
 131472787.09248 102446314.05248  25018449.2044   25018452.7254   25018448.4674
       218.000         163.000
 118586599.95048  92405135.36848  22566285.0444   22566286.0784   22566285.5614
       233.000         190.000
 131556217.38348 102511323.29348  25034325.8904   25034328.7064   25034326.5894
       215.000         148.000
 09  1 12  0 58  0.0000000  0 10G 9G 5G26G15G28G17G12G27G18G10
 119591139.96348  75395681.87948  20854509.4044   20854511.6614   20854509.4634
       245.000         216.000
 138660500.61948  90254920.65748  24483290.9644   24483294.0854   24483291.4614
       215.000         161.000
 110744483.44648  86294381.82548  21073991.9244   21073994.2784   21073991.8094
       247.000         218.000
 106975214.05348  83357306.35848  20356708.7124   20356709.9884   20356708.5344
       253.000         240.000
 124738491.06048  97198820.91748  23736947.1944   23736948.4874   23736946.9794
       225.000         174.000
 123249048.87248  96038205.38048  23453526.0164   23453527.9144   23453525.6044
       226.000         180.000
 122207623.64948  95226706.88848  23255347.6504   23255349.5504   23255347.7174
       229.000         186.000
 131544260.81348 102502007.84748  25032051.1454   25032053.8984   25032051.2154
       218.000         165.000
 118545108.85048  92372804.63948  22558389.2734   22558390.8264   22558390.2364
       233.000         190.000
 131666730.81448 102597437.67348  25055356.1514   25055359.6864   25055356.9754
       207.000         147.000
 09  1 12  0 58 30.0000000  0 10G 9G 5G26G15G28G17G12G27G18G10
 119535841.94648  75352592.52748  20843986.4314   20843989.0224   20843986.2144
       246.000         217.000
 138547131.44348  90166581.07648  24461717.8634   24461721.1484   24461718.3364
       214.000         163.000
 110808173.44948  86344010.39448  21086111.5874   21086114.1514   21086111.4674
       247.000         218.000
 106988256.52248  83367469.31248  20359190.6314   20359191.9244   20359190.2554
       253.000         240.000
 124825412.11248  97266551.59948  23753487.4394   23753489.4344   23753487.7914
       225.000         176.000
 123213784.90348  96010726.95848  23446815.4374   23446817.4074   23446815.4594
       225.000         179.000
 122103490.22348  95145563.97648  23235531.8164   23235533.5064   23235531.4654
       229.000         186.000
 131615737.55548 102557703.96748  25045651.5624   25045655.8654   25045652.0474
       215.000         162.000
 118504154.27648  92340891.97648  22550596.0234   22550597.4424   22550596.1874
       234.000         192.000
 131777185.18648 102683505.93948  25076374.1944   25076378.4734   25076375.5134
       207.000         148.000
 09  1 12  0 59  0.0000000  0 10G 9G 5G26G15G28G17G12G27G18G10
 119480841.79948  75309735.28048  20833520.3724   20833522.7844   20833520.3604
       247.000         217.000
 138433876.79948  90078330.72548  24440164.9894   24440169.4304   24440164.9094
       214.000         162.000
 110872233.12748  86393927.01648  21098301.7514   21098304.4204   21098301.6144
       247.000         217.000
 107001747.66748  83377981.88948  20361757.9914   20361759.2784   20361757.7124
       253.000         240.000
 124912535.36948  97334439.83248  23770066.4364   23770068.3924   23770067.6374
       227.000         175.000
 123178987.02748  95983611.72548  23440193.9454   23440195.7874   23440193.2814
       226.000         180.000
 121999583.09448  95064597.39848  23215758.9164   23215760.3784   23215759.7354
       229.000         184.000
 131687217.03148 102613402.28848  25059253.7674   25059257.2854   25059253.8074
       214.000         164.000
 118463737.56848  92309398.43648  22542905.4274   22542906.4894   22542905.8814
       235.000         191.000
 131887577.34648 102769525.79548  25097381.6354   25097384.2824   25097382.5884
       213.000         151.000
 09  1 12  0 59 30.0000000  0 10G 9G 5G26G15G28G17G12G27G18G10
 119426139.46448  75267110.09348  20823110.8684   20823113.3284   20823111.1154
       246.000         217.000
 138320738.19048  89990170.76648  24418635.3714   24418639.9164   24418635.5254
       215.000         161.000
 110936661.17948  86444130.68848  21110562.0554   21110564.6554   21110562.0044
       246.000         217.000
 107015687.75748  83388844.29248  20364410.7194   20364412.0694   20364410.6134
       253.000         240.000
 124999858.28448  97402483.67848  23786683.7214   23786685.3554   23786684.8924
       223.000         171.000
 123144656.72448  95956860.82748  23433661.0424   23433662.9444   23433660.9134
       225.000         181.000
 121895904.05548  94983808.54048  23196029.2154   23196030.2844   23196028.6524
       228.000         184.000
 131758698.95648 102669102.44148  25072856.4644   25072860.7114   25072856.1894
       217.000         164.000
 118423860.06448  92278325.05548  22535316.6854   22535317.9554   22535317.4124
       234.000         192.000
 131997904.77848 102855495.22848  25118376.4764   25118378.8144   25118377.7394
       213.000         148.000
 09  1 12  1  0  0.0000000  0 10G 9G 5G26G15G28G17G12G27G18G10
 119371736.09748  75224717.86848  20812758.2944   20812760.6864   20812758.1314
       247.000         217.000
 138207718.45648  89902103.43348  24397128.8714   24397132.7994   24397129.9254
       217.000         162.000
 111001457.89248  86494621.62848  21122892.4014   21122895.0704   21122892.1714
       247.000         217.000
 107030078.24348  83400057.65248  20367149.1004   20367150.4584   20367149.0454
       253.000         240.000
 125087379.21648  97470681.80248  23803338.1314   23803339.7254   23803337.4564
       224.000         168.000
 123110796.84248  95930476.52748  23427217.6044   23427219.6584   23427217.4674
       226.000         182.000
 121792456.20948  94903199.84048  23176343.3294   23176345.1064   23176343.2254
       228.000         185.000
 131830184.02948 102724805.09348  25086459.7594   25086462.9014   25086458.9974
       219.000         165.000
 118384523.03748  92247672.81948  22527830.8644   22527832.4944   22527831.2474
       234.000         192.000
 132108165.85948 102941412.95948  25139358.1784   25139360.3934   25139359.2034
       206.000         143.000
 09  1 12  1  0 30.0000000  0 10G 9G 5G26G15G28G17G12G27G18G10
 119317631.36248  75182558.34248  20802462.2514   20802464.8604   20802462.6844
       246.000         217.000
 138094819.03548  89814129.87948  24375645.4244   24375648.8204   24375645.6604
       215.000         163.000
 111066621.89048  86545398.75848  21135292.9904   21135295.4124   21135292.9414
       247.000         217.000
 107044919.25948  83411622.07548  20369973.2594   20369974.6064   20369973.0744
       252.000         239.000
 125175095.51848  97539032.17648  23820030.1864   23820031.2094   23820030.7224
       223.000         166.000
 123077408.87448  95904459.92648  23420864.3054   23420866.2114   23420863.9014
       227.000         184.000
 121689240.87448  94822772.32948  23156701.7984   23156704.0994   23156701.5584
       227.000         186.000
 131901671.87148 102780509.89048  25100063.3644   25100067.3354   25100063.7214
       217.000         164.000
 118345727.41548  92217442.47448  22520447.9784   22520450.1534   22520448.4504
       235.000         193.000
 132218357.89348 103027276.86948  25160326.6334   25160329.7354   25160328.3774
       207.000         145.000
 09  1 12  1  1  0.0000000  0 10G 9G 5G26G15G28G17G12G27G18G10
 119263826.68248  75140632.62248  20792223.7474   20792226.2004   20792223.5604
       247.000         217.000
 137982042.01648  89726251.73948  24354184.2094   24354187.9364   24354184.9574
       218.000         162.000
 111132152.82148  86596461.81348  21147763.0384   21147765.5304   21147763.0594
       246.000         217.000
 107060211.31648  83423537.95448  20372883.1914   20372884.6084   20372882.9124
       252.000         239.000
 125263005.26848  97607533.30048  23836758.9304   23836759.7074   23836759.3904
       226.000         168.000
 123044494.63448  95878812.47848  23414601.0264   23414602.9224   23414600.2704
       227.000         184.000
 121586260.28048  94742527.73848  23137104.9914   23137108.0884   23137104.2454
       228.000         187.000
 131973162.42748 102836216.82148  25113667.4704   25113671.0004   25113667.2924
       216.000         163.000
 118307474.83648  92187635.27048  22513169.2014   22513170.8044   22513169.6694
       236.000         194.000
 132328479.12648 103113085.60348  25181281.4204   25181285.3574   25181281.8324
       208.000         147.000
 09  1 12  1  1 30.0000000  0 10G 9G 5G26G15G28G17G12G27G18G10
 119210321.49748  75098940.28348  20782042.0624   20782044.3444   20782042.0684
       248.000         218.000
 137869388.48048  89638469.79848  24332747.0864   24332750.5844   24332748.6254
       217.000         161.000
 111198048.76148  86647809.28948  21160302.6724   21160305.0614   21160302.5504
       247.000         217.000
 107075954.07048  83435805.03148  20375878.9534   20375880.3504   20375878.6684
       252.000         239.000
 125351105.52148  97676182.83348  23853524.3064   23853525.0984   23853525.5144
       226.000         171.000
 123012055.46948  95853535.20648  23408428.3614   23408429.9194   23408427.5374
       228.000         184.000
 121483515.76348  94662467.07248  23117553.8584   23117556.1034   23117553.8164
       229.000         186.000
 132044655.26048 102891925.47748  25127272.6284   25127275.2294   25127272.9994
       219.000         161.000
 118269765.69648  92158251.51648  22505993.7564   22505995.0264   22505994.2014
       236.000         194.000
 132438525.55348 103198836.06348  25202222.8974   25202226.2024   25202222.6494
       207.000         148.000
 09  1 12  1  2  0.0000000  0 10G 9G 5G26G15G28G17G12G27G18G10
 119157116.27848  75057481.67348  20771917.7734   20771920.1074   20771917.9594
       248.000         219.000
 137756860.46148  89550785.62048  24311333.4134   24311337.3554   24311333.8284
       217.000         163.000
 111264309.19148  86699440.77848  21172911.5774   21172913.9874   21172911.3254
       248.000         216.000
 107092148.40848  83448423.97948  20378960.6384   20378962.0424   20378960.5714
       252.000         239.000
 125439393.82548  97744978.90448  23870324.9634   23870325.9574   23870325.6714
       223.000         171.000
 122980092.85048  95828629.27548  23402346.0344   23402347.9444   23402345.6554
       226.000         184.000
 121381009.33848  94582591.95148  23098047.6624   23098049.3874   23098047.9124
       227.000         184.000
 132116150.43748 102947635.97048  25140877.3204   25140880.7824   25140877.9714
       217.000         164.000
 118232601.44148  92129292.34848  22498921.4864   22498922.8324   22498921.8104
       238.000         194.000
 132548494.95348 103284526.49748  25223149.1264   25223152.0614   25223149.9234
       206.000         142.000
 09  1 12  1  2 30.0000000  0 10G 9G 5G26G15G28G17G12G27G18G10
 119104212.44848  75016257.91948  20761850.1704   20761852.9484   20761850.4444
       248.000         219.000
 137644461.06248  89463201.68048  24289944.6594   24289948.2964   24289945.4654
       218.000         167.000
 111330934.47148  86751356.57048  21185590.0354   21185592.3644   21185589.9694
       247.000         216.000
 107108795.82048  83461395.97748  20382128.5304   20382129.9544   20382128.2674
       252.000         239.000
 125527869.13948  97813920.69548  23887161.0174   23887162.1164   23887161.4804
       224.000         170.000
 122948609.97748  95804097.17648  23396354.9174   23396356.4394   23396354.8354
       227.000         183.000
 121278744.64948  94502905.19648  23078587.1954   23078588.7214   23078586.8764
       227.000         186.000
 132187649.12148 103003349.25448  25154482.5574   25154486.3024   25154482.1854
       215.000         162.000
 118195984.09248  92100759.34048  22491953.3704   22491954.7564   22491953.5544
       237.000         195.000
 132658386.27448 103370156.10048  25244062.1244   25244064.2894   25244062.5624
       203.000         140.000
 09  1 12  1  3  0.0000000  0 10G 9G 5G26G15G28G17G12G27G18G10
 119051610.30448  74975269.23348  20751840.4084   20751842.8434   20751840.7944
       247.000         219.000
 137532191.89248  89375719.20248  24268580.8204   24268584.0874   24268581.5754
       219.000         168.000
 111397923.45748  86803555.77048  21198337.6074   21198340.1284   21198337.5804
       247.000         217.000
 107125896.34748  83474721.05348  20385382.6924   20385384.0154   20385382.4244
       252.000         239.000
 125616529.14748  97883006.41048  23904032.3414   23904033.4814   23904032.9474
       223.000         166.000
 122917608.09148  95779939.87348  23390454.8674   23390457.2054   23390454.9464
       227.000         184.000
 121176722.83648  94423407.70648  23059173.0374   23059175.0014   23059172.6564
       226.000         187.000
 132259150.75348 103059064.78848  25168089.5044   25168092.9914   25168089.1344
       216.000         163.000
 118159914.49948  92072653.15848  22485089.8314   22485090.7924   22485090.7734
       238.000         194.000
 132768196.75648 103455722.69248  25264957.7544   25264959.8914   25264958.4694
       205.000         142.000
 09  1 12  1  3 30.0000000  0 10G 9G 5G26G15G28G17G12G27G18G10
 118999310.09748  74934515.84048  20741887.8554   20741890.4964   20741887.9934
       248.000         219.000
 137420054.46948  89288339.43148  24247241.4304   24247245.0614   24247241.7724
       216.000         166.000
 111465275.13648  86856037.58248  21211154.1354   21211156.8104   21211154.0554
       247.000         216.000
 107143450.10048  83488399.29248  20388723.0084   20388724.3594   20388722.7354
       252.000         239.000
 125705371.04048  97952233.85448  23920938.4254   23920938.9054   23920939.6234
       223.000         162.000
 122887088.95548  95756158.71248  23384647.5494   23384649.8784   23384647.6764
       229.000         183.000
 121074945.88048  94344101.02048  23039805.5144   23039807.6314   23039804.8934
       227.000         189.000
 132330655.28848 103114782.57748  25181696.6264   25181699.2604   25181695.8744
       216.000         163.000
 118124393.98348  92044974.81648  22478330.5294   22478331.7224   22478330.8014
       238.000         195.000
 132877924.08048 103541224.46148  25285838.6034   25285842.0154   25285839.0854
       209.000         147.000
 09  1 12  1  4  0.0000000  0 10G 9G 5G26G15G28G17G12G27G18G10
 118947312.22748  74893998.01848  20731993.2404   20731995.4494   20731993.4274
       248.000         220.000
 137308050.91248  89201063.94348  24225927.8854   24225931.4804   24225928.2234
       216.000         166.000
 111532988.78248  86908801.46048  21224039.7294   21224042.1054   21224039.7704
       246.000         216.000
 107161457.48248  83502431.00748  20392149.8404   20392151.1434   20392149.6324
       252.000         238.000
 125794393.18148  98021601.77548  23937878.5754   23937879.4004   23937880.5214
       223.000         162.000
 122857054.15648  95732754.99148  23378932.2804   23378933.9914   23378932.2724
       228.000         183.000
 120973415.93148  94264986.79848  23020485.1364   23020487.4594   23020484.6724
       229.000         189.000
 132402162.90148 103170502.77948  25195303.6454   25195307.9554   25195303.7064
       218.000         163.000
 118089423.40248  92017725.01248  22471675.9194   22471676.6434   22471677.2424
       236.000         194.000
 132987565.70448 103626659.49048  25306701.8154   25306705.4604   25306702.1644
       203.000         144.000
 09  1 12  1  4 30.0000000  0 10G 9G 5G26G15G28G17G12G27G18G10
 118895616.92248  74853715.96648  20722155.8644   20722158.3084   20722155.6764
       247.000         220.000
 137196183.03948  89113894.16148  24204640.0154   24204643.8754   24204640.7864
       215.000         163.000
 111601063.30748  86961846.53148  21236993.8724   21236996.3854   21236993.7414
       246.000         216.000
 107179919.40948  83516816.92148  20395662.8834   20395664.2914   20395662.6474
       252.000         238.000
 125883592.95748  98091108.10548  23954852.9504   23954853.4674   23954853.4444
       220.000         162.000
 122827505.36848  95709729.95248  23373309.3524   23373311.3284   23373309.0004
       230.000         184.000
 120872134.83248  94186066.47448  23001212.9444   23001214.5114   23001213.3684
       230.000         190.000
 132473673.31948 103226225.18348  25208912.0184   25208915.2614   25208912.3394
       217.000         162.000
 118055004.03648  91990904.70948  22465125.8924   22465127.2314   22465125.9934
       237.000         195.000
 133097118.87648 103712025.57248  25327548.7744   25327553.9924   25327549.0784
       204.000         142.000
 09  1 12  1  5  0.0000000  0 10G 9G 5G26G15G28G17G12G27G18G10
 118844225.19848  74813670.46948  20712376.2484   20712378.6954   20712376.0124
       248.000         220.000
 137084453.41448  89026832.12748  24183377.8104   24183382.3194   24183378.0454
       215.000         163.000
 111669498.67948  87015172.78548  21250016.5884   21250019.1704   21250016.4974
       246.000         215.000
 107198836.82748  83531557.75848  20399262.7814   20399264.1934   20399262.5714
       252.000         238.000
 125972968.74148  98160751.58548  23971860.3474   23971861.0194   23971859.5824
       219.000         164.000
 122798445.07348  95687085.56748  23367779.4734   23367781.0184   23367779.5454
       230.000         184.000
 120771105.57148  94107342.39748  22981987.4184   22981989.3294   22981987.2704
       230.000         190.000
 132545187.55848 103281950.52548  25222520.8834   25222523.5164   25222521.9134
       215.000         157.000
 118021137.89048  91964515.49548  22458681.6374   22458682.7304   22458682.7654
       237.000         195.000
 133206582.50548 103797321.89748  25348378.9444   25348382.6124   25348379.8544
       205.000         140.000
 09  1 12  1  5 30.0000000  0 10G 9G 5G26G15G28G17G12G27G18G10
 118793137.17048  74773861.63248  20702654.6894   20702657.0404   20702655.1924
       248.000         220.000
 136972863.60048  88939879.02348  24162143.5514   24162147.0634   24162144.5614
       219.000         167.000
 111738293.66748  87068779.26148  21263107.9434   21263110.2704   21263107.7934
       245.000         215.000
 107218209.34748  83546653.22048  20402949.2374   20402950.6844   20402948.9724
       252.000         238.000
 126062518.24048  98230530.39348  23988901.3194   23988902.2974   23988901.5484
       221.000         164.000
 122769874.50548  95664822.80048  23362342.3244   23362344.0364   23362342.3004
       230.000         185.000
 120670329.56848  94028815.65148  22962810.2654   22962812.4254   22962810.1294
       231.000         191.000
 132616705.01048 103337678.40248  25236130.1654   25236134.4734   25236130.9814
       217.000         161.000
 117987825.10448  91938557.49148  22452342.1324   22452343.7034   22452342.8704
       235.000         194.000
 133315953.69348 103882546.18948  25369191.9344   25369195.9834   25369191.9974
       205.000         138.000
 09  1 12  1  6  0.0000000  0 10G 9G 5G26G15G28G17G12G27G18G10
 118742353.05848  74734289.60148  20692990.6944   20692992.9504   20692991.0644
       248.000         220.000
 136861415.04948  88853036.01948  24140936.4484   24140939.1414   24140937.4004
       219.000         169.000
 111807446.94248  87122664.92448  21276267.3044   21276269.7534   21276267.0614
       247.000         216.000
 107238037.19948  83562103.49148  20406722.3314   20406723.7754   20406721.9704
       251.000         238.000
 126152238.63948  98300442.39148  24005974.5984   24005975.5914   24005975.9574
       219.000         163.000
 122741794.86748  95642942.55548  23356999.5134   23357000.7474   23356999.5134
       232.000         186.000
 120569808.45848  93950487.53848  22943681.4084   22943683.6884   22943681.1314
       228.000         191.000
 132688225.14148 103393408.38748  25249739.9914   25249743.0924   25249740.6654
       212.000         156.000
 117955066.39848  91913031.19948  22446108.2944   22446109.8014   22446108.5554
       235.000         193.000
 133425229.43548 103967696.12248  25389987.6404   25389989.2254   25389988.2134
       206.000         139.000
 09  1 12  1  6 30.0000000  0 10G 9G 5G26G15G28G17G12G27G18G10
 118691873.57848  74694954.94648  20683384.6404   20683387.2694   20683384.5864
       248.000         221.000
 136750110.07848  88766304.87848  24119755.7874   24119758.4734   24119756.4924
       220.000         170.000
 111876958.09748  87176829.44848  21289495.0944   21289497.3234   21289495.2404
       246.000         215.000
 107258320.97748  83577909.01848  20410582.3334   20410583.7134   20410582.0754
       252.000         238.000
 126242128.17248  98370486.16648  24023080.1504   24023081.0554   24023081.1604
       218.000         163.000
 122714208.30348  95621446.54748  23351749.5974   23351751.0954   23351749.7574
       230.000         185.000
 120469544.59448  93872359.86248  22924601.7664   22924604.0324   22924601.1654
       230.000         191.000
 132759748.80948 103449141.07048  25263349.8864   25263353.3604   25263348.9684
       215.000         157.000
 117922863.21348  91887937.80948  22439980.1674   22439981.7174   22439980.8294
       236.000         193.000
 133534407.75748 104052770.15148  25410764.0124   25410765.9954   25410765.8634
       207.000         138.000
 09  1 12  1  7  0.0000000  0 10G 9G 5G26G15G28G17G12G27G18G10
 118641699.48348  74655858.25548  20673836.9564   20673839.1454   20673837.1564
       247.000         220.000
 136638950.92448  88679687.34948  24098603.0314   24098606.0744   24098603.3194
       221.000         171.000
 111946826.51948  87231272.37048  21302790.4224   21302792.9144   21302790.5184
       246.000         215.000
 107279061.66848  83594070.58748  20414529.1534   20414530.4854   20414528.9624
       253.000         237.000
 126332185.27048  98440660.51148  24040217.0544   24040218.9174   24040217.9644
       219.000         163.000
 122687116.53948  95600336.08048  23346594.1524   23346595.7334   23346594.0844
       230.000         186.000
 120369540.16748  93794434.35148  22905571.7414   22905573.5664   22905572.1214
       229.000         191.000
 132831276.28748 103504876.75148  25276961.6954   25276964.6024   25276961.7784
       212.000         159.000
 117891216.83748  91863278.28548  22433958.1744   22433959.4084   22433958.7914
       237.000         193.000
 133643486.71048 104137766.71848  25431520.9204   25431523.6104   25431522.1834
       208.000         142.000
 09  1 12  1  7 30.0000000  0 10G 9G 5G26G15G28G17G12G27G18G10
 118591830.75848  74616999.51648  20664347.1434   20664349.7964   20664347.2424
       249.000         221.000
 136527938.88448  88593184.47648  24077477.9124   24077481.2574   24077478.7314
       219.000         170.000
 112017050.83548  87285992.60148  21316153.8334   21316156.3094   21316153.7754
       247.000         215.000
 107300258.41248  83610587.52448  20418562.6154   20418564.0774   20418562.3884
       253.000         237.000
 126422406.86748  98510963.05848  24057386.0844   24057387.6644   24057388.1754
       218.000         161.000
 122660520.80848  95579612.14148  23341532.9934   23341534.8024   23341533.1994
       228.000         186.000
 120269796.96448  93716712.40348  22886591.0814   22886593.2244   22886591.2414
       229.000         191.000
 132902807.01548 103560614.93148  25290573.7094   25290576.2064   25290573.5814
       213.000         154.000
 117860127.77148  91839053.02648  22428042.2254   22428043.1254   22428043.2904
       236.000         192.000
 133752463.62048 104222683.74348  25452257.9254   25452260.3804   25452259.6734
       206.000         140.000
 09  1 12  1  8  0.0000000  0 10G 9G 5G26G15G28G17G12G27G18G10
 118542268.36648  74578379.47248  20654915.7614   20654918.0034   20654916.3214
       248.000         220.000
 136417076.53948  88506798.23948  24056380.5564   24056384.9344   24056380.8214
       218.000         170.000
 112087630.60848  87340989.82048  21329584.7154   21329587.1504   21329584.6844
       245.000         215.000
 107321912.96748  83627461.19048  20422683.4614   20422684.8554   20422683.2084
       253.000         237.000
 126512791.55148  98581392.69548  24074585.3894   24074587.5044   24074585.3354
       215.000         161.000
 122634423.45348  95559276.55448  23336566.8034   23336568.6454   23336566.4134
       229.000         186.000
 120170317.44148  93639195.92648  22867660.4104   22867663.0164   22867659.9174
       230.000         193.000
 132974341.67948 103616356.22148  25304186.2004   25304188.5474   25304185.6624
       216.000         157.000
 117829597.67848  91815263.33448  22422232.4194   22422233.7794   22422232.8614
       235.000         192.000
 133861336.83948 104307520.01148  25472975.5954   25472977.1124   25472976.1404
       203.000         142.000
 09  1 12  1  8 30.0000000  0 10G 9G 5G26G15G28G17G12G27G18G10
 118493013.43048  74539999.00648  20645542.9984   20645545.1724   20645543.3964
       248.000         221.000
 136306366.61248  88420530.74648  24035313.0054   24035317.4484   24035313.3414
       220.000         170.000
 112158565.98348  87396264.13448  21343083.1144   21343085.4394   21343082.9744
       246.000         214.000
 107344026.19348  83644692.26748  20426891.4654   20426892.8654   20426891.2734
       253.000         237.000
 126603337.90048  98651948.24348  24091815.4514   24091817.7354   24091816.2784
       212.000         156.000
 122608826.74048  95539331.06448  23331696.3044   23331697.7744   23331696.0084
       230.000         187.000
 120071104.30048  93561886.99148  22848780.9434   22848783.3784   22848780.4564
       229.000         192.000
 133045881.24148 103672101.34448  25317799.6414   25317802.8954   25317799.3464
       214.000         156.000
 117799628.33848  91791910.58948  22416529.4994   22416530.8984   22416530.2064
       235.000         193.000
 133970104.90348 104392274.34448  25493672.8534   25493675.9124   25493672.3234
       200.000         138.000
 09  1 12  1  9  0.0000000  0 10G 9G 5G26G15G28G17G12G27G18G10
 118444065.01148  74501857.38848  20636228.2584   20636230.5624   20636228.6884
       248.000         221.000
 136195809.39948  88334382.26448  24014275.2624   24014279.2914   24014275.7574
       219.000         171.000
 112229854.58748  87451813.68848  21356649.1484   21356651.4624   21356649.2424
       246.000         215.000
 107366596.90148  83662279.81848  20431186.5274   20431187.8994   20431186.2854
       252.000         237.000
 126694042.28048  98722626.98448  24109076.1014   24109078.1314   24109077.9274
       216.000         157.000
 122583730.54948  95519775.59248  23326920.5154   23326922.1644   23326920.8954
       232.000         188.000
 119972158.05748  93484786.03748  22829952.0994   22829954.4954   22829952.2884
       231.000         193.000
 133117424.33948 103727849.22148  25331413.3824   25331418.0634   25331412.9924
       208.000         152.000
 117770219.10948  91768994.30548  22410933.1604   22410934.3454   22410933.2564
       235.000         194.000
 134078764.07548 104476943.85048  25514348.9694   25514353.1844   25514349.1394
       197.000         136.000
 09  1 12  1  9 30.0000000  0 11G 9G 5G26G15G28G17G12G27G22G18G10
 118395422.86648  74463954.42148  20626972.0484   20626974.3974   20626972.0824
       248.000         221.000
 136085406.16848  88248353.80048  23993265.8994   23993270.2834   23993266.1684
       221.000         171.000
 112301494.58348  87507637.05748  21370281.4484   21370284.1774   21370281.5014
       245.000         214.000
 107389624.59248  83680223.46748  20435568.4344   20435569.9734   20435568.1834
       252.000         237.000
 126784901.93548  98793426.70248  24126365.6264   24126368.0774   24126368.0284
       212.000         157.000
 122559135.90748  95500610.94948  23322240.1284   23322241.9484   23322239.8154
       232.000         188.000
 119873479.96748  93407894.03148  22811174.3574   22811176.5914   22811174.8474
       230.000         192.000
 133188970.12948 103783599.12248  25345029.2144   25345031.3474   25345028.1144
       212.000         153.000
 138189625.11958  89888023.50558  24393671.7865   24393670.6295   24393673.0905
       222.000         160.000
 117741370.16148  91746514.60048  22405443.0854   22405444.4844   22405444.1564
       235.000         193.000
 134187311.11248 104561525.93248  25535004.1454   25535009.6464   25535007.6474
       199.000         135.000
 09  1 12  1 10  0.0000000  0 11G 9G 5G26G15G28G17G12G27G22G18G10
 118347088.32448  74426291.14748  20617774.2394   20617776.7784   20617774.4884
       249.000         222.000
 135975159.70648  88162447.48748  23972286.7234   23972290.5684   23972288.0104
       223.000         171.000
 112373486.02948  87563734.27548  21383981.0334   21383983.8064   21383980.9014
       245.000         214.000
 107413110.69248  83698524.32148  20440037.6774   20440039.1954   20440037.4164
       253.000         236.000
 126875915.59848  98864346.46548  24143685.1874   24143687.1264   24143684.9674
       213.000         157.000
 122535045.04248  95481838.85848  23317656.0584   23317657.3794   23317655.4834
       233.000         189.000
 119775072.78848  93331213.12248  22792447.8404   22792449.9424   22792447.3384
       229.000         192.000
 133260519.64948 103839351.97148  25358644.4134   25358647.5374   25358644.3614
       213.000         156.000
 138116555.61448  89831086.18448  24379766.8944   24379766.6824   24379766.9654
       218.000         168.000
 117713083.20448  91724472.81848  22400060.2564   22400062.0214   22400060.6134
       235.000         194.000
 134295744.57448 104646019.50648  25555640.8704   25555643.0204   25555641.6154
       200.000         135.000
 09  1 12  1 10 30.0000000  0 11G 9G 5G26G15G28G17G12G27G22G18G10
 118299062.74348  74388868.62048  20608635.1704   20608637.7334   20608635.1994
       249.000         222.000
 135865072.67448  88076665.38948  23951338.4134   23951341.8064   23951339.7754
       222.000         172.000
 112445828.63048  87620105.12948  21397747.3224   21397749.8284   21397747.1724
       245.000         214.000
 107437055.64448  83717182.72148  20444594.3554   20444595.7204   20444594.1384
       252.000         236.000
 126967081.85148  98935385.07148  24161033.4614   24161035.8434   24161033.9554
       213.000         156.000
 122511460.14548  95463461.01948  23313168.2324   23313169.4464   23313168.3084
       233.000         188.000
 119676939.30048  93254745.48348  22773773.5494   22773776.1754   22773773.6764
       231.000         193.000
 133332073.52948 103895108.22648  25372260.8384   25372263.3034   25372260.9144
       216.000         157.000
 138043868.69448  89774447.08648  24365934.2604   24365934.9794   24365932.9164
       212.000         164.000
 117685360.16348  91702870.45048  22394784.8594   22394786.4584   22394785.2094
       237.000         195.000
 134404062.78048 104730423.31248  25576252.8944   25576254.7254   25576252.1494
       203.000         138.000
 09  1 12  1 11  0.0000000  0 10G 9G 5G26G15G28G17G12G27G22G18
 118251346.07048  74351686.80248  20599555.3054   20599557.7014   20599555.5034
       249.000         223.000
 135755146.78048  87991008.87348  23930420.0244   23930423.6534   23930420.4804
       220.000         172.000
 112518521.53548  87676748.93848  21411580.2974   21411582.9774   21411580.2294
       245.000         213.000
 107461459.99248  83736199.09048  20449238.3204   20449239.8254   20449238.0434
       252.000         236.000
 127058398.21148  99006540.68648  24178410.9554   24178412.7144   24178409.5544
       213.000         156.000
 122488382.69948  95445478.60448  23308776.4834   23308777.9364   23308776.2084
       231.000         188.000
 119579081.19148  93178492.43148  22755151.9284   22755154.3054   22755152.2944
       231.000         194.000
 133403631.92048 103950868.02948  25385877.3154   25385880.7534   25385877.5874
       212.000         155.000
 137971566.68748  89718107.82248  24352175.6794   24352177.1174   24352175.3574
       221.000         166.000
 117658201.40648  91681707.77448  22389617.0874   22389618.3794   22389617.7564
       237.000         195.000
 09  1 12  1 11 30.0000000  0 10G 9G 5G26G15G28G17G12G27G22G18
 118203939.27748  74314746.45148  20590533.8674   20590536.4634   20590534.1654
       248.000         222.000
 135645384.35548  87905479.73448  23909532.9754   23909536.3914   23909533.1034
       222.000         173.000
 112591564.09048  87733665.20648  21425480.0134   21425482.5874   21425479.9664
       245.000         213.000
 107486324.48148  83755574.00648  20453969.9384   20453971.4924   20453969.7194
       253.000         236.000
 127149863.37348  99077812.22748  24195816.1124   24195817.8564   24195816.6694
       213.000         155.000
 122465814.55548  95427893.05248  23304481.5994   23304483.1804   23304480.8834
       230.000         188.000
 119481501.13848  93102456.05548  22736583.0504   22736585.1704   22736583.0544
       231.000         193.000
 133475195.44848 104006631.78648  25399495.4844   25399498.2424   25399495.4064
       212.000         155.000
 137899652.24148  89662070.55648  24338491.3404   24338491.2004   24338491.0484
       217.000         165.000
 117631608.12848  91660985.74248  22384556.3444   22384557.5724   22384556.9334
       238.000         194.000
 09  1 12  1 12  0.0000000  0 10G 9G 5G26G15G28G17G12G27G22G18
 118156841.60848  74278046.98248  20581571.4064   20581573.9644   20581571.7994
       248.000         222.000
 135535786.19248  87820078.60048  23888676.9694   23888680.8324   23888677.7874
       221.000         174.000
 112664954.33248  87790852.40448  21439445.7134   21439448.2854   21439445.7914
       245.000         213.000
 107511648.17448  83775306.75148  20458788.8064   20458790.4394   20458788.6544
       253.000         236.000
 127241473.77748  99149196.93848  24213249.2754   24213250.9464   24213251.4394
       212.000         153.000
 122443756.18048  95410704.70648  23300283.9094   23300286.0474   23300283.0124
       231.000         188.000
 119384199.88448  93026636.90248  22718067.4964   22718068.7444   22718067.5174
       232.000         194.000
 133546763.04448 104062398.72748  25413113.7884   25413118.2684   25413113.9834
       207.000         152.000
 137828126.41748  89606336.17548  24324880.5004   24324880.8214   24324880.6554
       217.000         167.000
 117605580.27048  91640704.27748  22379603.3914   22379604.5414   22379603.4664
       236.000         193.000
 09  1 12  1 12 30.0000000  0 10G 9G 5G26G15G28G17G12G27G22G18
 118110054.07748  74241589.16948  20572667.9604   20572670.6464   20572668.1704
       248.000         222.000
 135426354.75348  87734807.36348  23867852.7944   23867856.7454   23867852.6284
       223.000         176.000
 112738691.88248  87848310.22648  21453477.4944   21453479.9524   21453477.4334
       244.000         213.000
 107537431.89748  83795397.96248  20463695.3324   20463696.8494   20463695.0714
       253.000         236.000
 127333227.99448  99220693.73548  24230709.3744   24230710.8884   24230708.6634
       211.000         156.000
 122422209.32848  95393914.94348  23296184.1964   23296185.2874   23296184.0294
       234.000         190.000
 119287179.85948  92951036.89248  22699605.3104   22699606.2914   22699604.9254
       232.000         194.000
 133618335.17048 104118169.25148  25426734.1704   25426736.8964   25426734.4184
       209.000         148.000
 137756992.27148  89550907.00348  24311344.0734   24311344.6014   24311343.7334
       220.000         173.000
 117580119.19048  91620864.47348  22374758.1364   22374759.4304   22374758.8704
       237.000         194.000
 09  1 12  1 13  0.0000000  0 10G 9G 5G26G15G28G17G12G27G22G18
 118063576.90648  74205373.20348  20563823.5854   20563826.3144   20563823.8494
       248.000         222.000
 135317091.53848  87649667.20148  23847060.7674   23847064.5234   23847061.5854
       221.000         173.000
 112812775.25848  87906037.52948  21467574.9814   21467577.6724   21467574.8104
       244.000         213.000
 107563675.20448  83815847.28748  20468689.2934   20468690.7624   20468689.0924
       253.000         236.000
 127425123.42748  99292300.56748  24248195.9414   24248198.2814   24248197.0834
       215.000         155.000
 122401175.06348  95377524.61648  23292181.3744   23292182.8254   23292181.8254
       231.000         189.000
 119190442.96948  92875657.51548  22681196.5924   22681197.9794   22681196.8614
       233.000         194.000
 133689911.68948 104173943.10248  25440353.7514   25440358.6614   25440354.9724
       205.000         145.000
 137686251.00248  89495783.96248  24297882.6784   24297882.8904   24297882.3734
       219.000         168.000
 117555225.11948  91601466.48648  22370021.2604   22370022.2154   22370021.6644
       237.000         195.000
 09  1 12  1 13 30.0000000  0 10G 9G 5G26G15G28G17G12G27G22G18
 118017410.45048  74169399.34148  20555038.5444   20555040.9954   20555038.6244
       249.000         223.000
 135207998.41648  87564659.61648  23826300.3934   23826305.0214   23826300.3014
       221.000         174.000
 112887203.57848  87964033.61148  21481738.2234   21481740.8714   21481738.0914
       244.000         213.000
 107590378.46248  83836655.01348  20473770.7714   20473772.2434   20473770.6424
       252.000         236.000
 127517158.13148  99364015.92548  24265710.4874   24265711.3124   24265711.3234
       213.000         157.000
 122380655.02948  95361534.97748  23288276.3724   23288278.1284   23288276.4574
       233.000         191.000
 119093990.46148  92800499.73248  22662842.3924   22662843.6874   22662842.4114
       232.000         195.000
 133761492.90448 104229720.68248  25453975.4684   25453979.5994   25453976.1584
       205.000         144.000
 137615904.52348  89440968.48948  24284496.2414   24284495.5374   24284497.6794
       221.000         168.000
 117530898.62548  91582510.76748  22365392.0144   22365393.1034   22365392.5294
       237.000         195.000
 09  1 12  1 14  0.0000000  0 10G 9G 5G26G15G28G17G12G27G22G18
 117971555.42648  74133668.16248  20546312.6354   20546315.1384   20546312.8834
       248.000         223.000
 135099077.62048  87479786.28748  23805574.2014   23805578.0274   23805575.3794
       222.000         175.000
 112961976.16948  88022297.96248  21495966.9444   21495969.8874   21495966.9774
       244.000         212.000
 107617542.26648  83857821.60748  20478939.8404   20478941.3204   20478939.4144
       252.000         236.000
 127609330.35548  99435838.42348  24283249.1204   24283251.3344   24283249.8004
       211.000         153.000
 122360650.69148  95345947.19548  23284469.7854   23284471.4114   23284469.8204
       235.000         191.000
 118997824.84348  92725565.51048  22644542.2294   22644544.0224   22644541.9004
       232.000         194.000
 133833078.97648 104285502.01148  25467598.6394   25467602.5684   25467599.0544
       202.000         138.000
 137545955.98748  89386463.11148  24271185.1284   24271184.9714   24271183.6444
       220.000         166.000
 117507141.00948  91563998.33448  22360871.2434   22360872.2584   22360871.9724
       236.000         194.000
 09  1 12  1 14 30.0000000  0 10G 9G 5G26G15G28G17G12G27G22G18
 117926012.47648  74098180.15648  20537646.0944   20537648.6274   20537646.1114
       248.000         223.000
 134990331.08148  87395048.77248  23784880.1334   23784883.8824   23784880.5024
       222.000         175.000
 113037092.16648  88080829.89248  21510261.0214   21510263.7744   21510260.9424
       244.000         212.000
 107645166.77648  83879347.18948  20484196.5744   20484198.0934   20484196.3874
       252.000         236.000
 127701638.03048  99507766.45548  24300814.8614   24300816.2124   24300814.8524
       208.000         151.000
 122341163.38948  95330762.27548  23280761.4964   23280763.1654   23280761.2524
       234.000         192.000
 118901948.63948  92650856.77448  22626297.8144   22626299.3144   22626297.7574
       234.000         195.000
 133904670.11848 104341287.34348  25481221.7204   25481225.8764   25481222.6064
       193.000         131.000
 137476407.01248  89332269.09948  24257950.0114   24257951.0424   24257950.3794
       222.000         167.000
 117483952.85948  91545929.63648  22356458.4644   22356459.6024   22356458.9184
       237.000         194.000
 09  1 12  1 15  0.0000000  0  9G 9G 5G26G15G28G17G12G22G18
 117880781.99948  74062935.63148  20529038.9944   20529041.3944   20529039.3024
       248.000         223.000
 134881760.61648  87310448.43048  23764219.5694   23764223.0844   23764220.6634
       224.000         175.000
 113112550.42248  88139628.52548  21524620.2704   21524622.8974   21524620.1704
       243.000         212.000
 107673252.15248  83901231.89348  20489541.0614   20489542.5734   20489540.7274
       253.000         235.000
 127794079.03448  99579798.42148  24318405.7924   24318406.7564   24318405.7214
       209.000         150.000
 122322194.40048  95315981.25148  23277152.0044   23277153.4464   23277151.9154
       234.000         192.000
 118806362.87948  92576374.37948  22608108.3144   22608110.0634   22608108.5634
       233.000         196.000
 137407259.80848  89278388.15248  24244792.2824   24244792.6784   24244793.6884
       217.000         169.000
 117461334.81448  91528305.17948  22352154.5874   22352155.8024   22352155.2664
       237.000         195.000
 09  1 12  1 15 30.0000000  0  9G 9G 5G26G15G28G17G12G22G18
 117835863.99148  74027934.58648  20520491.5234   20520493.7864   20520491.7014
       250.000         223.000
 134773367.91148  87225986.59148  23743593.5914   23743597.0734   23743594.4854
       224.000         176.000
 113188349.67348  88198692.86948  21539044.4544   21539046.9144   21539044.3494
       243.000         211.000
 107701798.23148  83923475.58448  20494973.3514   20494974.6104   20494973.0784
       252.000         235.000
 127886651.08148  99651932.46248  24336021.5414   24336023.1914   24336022.8054
       211.000         151.000
 122303744.63848  95301604.82548  23273640.7774   23273642.6644   23273640.8054
       232.000         192.000
 118711069.52448  92502119.82748  22589974.9124   22589976.5954   22589974.5024
       233.000         197.000
 137338516.15248  89224821.66248  24231710.4434   24231710.7454   24231709.1984
       215.000         163.000
 117439287.47048  91511125.41548  22347958.8734   22347960.0404   22347959.5134
       236.000         195.000
 09  1 12  1 16  0.0000000  0  9G 9G 5G26G15G28G17G12G22G18
 117791259.04048  73993177.48648  20512003.5214   20512005.7414   20512003.7774
       251.000         223.000
 134665154.80048  87141664.72148  23723001.0984   23723004.4794   23723002.4244
       224.000         178.000
 113264489.12748  88258022.30648  21553533.3864   21553535.8044   21553533.3114
       244.000         212.000
 107730805.06848  83946078.31248  20500493.0744   20500494.5064   20500492.7804
       252.000         235.000
 127979352.09148  99724167.01648  24353662.5924   24353663.7924   24353663.2174
       210.000         151.000
 122285815.77248  95287634.29248  23270229.0174   23270230.7044   23270228.3164
       233.000         191.000
 118616070.70648  92428094.78248  22571897.2394   22571898.9744   22571897.1954
       234.000         196.000
 137270178.21148  89171571.34948  24218705.5584   24218707.0734   24218708.1904
       215.000         166.000
 117417811.26148  91494390.70748  22343871.9844   22343873.7644   22343872.4954
       236.000         195.000
 09  1 12  1 16 30.0000000  0  9G 9G 5G26G15G28G17G12G22G18
 117746967.48148  73958664.58848  20503575.0154   20503577.3204   20503575.3434
       250.000         223.000
 134557123.36248  87057484.40348  23702443.6134   23702446.8064   23702444.0134
       225.000         176.000
 113340967.95448  88317616.18648  21568086.9294   21568089.3954   21568087.0244
       244.000         211.000
 107760273.43448  83969040.66248  20506100.6964   20506102.2584   20506100.4684
       252.000         235.000
 128072180.02748  99796500.46948  24371326.1704   24371328.4044   24371325.6374
       208.000         152.000
 122268409.24248  95274070.76848  23266916.8904   23266918.5074   23266916.3214
       234.000         192.000
 118521368.33148  92354300.73748  22553875.7244   22553877.5354   22553876.0294
       234.000         196.000
 137202248.25548  89118638.91248  24205778.9194   24205780.8934   24205779.0134
       217.000         171.000
 117396907.02848  91478101.67448  22339894.5104   22339895.8794   22339894.5944
       237.000         196.000
 09  1 12  1 17  0.0000000  0  9G 9G 5G26G15G28G17G12G22G18
 117702990.92648  73924397.15348  20495206.6134   20495208.8094   20495206.9084
       250.000         223.000
 134449275.86248  86973447.40548  23681920.5844   23681923.8014   23681921.4134
       224.000         174.000
 113417785.15048  88377473.73848  21582704.7254   21582707.3764   21582704.7654
       244.000         212.000
 107790203.47348  83992362.75748  20511796.1384   20511797.7304   20511795.8514
       252.000         235.000
 128165133.36748  99868931.65448  24389015.4604   24389016.6794   24389016.0314
       213.000         153.000
 122251526.46048  95260915.34048  23263703.9414   23263705.8664   23263703.8754
       232.000         191.000
 118426964.63448  92280739.41148  22535911.1834   22535913.0094   22535911.1914
       235.000         197.000
 137134729.09648  89066026.58548  24192931.2524   24192932.1344   24192930.3524
       217.000         169.000
 117376575.76548  91462259.11948  22336025.4804   22336026.7794   22336026.5264
       237.000         195.000
 09  1 12  1 17 30.0000000  0  9G 9G 5G26G15G28G17G12G22G18
 117659328.29548  73890374.33048  20486897.6014   20486900.1534   20486897.7294
       250.000         224.000
 134341613.11648  86889554.36148  23661433.0414   23661436.3004   23661432.8924
       223.000         175.000
 113494938.98548  88437593.60148  21597386.4194   21597389.2164   21597386.4534
       243.000         211.000
 107820594.32948  84016043.93848  20517579.2964   20517580.9324   20517579.0194
       252.000         235.000
 128258209.23048  99941458.28948  24406726.9144   24406728.7984   24406726.9444
       210.000         156.000
 122235167.58648  95248168.18648  23260590.9964   23260592.7374   23260590.9754
       234.000         191.000
 118332860.44148  92207411.47848  22518003.6794   22518005.7864   22518003.3914
       235.000         199.000
 137067621.38748  89013734.90348  24180161.2844   24180161.6644   24180162.1644
       220.000         170.000
 117356816.77648  91446862.49648  22332265.2574   22332266.6584   22332265.6174
       236.000         195.000
 09  1 12  1 18  0.0000000  0  9G 9G 5G26G15G28G17G12G22G18
 117615980.93448  73856597.17048  20478648.9354   20478651.5074   20478649.1624
       249.000         224.000
 134234137.98748  86805807.52048  23640981.1134   23640984.9444   23640982.0464
       225.000         178.000
 113572429.33148  88497975.68348  21612132.4434   21612135.1194   21612132.2244
       243.000         211.000
 107851446.79148  84040084.81248  20523450.3474   20523451.9054   20523450.1284
       252.000         235.000
 128351406.31148 100014079.37248  24424462.4904   24424464.0904   24424461.0934
       215.000         157.000
 122219334.90148  95235831.03448  23257578.1634   23257579.8674   23257578.9114
       234.000         192.000
 118239058.58248  92134319.11948  22500153.9234   22500155.8534   22500153.5034
       234.000         199.000
 137000928.27548  88961766.23848  24167470.2064   24167470.2194   24167469.8134
       222.000         171.000
 117337631.78948  91431913.15648  22328614.4814   22328615.7874   22328615.4964
       236.000         194.000
 09  1 12  1 18 30.0000000  0  9G 9G 5G26G15G28G17G12G22G18
 117572948.28548  73823065.23148  20470460.1774   20470462.6534   20470460.2374
       250.000         224.000
 134126851.27348  86722207.49448  23620565.2974   23620569.0644   23620566.2664
       223.000         178.000
 113650253.96248  88558618.24148  21626942.0684   21626944.6704   21626942.2114
       243.000         211.000
 107882760.00848  84064484.71048  20529409.0834   20529410.6724   20529408.7674
       252.000         235.000
 128444721.37848 100086792.41148  24442219.8764   24442221.4564   24442219.4134
       213.000         158.000
 122204028.23548  95223903.76148  23254665.4234   23254667.0314   23254665.2544
       232.000         192.000
 118145559.72148  92061462.88948  22482361.5884   22482363.9404   22482361.6644
       234.000         198.000
 136934650.60548  88910121.25148  24154858.4434   24154858.0764   24154859.4404
       224.000         171.000
 117319020.13348  91417410.54748  22325073.0324   22325074.0154   22325073.1784
       236.000         194.000
 09  1 12  1 19  0.0000000  0  9G 9G 5G26G15G28G17G12G22G18
 117530231.11348  73789779.13148  20462331.3014   20462333.8994   20462331.4714
       250.000         224.000
 134019755.41248  86638756.19248  23600185.4724   23600189.2204   23600186.3244
       225.000         179.000
 113728412.65248  88619521.12048  21641815.1324   21641817.7704   21641814.9584
       244.000         210.000
 107914534.96148  84089244.40948  20535455.8234   20535457.3474   20535455.4964
       252.000         235.000
 128538153.17948 100159596.40248  24459999.6794   24460001.0324   24459998.9794
       216.000         157.000
 122189249.69348  95212388.02048  23251853.3224   23251854.7724   23251852.9324
       233.000         193.000
 118052366.63948  91988844.90948  22464627.5984   22464629.4654   22464627.3354
       235.000         198.000
 136868791.15548  88858802.21548  24142325.0314   24142324.6294   24142325.9004
       217.000         163.000
 117300982.69548  91403355.39548  22321640.3694   22321641.4984   22321640.7464
       235.000         194.000
 09  1 12  1 19 30.0000000  0  9G 9G 5G26G15G28G17G12G22G18
 117487830.18848  73756739.45048  20454262.8274   20454265.3354   20454263.1814
       250.000         224.000
 133912852.11648  86555454.92148  23579842.9444   23579846.0434   23579843.9664
       226.000         181.000
 113806904.14248  88680683.31448  21656751.6294   21656754.2154   21656751.5774
       243.000         211.000
 107946771.22148  84114363.56648  20541590.1344   20541591.6724   20541589.7624
       252.000         234.000
 128631699.71448 100232489.80248  24477801.2324   24477801.7174   24477802.0104
       215.000         156.000
 122175000.18048  95201284.50648  23249141.6414   23249143.1614   23249141.8014
       232.000         193.000
 117959481.07148  91916466.54648  22446952.0864   22446954.1574   22446952.0554
       237.000         200.000
 136803351.54048  88807810.31348  24129871.7154   24129871.6144   24129872.2664
       217.000         164.000
 117283520.09548  91389748.16548  22318317.2574   22318318.7194   22318317.9264
       235.000         194.000
 09  1 12  1 20  0.0000000  0  9G 9G 5G26G15G28G17G12G22G18
 117445745.55148  73723946.23148  20446254.2194   20446256.8624   20446254.2044
       250.000         225.000
 133806142.95248  86472304.96148  23559536.5874   23559540.1774   23559536.7724
       225.000         180.000
 113885727.04448  88742103.75748  21671751.0984   21671753.8474   21671750.7764
       242.000         210.000
 107979468.50848  84139841.96448  20547812.1354   20547813.6094   20547811.9484
       252.000         234.000
 128725358.62648 100305470.76948  24495623.9504   24495624.6074   24495623.9004
       216.000         156.000
 122161280.48948  95190593.85648  23246530.9154   23246532.5524   23246530.8294
       232.000         194.000
 117866904.29748  91844328.80248  22429335.6404   22429337.4564   22429335.6084
       238.000         202.000
 136738333.70948  88757147.03848  24117499.6564   24117499.3074   24117500.8294
       219.000         167.000
 117266632.69348  91376589.13048  22315103.7804   22315105.2544   22315104.2934
       236.000         195.000
 09  1 12  1 20 30.0000000  0  9G 9G 5G26G15G28G17G12G22G18
 117403978.34948  73691400.35748  20438306.3354   20438308.7724   20438306.3644
       250.000         224.000
 133699630.51048  86389308.26148  23539268.1234   23539271.3164   23539268.4844
       226.000         179.000
 113964880.89748  88803782.07648  21686813.4324   21686816.2114   21686813.3064
       241.000         209.000
 108012627.66948  84165680.26548  20554122.0164   20554123.4844   20554121.7464
       251.000         233.000
 128819128.40848 100378538.12948  24513467.2834   24513468.4104   24513467.1934
       214.000         153.000
 122148092.19148  95180317.27448  23244021.3204   23244022.9574   23244021.0064
       233.000         194.000
 117774638.82348  91772433.63248  22411778.1324   22411780.2384   22411778.1624
       238.000         203.000
 136673740.18948  88706814.41648  24105207.7634   24105208.6294   24105207.6194
       217.000         167.000
 117250321.36248  91363878.99548  22311999.8284   22312001.3814   22312000.2634
       236.000         196.000
 09  1 12  1 21  0.0000000  0  9G 9G 5G26G15G28G17G12G22G18
 117362528.75448  73659101.96948  20430418.6114   20430421.1264   20430418.6704
       250.000         225.000
 133593316.45848  86306466.17548  23519037.0494   23519040.6394   23519037.8054
       226.000         181.000
 114044364.52448  88865717.36348  21701938.6014   21701941.3574   21701938.2464
       242.000         209.000
 108046248.38848  84191878.22248  20560519.9154   20560521.3674   20560519.5494
       252.000         234.000
 128913006.89148 100451690.18948  24531332.2244   24531332.0024   24531332.4234
       213.000         151.000
 122135436.62848  95170455.79348  23241613.0934   23241614.6524   23241612.6124
       233.000         193.000
 117682686.14448  91700782.20948  22394280.1254   22394282.1234   22394279.9634
       237.000         203.000
 136609573.01448  88656814.00348  24092997.2414   24092998.0914   24092997.9704
       219.000         168.000
 117234586.23648  91351617.84848  22309005.6854   22309007.1964   22309006.8184
       236.000         196.000
 09  1 12  1 21 30.0000000  0  9G 9G 5G26G15G28G17G12G22G18
 117321396.75548  73627051.05848  20422591.4174   20422594.0014   20422591.7114
       250.000         225.000
 133487202.14648  86223779.71748  23498844.3924   23498847.9304   23498845.3684
       228.000         183.000
 114124176.26348  88927908.32948  21717126.3384   21717129.0274   21717126.0314
       243.000         209.000
 108080330.29648  84218435.55048  20567005.5444   20567006.9414   20567005.3724
       252.000         233.000
 129006991.75848 100524925.16448  24549216.5874   24549216.9144   24549217.8744
       215.000         153.000
 122123314.04348  95161009.64448  23239306.2674   23239307.7034   23239306.2094
       232.000         193.000
 117591047.88948  91629375.78448  22376841.7294   22376843.9284   22376841.5454
       238.000         202.000
 136545833.14348  88607146.60148  24080868.1054   24080868.7744   24080869.5974
       220.000         172.000
 117219427.10848  91339805.53148  22306120.7464   22306122.5744   22306121.1204
       236.000         197.000
 09  1 12  1 22  0.0000000  0  9G 9G 5G26G15G28G17G12G22G18
 117280583.30148  73595248.37148  20414824.9394   20414827.4284   20414825.1084
       251.000         225.000
 133381289.89348  86141250.69948  23478689.9604   23478693.6114   23478690.1004
       227.000         182.000
 114204315.60848  88990354.56348  21732376.3754   21732379.1004   21732376.4164
       241.000         209.000
 108114873.86948  84245352.61548  20573578.9664   20573580.4004   20573578.8344
       252.000         233.000
 129101081.61548 100598241.93448  24567121.4694   24567121.1324   24567121.2334
       210.000         150.000
 122111725.97448  95151979.97948  23237100.7364   23237102.4464   23237100.5444
       233.000         191.000
 117499726.44748  91558216.23048  22359463.9804   22359465.9904   22359463.7984
       239.000         203.000
 136482523.40748  88557814.34848  24068821.2744   24068820.8344   24068820.4304
       219.000         169.000
 117204845.00248  91328442.84948  22303346.0704   22303347.9594   22303346.8904
       236.000         197.000
 09  1 12  1 22 30.0000000  0  9G 9G 5G26G15G28G17G12G22G18
 117240089.37548  73563694.66148  20407119.2204   20407121.7534   20407119.4244
       251.000         225.000
 133275581.97348  86058880.90148  23458574.2614   23458577.7674   23458575.2064
       228.000         181.000
 114284781.88248  89053055.54448  21747688.4604   21747691.2634   21747688.1974
       241.000         208.000
 108149879.25448  84272629.53248  20580240.1804   20580241.6864   20580239.8554
       251.000         233.000
 129195274.62848 100671639.06548  24585044.9664   24585045.8064   24585045.7324
       210.000         149.000
 122100673.92848  95143367.98448  23234997.8954   23234999.2024   23234997.8694
       235.000         192.000
 117408723.98048  91487305.22248  22342146.8174   22342148.6984   22342146.6104
       240.000         205.000
 136419646.19148  88508819.13148  24056855.5284   24056855.5604   24056854.8494
       221.000         169.000
 117190840.78248  91317530.45448  22300681.0034   22300683.2034   22300681.1654
       236.000         197.000
 09  1 12  1 23  0.0000000  0  9G 9G 5G26G15G28G17G12G22G18
 117199914.18848  73532389.32548  20399474.2524   20399476.6734   20399474.7374
       250.000         225.000
 133170079.04348  85976670.84848  23438497.5404   23438501.1864   23438498.2644
       226.000         180.000
 114365572.82648  89116009.52248  21763062.7634   21763065.1944   21763062.5614
       242.000         208.000
 108185345.33748  84300265.43948  20586989.2124   20586990.8234   20586988.8254
       251.000         233.000
 129289567.65148 100745114.13748  24602989.1124   24602988.9844   24602989.4154
       209.000         152.000
 122090157.68048  95135173.50548  23232996.9334   23232998.1314   23232996.9114
       234.000         192.000
 117318041.03048  91416643.18748  22324890.7874   22324892.1324   22324890.8444
       240.000         204.000
 136357202.36448  88460161.58048  24044972.6434   24044973.3654   24044973.1204
       222.000         172.000
 117177413.29148  91307067.46748  22298125.8584   22298127.9824   22298126.4414
       235.000         197.000
 09  1 12  1 23 30.0000000  0  9G 9G 5G26G15G28G17G12G22G18
 117160058.61548  73501333.03548  20391889.8784   20391892.3324   20391890.0714
       251.000         225.000
 133064783.57248  85894622.43548  23418460.4454   23418463.7724   23418460.8374
       227.000         181.000
 114446687.91448  89179216.06648  21778498.4524   21778500.9284   21778498.4774
       241.000         208.000
 108221272.63048  84328260.72848  20593825.7674   20593827.6804   20593825.5574
       251.000         233.000
 129383959.51648 100818666.23948  24620950.6714   24620951.7744   24620951.0534
       207.000         151.000
 122080178.72548  95127397.70548  23231097.8454   23231099.1194   23231097.9024
       232.000         192.000
 117227679.90948  91346231.93248  22307695.3874   22307697.0184   22307695.2404
       239.000         204.000
 136295194.21048  88411843.54848  24033173.8254   24033173.1514   24033174.3754
       220.000         170.000
 117164563.75248  91297054.82548  22295680.7764   22295682.5064   22295680.9914
       237.000         197.000
 09  1 12  1 24  0.0000000  0  9G 9G 5G26G15G28G17G12G22G18
 117120523.12748  73470526.16648  20384366.6074   20384368.9914   20384366.5624
       251.000         225.000
 132959697.30748  85812737.05348  23398463.3154   23398466.4914   23398464.2724
       229.000         181.000
 114528125.84448  89242674.19148  21793995.4354   21793998.0644   21793995.1044
       241.000         206.000
 108257661.10548  84356615.37748  20600750.2084   20600752.1124   20600749.9974
       251.000         233.000
 129478448.24548 100892293.81248  24638931.7494   24638932.4574   24638931.5224
       209.000         153.000
 122070738.22748  95120041.49248  23229301.0524   23229302.6464   23229301.0194
       233.000         193.000
 117137642.23048  91276072.72548  22290561.2884   22290563.0714   22290561.2904
       238.000         203.000
 136233623.56148  88363866.40948  24021456.4174   24021456.3394   24021456.1014
       217.000         165.000
 117152291.97348  91287492.39748  22293346.0094   22293347.5194   22293346.5474
       238.000         197.000
 09  1 12  1 24 30.0000000  0  9G 9G 5G26G15G28G17G12G22G18
 117081307.76748  73439968.75048  20376904.1624   20376906.5604   20376904.3364
       251.000         226.000
 132854821.58948  85731015.72848  23378506.3604   23378509.5244   23378507.3824
       227.000         182.000
 114609884.99548  89306382.60648  21809553.7504   21809556.3694   21809553.7154
       242.000         207.000
 108294510.07748  84385328.85248  20607762.4124   20607764.1624   20607762.1554
       250.000         232.000
 129573031.25648 100965994.85248  24656930.4174   24656930.9674   24656933.0174
       210.000         151.000
 122061836.29548  95113104.93048  23227607.3994   23227608.6934   23227607.4634
       232.000         192.000
 117047929.48248  91206166.70948  22273489.3794   22273491.1834   22273488.9894
       240.000         204.000
 136172491.93348  88316231.38048  24009824.2004   24009823.8194   24009824.5774
       220.000         168.000
 117140597.78948  91278380.03748  22291120.3154   22291121.9614   22291121.2404
       237.000         197.000
 09  1 12  1 25  0.0000000  0  9G 9G 5G26G15G28G17G12G22G18
 117042412.97848  73409661.12848  20369502.7694   20369505.1894   20369503.1834
       252.000         226.000
 132750158.06348  85649459.74748  23358589.1124   23358592.5634   23358589.7914
       225.000         180.000
 114691964.22548  89370340.45048  21825173.0934   21825175.3454   21825173.0954
       241.000         206.000
 108331819.29248  84414400.96548  20614862.2134   20614863.7624   20614861.8784
       251.000         232.000
 129667706.54548 101039767.77748  24674945.7524   24674947.8434   24674947.5114
       205.000         150.000
 122053473.83748  95106588.73748  23226015.8764   23226017.4454   23226016.1574
       231.000         192.000
 116958543.08348  91136514.99048  22256480.0174   22256481.7424   22256479.8754
       240.000         205.000
 136111801.08948  88268939.83948  23998274.6024   23998274.4874   23998276.3304
       218.000         164.000
 117129481.24048  91269717.77748  22289004.8174   22289006.4564   22289005.3764
       236.000         196.000
 09  1 12  1 25 30.0000000  0  9G 9G 5G26G15G28G17G12G22G18
 117003840.05748  73379604.31048  20362162.5494   20362164.7754   20362162.5604
       252.000         226.000
 132645709.68848  85568071.41948  23338713.2014   23338716.8374   23338713.3964
       226.000         182.000
 114774363.56248  89434547.71848  21840852.9754   21840855.4854   21840853.0734
       241.000         206.000
 108369589.95248  84443832.64848  20622049.8224   20622051.3184   20622049.7144
       251.000         232.000
 129762473.18348 101113611.89948  24692979.2814   24692981.3994   24692978.5294
       207.000         153.000
 122045652.83548  95100494.46048  23224527.5254   23224529.2694   23224527.3094
       230.000         192.000
 116869486.08948  91067119.95048  22239532.9004   22239534.7894   22239533.1024
       240.000         205.000
 136051554.18948  88221994.15448  23986809.5324   23986809.5314   23986810.3654
       220.000         166.000
 117118944.00048  91261506.92448  22286999.5034   22287001.1314   22287000.1684
       235.000         195.000
 09  1 12  1 26  0.0000000  0  9G 9G 5G26G15G28G17G12G22G18
 116965589.79448  73349798.92048  20354883.7234   20354886.0044   20354883.9904
       251.000         226.000
 132541478.34948  85486852.22048  23318878.2894   23318882.5574   23318879.2534
       225.000         181.000
 114857081.86548  89499003.52848  21856593.7404   21856596.3624   21856593.8414
       242.000         206.000
 108407821.65648  84473623.57648  20629325.0744   20629326.5764   20629324.7994
       251.000         232.000
 129857329.44948 101187525.84348  24711029.9734   24711032.3344   24711030.7254
       208.000         153.000
 122038374.32948  95094822.89848  23223142.4464   23223144.2334   23223142.0124
       232.000         193.000
 116780760.35048  90997983.02348  22222649.1864   22222650.7294   22222649.1414
       240.000         205.000
 135991752.91748  88175395.77248  23975429.9944   23975430.1804   23975429.6384
       223.000         172.000
 117108985.86248  91253747.32548  22285104.3124   22285106.3224   22285104.7304
       235.000         196.000
 09  1 12  1 26 30.0000000  0  9G 9G 5G26G15G28G17G12G22G18
 116927661.04148  73320244.04648  20347666.3344   20347668.3354   20347666.5414
       250.000         226.000
 132437464.71748  85405802.62948  23299085.4154   23299089.1314   23299085.6094
       226.000         182.000
 114940116.73548  89563706.01948  21872394.8144   21872397.3634   21872394.6614
       242.000         205.000
 108446512.99948  84503772.66648  20636687.8494   20636689.2434   20636687.6094
       250.000         232.000
 129952272.59848 101261507.53148  24729098.0424   24729098.8424   24729099.5354
       206.000         153.000
 122031637.80648  95089573.66148  23221860.7514   23221862.3214   23221861.1574
       232.000         193.000
 116692366.20448  90929104.49348  22205828.2374   22205829.9734   22205828.3404
       240.000         206.000
 135932398.02348  88129145.21448  23964135.1244   23964135.8874   23964134.6654
       220.000         169.000
 117099605.87648  91246438.23248  22283319.8844   22283321.5534   22283320.6584
       236.000         197.000
 09  1 12  1 27  0.0000000  0  9G 9G 5G26G15G28G17G12G22G18
 116890054.41748  73290940.19148  20340509.7644   20340512.3934   20340509.6514
       251.000         227.000
 132333670.54848  85324924.06348  23279334.2554   23279338.0214   23279334.9644
       226.000         183.000
 115023466.97748  89628654.25648  21888255.9824   21888258.4854   21888256.0184
       242.000         206.000
 108485664.23448  84534280.11648  20644137.9624   20644139.4154   20644137.6324
       250.000         231.000
 130047300.06148 101335554.89248  24747179.5104   24747182.7274   24747179.9944
       204.000         152.000
 122025443.85248  95084747.20748  23220682.1644   23220683.6204   23220682.4174
       232.000         193.000
 116604305.42248  90860485.72248  22189070.6924   22189072.5164   22189070.6744
       239.000         206.000
 135873491.52548  88083244.01348  23952925.8174   23952925.9994   23952927.2924
       220.000         166.000
 117090804.24448  91239579.81348  22281644.6364   22281646.6044   22281645.1054
       237.000         196.000
 09  1 12  1 27 30.0000000  0  9G 9G 5G26G15G28G17G12G22G18
 116852770.51048  73261887.79648  20333415.0174   20333417.3474   20333415.1584
       250.000         226.000
 132230097.56148  85244217.83748  23259624.7354   23259628.9964   23259625.2594
       224.000         181.000
 115107131.27448  89693847.20448  21904176.5974   21904179.1134   21904176.3754
       241.000         205.000
 108525274.86348  84565145.53248  20651675.4114   20651677.0884   20651675.0594
       250.000         231.000
 130142410.09848 101409666.60148  24765278.5844   24765281.2984   24765278.3614
       204.000         153.000
 122019793.47348  95080344.31848  23219606.9304   23219608.4244   23219607.2724
       231.000         191.000
 116516579.94648  90792128.23348  22172377.0794   22172378.9754   22172376.5894
       241.000         206.000
 135815034.98248  88037693.48348  23941802.2574   23941801.8404   23941803.4774
       220.000         166.000
 117082580.91148  91233172.00648  22280079.9714   22280081.7154   22280080.3444
       237.000         197.000
 09  1 12  1 28  0.0000000  0  9G 9G 5G26G15G28G17G12G22G18
 116815810.24048  73233087.59048  20326381.5464   20326384.0594   20326381.8014
       250.000         226.000
 132126748.20448  85163685.87748  23239958.0374   23239961.9874   23239959.2614
       227.000         182.000
 115191109.30048  89759284.63148  21920157.1704   21920159.2714   21920156.9654
       242.000         204.000
 108565345.30648  84596369.24548  20659300.6594   20659302.4004   20659300.3164
       250.000         231.000
 130237601.34648 101483841.59148  24783393.6154   24783395.1704   24783392.9894
       207.000         154.000
 122014688.05148  95076366.07448  23218635.0264   23218636.4664   23218634.9254
       231.000         190.000
 116429191.77648  90724033.58148  22155747.8034   22155749.3154   22155747.8114
       242.000         206.000
 135757030.73948  87992495.38048  23930764.5944   23930764.1974   23930764.1974
       222.000         173.000
 117074936.45048  91227215.27848  22278625.5724   22278626.9724   22278626.3474
       236.000         196.000
 09  1 12  1 28 30.0000000  0  9G 9G 5G26G15G28G17G12G22G18
 116779174.24148  73204540.05848  20319409.9054   20319412.5044   20319409.9954
       250.000         227.000
 132023624.20948  85083329.51848  23220334.3614   23220338.3054   23220335.1784
       224.000         182.000
 115275399.59248  89824965.36948  21936197.0294   21936199.6104   21936196.8984
       242.000         205.000
 108605875.43048  84627951.15548  20667013.3914   20667015.1014   20667013.1024
       250.000         232.000
 130332872.01048 101558078.44848  24801522.4584   24801525.1804   24801521.9754
       202.000         152.000
 122010128.22748  95072812.98348  23217767.6654   23217768.7884   23217767.4434
       230.000         191.000
 116342142.60248  90656203.08148  22139183.0624   22139184.6194   22139183.0584
       240.000         207.000
 135699480.75848  87947651.22548  23919812.4474   23919812.8724   23919811.1534
       221.000         169.000
 117067870.87548  91221709.63148  22277280.8174   22277282.6784   22277281.1024
       236.000         196.000
 09  1 12  1 29  0.0000000  0  9G 9G 5G26G15G28G17G12G22G18
 116742862.89848  73176245.50648  20312500.2034   20312502.6014   20312500.4214
       250.000         226.000
 131920727.60848  85003150.34548  23200753.4944   23200757.7664   23200753.7104
       227.000         182.000
 115360001.46748  89890888.89248  21952296.1934   21952298.8104   21952296.1154
       242.000         205.000
 108646864.99648  84659891.06948  20674813.5454   20674815.2084   20674813.1954
       251.000         232.000
 130428220.61648 101632376.01648  24819666.4604   24819669.2644   24819666.8014
       206.000         154.000
 122006114.88048  95069685.69848  23217003.4594   23217005.1674   23217003.4814
       230.000         189.000
 116255434.35348  90588638.23648  22122682.7934   22122684.5144   22122682.5864
       241.000         207.000
 135642386.81748  87903162.46248  23908948.1424   23908947.7964   23908949.6834
       223.000         168.000
 117061384.70948  91216655.45248  22276046.3974   22276048.1464   22276047.0974
       235.000         196.000
 09  1 12  1 29 30.0000000  0  9G 9G 5G26G15G28G17G12G22G18
 116706874.81248  73148202.84648  20305651.7704   20305654.2324   20305652.1124
       250.000         227.000
 131818058.39948  84923148.36448  23181216.4554   23181220.2954   23181217.8194
       225.000         182.000
 115444911.67448  89957052.69148  21968454.3444   21968456.7174   21968454.2274
       241.000         204.000
 108688312.07348  84692187.48748  20682700.9044   20682702.2334   20682700.7464
       251.000         232.000
 130523643.26348 101706731.33548  24837825.2324   24837827.8484   24837825.1204
       204.000         157.000
 122002647.10448  95066983.55048  23216344.0124   23216344.9434   23216344.1524
       230.000         190.000
 116169066.85348  90521338.91548  22106247.2554   22106249.2844   22106247.2904
       240.000         207.000
 135585748.60448  87859028.76848  23898170.3434   23898170.0944   23898172.0204
       222.000         169.000
 117055475.74548  91212051.05648  22274922.3404   22274923.6564   22274922.9734
       236.000         197.000
 09  1 12  1 30  0.0000000  0  9G 9G 5G26G15G28G17G12G22G18
 116671211.93348  73120413.60148  20298865.4994   20298867.8294   20298865.6844
       250.000         227.000
 131715619.67448  84843326.01048  23161722.4564   23161726.8784   23161723.0974
       226.000         182.000
 115530130.43348  90023456.91748  21984670.5384   21984673.3094   21984670.3574
       241.000         204.000
 108730217.42148  84724841.00548  20690675.0404   20690676.5954   20690674.7304
       251.000         231.000
 130619139.42448 101781143.90648  24855997.9414   24856000.1554   24855996.6944
       208.000         158.000
 121999726.73448  95064707.95548  23215788.2634   23215789.3084   23215788.3874
       230.000         190.000
 116083042.90148  90454307.28748  22089877.4684   22089879.4494   22089877.4344
       240.000         207.000
 135529570.11348  87815253.32248  23887479.3764   23887480.0614   23887479.3304
       222.000         171.000
 117050145.52648  91207897.62048  22273908.2294   22273909.5284   22273908.6564
       238.000         196.000
 09  1 12  1 30 30.0000000  0  9G 9G 5G26G15G28G17G12G22G18
 116635875.46948  73092878.69848  20292141.0934   20292143.6644   20292141.5234
       251.000         227.000
 131613414.01348  84763685.22848  23142273.6824   23142277.3644   23142273.9514
       225.000         182.000
 115615657.30948  90090101.22548  22000945.9444   22000948.5934   22000945.7194
       240.000         204.000
 108772582.08848  84757852.42448  20698736.6744   20698738.2794   20698736.4134
       251.000         231.000
 130714707.79748 101855612.76648  24874183.6474   24874185.6504   24874183.7484
       208.000         157.000
 121997355.12148  95062859.93448  23215336.6504   23215338.1824   23215336.1604
       230.000         190.000
 115997365.17548  90387545.43748  22073573.3964   22073575.4924   22073573.2974
       240.000         206.000
 135473853.12248  87771837.47448  23876877.8144   23876877.8054   23876877.1144
       225.000         171.000
 117045394.72548  91204195.68048  22273003.6294   22273005.3674   22273004.2784
       236.000         195.000
 09  1 12  1 31  0.0000000  0  9G 9G 5G26G15G28G17G12G22G18
 116600864.48148  73065597.41048  20285478.7404   20285481.1674   20285478.9564
       250.000         227.000
 131511441.77148  84684226.34848  23122869.0384   23122872.3654   23122869.7444
       225.000         181.000
 115701489.59648  90156983.52948  22017279.3214   22017281.8154   22017279.0704
       241.000         203.000
 108815404.25348  84791220.34448  20706885.3234   20706886.9154   20706885.0914
       250.000         230.000
 130810345.36448 101930135.52948  24892382.7414   24892384.4944   24892383.6664
       212.000         158.000
 121995531.48248  95061438.94448  23214989.8474   23214991.0544   23214989.3924
       232.000         191.000
 115912033.92248  90321053.57348  22057335.6794   22057337.3084   22057335.4534
       242.000         208.000
 135418598.16548  87728781.64648  23866362.9954   23866362.1184   23866364.5654
       225.000         173.000
 117041221.54148  91200943.83848  22272209.4704   22272211.0734   22272210.1304
       236.000         195.000
 09  1 12  1 31 30.0000000  0  9G 9G 5G26G15G28G17G12G22G18
 116566179.40348  73038570.08148  20278878.4494   20278880.8144   20278878.7074
       251.000         227.000
 131409704.50848  84604950.57448  23103509.1714   23103512.2264   23103509.5814
       226.000         180.000
 115787626.06148  90224102.85448  22033670.5844   22033673.1964   22033670.5054
       242.000         205.000
 108858683.25448  84824944.23548  20715121.0304   20715122.7624   20715120.7124
       250.000         230.000
 130906050.24548 102004710.74348  24910595.1014   24910596.6844   24910596.5494
       213.000         161.000
 121994256.43548  95060445.40848  23214747.2514   23214748.6444   23214746.8274
       230.000         192.000
 115827050.54748  90254832.77548  22041163.9074   22041165.5024   22041163.7994
       241.000         208.000
 135363806.91448  87686087.14148  23855936.1124   23855936.2644   23855936.9304
       221.000         173.000
 117037626.01848  91198142.11148  22271525.5054   22271526.9454   22271526.0294
       236.000         195.000
 09  1 12  1 32  0.0000000  0  9G 9G 5G26G15G28G17G12G22G18
 116531820.88048  73011797.20648  20272340.1704   20272342.6104   20272340.0424
       250.000         227.000
 131308204.68848  84525859.81648  23084194.4114   23084197.3304   23084195.3924
       226.000         182.000
 115874065.86048  90291458.53248  22050119.6054   22050122.3624   22050119.6304
       241.000         204.000
 108902419.76748  84859024.62748  20723443.8384   20723445.5114   20723443.5954
       251.000         230.000
 131001821.15548 102079337.43348  24928819.4084   24928820.8374   24928820.5744
       215.000         159.000
 121993531.07148  95059880.20048  23214609.0524   23214610.8504   23214608.9484
       232.000         193.000
 115742417.50748  90188884.97848  22025058.6184   22025060.4264   22025058.4734
       241.000         208.000
 135309481.51548  87643755.66948  23845598.6154   23845599.0274   23845598.3434
       221.000         173.000
 117034608.64248  91195790.89848  22270951.2084   22270952.8924   22270951.6754
       236.000         195.000
 09  1 12  1 32 30.0000000  0  9G 9G 5G26G15G28G17G12G22G18
 116497789.34748  72985279.13348  20265864.2774   20265866.6854   20265864.6984
       251.000         227.000
 131206943.74948  84446955.21148  23064925.1634   23064928.4284   23064925.5564
       226.000         183.000
 115960807.78748  90359049.63948  22066625.9354   22066628.6594   22066625.6774
       241.000         202.000
 108946612.83348  84893460.77448  20731853.5524   20731855.1554   20731853.3344
       249.000         230.000
 131097655.84948 102154013.80848  24947056.3904   24947057.0124   24947058.1764
       216.000         159.000
 121993355.66548  95059743.53748  23214576.0164   23214577.3074   23214576.0614
       232.000         192.000
 115658135.98948  90123211.08548  22009020.5144   22009022.1604   22009020.3864
       240.000         209.000
 135255623.35148  87601788.25348  23835349.3884   23835349.5224   23835350.1624
       224.000         173.000
 117032168.78248  91193889.69348  22270487.1144   22270488.5674   22270487.5304
       236.000         196.000
 09  1 12  1 33  0.0000000  0  9G 9G 5G26G15G28G17G12G22G18
 116464086.51648  72959017.19048  20259450.7624   20259453.1014   20259451.0844
       251.000         227.000
 131105924.61048  84368238.99948  23045702.0054   23045705.0134   23045702.4034
       228.000         183.000
 116047851.37148  90426875.80848  22083189.8144   22083192.2914   22083189.8714
       239.000         202.000
 108991263.03248  84928253.12848  20740350.2874   20740351.8054   20740349.9564
       250.000         230.000
 131193553.66748 102228739.39148  24965305.6364   24965305.7054   24965307.3274
       217.000         160.000
 121993732.00548  95060036.79548  23214647.3154   23214648.8024   23214647.2154
       230.000         191.000
 115574208.71848  90057813.22948  21993049.5214   21993051.5734   21993049.5464
       241.000         209.000
 135202235.59548  87560187.38948  23825190.6604   23825190.4494   23825191.1564
       225.000         174.000
 117030307.83948  91192439.58948  22270132.6334   22270134.6754   22270133.5834
       234.000         195.000
 09  1 12  1 33 30.0000000  0  9G 9G 5G26G15G28G17G12G22G18
 116430712.81448  72933011.71548  20253099.9414   20253102.4074   20253100.3714
       251.000         227.000
 131005148.83848  84289712.44448  23026524.9384   23026528.1454   23026525.8964
       226.000         184.000
 116135195.52548  90494936.17648  22099810.7754   22099813.2604   22099810.6154
       241.000         202.000
 109036370.35548  84963401.69048  20748934.0884   20748935.4194   20748933.8704
       250.000         230.000
 131289512.85048 102303512.76348  24983565.6954   24983566.8904   24983566.4894
       215.000         160.000
 121994660.51748  95060760.31648  23214824.0704   23214825.3694   23214824.0534
       229.000         191.000
 115490637.13048  89992692.53348  21977146.4904   21977148.4014   21977146.2124
       242.000         210.000
 135149319.46448  87518954.05448  23815120.6654   23815120.8704   23815121.9524
       223.000         173.000
 117029025.06248  91191440.01948  22269888.7434   22269890.4934   22269889.2294
       236.000         195.000
 09  1 12  1 34  0.0000000  0  9G 9G 5G26G15G28G17G12G22G18
 116397666.80748  72907261.58648  20246811.4514   20246813.8374   20246811.5474
       250.000         227.000
 130904616.66248  84211375.70248  23007394.2764   23007397.7334   23007394.6214
       226.000         183.000
 116222837.22948  90563228.41548  22116488.4534   22116490.8764   22116488.3064
       240.000         201.000
 109081932.69448  84998904.81248  20757604.2744   20757605.7364   20757604.0694
       249.000         230.000
 131385529.82448 102378331.17248  25001836.8264   25001838.2334   25001836.9744
       215.000         160.000
 121996139.91348  95061913.10348  23215105.4384   23215106.7044   23215105.9864
       232.000         191.000
 115407421.26148  89927849.01648  21961311.2084   21961312.9114   21961311.0534
       241.000         210.000
 135096874.97548  87478088.22248  23805140.5364   23805141.0734   23805140.6844
       224.000         177.000
 117028318.67448  91190889.58048  22269754.5544   22269756.1834   22269754.7734
       237.000         196.000
 09  1 12  1 34 30.0000000  0  9G 9G 5G26G15G28G17G12G22G18
 116364949.30748  72881767.44148  20240585.5684   20240587.9474   20240585.6324
       251.000         228.000
 130804329.97148  84133230.26548  22988310.1314   22988313.6254   22988310.8694
       227.000         183.000
 116310775.48848  90631751.73748  22133222.4504   22133224.8824   22133222.3674
       240.000         200.000
 109127949.70648  85034762.21448  20766360.9674   20766362.6104   20766360.7834
       249.000         230.000
 131481603.36948 102453193.67248  25020118.9904   25020120.8024   25020118.9884
       214.000         158.000
 121998170.91748  95063495.69748  23215491.8224   23215493.2794   23215492.1714
       232.000         190.000
 115324562.71448  89863283.94248  21945543.6914   21945545.2634   21945543.7604
       240.000         210.000
 135044904.33348  87437591.59648  23795251.0454   23795251.1104   23795250.6984
       225.000         177.000
 117028188.78448  91190788.35648  22269729.5064   22269731.8204   22269730.1094
       236.000         196.000
 09  1 12  1 35  0.0000000  0  9G 9G 5G26G15G28G17G12G22G18
 116332561.36748  72856530.09348  20234422.2874   20234424.6134   20234422.5044
       251.000         228.000
 130704291.09748  84055277.92548  22969273.6614   22969276.8834   22969274.0594
       227.000         184.000
 116399009.65848  90700505.62348  22150012.8764   22150015.4344   22150012.9934
       239.000         201.000
 109174421.31248  85070973.85248  20775204.0994   20775205.9094   20775203.8864
       249.000         230.000
 131577731.82748 102528098.94348  25038411.4874   25038414.1094   25038412.3994
       215.000         161.000
 122000754.60248  95065508.96348  23215983.6884   23215984.9674   23215983.1694
       231.000         191.000
 115242063.38948  89798998.77948  21929844.6274   21929846.2394   21929844.4254
       241.000         210.000
 134993409.31448  87397465.60348  23785451.9454   23785452.5454   23785451.0814
       223.000         177.000
 117028635.46748  91191136.39748  22269814.2684   22269816.5684   22269814.5374
       236.000         195.000
 09  1 12  1 35 30.0000000  0  9G 9G 5G26G15G28G17G12G22G18
 116300503.03948  72831549.58848  20228321.9324   20228324.2274   20228322.0754
       252.000         228.000
 130604501.40848  83977519.74348  22950284.1444   22950287.5604   22950284.7964
       228.000         184.000
 116487538.00248  90769488.74248  22166859.1234   22166861.8224   22166858.8914
       239.000         200.000
 109221347.48748  85107539.69548  20784133.9314   20784135.7214   20784133.6624
       248.000         230.000
 131673913.13248 102603045.39348  25056714.5744   25056716.9964   25056714.5614
       214.000         159.000
 122003890.94248  95067952.89348  23216580.5394   23216581.8474   23216580.1924
       231.000         192.000
 115159925.30048  89734995.10548  21914214.0324   21914215.7704   21914214.1694
       240.000         211.000
 134942391.18948  87357711.21548  23775743.7534   23775743.6114   23775742.7624
       230.000         180.000
 117029658.41748  91191933.49348  22270009.5144   22270010.9484   22270010.1384
       237.000         195.000
 09  1 12  1 36  0.0000000  0  9G 9G 5G26G15G28G17G12G22G18
 116268774.37348  72806825.96148  20222284.1104   20222286.4824   20222284.4724
       252.000         229.000
 130504962.26248  83899956.78948  22931342.2444   22931345.9604   22931342.8454
       226.000         185.000
 116576358.86448  90838699.80348  22183761.2414   22183763.7994   22183761.3504
       239.000         199.000
 109268727.04748  85144458.82448  20793149.9024   20793151.7504   20793149.7284
       249.000         229.000
 131770145.24248 102678031.44748  25075026.8004   25075028.8934   25075027.5574
       216.000         159.000
 122007580.13148  95070827.58448  23217282.4294   23217284.1174   23217282.3044
       228.000         191.000
 115078149.18948  89671273.47948  21898652.5274   21898654.1864   21898652.3254
       241.000         210.000
 134891851.29248  87318329.44748  23766126.8124   23766126.2304   23766126.8414
       226.000         179.000
 117031256.51748  91193178.75448  22270313.5554   22270314.8764   22270314.4884
       236.000         195.000
 09  1 12  1 36 30.0000000  0  9G 9G 5G26G15G28G17G12G22G18
 116237376.57748  72782360.14748  20216309.3134   20216311.7444   20216309.2394
       252.000         228.000
 130405675.99348  83822590.89748  22912448.3834   22912452.3404   22912448.9074
       226.000         184.000
 116665471.58448  90908138.28748  22200718.8764   22200721.4704   22200718.5814
       239.000         200.000
 109316560.17348  85181731.38248  20802252.2044   20802253.9024   20802251.9684
       248.000         229.000
 131866427.03648 102753056.17948  25093348.6544   25093351.0914   25093350.1904
       216.000         159.000
 122011823.15848  95074133.85248  23218089.8474   23218091.3724   23218089.0974
       229.000         191.000
 114996737.44848  89607835.78748  21883160.2714   21883162.1744   21883160.2274
       240.000         211.000
 134841791.68748  87279321.98948  23756599.6484   23756600.2714   23756598.1074
       225.000         177.000
 117033429.90448  91194872.28648  22270726.9474   22270728.8254   22270727.3874
       236.000         196.000
 09  1 12  1 37  0.0000000  0  9G 9G 5G26G15G28G17G12G22G18
 116206309.85748  72758152.31948  20210397.5214   20210399.9924   20210397.7734
       252.000         229.000
 130306644.23048  83745423.31348  22893603.2224   22893607.3034   22893603.5584
       228.000         185.000
 116754874.75448  90977803.09348  22217731.8714   22217734.5064   22217731.8354
       240.000         201.000
 109364845.89748  85219356.61548  20811440.6944   20811442.3404   20811440.3764
       248.000         229.000
 131962756.62548 102828118.18248  25111679.5964   25111682.1494   25111680.5474
       216.000         158.000
 122016620.16348  95077871.79648  23219002.3474   23219004.1794   23219001.8974
       227.000         191.000
 114915691.14148  89544682.84748  21867737.6184   21867739.5444   21867737.2804
       241.000         211.000
 134792213.87148  87240689.91648  23747165.9694   23747165.4804   23747165.6014
       228.000         178.000
 117036178.27948  91197013.87148  22271249.9884   22271251.7594   22271250.4064
       237.000         196.000
 09  1 12  1 37 30.0000000  0  9G 9G 5G26G15G28G17G12G22G18
 116175574.00948  72734202.31248  20204548.7274   20204551.2214   20204548.9004
       252.000         229.000
 130207868.04548  83668454.87948  22874806.8134   22874810.8924   22874808.0074
       227.000         186.000
 116844566.60148  91047692.83248  22234799.7304   22234802.2784   22234799.6914
       239.000         199.000
 109413583.95948  85257334.31448  20820715.4234   20820717.0024   20820715.2244
       248.000         229.000
 132059131.80748 102903215.70448  25130019.1484   25130021.1344   25130019.8534
       216.000         157.000
 122021970.67648  95082041.02948  23220020.5314   23220022.1964   23220019.4824
       230.000         190.000
 114835011.12448  89481815.31048  21852385.0314   21852386.4104   21852384.9044
       241.000         211.000
 134743118.78148  87202433.98948  23737823.3404   23737823.0494   23737823.5904
       224.000         175.000
 117039501.00348  91199602.99448  22271882.6174   22271884.0614   22271882.7264
       237.000         197.000
 09  1 12  1 38  0.0000000  0  9G 9G 5G26G15G28G17G12G22G18
 116145169.35548  72710510.38048  20198762.9854   20198765.4164   20198763.4044
       252.000         229.000
 130109348.91148  83591686.74348  22856059.1034   22856063.3134   22856059.3904
       228.000         187.000
 116934545.50848  91117806.26548  22251922.0054   22251924.6184   22251921.9864
       237.000         199.000
 109462773.11948  85295663.52248  20830075.7124   20830077.4434   20830075.5654
       248.000         229.000
 132155550.39348 102978347.04748  25148366.8914   25148369.1364   25148367.9094
       213.000         157.000
 122027875.04448  95086641.84048  23221144.5224   23221145.9744   23221144.7794
       231.000         192.000
 114754698.65048  89419234.18648  21837101.9334   21837103.4474   21837101.8514
       240.000         211.000
 134694507.77048  87164555.26148  23728572.7114   23728572.3984   23728573.2824
       226.000         177.000
 117043397.16448  91202638.95248  22272623.9104   22272625.6894   22272624.3374
       237.000         197.000
 09  1 12  1 38 30.0000000  0  9G 9G 5G26G15G28G17G12G22G18
 116115096.37748  72687076.89148  20193040.2014   20193042.6114   20193040.4034
       252.000         229.000
 130011088.48748  83515120.19748  22837360.8764   22837364.9154   22837361.3764
       228.000         186.000
 117024809.94548  91188142.18948  22269098.9794   22269101.4554   22269098.6764
       239.000         199.000
 109512412.98548  85334343.92848  20839521.8534   20839523.5964   20839521.5754
       247.000         228.000
 132252010.65348 103053510.83448  25166722.7494   25166724.9984   25166723.6984
       213.000         156.000
 122034333.44148  95091674.35748  23222373.7644   23222374.9584   23222373.9134
       231.000         190.000
 114674755.48248  89356940.84048  21821889.1834   21821890.6874   21821888.6464
       240.000         211.000
 134646382.22848  87127054.84748  23719414.4994   23719415.3414   23719415.2564
       221.000         175.000
 117047866.30648  91206121.38448  22273474.4444   22273475.9694   22273474.8754
       239.000         197.000
 09  1 12  1 39  0.0000000  0  9G 9G 5G26G15G28G17G12G22G18
 116085355.65548  72663902.30648  20187380.8394   20187383.0894   20187380.9714
       252.000         229.000
 129913088.58848  83438756.64948  22818712.4304   22818715.9714   22818712.7074
       230.000         187.000
 117115358.90148  91258699.80948  22286329.6624   22286332.2564   22286329.5624
       237.000         198.000
 109562503.10648  85373375.18548  20849053.6764   20849055.2824   20849053.3724
       248.000         228.000
 132348510.90348 103128705.82148  25185085.4974   25185088.5114   25185086.1864
       211.000         154.000
 122041346.17948  95097138.84148  23223707.7034   23223709.3144   23223707.7134
       230.000         190.000
 114595183.22248  89294936.50448  21806746.9514   21806748.7504   21806746.8764
       241.000         212.000
 134598743.74948  87089933.98448  23710349.0214   23710349.6904   23710349.3274
       226.000         176.000
 117052907.96348  91210049.94248  22274433.8694   22274435.5934   22274434.5014
       238.000         196.000
 09  1 12  1 39 30.0000000  0  9G 9G 5G26G15G28G17G12G22G18
 116055947.90748  72640987.18948  20181784.5004   20181786.9204   20181784.5244
       252.000         229.000
 129815351.42248  83362597.83748  22800113.7424   22800117.1984   22800115.0954
       229.000         187.000
 117206191.38348  91329478.36348  22303614.6034   22303617.1774   22303614.4074
       237.000         198.000
 109613043.41448  85412757.23748  20858671.1534   20858672.8034   20858670.8904
       248.000         228.000
 132445050.13748 103203931.16148  25203456.2174   25203458.7444   25203456.7784
       210.000         153.000
 122048914.14048  95103035.97448  23225147.7214   23225149.6524   23225147.6924
       230.000         191.000
 114515983.77948  89233222.68148  21791676.0064   21791677.7154   21791675.9074
       241.000         212.000
 134551594.29248  87053194.13748  23701377.0934   23701377.3554   23701377.1264
       225.000         178.000
 117058522.11448  91214424.59148  22275502.2414   22275503.6284   22275502.9014
       238.000         196.000
 09  1 12  1 40  0.0000000  0  9G 9G 5G26G15G28G17G12G22G18
 116026873.54448  72618331.84348  20176252.0014   20176254.2064   20176252.1804
       252.000         229.000
 129717878.36448  83286644.82448  22781565.5024   22781568.7594   22781565.4744
       231.000         188.000
 117297306.05248  91400476.80848  22320953.1724   22320955.5714   22320952.8564
       239.000         197.000
 109664033.02048  85452489.38748  20868374.0524   20868375.8264   20868373.6324
       248.000         228.000
 132541626.33348 103279185.31848  25221834.4424   25221835.9494   25221834.5984
       211.000         150.000
 122057037.07348  95109365.54848  23226693.5354   23226695.3684   23226693.4254
       230.000         191.000
 114437158.30848  89171800.26348  21776675.9764   21776677.4334   21776675.9894
       241.000         212.000
 134504935.03248  87016836.27848  23692497.7284   23692498.7604   23692497.5454
       228.000         180.000
 117064707.81248  91219244.60848  22276679.3204   22276681.1584   22276679.9654
       237.000         196.000
 09  1 12  1 40 30.0000000  0  9G 9G 5G26G15G28G17G12G22G18
 115998132.76648  72595936.43948  20170782.7104   20170784.9994   20170782.9084
       252.000         229.000
 129620670.87148  83210898.75148  22763067.7504   22763070.7464   22763068.6014
       232.000         189.000
 117388700.99348  91471693.64448  22338344.8984   22338347.6904   22338345.1774
       236.000         197.000
 109715471.18048  85492571.06248  20878162.5554   20878164.2084   20878162.2604
       248.000         228.000
 132638237.53048 103354466.73148  25240219.8054   25240220.3024   25240221.4654
       214.000         149.000
 122065715.05648  95116127.62248  23228345.0364   23228346.6344   23228344.5654
       229.000         190.000
 114358707.68548  89110669.93448  21761747.3784   21761748.8704   21761747.2754
       241.000         213.000
 134458767.44548  86980861.54348  23683712.8714   23683712.9514   23683714.3604
       229.000         183.000
 117071464.48248  91224509.52948  22277964.6594   22277966.7884   22277965.1714
       238.000         196.000
 09  1 12  1 41  0.0000000  0 10G 9G 5G26G15G28G17G30G12G22G18
 115969726.08548  72573801.37248  20165377.0974   20165379.4684   20165377.3894
       252.000         229.000
 129523730.68048  83135360.95848  22744620.3254   22744623.1974   22744621.0194
       231.000         188.000
 117480374.93048  91543127.86948  22355790.0374   22355792.4404   22355789.8024
       236.000         197.000
 109767357.37648  85533001.85548  20888036.2644   20888037.8954   20888036.1224
       249.000         227.000
 132734881.89548 103429774.02948  25258610.4344   25258610.7424   25258612.8494
       210.000         152.000
 122074948.44948  95123322.49748  23230102.4214   23230103.8444   23230102.1724
       232.000         191.000
 131488982.15658 102458929.49058  25021534.2725   25021538.1335   25021530.8925
       209.000         154.000
 114280633.68848  89049833.08148  21746890.2814   21746891.8974   21746890.0714
       241.000         213.000
 134413092.74948  86945270.87348  23675021.4044   23675021.7824   23675021.0694
       229.000         183.000
 117078791.75548  91230219.07848  22279359.5004   22279361.0394   22279360.2374
       237.000         196.000
 09  1 12  1 41 30.0000000  0 10G 9G 5G26G15G28G17G30G12G22G18
 115941653.65248  72551926.74948  20160035.0724   20160037.4004   20160035.2074
       252.000         229.000
 129427059.11648  83060032.49948  22726224.2344   22726227.2364   22726224.8564
       231.000         189.000
 117572326.46748  91614778.40948  22373287.9124   22373290.2204   22373287.9714
       236.000         196.000
 109819690.69348  85573781.05448  20897995.0544   20897996.5174   20897994.9644
       249.000         227.000
 132831557.65848 103505105.80248  25277007.3104   25277007.7164   25277007.7044
       212.000         150.000
 122084736.76548  95130949.75348  23231965.1514   23231966.2314   23231965.6294
       231.000         190.000
 131376704.63848 102371440.50148  25000168.0354   25000172.5144   25000167.8704
       211.000         154.000
 114202937.51748  88989290.63548  21732105.1984   21732106.7144   21732105.2714
       241.000         213.000
 134367911.81648  86910064.94448  23666423.9184   23666423.8714   23666424.4444
       228.000         181.000
 117086688.35948  91236372.25448  22280862.0824   22280863.8684   22280862.9154
       237.000         196.000
 09  1 12  1 42  0.0000000  0 10G 9G 5G26G15G28G17G30G12G22G18
 115913916.22048  72530313.16848  20154756.7794   20154759.0504   20154756.9104
       252.000         229.000
 129330658.03448  82984914.79248  22707879.7144   22707882.7024   22707880.7914
       232.000         189.000
 117664554.42648  91686644.35648  22390838.2664   22390840.3484   22390838.0724
       236.000         195.000
 109872470.81748  85614908.41748  20908038.6304   20908040.3574   20908038.3114
       248.000         228.000
 132928263.59648 103580461.03748  25295410.0794   25295409.6924   25295408.6674
       211.000         148.000
 122095080.74348  95139010.01048  23233933.1564   23233934.5864   23233933.2504
       228.000         189.000
 131264505.47048 102284012.55948  24978817.0984   24978821.7864   24978818.1514
       209.000         152.000
 114125620.81048  88929043.86948  21717392.2684   21717393.7434   21717392.0604
       242.000         213.000
 134323226.46248  86875245.19948  23657920.1844   23657920.0834   23657920.4414
       230.000         177.000
 117095154.28648  91242969.06848  22282473.0994   22282474.5004   22282473.8504
       237.000         195.000
 09  1 12  1 42 30.0000000  0 10G 9G 5G26G15G28G17G30G12G22G18
 115886513.79848  72508960.63048  20149542.3254   20149544.6314   20149542.5274
       252.000         229.000
 129234528.87848  82910008.97848  22689586.9324   22689589.5654   22689587.9534
       230.000         188.000
 117757056.88648  91758724.19148  22408441.0124   22408443.3454   22408441.2524
       235.000         195.000
 109925696.73348  85656383.14248  20918167.2744   20918169.0824   20918166.9474
       249.000         227.000
 133024997.58148 103655838.17148  25313817.8584   25313817.9664   25313817.0354
       208.000         147.000
 122105979.87648  95147502.85648  23236007.1864   23236008.6164   23236006.8234
       230.000         190.000
 131152385.41148 102196646.25848  24957482.3124   24957485.7404   24957481.8904
       211.000         153.000
 114048684.57048  88869093.56948  21702751.6824   21702753.2174   21702751.6274
       242.000         214.000
 134279038.08648  86840812.68048  23649511.7274   23649510.6194   23649512.3494
       228.000         180.000
 117104188.26748  91250008.51048  22284192.1894   22284193.7794   22284193.2184
       236.000         195.000
 09  1 12  1 43  0.0000000  0 10G 9G 5G26G15G28G17G30G12G22G18
 115859447.66748  72487870.14148  20144391.9454   20144394.1774   20144392.2334
       252.000         229.000
 129138674.22148  82835317.04848  22671346.0934   22671348.7954   22671346.2954
       232.000         189.000
 117849833.63448  91831017.74048  22426095.8074   22426098.0534   22426095.7034
       237.000         197.000
 109979368.90348  85698205.60748  20928380.7134   20928382.4084   20928380.5934
       247.000         227.000
 133121758.75048 103731236.48348  25332230.9284   25332232.0804   25332232.5504
       211.000         145.000
 122117435.27448  95156429.15248  23238186.9154   23238188.3034   23238186.6194
       230.000         190.000
 131040347.09548 102109343.64348  24936162.1594   24936165.2874   24936161.7814
       211.000         153.000
 113972131.15648  88809441.57448  21688184.2474   21688185.6864   21688184.0874
       242.000         214.000
 134235348.18748  86806768.63348  23641197.5094   23641198.2234   23641197.4484
       227.000         182.000
 117113790.75148  91257490.95048  22286019.2744   22286021.0524   22286019.9714
       237.000         195.000
 09  1 12  1 43 30.0000000  0 10G 9G 5G26G15G28G17G30G12G22G18
 115832718.37348  72467042.11548  20139305.3394   20139307.7964   20139305.2994
       253.000         229.000
 129043095.16248  82760839.89048  22653158.0794   22653161.2594   22653158.4244
       232.000         189.000
 117942882.92648  91903523.67548  22443802.6444   22443805.1924   22443802.5344
       236.000         197.000
 110033486.29548  85740374.99848  20938678.8114   20938680.5534   20938678.3644
       248.000         227.000
 133218545.20848 103806654.44748  25350648.4164   25350650.0584   25350649.6734
       208.000         147.000
 122129446.50748  95165788.55048  23240472.9124   23240474.3094   23240472.7864
       230.000         192.000
 130928391.84648 102022105.73048  24914857.9264   24914861.1874   24914856.6574
       212.000         155.000
 113895961.41348  88750088.54248  21673689.5774   21673690.9624   21673689.5944
       243.000         214.000
 134192158.21948  86773114.07548  23632978.7144   23632978.8774   23632978.8314
       226.000         174.000
 117123960.49548  91265415.39848  22287954.5474   22287956.4104   22287955.2974
       237.000         196.000
 09  1 12  1 44  0.0000000  0 10G 9G 5G26G15G28G17G30G12G22G18
 115806325.51448  72446476.24948  20134283.0844   20134285.3604   20134283.4904
       252.000         229.000
 128947793.12248  82686578.58348  22635022.1924   22635025.8244   22635022.6814
       231.000         189.000
 118036202.85848  91976240.50348  22461560.8054   22461563.2834   22461560.7224
       236.000         194.000
 110088047.80948  85782890.45648  20949061.6804   20949063.2054   20949061.3624
       248.000         226.000
 133315354.58248 103882090.31748  25369070.1974   25369072.1794   25369069.2304
       201.000         144.000
 122142013.28348  95175580.86048  23242864.2734   23242865.8134   23242864.2534
       231.000         192.000
 130816521.35448 101934933.85748  24893569.2924   24893573.7584   24893569.2984
       211.000         155.000
 113820176.46248  88691035.35248  21659268.2314   21659269.6864   21659268.1254
       242.000         216.000
 134149469.17648  86739849.85248  23624855.2684   23624855.1234   23624853.9634
       227.000         179.000
 117134696.43548  91273781.05348  22289997.7624   22289999.6184   22289998.1874
       237.000         195.000
 09  1 12  1 44 30.0000000  0 10G 9G 5G26G15G28G17G30G12G22G18
 115780269.58448  72426172.92948  20129324.6884   20129327.0534   20129324.6454
       252.000         229.000
 128852769.93548  82612534.55248  22616940.2084   22616943.3284   22616940.5294
       234.000         191.000
 118129792.37848  92049167.40948  22479370.0364   22479372.6374   22479369.9414
       235.000         194.000
 110143052.55848  85825751.30048  20959528.5784   20959530.2494   20959528.3654
       248.000         226.000
 133412185.87648 103957543.21748  25387496.8694   25387498.4564   25387496.5694
       203.000         140.000
 122155135.88648  95185806.27048  23245361.5824   23245362.9974   23245361.2904
       231.000         192.000
 130704737.47148 101847829.48848  24872297.4994   24872302.2434   24872298.1204
       211.000         157.000
 113744777.56048  88632282.98048  21644920.2504   21644921.7654   21644920.1004
       243.000         216.000
 134107282.18148  86706976.90348  23616827.7214   23616827.7824   23616827.2104
       228.000         179.000
 117145998.13048  91282587.55248  22292148.2414   22292150.0074   22292148.6904
       237.000         194.000
 09  1 12  1 45  0.0000000  0 10G 9G 5G26G15G28G17G30G12G22G18
 115754550.50748  72406132.09148  20124430.4754   20124432.7344   20124430.7804
       252.000         229.000
 128758026.15148  82538708.23748  22598911.3444   22598914.1624   22598912.6154
       232.000         191.000
 118223648.98448  92122302.41748  22497230.3504   22497232.8634   22497230.0274
       235.000         195.000
 110198499.13648  85868956.41848  20970079.7834   20970081.4374   20970079.4544
       248.000         226.000
 133509036.20148 104033010.97848  25405926.4444   25405928.2554   25405928.2364
       205.000         141.000
 122168812.89248  95196463.67648  23247964.0494   23247965.6274   23247963.9334
       233.000         193.000
 130593040.85748 101760793.14048  24851043.3994   24851046.5204   24851042.5404
       214.000         157.000
 113669765.44148  88573831.99348  21630645.8434   21630647.3884   21630645.8904
       243.000         216.000
 134065597.73048  86674495.47748  23608895.0694   23608894.7514   23608894.1954
       224.000         176.000
 117157863.59748  91291833.35448  22294406.0504   22294408.0344   22294407.0804
       235.000         193.000
 09  1 12  1 45 30.0000000  0 10G 9G 5G26G15G28G17G30G12G22G18
 115729169.48748  72386354.66948  20119600.7414   20119602.9844   20119600.9764
       252.000         229.000
 128663564.25948  82465101.59048  22580935.7924   22580938.9114   22580936.5814
       233.000         192.000
 118317772.15748  92195645.14548  22515141.4834   22515144.1674   22515141.3384
       234.000         194.000
 110254388.05048  85912506.21748  20980715.2424   20980716.7174   20980714.9414
       248.000         226.000
 133605904.93548 104108493.05648  25424360.6114   25424363.1784   25424361.7074
       205.000         141.000
 122183045.73448  95207554.20548  23250672.4504   23250673.9744   23250672.4304
       232.000         192.000
 130481434.53548 101673827.14148  24829805.0474   24829808.3734   24829805.8034
       213.000         158.000
 113595142.24548  88515684.06048  21616445.3904   21616446.9304   21616445.0374
       243.000         216.000
 134024418.48348  86642407.76448  23601058.1754   23601059.1474   23601057.8404
       225.000         179.000
 117170293.16548  91301518.72448  22296771.3754   22296773.4354   22296771.8574
       236.000         193.000
 09  1 12  1 46  0.0000000  0 10G 9G 5G26G15G28G17G30G12G22G18
 115704125.88448  72366840.17248  20114835.1554   20114837.3684   20114835.3774
       252.000         229.000
 128569384.84948  82391715.05648  22563014.1134   22563017.1624   22563014.8454
       233.000         192.000
 118412159.50248  92269193.71848  22533102.5264   22533105.2814   22533102.4204
       233.000         193.000
 110310717.19048  85956399.04848  20991434.4564   20991435.8154   20991434.3784
       248.000         226.000
 133702789.62648 104183987.59148  25442797.6154   25442799.5034   25442797.6424
       204.000         141.000
 122197833.13948  95219076.86348  23253486.5534   23253487.6874   23253486.5814
       231.000         192.000
 130369918.50848 101586931.52048  24808583.9334   24808587.2854   24808584.2904
       212.000         156.000
 113520908.16648  88457839.35148  21602319.1444   21602320.8754   21602319.2344
       243.000         217.000
 133983744.02748  86610713.40248  23593318.7334   23593319.1004   23593318.8794
       223.000         177.000
 117183285.00248  91311642.22348  22299243.8474   22299245.4764   22299244.9354
       236.000         194.000
 09  1 12  1 46 30.0000000  0 10G 9G 5G26G15G28G17G30G12G22G18
 115679420.68248  72347589.36548  20110133.6814   20110136.2644   20110133.8444
       252.000         229.000
 128475489.95748  82318550.22448  22545146.1524   22545149.6384   22545147.1634
       233.000         192.000
 118506809.99148  92342947.33348  22551114.2484   22551116.7194   22551113.9534
       234.000         191.000
 110367486.71848  86000635.03748  21002237.0364   21002238.7844   21002236.7064
       248.000         226.000
 133799689.19948 104259493.72448  25461236.9094   25461238.5594   25461236.3804
       203.000         141.000
 122213175.54448  95231032.00148  23256405.8884   23256407.3134   23256406.2144
       231.000         191.000
 130258495.14748 101500108.09648  24787380.8154   24787384.2874   24787380.6964
       213.000         157.000
 113447065.19248  88400299.38848  21588267.5694   21588269.1514   21588267.5274
       244.000         218.000
 133943576.13048  86579413.72948  23585674.6134   23585674.6164   23585673.4134
       228.000         178.000
 117196838.47348  91322203.34848  22301822.8574   22301824.4944   22301823.4914
       236.000         193.000
 09  1 12  1 47  0.0000000  0 10G 9G 5G26G15G28G17G30G12G22G18
 115655054.40748  72328602.65548  20105497.0184   20105499.6094   20105497.1944
       252.000         229.000
 128381881.28548  82245608.43248  22527332.9354   22527336.5834   22527333.3414
       234.000         192.000
 118601722.26248  92416904.95248  22569175.3244   22569177.8354   22569175.3694
       233.000         192.000
 110424695.31448  86045213.15248  21013123.6544   21013125.2304   21013123.4244
       248.000         226.000
 133896601.78348 104335009.97248  25479679.1034   25479680.7224   25479678.7374
       206.000         142.000
 122229072.67348  95243419.38248  23259430.5674   23259432.4274   23259430.2124
       231.000         191.000
 130147166.33848 101413358.31848  24766195.9974   24766199.1244   24766195.0554
       212.000         156.000
 113373614.30348  88343064.95448  21574290.2504   21574291.9244   21574290.0274
       244.000         218.000
 133903915.90948  86548509.62448  23578128.8474   23578128.5844   23578129.0604
       227.000         183.000
 117210952.98048  91333201.64448  22304508.7134   22304510.4114   22304508.8374
       236.000         194.000
 09  1 12  1 47 30.0000000  0 10G 9G 5G26G15G28G17G30G12G22G18
 115631026.94648  72309879.95948  20100924.8134   20100927.2234   20100924.9014
       252.000         229.000
 128288560.02748  82172890.59648  22509574.4574   22509578.0324   22509575.5054
       233.000         193.000
 118696894.64248  92491065.24348  22587285.9664   22587288.6594   22587285.7124
       233.000         193.000
 110482342.20448  86090132.80448  21024093.4354   21024095.0544   21024093.3584
       247.000         225.000
 133993526.13048 104410535.40448  25498122.8834   25498123.6834   25498123.0604
       209.000         140.000
 122245524.28348  95256238.81548  23262561.8214   23262563.4184   23262561.5794
       234.000         193.000
 130035933.47048 101326683.30348  24745030.2774   24745032.1154   24745030.5464
       214.000         157.000
 113300556.70848  88286136.98248  21560387.8184   21560389.5804   21560387.6894
       244.000         218.000
 133864764.40248  86518001.96948  23570677.2014   23570678.2204   23570677.5204
       226.000         179.000
 117225627.32148  91344636.17848  22307301.4284   22307302.7714   22307301.9284
       237.000         193.000
 09  1 12  1 48  0.0000000  0 10G 9G 5G26G15G28G17G30G12G22G18
 115607339.00948  72291421.82848  20096417.1434   20096419.4564   20096417.4154
       252.000         229.000
 128195527.67748  82100397.87448  22491870.8684   22491874.5214   22491871.2774
       233.000         192.000
 118792325.50148  92565426.93648  22605446.1474   22605448.5794   22605446.4594
       233.000         193.000
 110540426.52448  86135393.30648  21035146.5444   21035148.0344   21035146.2664
       248.000         225.000
 134090459.87248 104486068.19048  25516568.2454   25516570.1904   25516569.2794
       204.000         139.000
 122262529.83648  95269489.90748  23265798.0074   23265799.0554   23265797.9084
       231.000         192.000
 129924798.26548 101240084.39648  24723881.9114   24723883.8954   24723882.6144
       216.000         158.000
 113227893.56848  88229516.36348  21546560.4364   21546561.8894   21546560.4424
       243.000         217.000
 133826122.97548  86487891.74748  23563324.9484   23563324.9784   23563325.2624
       226.000         182.000
 117240860.51548  91356506.17248  22310200.1444   22310201.5484   22310200.5724
       237.000         193.000
 09  1 12  1 48 30.0000000  0 10G 9G 5G26G15G28G17G30G12G22G18
 115583990.97948  72273228.55248  20091974.2764   20091976.4904   20091974.4494
       252.000         229.000
 128102785.98148  82028131.63748  22474222.9414   22474226.1134   22474223.5324
       234.000         193.000
 118888013.62448  92639989.09948  22623654.8994   22623657.4354   22623655.0744
       233.000         192.000
 110598947.52748  86180994.08048  21046282.5874   21046284.2424   21046282.2034
       247.000         225.000
 134187401.50948 104561607.14148  25535015.8694   25535017.1204   25535015.9594
       206.000         140.000
 122280089.46148  95283172.74048  23269139.4124   23269140.5134   23269139.1044
       231.000         192.000
 129813762.35448 101153562.86548  24702752.2584   24702754.8254   24702751.8554
       218.000         159.000
 113155626.16748  88173204.11648  21532808.2034   21532809.7594   21532808.0874
       243.000         217.000
 133787992.47948  86458179.68548  23556068.4084   23556069.3084   23556067.1104
       226.000         182.000
 117256651.58448  91368810.89548  22313205.0134   22313206.6504   22313205.6374
       236.000         193.000
 09  1 12  1 49  0.0000000  0 10G 9G 5G26G15G28G17G30G12G22G18
 115560977.57748  72255296.03348  20087594.8154   20087597.1184   20087595.0134
       252.000         229.000
 128010330.81248  81956088.67648  22456629.1834   22456632.5624   22456630.1014
       234.000         194.000
 118983951.88248  92714746.18348  22641911.4434   22641913.7064   22641911.6204
       233.000         192.000
 110657898.67948  86226930.03448  21057500.5464   21057502.2524   21057500.2804
       248.000         225.000
 134284343.91648 104637146.67348  25553463.6374   25553464.8174   25553464.3364
       204.000         139.000
 122298197.47148  95297282.88748  23272584.9194   23272586.4594   23272584.7364
       232.000         191.000
 129702821.82648 101067115.63748  24681640.5414   24681643.5894   24681641.3494
       217.000         161.000
 113083750.10948  88117196.82048  21519130.5584   21519132.0974   21519130.4474
       244.000         218.000
 133750368.40548  86428862.23348  23548908.8414   23548909.9034   23548910.1694
       226.000         180.000
 117272993.95848  91381545.19348  22316314.8814   22316316.6294   22316315.6484
       236.000         194.000
 09  1 12  1 49 30.0000000  0  9G 9G 5G26G15G17G30G12G22G18
 115538307.68248  72237631.17648  20083280.8694   20083283.2424   20083281.0854
       252.000         229.000
 127918171.81548  81884276.47948  22439091.9274   22439095.3514   22439092.5534
       237.000         195.000
 119080146.82848  92789703.28448  22660216.5664   22660219.1044   22660216.0754
       232.000         191.000
 110717287.26648  86273206.84548  21068801.9024   21068803.5994   21068801.6584
       247.000         224.000
 122316861.38848  95311826.19848  23276136.8214   23276137.9484   23276136.3704
       233.000         192.000
 129591986.43448 100980750.37948  24660548.9914   24660552.4174   24660548.5664
       217.000         160.000
 113012274.77148  88061501.76548  21505529.2484   21505530.7734   21505529.0854
       243.000         218.000
 133713260.32848  86399946.82348  23541846.7724   23541847.4464   23541846.3394
       223.000         177.000
 117289894.69748  91394714.58148  22319531.2684   22319532.7844   22319532.0624
       237.000         193.000
 09  1 12  1 50  0.0000000  0  9G 9G 5G26G15G17G30G12G22G18
 115515980.45848  72220233.33648  20079032.1364   20079034.4974   20079032.1714
       251.000         229.000
 127826309.51948  81812695.47848  22421611.4664   22421614.4204   22421612.5734
       236.000         196.000
 119176596.10448  92864858.56448  22678570.4514   22678572.8674   22678570.5204
       232.000         191.000
 110777111.56948  86319823.17448  21080186.1684   21080187.8214   21080185.8664
       248.000         225.000
 122336079.85048  95326801.63548  23279793.7694   23279795.3174   23279793.8134
       232.000         192.000
 129481256.80548 100894467.50448  24639478.1724   24639481.3364   24639478.5514
       214.000         158.000
 112941200.19648  88006119.00248  21492004.3804   21492005.5744   21492004.2244
       244.000         218.000
 133676667.73548  86371433.14848  23534884.5624   23534884.5544   23534884.2294
       226.000         179.000
 117307351.79748  91408317.49748  22322853.0044   22322854.7624   22322853.8554
       237.000         194.000
 09  1 12  1 50 30.0000000  0  9G 9G 5G26G15G17G30G12G22G18
 115493995.83548  72203102.46048  20074848.5204   20074850.9494   20074848.6454
       252.000         229.000
 127734744.95248  81741346.48348  22404187.1324   22404190.3984   22404187.7234
       237.000         197.000
 119273297.50648  92940210.29548  22696971.9064   22696974.4944   22696972.0724
       229.000         190.000
 110837370.00348  86366777.78948  21091652.9594   21091654.6094   21091652.6104
       248.000         224.000
 122355852.30248  95342208.74048  23283556.3254   23283557.8884   23283556.1764
       234.000         193.000
 129370634.03048 100808267.90348  24618426.6654   24618430.0944   24618426.7394
       218.000         158.000
 112870527.17748  87951049.13448  21478555.7064   21478556.9334   21478555.7714
       244.000         219.000
 133640591.44848  86343321.71848  23528018.3914   23528018.5654   23528017.4024
       220.000         174.000
 117325363.71648  91422352.73148  22326280.5664   22326282.3374   22326281.1484
       235.000         194.000
 09  1 12  1 51  0.0000000  0  9G 9G 5G26G15G17G30G12G22G18
 115472354.06048  72186238.74048  20070730.1464   20070732.5324   20070730.4684
       252.000         229.000
 127643479.15448  81670230.30048  22386819.7214   22386823.2234   22386820.7044
       238.000         197.000
 119370249.41148  93015757.22848  22715421.0454   22715423.8094   22715420.8064
       233.000         191.000
 110898061.52348  86414069.87348  21103202.1464   21103203.8684   21103201.8964
       247.000         224.000
 122376178.15948  95358047.05748  23287424.6934   23287425.9324   23287424.4284
       233.000         194.000
 129260119.73848 100722152.84748  24597396.8834   24597399.5514   24597396.8634
       214.000         158.000
 112800256.00348  87896292.40048  21465183.3494   21465184.9744   21465183.0834
       244.000         219.000
 133605032.00648  86315613.07648  23521252.1354   23521252.6384   23521251.7964
       225.000         180.000
 117343928.74248  91436818.96548  22329813.4624   22329815.0624   22329813.8604
       237.000         194.000
 09  1 12  1 51 30.0000000  0  9G 9G 5G26G15G17G30G12G22G18
 115451054.41148  72169641.60948  20066677.2584   20066679.4284   20066677.4294
       252.000         229.000
 127552512.76048  81599347.39648  22369509.5304   22369512.7704   22369510.3234
       238.000         197.000
 119467449.38448  93091497.45948  22733917.7654   22733920.2944   22733918.0824
       230.000         190.000
 110959184.11248  86461697.85348  21114833.3274   21114835.1144   21114832.9574
       246.000         224.000
 122397055.94048  95374315.47048  23291397.2544   23291398.7134   23291397.3764
       232.000         192.000
 129149714.42948 100636122.72048  24576387.3124   24576390.3584   24576386.1544
       216.000         157.000
 112730387.53548  87841849.45948  21451887.7444   21451889.5024   21451887.7054
       245.000         219.000
 133569989.58348  86288307.30048  23514583.5684   23514585.0414   23514583.8804
       225.000         179.000
 117363045.08048  91451714.79748  22333451.3194   22333452.7654   22333451.6844
       237.000         193.000
 09  1 12  1 52  0.0000000  0  9G 9G 5G26G15G17G30G12G22G18
 115430097.22648  72153311.33948  20062689.2044   20062691.3834   20062689.3964
       252.000         229.000
 127461847.49248  81528699.14448  22352256.2894   22352259.4844   22352257.0914
       236.000         196.000
 119564895.99948  93167429.89248  22752461.0734   22752464.0364   22752460.4754
       231.000         188.000
 111020737.15548  86509661.25048  21126546.5084   21126548.3984   21126546.0844
       247.000         224.000
 122418485.47448  95391013.81948  23295474.5054   23295476.6524   23295474.4174
       229.000         191.000
 129039419.88248 100550178.88248  24555398.9934   24555401.8814   24555399.9114
       216.000         159.000
 112660922.85848  87787721.15748  21438669.2174   21438670.7934   21438668.8364
       245.000         220.000
 133535465.46248  86261405.37348  23508014.9354   23508015.0944   23508014.9774
       227.000         181.000
 117382711.53148  91467039.29348  22337193.6754   22337195.0254   22337194.1994
       237.000         192.000
 09  1 12  1 52 30.0000000  0  9G 9G 5G26G15G17G30G12G22G18
 115409483.36048  72137248.59048  20058766.5354   20058768.7624   20058766.6224
       253.000         229.000
 127371484.73748  81458286.62348  22335060.3734   22335063.9954   22335060.6754
       238.000         197.000
 119662587.68948  93243553.29048  22771051.4464   22771053.7534   22771051.6174
       231.000         187.000
 111082719.83648  86557959.43348  21138341.5684   21138343.1684   21138341.3994
       246.000         224.000
 122440466.50848  95408141.90848  23299657.6464   23299659.4624   23299657.1464
       232.000         193.000
 128929237.87348 100464322.79748  24534431.6244   24534435.3474   24534430.8474
       214.000         162.000
 112591863.27948  87733908.52548  21425527.6184   21425529.2684   21425527.4094
       246.000         220.000
 133501460.58048  86234908.08248  23501543.5134   23501543.9074   23501542.9174
       225.000         179.000
 117402927.39248  91482791.90748  22341040.4944   22341042.0114   22341041.0524
       235.000         190.000
 09  1 12  1 53  0.0000000  0  9G 9G 5G26G15G17G30G12G22G18
 115389212.87548  72121453.40348  20054909.2294   20054911.4824   20054909.5094
       252.000         229.000
 127281425.84148  81388110.86648  22317923.0944   22317926.5664   22317923.7684
       237.000         199.000
 119760522.76448  93319866.33748  22789687.6174   22789690.1354   22789688.2704
       231.000         188.000
 111145130.70148  86606591.27348  21150217.9324   21150219.4894   21150217.5224
       247.000         223.000
 122462998.09948  95425698.98148  23303945.9074   23303947.0704   23303945.8844
       230.000         189.000
 128819170.10348 100378555.69848  24513486.2434   24513490.6364   24513485.8444
       211.000         161.000
 112523209.65048  87680412.20648  21412463.3544   21412464.7584   21412463.2414
       246.000         220.000
 133467975.19948  86208815.56248  23495171.6044   23495171.6634   23495171.4464
       226.000         179.000
 117423691.01948  91498971.33748  22344991.5574   22344993.0574   22344992.1504
       235.000         191.000
 09  1 12  1 53 30.0000000  0  9G 9G 5G26G15G17G30G12G22G18
 115369286.09548  72105926.04548  20051117.1824   20051119.4874   20051117.4974
       252.000         229.000
 127191672.00548  81318172.82448  22300843.5574   22300846.9574   22300843.8124
       238.000         199.000
 119858699.56048  93396367.72548  22808370.1874   22808372.6244   22808370.0044
       232.000         188.000
 111207968.66348  86655555.90748  21162175.5794   21162177.1624   21162175.4884
       247.000         223.000
 122486079.74148  95443684.70548  23308337.1144   23308338.9524   23308337.2624
       231.000         189.000
 128709217.74248 100292878.52548  24492563.0504   24492567.6144   24492562.0614
       212.000         159.000
 112454962.64448  87627232.74548  21399476.3674   21399477.6704   21399476.2844
       246.000         220.000
 133435010.37548  86183128.66548  23488898.3604   23488898.9874   23488899.4364
       228.000         179.000
 117445001.01748  91515576.51648  22349046.7154   22349048.5854   22349047.2374
       236.000         192.000
 09  1 12  1 54  0.0000000  0  9G 9G 5G26G15G17G30G12G22G18
 115349703.64948  72090667.00548  20047390.8004   20047392.9704   20047391.0534
       252.000         229.000
 127102224.96948  81248473.86148  22283822.4234   22283825.8724   22283822.7054
       239.000         199.000
 119957116.69848  93473056.40748  22827098.2614   22827100.8294   22827098.3584
       231.000         189.000
 111271232.87448  86704852.68548  21174214.3854   21174216.0784   21174214.0894
       247.000         223.000
 122509711.46748  95462099.02148  23312835.0414   23312836.1054   23312834.6434
       235.000         190.000
 128599382.48948 100207292.57748  24471662.0974   24471666.8044   24471663.0094
       211.000         158.000
 112387123.73548  87574371.27648  21386567.0304   21386568.4344   21386566.7194
       246.000         221.000
 133402567.19948  86157848.26848  23482725.2024   23482725.0194   23482726.5574
       230.000         180.000
 117466856.44448  91532606.69848  22353205.5974   22353207.6254   22353206.5444
       236.000         193.000
 09  1 12  1 54 30.0000000  0  9G 9G 5G26G15G17G30G12G22G18
 115330465.45948  72075676.20848  20043729.8004   20043732.1004   20043729.9754
       251.000         229.000
 127013085.61448  81179014.63548  22266859.9064   22266863.1914   22266860.5624
       238.000         200.000
 120055772.09248  93549930.74048  22845871.9014   22845874.4084   22845871.5444
       230.000         189.000
 111334921.98048  86754480.55548  21186334.0684   21186335.5774   21186333.8184
       247.000         223.000
 122533892.03348  95480941.02448  23317436.8474   23317437.3494   23317436.9394
       231.000         189.000
 128489666.05948 100121799.26048  24450784.2664   24450788.1164   24450783.6914
       213.000         160.000
 112319693.29548  87521828.09448  21373735.3264   21373736.9464   21373735.2954
       246.000         221.000
 133370645.90448  86132974.55448  23476650.6694   23476650.1724   23476652.0734
       229.000         180.000
 117489255.10048  91550060.18348  22357468.1184   22357470.2024   22357468.5754
       238.000         195.000
 09  1 12  1 55  0.0000000  0  9G 9G 5G26G15G17G30G12G22G18
 115311572.17648  72060954.16748  20040134.6764   20040136.9604   20040134.8764
       252.000         230.000
 126924256.16748  81109796.89248  22249956.0484   22249959.4884   22249956.7224
       239.000         199.000
 120154664.88248  93626990.04348  22864690.3664   22864693.1394   22864689.9594
       230.000         188.000
 111399035.36648  86804439.02648  21198534.4784   21198536.0684   21198534.2414
       246.000         223.000
 122558621.57648  95500210.83548  23322141.0474   23322143.3374   23322140.8304
       230.000         187.000
 128380070.38448 100036400.06048  24429928.9094   24429932.6704   24429928.5844
       214.000         160.000
 112252673.06548  87469604.55348  21360981.7074   21360983.3804   21360981.4764
       245.000         220.000
 133339248.30048  86108508.84648  23470676.0834   23470675.2974   23470675.3724
       229.000         182.000
 117512197.17448  91567937.12448  22361833.9904   22361836.0974   22361835.0494
       237.000         193.000
 09  1 12  1 55 30.0000000  0  9G 9G 5G26G15G17G30G12G22G18
 115293024.87148  72046501.72348  20036605.0844   20036607.4864   20036605.4084
       251.000         229.000
 126835738.31348  81040821.96848  22233111.7014   22233115.0924   22233112.1764
       238.000         200.000
 120253793.86348  93704233.40648  22883554.4434   22883556.7134   22883554.5234
       229.000         186.000
 111463572.95448  86854728.05048  21210815.4134   21210817.1584   21210815.0784
       245.000         222.000
 122583900.02748  95519908.31748  23326952.6744   23326953.9134   23326951.9194
       234.000         191.000
 128270597.61848  99951096.64448  24409096.8124   24409100.9884   24409097.1564
       216.000         162.000
 112186064.29848  87417701.63848  21348306.2544   21348308.1604   21348306.0764
       246.000         221.000
 133308375.61748  86084452.20548  23464800.9194   23464800.5834   23464800.6374
       226.000         178.000
 117535681.23648  91586236.38048  22366302.8574   22366304.6294   22366303.2794
       237.000         192.000
 09  1 12  1 56  0.0000000  0  9G 9G 5G26G15G17G30G12G22G18
 115274822.59548  72032318.13248  20033141.2674   20033143.6724   20033141.3524
       252.000         229.000
 126747532.04048  80972089.81748  22216326.6724   22216329.8294   22216327.3684
       238.000         201.000
 120353156.23448  93781658.62348  22902461.8474   22902464.8894   22902461.5754
       228.000         186.000
 111528532.17448  86905345.61048  21223176.7274   21223178.6064   21223176.5384
       246.000         222.000
 122609725.38348  95540031.97448  23331867.6424   23331868.3794   23331868.3104
       230.000         188.000
 128161247.90948  99865889.10948  24388288.7154   24388292.4124   24388287.6814
       219.000         167.000
 112119867.34448  87366119.61048  21335709.6404   21335711.1804   21335709.6274
       246.000         221.000
 133278026.95648  86060803.87248  23459025.7524   23459024.8874   23459025.0324
       227.000         179.000
 117559704.54948  91604955.82548  22370874.4424   22370876.1444   22370874.8664
       236.000         192.000
 09  1 12  1 56 30.0000000  0  9G 9G 5G26G15G17G30G12G22G18
 115256966.58248  72018404.35648  20029743.3874   20029745.8064   20029743.6794
       251.000         229.000
 126659639.78048  80903602.36448  22199601.1064   22199604.4974   22199601.6834
       237.000         202.000
 120452751.35148  93859265.20648  22921414.5444   22921417.3344   22921414.2704
       231.000         188.000
 111593912.51248  86956291.31848  21235618.1474   21235620.0734   21235617.9684
       246.000         222.000
 122636098.03248  95560582.12148  23336884.2304   23336886.9154   23336883.9674
       230.000         186.000
 128052023.83548  99780779.47648  24367504.4814   24367508.0124   24367503.4844
       223.000         170.000
 112054083.62548  87314859.58648  21323191.3664   21323192.7644   21323191.2564
       246.000         221.000
 133248204.02548  86037565.22348  23453350.1774   23453350.4074   23453350.2734
       225.000         179.000
 117584266.79048  91624095.20948  22375548.5474   22375550.3594   22375549.4964
       236.000         192.000
 09  1 12  1 57  0.0000000  0  9G 9G 5G26G15G17G30G12G22G18
 115239457.46748  72004760.89248  20026411.5394   20026413.9954   20026411.6654
       251.000         229.000
 126572062.87848  80835360.63348  22182935.8514   22182939.2454   22182936.0604
       237.000         202.000
 120552577.40348  93937051.74148  22940410.7204   22940413.4144   22940410.9624
       230.000         187.000
 111659712.92548  87007564.36248  21248139.6054   21248141.5554   21248139.5174
       246.000         222.000
 122663017.10848  95581558.02648  23342008.1154   23342009.0084   23342007.4154
       235.000         189.000
 127942926.91548  99695768.89348  24346744.1754   24346747.6244   24346745.3584
       222.000         169.000
 111988713.93348  87263922.18648  21310751.8724   21310753.3604   21310751.7014
       247.000         221.000
 133218907.66748  86014736.89548  23447775.7824   23447776.2874   23447775.5374
       229.000         184.000
 117609366.58448  91643653.47548  22380324.6984   22380326.4684   22380325.1674
       235.000         191.000
 09  1 12  1 57 30.0000000  0  9G 9G 5G26G15G17G30G12G22G18
 115222294.13748  71991386.86748  20023145.4594   20023147.8284   20023145.6244
       251.000         229.000
 126484801.67648  80767364.92848  22166330.4484   22166333.7844   22166331.1794
       238.000         202.000
 120652631.99148  94015016.36248  22959450.4714   22959452.8774   22959450.0554
       230.000         187.000
 111725931.15948  87059162.97248  21260740.5524   21260742.3804   21260740.2754
       246.000         222.000
 122690481.22948  95602958.64648  23347234.5594   23347235.3524   23347234.9624
       232.000         186.000
 127833957.53948  99610857.67748  24326007.5554   24326010.8784   24326006.7644
       219.000         163.000
 111923758.57048  87213307.64148  21298391.2434   21298392.8214   21298390.9654
       247.000         222.000
 133190137.56448  85992318.62548  23442300.9114   23442301.7514   23442302.0454
       228.000         184.000
 117635001.37148  91663628.60048  22385202.5394   22385204.9034   22385202.8604
       234.000         192.000
 09  1 12  1 58  0.0000000  0  9G 9G 5G26G15G17G30G12G22G18
 115205478.06248  71978283.42848  20019945.5054   20019947.8274   20019945.6614
       251.000         229.000
 126397858.29548  80699616.85348  22149785.7674   22149789.1644   22149786.3444
       240.000         203.000
 120752914.09748  94093158.25148  22978533.2884   22978536.0584   22978532.7134
       228.000         187.000
 111792567.26448  87111087.20348  21273420.9174   21273422.8094   21273420.6934
       245.000         221.000
 122718490.44648  95624784.01948  23352563.8364   23352565.0664   23352564.0314
       230.000         184.000
 127725118.44648  99526048.01348  24305295.9044   24305298.5914   24305295.7854
       217.000         160.000
 111859219.00848  87163017.08648  21286109.9864   21286111.3234   21286109.9784
       247.000         222.000
 133161895.58748  85970311.87848  23436926.2334   23436927.3224   23436926.9024
       227.000         184.000
 117661170.33948  91684019.98248  22390182.6204   22390184.6794   22390183.0904
       234.000         191.000
 09  1 12  1 58 30.0000000  0  9G 9G 5G26G15G17G30G12G22G18
 115189010.23448  71965451.34948  20016811.6684   20016814.1304   20016811.8454
       251.000         229.000
 126311234.59048  80632117.88148  22133302.0364   22133305.3314   22133302.7494
       240.000         204.000
 120853422.72948  94171476.65148  22997659.7184   22997662.4524   22997659.0884
       229.000         187.000
 111859620.36748  87163336.36048  21286180.7894   21286182.5234   21286180.3684
       245.000         221.000
 122747044.56148  95647033.99248  23357997.8064   23357998.8714   23357997.7174
       229.000         183.000
 127616411.67348  99441341.43748  24284609.4654   24284612.3354   24284608.0224
       217.000         159.000
 111795096.83748  87113051.78148  21273907.7954   21273909.4154   21273907.7464
       247.000         222.000
 133134182.37748  85948717.18148  23431652.5804   23431653.4044   23431652.6554
       229.000         184.000
 117687872.83148  91704827.10548  22395263.9624   22395265.6924   22395264.3514
       234.000         191.000
 09  1 12  1 59  0.0000000  0  9G 9G 5G26G15G17G30G12G22G18
 115172890.30148  71952890.37248  20013744.2994   20013746.4574   20013744.5154
       251.000         229.000
 126224931.08248  80564868.40748  22116879.0494   22116882.0304   22116879.8544
       239.000         204.000
 120954155.53948  94249969.74248  23016828.6754   23016831.3594   23016828.9844
       228.000         187.000
 111927088.51548  87215908.93248  21299019.4774   21299021.3624   21299019.1494
       245.000         221.000
 122776142.00848  95669707.35648  23363533.7144   23363536.0284   23363533.7294
       227.000         183.000
 127507837.74648  99356738.38448  24263948.4864   24263951.5194   24263949.5694
       213.000         159.000
 111731392.15548  87063411.78648  21261785.2204   21261786.9494   21261785.1334
       247.000         223.000
 133106997.84848  85927534.43048  23426479.9774   23426480.5264   23426481.1444
       229.000         185.000
 117715106.65248  91726048.24248  22400446.4794   22400448.3074   22400446.6334
       236.000         191.000
 09  1 12  1 59 30.0000000  0  9G 9G 5G26G15G17G30G12G22G18
 115157118.88748  71940600.96848  20010743.1804   20010745.2254   20010743.3404
       251.000         229.000
 126138949.70148  80497869.94448  22100517.3184   22100520.4254   22100518.0104
       240.000         204.000
 121055111.14948  94328636.43448  23036039.8874   23036042.6174   23036039.9134
       230.000         186.000
 111994971.12348  87268804.46148  21311937.1634   21311938.8654   21311936.6294
       245.000         220.000
 122805782.65548  95692803.96048  23369174.9444   23369176.5314   23369174.0004
       231.000         188.000
 127399398.67448  99272240.45348  24243312.7834   24243316.4914   24243312.9204
       213.000         163.000
 111668106.03048  87014097.94848  21249742.1724   21249744.0084   21249741.9914
       248.000         223.000
 133080343.14648  85906764.51748  23421407.4474   23421408.0694   23421407.8664
       228.000         182.000
 117742870.37748  91747682.29048  22405729.9364   22405731.5734   22405730.6914
       236.000         191.000
 09  1 12  2  0  0.0000000  0  9G 9G 5G26G15G17G30G12G22G18
 115141695.93348  71928583.08048  20007808.2484   20007810.4004   20007808.4484
       251.000         229.000
 126053291.27148  80431123.11548  22084217.0724   22084220.0414   22084217.7644
       240.000         204.000
 121156287.77748  94407475.37748  23055293.1504   23055295.3494   23055293.5194
       230.000         184.000
 112063266.72848  87322021.80448  21324933.2614   21324935.1804   21324933.0684
       245.000         220.000
 122835965.14448  95716322.79348  23374919.4694   23374919.7264   23374919.5834
       233.000         187.000
 127291096.02048  99187848.84848  24222703.5504   24222707.5014   24222703.1444
       217.000         167.000
 111605238.76448  86965110.47948  21237779.0604   21237780.5564   21237778.9314
       248.000         223.000
 133054218.50748  85886407.64248  23416435.9864   23416436.2714   23416435.7184
       228.000         181.000
 117771162.50448  91769728.08648  22411113.6724   22411115.2534   22411114.5894
       234.000         190.000
 09  1 12  2  0 30.0000000  0  9G 9G 5G26G15G17G30G12G22G18
 115126621.89248  71916837.07548  20004939.7154   20004941.9694   20004940.0354
       250.000         229.000
 125967956.98748  80364628.90448  22067978.1944   22067981.6694   22067978.8924
       239.000         205.000
 121257683.58148  94486485.07848  23074588.0954   23074590.7414   23074588.2824
       230.000         185.000
 112131973.88848  87375559.84648  21338007.9364   21338009.7054   21338007.8514
       245.000         220.000
 122866688.50848  95740263.08548  23380765.4604   23380766.4464   23380765.2854
       231.000         185.000
 127182931.28948  99103564.66648  24202120.8964   24202124.0884   24202120.2954
       218.000         166.000
 111542791.99048  86916450.67648  21225895.6084   21225897.3564   21225895.5314
       248.000         223.000
 133028624.44548  85866464.18348  23411565.9614   23411565.8214   23411566.8094
       226.000         181.000
 117799981.04348  91792184.07448  22416597.5174   22416599.2484   22416597.8534
       235.000         190.000
 09  1 12  2  1  0.0000000  0  9G 9G 5G26G15G17G30G12G22G18
 115111896.94748  71905363.09048  20002137.5554   20002139.8974   20002137.7684
       251.000         229.000
 125882948.31248  80298388.38048  22051801.8444   22051804.9904   22051802.5624
       240.000         206.000
 121359296.85548  94565664.26448  23093924.5844   23093926.8754   23093924.1834
       229.000         185.000
 112201091.41448  87429417.65448  21351160.5124   21351162.3154   21351160.2094
       245.000         220.000
 122897952.09148  95764624.33648  23386714.0084   23386715.9174   23386713.9194
       227.000         181.000
 127074906.01748  99019389.13148  24181564.3944   24181567.2064   24181564.2494
       218.000         165.000
 111480765.99348  86868118.74748  21214092.5194   21214094.1294   21214092.3244
       248.000         223.000
 133003561.50448  85846934.60948  23406795.9784   23406797.0774   23406795.4994
       226.000         182.000
 117829324.62948  91815049.18848  22422181.3464   22422183.3134   22422182.2454
       233.000         190.000
 09  1 12  2  1 30.0000000  0  9G 9G 5G26G15G17G30G12G22G18
 115097522.52748  71894162.23848  19999402.2754   19999404.6194   19999402.5094
       251.000         230.000
 125798267.19048  80232403.10448  22035687.1864   22035690.6034   22035687.9544
       240.000         205.000
 121461126.83648  94645012.30248  23113302.2004   23113304.3524   23113301.7424
       229.000         185.000
 112270618.86748  87483594.87548  21364391.2364   21364393.1374   21364391.0894
       244.000         219.000
 122929755.80148  95789406.47248  23392765.8204   23392767.3444   23392765.5554
       229.000         181.000
 126967022.37748  98935323.95548  24161034.2034   24161037.5474   24161034.0064
       220.000         164.000
 111419162.71748  86820116.22048  21202369.8854   21202371.1914   21202369.8174
       248.000         223.000
 132979031.14348  85827820.03448  23402127.7304   23402128.9404   23402127.9014
       225.000         182.000
 117859192.36148  91838322.72848  22427864.7544   22427867.3664   22427865.1834
       233.000         190.000
 09  1 12  2  2  0.0000000  0  9G 9G 5G26G15G17G30G12G22G18
 115083498.67948  71883234.56448  19996733.5724   19996736.0264   19996733.7604
       251.000         229.000
 125713914.99248  80166674.13048  22019635.8074   22019638.8904   22019636.5984
       241.000         206.000
 121563171.90148  94724527.92548  23132720.9524   23132723.0034   23132721.2644
       228.000         183.000
 112340554.59948  87538090.24548  21377699.5854   21377701.3814   21377699.2504
       245.000         219.000
 122962098.98448  95814608.95148  23398921.0024   23398922.2524   23398921.1404
       231.000         185.000
 126859281.93648  98851370.34948  24140532.2534   24140535.2404   24140531.9574
       220.000         166.000
 111357982.77548  86772443.55748  21190727.8014   21190728.8864   21190727.5154
       249.000         223.000
 132955033.69948  85809120.74748  23397562.0074   23397562.7854   23397561.7534
       230.000         185.000
 117889582.54048  91862003.37648  22433648.0884   22433650.3744   22433648.5444
       235.000         191.000
 09  1 12  2  2 30.0000000  0  9G 9G 5G26G15G17G30G12G22G18
 115069824.14948  71872579.08048  19994131.3004   19994133.6974   19994131.4994
       250.000         229.000
 125629891.41848  80101201.24148  22003646.5974   22003649.6124   22003647.2574
       241.000         205.000
 121665428.75148  94804208.58048  23152179.1554   23152182.0324   23152178.9294
       227.000         184.000
 112410896.52148  87592902.12048  21391085.0354   21391087.0224   21391084.8834
       244.000         219.000
 122994979.05248  95840229.77048  23405178.6824   23405179.5394   23405178.7844
       231.000         186.000
 126751684.78248  98767528.42148  24120057.3624   24120060.3974   24120057.5864
       221.000         166.000
 111297225.37248  86725100.15348  21179166.0844   21179167.0954   21179166.1074
       249.000         223.000
 132931568.27848  85790835.97648  23393097.1904   23393096.5444   23393097.2444
       231.000         184.000
 117920492.02948  91886088.67148  22439529.9944   22439532.1754   22439530.6554
       233.000         190.000
 09  1 12  2  3  0.0000000  0  9G 9G 5G26G15G17G30G12G22G18
 115056500.38148  71862196.92148  19991595.9764   19991598.3724   19991596.1004
       251.000         229.000
 125546198.44948  80035985.95448  21987720.5214   21987723.1194   21987721.0874
       242.000         206.000
 121767896.72148  94884053.72748  23171677.9764   23171680.9634   23171678.2834
       227.000         184.000
 112481643.77648  87648029.85048  21404547.8884   21404549.7724   21404547.4754
       245.000         219.000
 123028395.86948  95866268.84848  23411537.1994   23411538.2224   23411536.9614
       229.000         182.000
 126644233.10048  98683799.86648  24099610.4634   24099613.0074   24099609.9014
       221.000         166.000
 111236892.06448  86678087.20448  21167684.9974   21167686.2064   21167684.6984
       249.000         224.000
 132908636.20548  85772966.79748  23388733.1914   23388733.0974   23388733.7574
       229.000         184.000
 117951919.97048  91910577.95348  22445510.2884   22445512.4004   22445510.5844
       233.000         188.000
 09  1 12  2  3 30.0000000  0  9G 9G 5G26G15G17G30G12G22G18
 115043528.13048  71852088.67048  19989127.3984   19989129.8634   19989127.6794
       251.000         229.000
 125462837.80948  79971029.63448  21971857.1484   21971860.0804   21971857.7924
       240.000         206.000
 121870574.31848  94964062.22348  23191217.0494   23191220.0794   23191216.9364
       228.000         185.000
 112552795.49048  87703472.73748  21418087.6994   21418089.5574   21418087.3534
       244.000         219.000
 123062348.84248  95892725.71748  23417997.6884   23417999.2944   23417997.5744
       228.000         181.000
 126536928.99748  98600186.28548  24079190.9254   24079193.7464   24079191.0534
       221.000         164.000
 111176984.04648  86631405.65548  21156284.8794   21156286.2554   21156284.8824
       249.000         224.000
 132886238.02748  85755513.65748  23384470.7044   23384470.9884   23384470.6324
       229.000         183.000
 117983864.88848  91935470.07848  22451589.7064   22451591.2204   22451590.3934
       234.000         189.000
 09  1 12  2  4  0.0000000  0  9G 9G 5G26G15G17G30G12G22G18
 115030907.30348  71842254.26148  19986725.7764   19986728.1804   19986725.9764
       250.000         229.000
 125379810.56448  79906333.10948  21956057.4924   21956060.7534   21956058.2254
       240.000         207.000
 121973459.59948  95044232.56748  23210795.8054   23210798.3354   23210795.8714
       230.000         185.000
 112624350.15648  87759229.61348  21431704.0124   21431705.9524   21431703.8014
       244.000         218.000
 123096836.73848  95919599.42448  23424560.4204   23424562.6214   23424560.4924
       225.000         183.000
 126429773.61748  98516688.61148  24058799.8924   24058802.5894   24058799.7334
       220.000         165.000
 111117502.16548  86585056.14948  21144965.6884   21144967.1874   21144965.4484
       250.000         224.000
 132864374.10948  85738476.83148  23380310.5204   23380310.2504   23380311.5984
       228.000         181.000
 118016324.96048  91960763.61748  22457766.4574   22457768.3214   22457767.2474
       234.000         188.000
 09  1 12  2  4 30.0000000  0  9G 9G 5G26G15G17G30G12G22G18
 115018638.86148  71832694.43548  19984391.1934   19984393.3764   19984391.4154
       251.000         229.000
 125297118.25548  79841897.56948  21940321.7644   21940325.0224   21940322.2964
       241.000         208.000
 122076551.37448  95124563.81948  23230413.2264   23230416.1024   23230413.3374
       229.000         186.000
 112696306.99948  87815299.86948  21445396.9744   21445398.8644   21445396.6634
       244.000         218.000
 123131859.25748  95946889.70348  23431224.9994   23431227.1304   23431224.8254
       226.000         182.000
 126322769.25248  98433308.63648  24038437.6484   24038440.4054   24038437.4754
       221.000         165.000
 111058447.03348  86539039.16448  21133727.8334   21133729.3524   21133727.7374
       249.000         223.000
 132843045.10948  85721856.85048  23376251.2194   23376251.5724   23376251.0844
       230.000         183.000
 118049299.00248  91986457.64448  22464041.3084   22464043.1524   22464041.6714
       235.000         189.000
 09  1 12  2  5  0.0000000  0  9G 9G 5G26G15G17G30G12G22G18
 115006722.96948  71823409.32948  19982123.6794   19982125.9514   19982123.9184
       250.000         229.000
 125214761.96948  79777723.84948  21924650.3454   21924653.1624   21924651.0884
       242.000         208.000
 122179847.80548  95205054.53948  23250070.0554   23250072.9264   23250069.9894
       230.000         184.000
 112768664.40248  87871682.25748  21459166.1984   21459167.9474   21459165.9544
       243.000         218.000
 123167415.09648  95974595.55248  23437991.6754   23437992.4984   23437991.4464
       229.000         182.000
 126215916.98848  98350047.12748  24018104.3744   24018107.3184   24018103.4734
       220.000         167.000
 110999819.36248  86493355.28248  21122571.2354   21122572.7844   21122571.0644
       250.000         223.000
 132822251.32148  85705653.88148  23372295.2724   23372294.6254   23372295.1924
       232.000         186.000
 118082784.96848  92012550.58848  22470413.6214   22470415.3454   22470414.3914
       234.000         188.000
 09  1 12  2  5 30.0000000  0  9G 9G 5G26G15G17G30G12G22G18
 114995159.19648  71814398.59548  19979923.2184   19979925.4794   19979923.4344
       251.000         229.000
 125132742.15848  79713812.33348  21909042.1764   21909045.4574   21909042.5884
       241.000         209.000
 122283346.48648  95285702.86348  23269765.2254   23269767.7554   23269765.6394
       231.000         182.000
 112841420.07048  87928374.97748  21473011.1354   21473012.9174   21473010.6654
       244.000         218.000
 123203502.72848  96002715.77848  23444858.9474   23444859.5974   23444858.8854
       229.000         179.000
 126109217.60548  98266904.77948  23997799.5914   23997803.6454   23997799.8424
       222.000         168.000
 110941619.37948  86448004.65548  21111496.2504   21111497.6264   21111496.1394
       249.000         224.000
 132801992.50948  85689867.79048  23368440.0694   23368439.6404   23368440.3254
       229.000         182.000
 118116780.28148  92039040.41548  22476882.5084   22476884.7744   22476882.9914
       234.000         188.000
 09  1 12  2  6  0.0000000  0  9G 9G 5G26G15G17G30G12G22G18
 114983948.71548  71805663.15248  19977789.8664   19977792.1584   19977790.0204
       251.000         229.000
 125051060.85048  79650164.57448  21893498.6504   21893501.9194   21893499.2584
       242.000         209.000
 122387046.41448  95366508.02248  23289498.6444   23289500.9124   23289498.7084
       228.000         180.000
 112914573.39348  87985377.55748  21486931.7684   21486933.4024   21486931.6494
       244.000         217.000
 123240121.60048  96031249.96748  23451826.6434   23451827.9514   23451826.4874
       226.000         178.000
 126002673.57448  98183883.50248  23977524.8874   23977528.5314   23977524.7084
       221.000         169.000
 110883848.49648  86402988.39948  21100502.7384   21100504.3004   21100502.6504
       249.000         224.000
 132782269.51348  85674499.19648  23364686.0484   23364686.1174   23364686.9724
       228.000         179.000
 118151283.99748  92065926.41248  22483448.1834   22483450.5704   22483448.5954
       233.000         188.000
 09  1 12  2  6 30.0000000  0  9G 9G 5G26G15G17G30G12G22G18
 114973092.01448  71797203.38448  19975723.9014   19975726.2774   19975724.1404
       251.000         230.000
 124969719.55948  79586781.76148  21878020.0684   21878023.1644   21878020.8454
       241.000         210.000
 122490946.45448  95447469.08148  23309270.0154   23309272.8034   23309269.4104
       226.000         179.000
 112988123.97848  88042689.69348  21500927.7904   21500929.7764   21500927.5744
       243.000         217.000
 123277271.02348  96060197.57048  23458895.9794   23458897.1664   23458895.5334
       228.000         179.000
 125896286.57048  98100984.56948  23957279.8694   23957283.5484   23957279.3424
       219.000         167.000
 110826507.60048  86358307.19548  21089591.2764   21089592.7004   21089591.1134
       250.000         224.000
 132763082.98848  85659548.64448  23361035.1744   23361034.3064   23361034.7424
       224.000         179.000
 118186294.62648  92093207.41048  22490110.6874   22490112.6994   22490111.3714
       235.000         188.000
 09  1 12  2  7  0.0000000  0  9G 9G 5G26G15G17G30G12G22G18
 114962589.57748  71789019.66748  19973725.3284   19973727.7644   19973725.6164
       251.000         230.000
 124888719.72048  79523665.02748  21862606.0154   21862609.6354   21862606.6744
       241.000         209.000
 122595044.88748  95528584.74348  23329079.5344   23329082.0734   23329078.8324
       226.000         180.000
 113062070.43848  88100310.30348  21514999.3694   21515001.3404   21514999.2514
       243.000         217.000
 123314950.20848  96089557.99948  23466066.0384   23466067.3814   23466066.3064
       226.000         180.000
 125790058.54848  98018209.48548  23937065.2234   23937069.0074   23937064.9374
       221.000         167.000
 110769597.72048  86313961.85148  21078761.7604   21078763.0434   21078761.8004
       250.000         224.000
 132744433.91448  85645016.89448  23357486.2674   23357486.2704   23357485.7924
       231.000         182.000
 118221810.44348  92120882.05048  22496869.2684   22496871.3424   22496870.1734
       233.000         188.000
 09  1 12  2  7 30.0000000  0  9G 9G 5G26G15G17G30G12G22G18
 114952440.76248  71781111.48948  19971794.1024   19971796.6524   19971794.2864
       250.000         230.000
 124808061.32048  79460814.34848  21847257.2404   21847260.8284   21847257.5954
       242.000         209.000
 122699338.93948  95609852.81848  23348925.8454   23348928.5034   23348925.8764
       225.000         178.000
 113136410.05948  88158237.27148  21529145.7554   21529147.6694   21529145.3024
       243.000         216.000
 123353157.05648  96119329.55948  23473336.6324   23473338.2554   23473336.3114
       229.000         181.000
 125683989.81048  97935558.54648  23916881.0604   23916885.0074   23916880.4024
       221.000         168.000
 110713118.17248  86269951.81948  21068014.1314   21068015.1314   21068013.9974
       251.000         224.000
 132726320.91048  85630902.84048  23354040.0724   23354039.7134   23354040.1064
       230.000         183.000
 118257828.62948  92148948.14748  22503723.3404   22503725.0284   22503723.6704
       233.000         188.000
 09  1 12  2  8  0.0000000  0  9G 9G 5G26G15G17G30G12G22G18
 114942646.07948  71773479.26648  19969930.2074   19969932.8434   19969930.3674
       250.000         230.000
 124727745.35048  79398230.50048  21831973.5884   21831976.9864   21831974.4234
       241.000         209.000
 122803826.64648  95691271.81148  23368809.5774   23368811.7834   23368809.6454
       225.000         180.000
 113211141.24048  88216469.35248  21543366.7424   21543368.6124   21543366.3674
       243.000         216.000
 123391889.91948  96149511.02048  23480707.6134   23480708.9764   23480707.2194
       229.000         180.000
 125578081.36848  97853032.52148  23896727.6284   23896731.4514   23896727.7764
       223.000         171.000
 110657069.65348  86226277.66048  21057348.3964   21057349.2184   21057348.4714
       250.000         223.000
 132708744.14248  85617206.63448  23350695.4314   23350695.2174   23350695.9074
       231.000         183.000
 118294346.96148  92177403.94948  22510672.6644   22510674.2174   22510673.4464
       234.000         188.000
 09  1 12  2  8 30.0000000  0  9G 9G 5G26G15G17G30G12G22G18
 114933205.46048  71766122.93648  19968133.7164   19968136.1914   19968133.9174
       250.000         230.000
 124647773.02348  79335914.42948  21816755.2654   21816758.6424   21816755.8874
       241.000         210.000
 122908506.50948  95772840.52848  23388729.0884   23388732.1914   23388729.0474
       226.000         182.000
 113286262.49248  88275005.38648  21557661.7594   21557663.5044   21557661.3914
       243.000         215.000
 123431147.74748  96180101.54848  23488178.2144   23488179.1904   23488177.6584
       229.000         180.000
 125472335.08848  97770632.85148  23876605.2554   23876608.1314   23876605.5084
       222.000         169.000
 110601452.44548  86182939.59648  21046764.5024   21046765.7664   21046764.2454
       250.000         224.000
 132691704.16448  85603928.74648  23347452.6914   23347452.3844   23347453.5764
       229.000         183.000
 118331363.46748  92206247.95448  22517716.8664   22517718.1784   22517717.3294
       234.000         188.000
 09  1 12  2  9  0.0000000  0  9G 9G 5G26G15G17G30G12G22G18
 114924120.02148  71759043.36948  19966404.8614   19966407.2984   19966405.0924
       250.000         230.000
 124568146.16248  79273867.54248  21801602.9974   21801606.2654   21801603.6934
       242.000         209.000
 123013377.25548  95854557.96548  23408685.3054   23408688.4564   23408685.4464
       225.000         182.000
 113361773.34048  88333844.99848  21572031.1524   21572032.7814   21572030.6674
       243.000         216.000
 123470930.46248  96211101.08348  23495748.1364   23495749.4194   23495747.9554
       228.000         179.000
 125366753.16348  97688361.25248  23856513.8054   23856516.4034   23856514.0454
       221.000         167.000
 110546268.27548  86139938.95348  21036263.4474   21036264.7384   21036263.3964
       250.000         224.000
 132675201.31748  85591069.37048  23344311.5884   23344311.9064   23344311.0674
       228.000         181.000
 118368876.99548  92235479.25448  22524855.0514   22524856.7134   22524855.6284
       232.000         187.000
 09  1 12  2  9 30.0000000  0  9G 9G 5G26G15G17G30G12G22G18
 114915390.40348  71752241.07248  19964743.6294   19964746.1274   19964743.8704
       251.000         230.000
 124488866.37248  79212091.10748  21786516.5384   21786519.6864   21786517.2064
       241.000         209.000
 123118437.69548  95936423.23848  23428677.8314   23428680.4974   23428677.7564
       228.000         185.000
 113437672.56248  88392987.24348  21586474.1614   21586476.0794   21586473.8344
       242.000         216.000
 123511236.79348  96242508.62748  23503418.2984   23503418.7814   23503417.8054
       229.000         179.000
 125261337.27248  97606219.02348  23836453.2944   23836456.1454   23836453.2854
       217.000         166.000
 110491517.83148  86097276.28748  21025844.6944   21025846.0384   21025844.4994
       249.000         224.000
 132659236.56948  85578629.31548  23341273.7644   23341274.1074   23341274.7044
       229.000         182.000
 118406886.06248  92265096.68648  22532087.9514   22532089.7944   22532088.4144
       233.000         188.000
 09  1 12  2 10  0.0000000  0  9G 9G 5G26G15G17G30G12G22G18
 114907016.31248  71745715.80548  19963150.0644   19963152.6834   19963150.1684
       250.000         229.000
 124409933.94048  79150585.32648  21771496.1584   21771499.1214   21771496.5464
       243.000         209.000
 123223685.31848  96018434.36548  23448705.9174   23448708.5234   23448706.0024
       230.000         186.000
 113513957.97948  88452430.41648  21600990.9084   21600992.8884   21600990.6864
       242.000         216.000
 123552065.11348  96274322.91248  23511187.9084   23511188.9464   23511187.8634
       231.000         181.000
 125156088.38948  97524206.93448  23816425.0874   23816427.9954   23816424.0114
       218.000         167.000
 110437201.36948  86054951.78548  21015508.5084   21015509.8304   21015508.3264
       249.000         223.000
 132643809.30748  85566608.05448  23338338.0484   23338338.4874   23338338.8904
       229.000         182.000
 118445388.28448  92295098.39348  22539414.6744   22539416.7164   22539415.0824
       234.000         188.000
 09  1 12  2 10 30.0000000  0  9G 9G 5G26G15G17G30G12G22G18
 114898998.07148  71739467.82448  19961624.3054   19961626.6784   19961624.5054
       250.000         229.000
 124331350.11148  79089351.18248  21756542.3784   21756545.2714   21756543.2854
       242.000         209.000
 123329118.42848  96100590.04048  23468769.0264   23468771.5664   23468769.0574
       229.000         186.000
 113590628.54548  88512173.69948  21615580.8144   21615582.9384   21615580.6514
       242.000         215.000
 123593414.17348  96306542.96048  23519056.4014   23519057.5164   23519056.5304
       231.000         182.000
 125051007.99148  97442326.12748  23796429.3924   23796431.7894   23796429.0444
       221.000         169.000
 110383319.04048  86012965.56748  21005255.1434   21005256.3354   21005255.0174
       249.000         224.000
 132628919.58148  85555005.63848  23335504.5474   23335505.1994   23335504.5434
       227.000         181.000
 118484381.49748  92325482.68448  22546835.1194   22546836.6014   22546835.5154
       233.000         187.000
 09  1 12  2 11  0.0000000  0  9G 9G 5G26G15G17G30G12G22G18
 114891336.28648  71733497.60548  19960166.1614   19960168.6034   19960166.2744
       250.000         229.000
 124253116.16448  79028389.68248  21741654.6014   21741657.7294   21741655.2234
       241.000         209.000
 123434735.57548  96182889.09248  23488867.1724   23488870.0494   23488867.1374
       229.000         187.000
 113667682.64348  88572215.84548  21630243.7114   21630245.5854   21630243.2674
       242.000         215.000
 123635282.89848  96339167.93248  23527023.7624   23527024.7424   23527023.5244
       231.000         183.000
 124946097.85448  97360578.01348  23776465.7554   23776468.1934   23776466.3044
       220.000         171.000
 110329871.90848  85971318.45848  20995084.5524   20995085.8254   20995084.3814
       249.000         225.000
 132614567.76148  85543822.39448  23332773.8524   23332773.9004   23332773.4044
       229.000         183.000
 118523863.66848  92356248.00548  22554348.3234   22554349.9104   22554349.2464
       233.000         187.000
 09  1 12  2 11 30.0000000  0  9G 9G 5G26G15G17G30G12G22G18
 114884031.50448  71727805.56548  19958776.0904   19958778.6724   19958776.2644
       250.000         229.000
 124175233.29548  78967701.73748  21726834.0184   21726837.1304   21726834.4154
       241.000         210.000
 123540535.22348  96265330.35948  23509000.3974   23509003.2084   23508999.8484
       231.000         186.000
 113745118.52648  88632555.48948  21644979.2234   21644981.0874   21644979.0094
       241.000         214.000
 123677670.23748  96372197.04648  23535089.4524   23535091.1184   23535089.8154
       231.000         184.000
 124841359.69648  97278963.90448  23756534.6154   23756537.3554   23756533.9154
       224.000         171.000
 110276860.03148  85930010.51248  20984996.5634   20984998.0124   20984996.5064
       250.000         224.000
 132600754.00748  85533058.41848  23330145.3464   23330145.5144   23330145.1794
       229.000         184.000
 118563832.74248  92387392.72148  22561954.0624   22561955.9014   22561954.7654
       232.000         187.000
 09  1 12  2 12  0.0000000  0  9G 9G 5G26G15G17G30G12G22G18
 114877083.77048  71722391.74348  19957453.9884   19957456.5494   19957454.1404
       250.000         229.000
 124097702.58648  78907288.22648  21712080.4674   21712083.6304   21712081.0584
       241.000         209.000
 123646515.12948  96347912.10348  23529167.7534   23529170.1574   23529168.0054
       230.000         186.000
 113822935.10548  88693191.77748  21659787.1794   21659789.1974   21659786.7104
       241.000         214.000
 123720574.93548  96405629.30448  23543254.0034   23543255.8114   23543253.6474
       231.000         183.000
 124736794.62848  97197484.67248  23736636.2684   23736639.3854   23736636.1144
       222.000         170.000
 110224284.46448  85889042.54848  20974991.8274   20974993.1514   20974991.5774
       250.000         225.000
 132587478.28148  85522713.67348  23327619.0004   23327618.9094   23327618.9914
       229.000         181.000
 118604287.29748  92418915.72748  22569652.0384   22569654.3224   22569652.2314
       232.000         186.000
 09  1 12  2 12 30.0000000  0  9G 9G 5G26G15G17G30G12G22G18
 114870493.34948  71717256.34748  19956200.0464   19956202.3544   19956200.2194
       250.000         229.000
 124020524.88248  78847149.77048  21697393.9004   21697397.0404   21697394.5134
       241.000         208.000
 123752673.75448  96430633.09848  23549369.0784   23549371.3254   23549368.8014
       231.000         185.000
 113901130.64848  88754123.36548  21674667.2764   21674669.2864   21674666.9444
       241.000         213.000
 123763995.33648  96439463.39148  23551516.7954   23551518.0394   23551516.8624
       230.000         183.000
 124632404.00348  97116141.33548  23716771.5294   23716774.1224   23716771.0824
       224.000         169.000
 110172145.63848  85848414.89748  20965070.3704   20965071.4064   20965070.2334
       251.000         225.000
 132574740.52348  85512788.13948  23325194.7864   23325194.4354   23325194.9964
       229.000         182.000
 118645224.59348  92450814.91248  22577442.2614   22577444.1694   22577443.1204
       232.000         186.000
 09  1 12  2 13  0.0000000  0  9G 9G 5G26G15G17G30G12G22G18
 114864260.49048  71712399.57948  19955013.8164   19955016.3894   19955013.9434
       250.000         229.000
 123943701.29748  78787287.25948  21682774.8574   21682777.8424   21682775.5724
       241.000         208.000
 123859009.11548  96513491.82348  23569604.3844   23569606.4304   23569604.3824
       229.000         184.000
 113979703.69248  88815349.10948  21689619.3384   21689621.2584   21689619.2204
       242.000         214.000
 123807929.85548  96473698.08948  23559877.2284   23559878.8484   23559877.3544
       228.000         182.000
 124528189.42948  97034935.21548  23696939.6774   23696942.3224   23696940.7084
       221.000         168.000
 110120443.78548  85808127.74848  20955231.9034   20955232.8874   20955231.8004
       250.000         225.000
 132562540.51448  85503281.63948  23322873.3134   23322873.7744   23322873.6904
       228.000         183.000
 118686642.68648  92483088.74148  22585323.8834   22585325.9794   22585324.6864
       232.000         188.000
