     2.11           OBSERVATION DATA    G (GPS)             RINEX VERSION / TYPE
teqc  2008Oct2      gpsops              20090128 00:05:48UTCPGM / RUN BY / DATE
    30.0000                                                 INTERVAL
     1     1                                                WAVELENGTH FACT L1/2
     7    L1    L2    P1    P2    C1    S1    S2            # / TYPES OF OBSERV
Linux 2.4.20-8|Pentium IV|gcc -static|Linux|486/DX+         COMMENT
     2.10           OBSERVATION DATA    GPS                 COMMENT
soc2rnx ver 1.20    gpsops              28-Jan-2009 00:05:43COMMENT
S1, if present, is the SNR for the C/A data stream on L1.   COMMENT
 SNR is mapped to RINEX snr flag value [1,4-9]              COMMENT
    SNR:   >316  >100  >31.6  >10  >3.2    >0 bad=0         COMMENT
L1 & L2:      9     8     7     6     5     4     1         COMMENT
                                                            COMMENT
This data is provided as a public service by NASA/JPL.      COMMENT
No warranty is expressed or implied regarding suitability   COMMENT
for use.  For further information, contact:                 COMMENT
Dave Stowers, NASA/JPL m/s 238-600                          COMMENT
4800 Oak Grove Drive, Pasadena CA 91109 USA                 COMMENT
                                                            COMMENT
Forced Modulo Decimation to 30 seconds                      COMMENT
  2009     1    27     0     0    0.0000000     GPS         TIME OF FIRST OBS
DSN                 JPL                                     OBSERVER / AGENCY
451-U               AOAD/M_T        NONE                    ANT # / TYPE
  4849202.3940  -360328.9929  4114913.1862                  APPROX POSITION XYZ
        0.0254        0.0000        0.0000                  ANTENNA: DELTA H/E/N
LP03574             ASHTECH Z-XII3      CC00                REC # / TYPE / VERS
MADR                                                        MARKER NAME
13407S012                                                   MARKER NUMBER
                                                            END OF HEADER
 09  1 27  0  0  0.0000000  0 10G 5G 9G18G26G15G17G10G27G28G12
 127869441.69348  99638503.03848  24332764.2634   24332767.3874   24332764.3554
       216.000         162.000
 109187808.83148  85081401.66548  20777753.3274   20777756.0404   20777753.4564
       245.000         216.000
 118437651.39748  92289078.28348  22537935.9934   22537937.9704   22537936.1864
       233.000         189.000
 111228810.53148  86671791.13148  21166148.1264   21166150.8854   21166148.0644
       245.000         214.000
 107153033.95048  83495868.01748  20390547.8794   20390549.3404   20390547.8134
       251.000         236.000
 123049792.95348  95882946.08748  23415603.8934   23415605.7844   23415604.0594
       228.000         183.000
 132123005.26648 102952972.15248  25142187.4224   25142190.8564   25142185.9704
       208.000         144.000
 127344176.63648  99229211.36248  24232803.3004   24232807.9574   24232803.7494
       208.000         154.000
 125440656.51048  97745954.53148  23870573.0894   23870575.0614   23870573.1354
       223.000         174.000
 121709309.59148  94838418.63248  23160513.3014   23160515.7784   23160512.7734
       227.000         185.000
 09  1 27  0  0 30.0000000  0 10G 5G 9G18G26G15G17G10G27G28G12
 127756987.51348  99550876.41148  24311364.6454   24311368.1514   24311364.8364
       217.000         164.000
 109134687.89048  85040008.73248  20767644.8024   20767647.4984   20767644.7944
       244.000         216.000
 118399392.54648  92259266.20548  22530655.7024   22530657.6314   22530656.6654
       234.000         191.000
 111295276.22848  86723582.57348  21178796.0914   21178798.8004   21178796.0474
       245.000         215.000
 107170628.14748  83509577.77348  20393895.8894   20393897.4344   20393895.6114
       251.000         237.000
 123018168.77348  95858303.89048  23409586.3064   23409588.0694   23409586.1004
       229.000         184.000
 132233060.32348 103038729.32948  25163129.5014   25163133.1424   25163130.2324
       206.000         145.000
 127412489.48748  99282442.12648  24245803.4874   24245807.0054   24245803.1954
       210.000         155.000
 125529030.82748  97814817.61748  23887390.1474   23887391.6864   23887390.5434
       223.000         170.000
 121606365.97948  94758202.82948  23140924.2114   23140926.0954   23140924.5724
       229.000         188.000
 09  1 27  0  1  0.0000000  0 10G 5G 9G18G26G15G17G10G27G28G12
 127644662.74948  99463350.65448  24289989.5184   24289993.5544   24289989.6984
       210.000         162.000
 109081868.11648  84998850.47748  20757593.3314   20757596.0214   20757593.5024
       245.000         216.000
 118361676.87948  92229877.37048  22523478.5904   22523480.3394   22523479.0474
       233.000         189.000
 111362105.21648  86775657.10848  21191513.3794   21191515.9194   21191513.3434
       245.000         214.000
 107188674.08248  83523639.53248  20397330.0034   20397331.4814   20397329.7324
       251.000         236.000
 122987024.30048  95834035.46948  23403659.7834   23403661.7714   23403659.6044
       227.000         184.000
 132343042.36848 103124429.62548  25184057.5464   25184061.6924   25184060.3474
       205.000         145.000
 127480830.16648  99335694.60848  24258807.8264   24258811.2184   24258807.6274
       207.000         154.000
 125617590.23048  97883824.92748  23904242.2964   23904243.8614   23904242.9144
       222.000         168.000
 121503659.01348  94678171.42048  23121380.1584   23121381.3094   23121380.3574
       228.000         187.000
 09  1 27  0  1 30.0000000  0 10G 5G 9G18G26G15G17G10G27G28G12
 127532469.89548  99375927.69448  24268639.5464   24268643.7694   24268638.9694
       214.000         162.000
 109029350.39348  84957927.57548  20747599.5264   20747602.1744   20747599.8844
       246.000         216.000
 118324506.46748  92200913.41148  22516405.3034   22516407.2224   22516405.7344
       234.000         190.000
 111429297.30448  86828014.57248  21204299.5314   21204302.3864   21204299.3134
       245.000         215.000
 107207172.40248  83538053.80348  20400850.1434   20400851.5664   20400849.9474
       251.000         236.000
 122956361.49048  95810142.37648  23397824.7114   23397826.6784   23397824.6794
       228.000         184.000
 132452949.78548 103210071.73848  25204971.5374   25204975.2514   25204972.5694
       208.000         144.000
 127549198.95148  99388968.97348  24271819.0374   24271822.0754   24271819.0574
       208.000         155.000
 125706332.97748  97952975.12248  23921129.1274   23921130.5484   23921129.4574
       220.000         163.000
 121401190.92648  94598326.15848  23101880.3524   23101881.9824   23101879.4074
       226.000         185.000
 09  1 27  0  2  0.0000000  0 10G 5G 9G18G26G15G17G10G27G28G12
 127420411.04948  99288609.13648  24247315.9684   24247319.7234   24247317.5004
       218.000         162.000
 108977135.21248  84917240.43448  20737663.2514   20737665.8964   20737663.4084
       246.000         216.000
 118287882.33548  92172375.11548  22509435.8044   22509437.3384   22509435.9494
       233.000         189.000
 111496851.64148  86880654.30048  21217154.6264   21217157.2664   21217154.4704
       245.000         214.000
 107226123.62648  83552820.98348  20404456.3654   20404457.9094   20404456.1324
       251.000         236.000
 122926182.96448  95786626.65848  23392081.9274   23392083.8814   23392081.5584
       227.000         184.000
 132562779.94448 103295653.68348  25225871.9924   25225874.8754   25225872.4904
       207.000         142.000
 127617596.12848  99442265.47448  24284833.6564   24284837.3484   24284834.2294
       209.000         153.000
 125795257.31048  98022266.80448  23938050.9754   23938052.0604   23938051.3054
       221.000         163.000
 121298964.18748  94518668.96348  23082427.4754   23082428.9744   23082428.0694
       227.000         186.000
 09  1 27  0  2 30.0000000  0 10G 5G 9G18G26G15G17G10G27G28G12
 127308486.93848  99201395.55148  24226018.3024   24226021.2684   24226020.3084
       216.000         162.000
 108925221.87348  84876788.48348  20727784.7144   20727786.9724   20727784.6324
       246.000         217.000
 118251804.27248  92144262.33948  22502570.1774   22502572.3524   22502571.3434
       233.000         191.000
 111564766.30848  86933574.81448  21230078.6114   21230081.0184   21230078.4734
       246.000         214.000
 107245526.83248  83567940.35648  20408148.7254   20408150.2224   20408148.3824
       252.000         236.000
 122896488.77348  95763488.32448  23386431.3284   23386433.3094   23386431.1804
       228.000         185.000
 132672529.40748 103381172.77448  25246757.2844   25246759.1064   25246758.3984
       209.000         140.000
 127686020.42048  99495583.07748  24297854.9424   24297858.4884   24297855.3454
       208.000         156.000
 125884359.63748  98091697.19648  23955006.4904   23955007.4734   23955007.1324
       218.000         163.000
 121196979.19448  94439200.13748  23063020.2604   23063021.9164   23063020.1004
       228.000         187.000
 09  1 27  0  3  0.0000000  0 10G 5G 9G18G26G15G17G10G27G28G12
 127196700.13548  99114288.97648  24204745.2754   24204749.0104   24204745.3524
       215.000         162.000
 108873611.32048  84836572.48448  20717963.4554   20717966.1384   20717963.5914
       248.000         217.000
 118216274.52748  92116576.82348  22495809.4294   22495811.5574   22495809.4674
       235.000         193.000
 111633041.27548  86986776.08148  21243070.8004   21243073.5664   21243070.8204
       245.000         214.000
 107265383.65748  83583413.20348  20411927.4694   20411928.8244   20411927.2134
       251.000         236.000
 122867281.38248  95740729.33348  23380873.2544   23380875.1964   23380873.1574
       229.000         185.000
 132782196.48948 103466627.63948  25267626.3644   25267628.9004   25267627.6334
       206.000         139.000
 127754472.52548  99548922.35848  24310880.4024   24310884.0534   24310880.1864
       208.000         157.000
 125973638.26448  98161264.95848  23971995.7934   23971997.1894   23971995.0944
       220.000         164.000
 121095239.17848  94359922.20448  23043659.6764   23043661.3864   23043659.8494
       228.000         188.000
 09  1 27  0  3 30.0000000  0 10G 5G 9G18G26G15G17G10G27G28G12
 127085053.65348  99027291.72948  24183499.7494   24183503.2364   24183500.6154
       217.000         164.000
 108822305.23948  84796593.72048  20708200.1964   20708202.7624   20708200.4444
       248.000         217.000
 118181295.20748  92089320.21048  22489153.1854   22489155.1194   22489154.1084
       234.000         192.000
 111701676.63948  87040258.17548  21256131.5554   21256134.2864   21256131.5344
       245.000         213.000
 107285695.22948  83599240.39848  20415792.5774   20415794.0834   20415792.3954
       251.000         236.000
 122838563.61348  95718351.83748  23375408.5034   23375410.4474   23375408.0584
       229.000         186.000
 132891779.93348 103552017.33248  25288478.8624   25288481.4934   25288479.2384
       204.000         142.000
 127822953.58048  99602284.20648  24323911.9864   24323916.4864   24323911.9644
       210.000         157.000
 126063092.32648  98230969.41548  23989018.2754   23989019.6034   23989018.4344
       222.000         162.000
 120993746.82148  94280837.24448  23024346.7054   23024348.5024   23024346.6114
       228.000         188.000
 09  1 27  0  4  0.0000000  0 10G 5G 9G18G26G15G17G10G27G28G12
 126973547.71948  98940404.03048  24162280.7554   24162284.1414   24162281.3654
       216.000         163.000
 108771302.48148  84756851.32048  20698494.7134   20698497.3584   20698494.8644
       248.000         216.000
 118146866.32148  92062492.50448  22482601.4154   22482603.2544   22482602.4044
       235.000         191.000
 111770670.01648  87094019.23948  21269260.5124   21269263.0954   21269260.2864
       244.000         212.000
 107306460.23948  83615420.91948  20419743.8754   20419745.5594   20419743.5284
       249.000         235.000
 122810335.42948  95696355.85348  23370037.0234   23370038.7784   23370036.9304
       228.000         185.000
 133001275.55448 103637338.60148  25309314.7024   25309318.5124   25309314.2284
       198.000         139.000
 127891461.78248  99655667.21648  24336949.0164   24336952.9304   24336948.8244
       206.000         157.000
 126152718.11748  98300807.67748  24006073.8814   24006075.1334   24006075.1444
       218.000         162.000
 120892502.75848  94201945.77348  23005080.6684   23005082.3974   23005080.8294
       226.000         186.000
 09  1 27  0  4 30.0000000  0 10G 5G 9G18G26G15G17G10G27G28G12
 126862184.88448  98853627.83448  24141089.5114   24141092.3214   24141090.0624
       220.000         165.000
 108720603.89748  84717345.92948  20688847.1284   20688849.5214   20688847.6444
       248.000         217.000
 118112988.66648  92036094.33048  22476155.1354   22476156.8244   22476155.4504
       234.000         191.000
 111840021.10748  87148059.04648  21282457.6744   21282460.3894   21282457.6424
       245.000         212.000
 107327679.74748  83631955.59948  20423781.9294   20423783.5154   20423781.6194
       251.000         235.000
 122782598.89548  95674742.98348  23364758.6284   23364760.8174   23364758.7344
       229.000         184.000
 133110681.80848 103722590.22448  25330133.6724   25330137.7034   25330132.8304
       203.000         140.000
 127959997.63348  99709071.76048  24349992.0134   24349995.0794   24349991.8524
       209.000         157.000
 126242513.69648  98370778.24748  24023161.3674   24023162.6664   24023162.3854
       222.000         162.000
 120791509.54448  94123249.77848  22985861.5594   22985863.6524   22985861.4104
       228.000         186.000
 09  1 27  0  5  0.0000000  0 10G 5G 9G18G26G15G17G10G27G28G12
 126750967.15048  98766964.68648  24119925.6944   24119928.4424   24119926.0864
       218.000         167.000
 108670210.29548  84678078.19348  20679257.4574   20679260.0624   20679257.3784
       247.000         216.000
 118079663.26848  92010126.48048  22469813.6774   22469814.8764   22469814.4784
       234.000         190.000
 111909729.00748  87202376.87948  21295722.6814   21295725.2934   21295722.8694
       243.000         211.000
 107349354.11848  83648844.70848  20427906.4274   20427907.9104   20427906.2014
       249.000         234.000
 122755355.88548  95653514.65948  23359574.5184   23359576.3644   23359574.5264
       227.000         185.000
 133219996.15048 103807770.25648  25350936.1864   25350940.1954   25350936.9984
       203.000         138.000
 128028561.24148  99762497.93648  24363038.3694   24363042.3454   24363038.1804
       209.000         157.000
 126332477.21948  98440879.69448  24040280.8364   24040282.7884   24040281.3914
       220.000         161.000
 120690769.40848  94044750.97748  22966691.3534   22966693.4594   22966690.9644
       227.000         187.000
 09  1 27  0  5 30.0000000  0 10G 5G 9G18G26G15G17G10G27G28G12
 126639897.22048  98680416.72948  24098789.4784   24098792.6244   24098789.3124
       217.000         166.000
 108620122.85548  84639049.02948  20669726.0524   20669728.4884   20669726.2974
       247.000         217.000
 118046892.78148  91984591.02848  22463577.9224   22463578.7764   22463578.3864
       236.000         192.000
 111979793.77848  87256972.79948  21309055.5874   21309058.4044   21309055.4524
       243.000         212.000
 107371484.33348  83666089.02948  20432117.6754   20432119.1624   20432117.4054
       250.000         234.000
 122728608.94948  95632672.90148  23354484.3454   23354486.5114   23354484.6134
       228.000         184.000
 133329217.19748 103892877.57648  25371719.0564   25371723.4484   25371719.5844
       203.000         136.000
 128097153.57848  99815946.50848  24376091.1794   24376094.4704   24376091.0074
       209.000         157.000
 126422607.03648  98511110.71448  24057431.8274   24057434.1544   24057432.6074
       219.000         161.000
 120590285.21748  93966451.61648  22947570.1014   22947571.8804   22947569.9284
       228.000         188.000
 09  1 27  0  6  0.0000000  0 10G 5G 9G18G26G15G17G10G27G28G12
 126528976.23748  98593984.83048  24077681.8434   24077685.0674   24077682.4604
       221.000         167.000
 108570340.82548  84600257.84848  20660252.9264   20660255.5554   20660253.2454
       249.000         217.000
 118014677.00248  91959487.82448  22457447.1994   22457448.3594   22457447.9234
       235.000         192.000
 112050213.82548  87311845.55848  21322456.1904   21322458.8964   21322456.0934
       245.000         212.000
 107394069.95848  83683688.21048  20436415.4794   20436417.1584   20436415.2934
       250.000         235.000
 122702358.76248  95612218.22148  23349489.3574   23349491.1914   23349489.5124
       230.000         185.000
 133438342.33748 103977910.16948  25392487.1414   25392489.5044   25392487.5064
       203.000         137.000
 128165773.97748  99869416.94248  24389148.5004   24389152.5224   24389148.4994
       213.000         157.000
 126512900.37148  98581469.15748  24074613.6484   24074616.0674   24074613.2424
       218.000         161.000
 120490057.86648  93888352.40148  22928497.3654   22928499.4484   22928497.4744
       229.000         189.000
 09  1 27  0  6 30.0000000  0 10G 5G 9G18G26G15G17G10G27G28G12
 126418205.67148  98507670.12248  24056603.3914   24056606.2054   24056604.2764
       220.000         168.000
 108520864.63948  84561704.97948  20650837.9244   20650840.2644   20650838.5534
       248.000         217.000
 117983016.58448  91934817.36148  22451422.2574   22451423.7484   22451422.8144
       236.000         191.000
 112120987.72948  87366994.04548  21335924.1204   21335926.5674   21335924.2334
       243.000         211.000
 107417111.32548  83701642.51148  20440800.2254   20440801.8584   20440800.0224
       250.000         235.000
 122676606.61848  95592151.61748  23344589.0494   23344591.0534   23344589.3394
       229.000         185.000
 133547368.26348 104062865.45148  25413233.4074   25413236.4884   25413234.2864
       201.000         137.000
 128234421.93248  99922908.83248  24402212.4164   24402215.7764   24402212.9964
       212.000         157.000
 126603354.62348  98651952.96448  24091826.7654   24091829.3944   24091827.7074
       220.000         160.000
 120390089.54348  93810455.00348  22909474.3684   22909475.9104   22909474.0644
       228.000         187.000
 09  1 27  0  7  0.0000000  0 10G 5G 9G18G26G15G17G10G27G28G12
 126307588.24348  98421474.74448  24035553.5094   24035556.2524   24035554.0664
       220.000         170.000
 108471695.43448  84523391.31148  20641481.4574   20641483.9644   20641481.5214
       249.000         218.000
 117951913.47448  91910581.17148  22445503.2994   22445504.7894   22445504.4054
       234.000         191.000
 112192115.33548  87422418.14848  21349459.0054   21349461.6874   21349458.8324
       245.000         212.000
 107440609.15448  83719952.50048  20445271.7534   20445273.3144   20445271.6644
       250.000         235.000
 122651355.00348  95572475.04248  23339783.9254   23339785.9564   23339783.7464
       230.000         186.000
 133656293.33748 104147742.16648  25433961.6174   25433964.3604   25433962.5624
       204.000         138.000
 128303098.07348  99976422.69348  24415280.9984   24415283.6084   24415281.7844
       210.000         158.000
 126693968.64648  98722561.28448  24109070.0324   24109072.1484   24109071.1414
       218.000         157.000
 120290382.17148  93732760.97948  22890500.2884   22890502.5954   22890500.2034
       230.000         189.000
 09  1 27  0  7 30.0000000  0 10G 5G 9G18G26G15G17G10G27G28G12
 126197125.84348  98335400.18548  24014532.4294   24014536.0464   24014532.6844
       220.000         170.000
 108422833.61648  84485317.18048  20632183.1144   20632185.7394   20632183.1394
       249.000         218.000
 117921368.73248  91886780.07848  22439690.7664   22439692.3334   22439691.0624
       235.000         191.000
 112263595.81548  87478117.21648  21363061.7184   21363064.1114   21363062.0124
       244.000         212.000
 107464563.68448  83738618.36548  20449830.0454   20449831.6324   20449829.7334
       250.000         235.000
 122626605.17148  95553189.46148  23335074.0914   23335075.8774   23335073.4234
       230.000         187.000
 133765115.72148 104232538.80248  25454668.6884   25454672.3004   25454670.5614
       203.000         138.000
 128371802.49748 100029958.58348  24428354.5734   24428358.3994   24428353.9124
       211.000         158.000
 126784740.22448  98793292.39648  24126342.8084   24126345.7584   24126342.5054
       215.000         158.000
 120190938.21248  93655272.20848  22871576.7504   22871579.0004   22871576.6714
       230.000         190.000
 09  1 27  0  8  0.0000000  0 11G 5G 9G18G26G15G17G22G10G27G28G12
 126086819.11248  98249446.90648  23993542.0644   23993545.2204   23993543.0774
       222.000         169.000
 108374278.52648  84447482.04848  20622943.5224   20622946.0744   20622943.5394
       249.000         219.000
 117891381.63948  91863413.50948  22433984.6704   22433986.3024   22433985.5334
       235.000         192.000
 112335427.01548  87534089.57948  21376730.3804   21376733.0394   21376730.2994
       244.000         211.000
 107488974.10348  83757639.46148  20454475.2494   20454476.7314   20454474.9834
       250.000         234.000
 122602357.31448  95534295.03148  23330459.8104   23330461.8064   23330459.7574
       232.000         188.000
 138194478.85358  89891804.99358  24394596.0995   24394595.7235   24394597.2615
       220.000         159.000
 133873831.56848 104317252.48548  25475357.9404   25475359.5104   25475358.4774
       203.000         138.000
 128440534.04948 100083515.64148  24441434.2864   24441437.2304   24441434.4384
       211.000         161.000
 126875665.80348  98864143.49148  24143645.4044   24143648.0894   24143645.3994
       219.000         159.000
 120091758.48348  93577989.31448  22852703.9324   22852705.4024   22852703.9064
       230.000         190.000
 09  1 27  0  8 30.0000000  0 11G 5G 9G18G26G15G17G22G10G27G28G12
 125976671.02848  98163617.24648  23972581.5304   23972584.6374   23972582.5814
       222.000         169.000
 108326031.52148  84409886.98548  20613762.4884   20613765.0824   20613763.0294
       248.000         218.000
 117861954.28948  91840483.10248  22428384.6884   22428386.1864   22428384.6354
       235.000         191.000
 112407609.21448  87590335.44048  21390466.2324   21390468.8564   21390466.2724
       244.000         210.000
 107513841.62848  83777016.74448  20459207.3624   20459208.8884   20459207.0964
       250.000         234.000
 122578613.99948  95515793.74248  23325942.0344   23325943.6394   23325942.0334
       232.000         187.000
 138121386.39248  89834849.77248  24380686.2634   24380686.7204   24380686.5714
       217.000         164.000
 133982439.87348 104401882.32348  25496023.6784   25496028.4274   25496025.4974
       200.000         136.000
 128509293.79148 100137094.64048  24454518.9904   24454522.8664   24454519.3874
       214.000         159.000
 126966744.40848  98935113.82348  24160977.7304   24160979.8244   24160978.9764
       216.000         158.000
 119992845.81448  93500914.52948  22833881.4474   22833882.8074   22833881.4904
       231.000         191.000
 09  1 27  0  9  0.0000000  0 11G 5G 9G18G26G15G17G22G10G27G28G12
 125866683.53548  98077912.74248  23951651.7204   23951654.9064   23951651.9544
       219.000         168.000
 108278093.17048  84372532.43048  20604640.0604   20604642.6094   20604639.9044
       249.000         219.000
 117833087.65948  91817989.61548  22422891.2504   22422892.9554   22422891.8044
       233.000         190.000
 112480141.27348  87646853.92148  21404268.5864   21404271.1844   21404268.3064
       242.000         210.000
 107539166.35848  83796750.29048  20464026.4514   20464028.1454   20464026.0724
       250.000         234.000
 122555377.08648  95497687.06748  23321519.7904   23321521.5934   23321519.9264
       229.000         187.000
 138048676.00148  89778192.40048  24366849.5944   24366850.4694   24366847.7284
       211.000         161.000
 134090938.53248 104486426.78048  25516671.7574   25516674.7574   25516672.1264
       200.000         134.000
 128578081.78948 100190695.71048  24467609.1434   24467612.0074   24467608.8824
       209.000         158.000
 127057973.75748  99006201.62548  24178338.1044   24178340.6094   24178338.2504
       218.000         161.000
 119894202.09248  93424049.31548  22815109.9714   22815111.7204   22815109.8214
       231.000         192.000
 09  1 27  0  9 30.0000000  0 11G 5G 9G18G26G15G17G22G10G27G28G12
 125756859.33348  97992335.48048  23930752.6904   23930756.0554   23930753.7494
       220.000         169.000
 108230464.56948  84335419.24248  20595576.7464   20595579.2774   20595577.0754
       249.000         220.000
 117804783.48548  91795934.41548  22417505.3604   22417507.1144   22417505.6014
       233.000         191.000
 112553023.30848  87703645.11148  21418137.5204   21418140.2854   21418137.3024
       244.000         211.000
 107564949.72948  83816841.21948  20468932.9864   20468934.5554   20468932.8124
       249.000         234.000
 122532648.49248  95479976.50048  23317194.5594   23317196.7154   23317194.2614
       229.000         188.000
 137976351.09748  89721835.29148  24353087.0734   24353088.4334   24353086.6144
       219.000         162.000
 134199325.94448 104570884.51948  25537296.1634   25537300.3604   25537298.5704
       200.000         134.000
 128646898.85748 100244319.38248  24480704.2384   24480707.4734   24480704.5914
       212.000         159.000
 127149352.73148  99077405.99148  24195727.2184   24195729.5354   24195727.8724
       217.000         159.000
 119795830.47448  93347396.11548  22796390.5284   22796392.3954   22796390.3444
       232.000         192.000
 09  1 27  0 10  0.0000000  0 11G 5G 9G18G26G15G17G22G10G27G28G12
 125647199.38848  97906886.20348  23909885.2884   23909888.5454   23909885.3764
       222.000         170.000
 108183145.46848  84298547.22048  20586572.0444   20586574.6604   20586572.2854
       248.000         219.000
 117777041.98648  91774317.66248  22412226.3264   22412228.0444   22412227.1534
       233.000         190.000
 112626253.37848  87760707.49748  21432072.8284   21432075.5554   21432072.9054
       242.000         210.000
 107591190.78848  83837288.79648  20473926.3984   20473927.9644   20473926.1454
       249.000         234.000
 122510428.98348  95462662.59848  23312966.1754   23312968.4744   23312966.0534
       229.000         187.000
 137904412.74648  89665779.40248  24339397.9524   24339397.2254   24339398.0194
       215.000         161.000
 134307598.78548 104655252.99848  25557900.2534   25557904.6814   25557901.7154
       195.000         132.000
 128715743.99948 100297964.93048  24493805.3744   24493808.5114   24493805.0514
       210.000         160.000
 127240878.41248  99148724.70448  24213144.3844   24213146.0054   24213144.2134
       215.000         159.000
 119697731.87448  93270955.65548  22777722.9274   22777724.7784   22777722.5254
       231.000         191.000
 09  1 27  0 10 30.0000000  0 11G 5G 9G18G26G15G17G22G10G27G28G12
 125537705.96648  97821566.65048  23889049.7114   23889052.7744   23889050.9454
       224.000         172.000
 108136136.49948  84261916.86148  20577626.4704   20577628.9774   20577626.9244
       248.000         218.000
 117749863.90348  91753139.93148  22407054.5294   22407055.7464   22407054.5544
       233.000         190.000
 112699830.70248  87818040.47148  21446074.1404   21446076.8224   21446074.1394
       242.000         209.000
 107617890.20648  83858093.52748  20479007.1574   20479008.7274   20479006.7924
       249.000         233.000
 122488720.16248  95445746.63948  23308835.4414   23308837.0124   23308835.1394
       231.000         188.000
 137832863.74548  89610026.96148  24325782.7344   24325782.8364   24325783.4534
       214.000         162.000
 134415754.65248 104739530.33748  25578481.0924   25578485.5874   25578481.3394
       200.000         134.000
 128784617.68248 100351632.72648  24506911.3574   24506914.3254   24506911.2494
       215.000         160.000
 127332548.74948  99220156.13648  24230587.9994   24230590.4924   24230587.8064
       217.000         158.000
 119599908.55948  93194729.71348  22759107.7454   22759109.6574   22759108.0714
       231.000         191.000
 09  1 27  0 11  0.0000000  0 10G 5G 9G18G26G15G17G22G27G28G12
 125428380.11348  97736377.68948  23868245.4554   23868249.0394   23868246.3214
       220.000         172.000
 108089437.26748  84225527.85948  20568739.7464   20568742.7114   20568739.9014
       248.000         219.000
 117723249.28548  91732401.26448  22401989.6214   22401991.3614   22401989.8254
       234.000         191.000
 112773753.72048  87875642.81548  21460141.1264   21460143.9314   21460141.1884
       243.000         210.000
 107645047.24848  83879254.85248  20484175.0494   20484176.6434   20484174.8234
       250.000         234.000
 122467522.79848  95429229.21248  23304801.5034   23304803.5644   23304801.8474
       231.000         188.000
 137761704.80448  89554578.50348  24312241.2254   24312242.1914   24312240.8884
       216.000         168.000
 128853519.12748 100405322.16248  24520023.2584   24520025.9414   24520023.0664
       215.000         164.000
 127424361.08448  99291698.18948  24248059.2294   24248061.7024   24248060.8724
       218.000         159.000
 119502361.55748  93118719.10048  22740545.0304   22740547.2124   22740544.9574
       231.000         194.000
 09  1 27  0 11 30.0000000  0 10G 5G 9G18G26G15G17G22G27G28G12
 125319224.85948  97651321.70648  23847473.3994   23847477.3574   23847473.4714
       221.000         172.000
 108043049.26848  84189381.37348  20559912.4774   20559915.1694   20559912.6664
       249.000         220.000
 117697200.25748  91712103.31448  22397032.9724   22397034.4964   22397033.3734
       233.000         191.000
 112848022.68848  87933514.72848  21474274.0364   21474276.8504   21474273.6984
       242.000         209.000
 107672663.18348  83900773.75248  20489430.1844   20489431.8364   20489429.9234
       250.000         234.000
 122446839.41848  95413112.29748  23300865.4534   23300867.8374   23300865.1434
       230.000         189.000
 137690939.40948  89499436.65948  24298775.1574   24298776.1464   24298773.8014
       217.000         165.000
 128922449.52248 100459034.15848  24533140.3964   24533143.1844   24533140.4784
       216.000         164.000
 127516314.35948  99363350.09348  24265557.3154   24265559.5084   24265558.9824
       218.000         159.000
 119405094.02648  93042926.24148  22722035.9234   22722037.6904   22722035.6904
       233.000         194.000
 09  1 27  0 12  0.0000000  0 10G 5G 9G18G26G15G17G22G27G28G12
 125210241.24248  97566399.41448  23826734.9884   23826738.4984   23826735.6304
       221.000         174.000
 107996972.11948  84153477.10248  20551144.4884   20551147.0264   20551144.4784
       250.000         220.000
 117671716.69448  91692245.98448  22392183.4204   22392185.3314   22392183.8534
       234.000         193.000
 112922635.46248  87991654.54648  21488472.4564   21488475.2104   21488472.5354
       243.000         210.000
 107700737.34448  83922649.71548  20494772.6074   20494774.1154   20494772.4364
       251.000         234.000
 122426670.38048  95397396.16648  23297027.5834   23297029.7604   23297027.6314
       232.000         189.000
 137620568.83248  89444602.42548  24285384.8304   24285384.0494   24285386.2984
       221.000         166.000
 128991408.37648 100512768.34748  24546263.1324   24546265.4604   24546263.9104
       214.000         163.000
 127608405.64548  99435109.52148  24283081.8184   24283083.7594   24283082.5704
       214.000         159.000
 119308106.98848  92967351.93848  22703579.6874   22703581.6754   22703579.9954
       232.000         193.000
 09  1 27  0 12 30.0000000  0 10G 5G 9G18G26G15G17G22G27G28G12
 125101431.52448  97481612.66048  23806028.6524   23806032.3334   23806028.6824
       222.000         172.000
 107951206.85948  84117815.86348  20542435.6284   20542438.1294   20542435.8714
       248.000         220.000
 117646799.83048  91672830.24348  22387442.4314   22387443.8134   22387442.8404
       236.000         193.000
 112997591.65448  88050061.95648  21502736.1284   21502739.0464   21502736.0444
       242.000         209.000
 107729270.18648  83944883.09348  20500202.1794   20500203.6664   20500201.9664
       250.000         233.000
 122407017.42048  95382082.19048  23293287.7774   23293289.8094   23293287.7504
       232.000         190.000
 137550595.62848  89390077.82948  24272068.1294   24272068.5334   24272066.9504
       216.000         163.000
 129060395.97448 100566524.88848  24559390.6284   24559393.3074   24559390.4414
       214.000         162.000
 127700633.18648  99506975.11148  24300632.1414   24300634.0654   24300632.7834
       214.000         156.000
 119211402.70148  92891997.97048  22685177.0144   22685179.2814   22685176.5184
       230.000         192.000
 09  1 27  0 13  0.0000000  0 10G 5G 9G18G26G15G17G22G27G28G12
 124992797.91548  97396963.10048  23785356.3934   23785360.2924   23785357.4484
       222.000         173.000
 107905753.69748  84082397.82648  20533786.2114   20533788.6784   20533786.3124
       246.000         219.000
 117622450.58848  91653856.81648  22382808.5304   22382810.3524   22382809.3874
       232.000         191.000
 113072890.45348  88108736.34748  21517065.0634   21517067.8274   21517065.1624
       241.000         208.000
 107758262.24548  83967474.30148  20505719.1014   20505720.6374   20505718.8724
       249.000         232.000
 122387882.16748  95367171.61648  23289646.6994   23289648.4084   23289646.8334
       231.000         190.000
 137481022.09148  89335864.69548  24258828.8614   24258829.7724   24258828.6824
       221.000         164.000
 129129412.36048 100620303.88148  24572522.8944   24572526.9074   24572523.7264
       211.000         161.000
 127792994.90848  99578945.28948  24318207.8084   24318209.7404   24318208.0534
       215.000         157.000
 119114983.55548  92816866.19648  22666829.0784   22666831.3444   22666828.7944
       231.000         193.000
 09  1 27  0 13 30.0000000  0 10G 5G 9G18G26G15G17G22G27G28G12
 124884341.86248  97312451.90648  23764717.9794   23764721.6234   23764719.0904
       224.000         174.000
 107860613.11748  84047223.35248  20525196.1354   20525198.5604   20525196.3694
       247.000         220.000
 117598669.31748  91635325.95548  22378282.9694   22378284.6534   22378283.5274
       233.000         191.000
 113148530.60148  88167676.71648  21531458.8164   21531461.6274   21531458.4834
       241.000         209.000
 107787713.39848  83990423.24148  20511323.4614   20511324.9954   20511323.1624
       249.000         233.000
 122369265.30648  95352664.97748  23286103.6294   23286105.8654   23286103.7664
       231.000         190.000
 137411850.09148  89281964.44548  24245666.3984   24245666.9824   24245669.4054
       217.000         168.000
 129198457.42848 100674105.26348  24585662.0694   24585665.9124   24585661.2904
       212.000         163.000
 127885488.56548  99651018.25448  24335808.8334   24335810.7864   24335811.3564
       214.000         155.000
 119018850.61248  92741957.42848  22648536.0114   22648537.9484   22648536.0824
       233.000         195.000
 09  1 27  0 14  0.0000000  0 10G 5G 9G18G26G15G17G22G27G28G12
 124776064.12848  97228079.65448  23744114.0074   23744116.9874   23744114.4184
       226.000         176.000
 107815784.44548  84012291.92648  20516665.5264   20516668.0264   20516665.6084
       247.000         220.000
 117575455.33748  91617237.12848  22373865.5874   22373867.1144   22373866.1704
       234.000         191.000
 113224510.00648  88226881.44348  21545917.0824   21545919.9994   21545916.9164
       242.000         208.000
 107817622.49848  84013729.02848  20517014.9124   20517016.6214   20517014.6664
       250.000         233.000
 122351167.15248  95338562.53548  23282659.7984   23282661.9484   23282660.1194
       232.000         191.000
 137343080.51248  89228377.74048  24232579.8154   24232580.0084   24232577.6994
       214.000         164.000
 129267530.19448 100727928.19048  24598806.6324   24598810.4274   24598806.3424
       211.000         162.000
 127978111.10348  99723191.65148  24353434.5794   24353436.2044   24353434.7004
       211.000         154.000
 118923005.28548  92667272.76248  22630297.3764   22630299.1914   22630297.3564
       234.000         195.000
 09  1 27  0 14 30.0000000  0 10G 5G 9G18G26G15G17G22G27G28G12
 124667969.24948  97143849.90148  23723543.6394   23723546.8294   23723544.1834
       224.000         173.000
 107771270.75148  83977605.93548  20508194.9914   20508197.4484   20508195.3524
       247.000         220.000
 117552812.09248  91599593.03348  22369556.9934   22369558.4624   22369557.5454
       234.000         192.000
 113300830.13648  88286351.67148  21560440.3594   21560443.3514   21560440.0774
       240.000         208.000
 107847992.40248  84037393.87448  20522794.2394   20522795.8704   20522793.9964
       250.000         232.000
 122333592.03848  95324867.64948  23279315.4874   23279317.4604   23279315.2154
       231.000         190.000
 137274717.99448  89175108.28748  24219570.0584   24219571.4104   24219572.0354
       217.000         165.000
 129336633.24748 100781774.71848  24611956.1124   24611959.6394   24611956.0184
       216.000         162.000
 128070862.94048  99795465.80248  24371084.2724   24371086.3104   24371083.2094
       211.000         153.000
 118827452.01848  92592815.68848  22612114.1004   22612116.2374   22612113.7924
       233.000         195.000
 09  1 27  0 15  0.0000000  0 10G 5G 9G18G26G15G17G22G27G28G12
 124560056.87648  97059762.31948  23703008.8234   23703011.5394   23703009.6964
       224.000         172.000
 107727070.20448  83943163.95448  20499783.6884   20499786.4554   20499783.7864
       247.000         220.000
 117530737.98048  91582392.42148  22365356.4874   22365357.7444   22365357.0764
       235.000         192.000
 113377487.87148  88346084.96748  21575027.9194   21575030.8854   21575027.6144
       241.000         207.000
 107878820.90448  84061416.08148  20528660.7074   20528662.2694   20528660.6044
       249.000         232.000
 122316538.61248  95311579.26448  23276070.1824   23276072.2794   23276069.5154
       230.000         190.000
 137206762.31448  89122155.80348  24206638.8164   24206640.3204   24206640.5294
       220.000         169.000
 129405764.35048 100835643.12148  24625111.3684   24625115.0704   24625111.8934
       212.000         161.000
 128163739.86048  99867837.40848  24388758.8754   24388760.3294   24388759.4704
       212.000         153.000
 118732190.32348  92518585.80548  22593986.1414   22593988.4014   22593986.0094
       233.000         194.000
 09  1 27  0 15 30.0000000  0 10G 5G 9G18G26G15G17G22G27G28G12
 124452329.47748  96975818.92248  23682508.9224   23682511.7624   23682509.6504
       223.000         174.000
 107683183.96748  83908966.89448  20491432.5224   20491435.0874   20491433.0704
       246.000         220.000
 117509234.71848  91565636.63248  22361264.5244   22361265.8184   22361264.9774
       235.000         192.000
 113454482.79848  88406081.00848  21589679.5544   21589682.5134   21589679.6004
       241.000         207.000
 107910108.74048  84085796.20848  20534614.4314   20534616.1604   20534614.0374
       249.000         232.000
 122300008.69948  95298698.83348  23272924.6364   23272926.7284   23272924.3484
       229.000         189.000
 137139216.31048  89069522.57348  24193785.9914   24193786.1644   24193785.8774
       219.000         166.000
 129474924.43548 100889534.08148  24638272.3524   24638275.0094   24638273.4324
       210.000         159.000
 128256740.43948  99940305.39748  24406456.5694   24406457.7754   24406458.0204
       214.000         153.000
 118637222.69648  92444585.07148  22575914.3784   22575916.4924   22575914.0564
       233.000         195.000
 09  1 27  0 16  0.0000000  0 10G 5G 9G18G26G15G17G22G27G28G12
 124344788.92448  96892021.09448  23662044.6244   23662047.6794   23662045.1274
       224.000         175.000
 107639612.22948  83875014.89848  20483140.9744   20483143.7314   20483141.0544
       246.000         220.000
 117488302.07248  91549325.46648  22357281.2444   22357282.8104   22357281.4534
       234.000         193.000
 113531813.81448  88466338.93848  21604395.0414   21604397.9314   21604395.0424
       240.000         206.000
 107941855.84248  84110534.20048  20540655.8804   20540657.3294   20540655.7584
       249.000         231.000
 122284003.54448  95286227.28248  23269878.9144   23269881.0394   23269878.7874
       229.000         190.000
 137072082.01248  89017210.18248  24181010.2764   24181010.8324   24181011.4324
       217.000         165.000
 129544113.42948 100943447.57248  24651438.5884   24651441.8574   24651438.3854
       214.000         161.000
 128349862.45448 100012868.01248  24424176.6824   24424178.8544   24424178.0334
       211.000         154.000
 118542550.96548  92370814.89148  22557898.7294   22557900.7354   22557898.5944
       233.000         194.000
 09  1 27  0 16 30.0000000  0 10G 5G 9G18G26G15G17G22G27G28G12
 124237437.45548  96808370.61248  23641616.2874   23641619.1744   23641616.5634
       222.000         173.000
 107596356.19548  83841308.90748  20474909.5094   20474912.3244   20474909.6044
       246.000         220.000
 117467941.19848  91533459.85648  22353406.8364   22353408.1484   22353407.5374
       235.000         193.000
 113609480.16348  88526858.16948  21619174.5284   21619177.3884   21619174.3234
       240.000         206.000
 107974062.49248  84135630.28848  20546784.4914   20546786.1594   20546784.2364
       248.000         232.000
 122268524.62848  95274165.80248  23266933.4304   23266935.6294   23266933.3584
       229.000         190.000
 137005361.91648  88965220.46548  24168314.4354   24168314.7984   24168314.2654
       220.000         168.000
 129613331.95548 100997384.08948  24664610.1544   24664613.7864   24664610.7344
       214.000         161.000
 128443104.48348 100085524.12848  24441919.7484   24441922.0344   24441919.2024
       211.000         156.000
 118448177.34748  92297277.02548  22539940.1044   22539942.1084   22539939.7284
       233.000         195.000
 09  1 27  0 17  0.0000000  0 10G 5G 9G18G26G15G17G22G27G28G12
 124130276.78548  96724868.80048  23621224.0844   23621227.2134   23621224.8264
       224.000         175.000
 107553415.82148  83807848.87748  20466738.4204   20466741.0144   20466738.5724
       246.000         220.000
 117448152.95348  91518040.43848  22349641.0434   22349642.8884   22349641.6824
       235.000         193.000
 113687480.89248  88587637.95148  21634017.7994   21634020.4144   21634017.7864
       241.000         206.000
 108006728.60548  84161084.39248  20553000.6714   20553002.4314   20553000.3044
       249.000         231.000
 122253573.09248  95262515.26548  23264088.1194   23264090.1094   23264087.5954
       230.000         190.000
 136939057.86348  88913554.95248  24155697.4344   24155697.2994   24155698.4444
       221.000         167.000
 129682579.84048 101051343.50648  24677788.1594   24677790.9164   24677788.5104
       214.000         163.000
 128536464.36048 100158272.03648  24459686.3224   24459688.3364   24459686.5644
       214.000         158.000
 118354103.73548  92223972.91648  22522038.5224   22522040.3154   22522038.6894
       235.000         195.000
 09  1 27  0 17 30.0000000  0 10G 5G 9G18G26G15G17G22G27G28G12
 124023308.02248  96641516.50048  23600869.1184   23600871.6654   23600869.4894
       224.000         176.000
 107510790.93448  83774634.68148  20458627.1944   20458629.9444   20458627.1904
       247.000         221.000
 117428936.80148  91503066.80748  22345984.2744   22345986.4544   22345984.6794
       234.000         193.000
 113765814.09148  88648676.80648  21648924.0954   21648926.6554   21648923.8814
       241.000         206.000
 108039853.59648  84186896.06548  20559304.2474   20559305.8044   20559304.0804
       248.000         231.000
 122239149.31548  95251275.96648  23261343.4514   23261345.2814   23261343.2354
       230.000         191.000
 136873171.05648  88862214.59648  24143158.6964   24143158.7724   24143160.3834
       215.000         160.000
 129751856.53448 101105325.29048  24690970.8434   24690974.2624   24690971.5494
       216.000         162.000
 128629939.13648 100231109.51748  24477474.2454   24477475.7414   24477475.0164
       214.000         155.000
 118260331.10448  92150903.33448  22504194.5764   22504196.2464   22504194.4764
       235.000         197.000
 09  1 27  0 18  0.0000000  0 10G 5G 9G18G26G15G17G22G27G28G12
 123916533.48148  96558315.57248  23580550.0834   23580553.3034   23580550.7044
       223.000         176.000
 107468482.22248  83741666.86348  20450576.1394   20450578.6764   20450576.6604
       247.000         221.000
 117410293.77448  91488539.76448  22342436.7794   22342438.6464   22342437.3354
       236.000         194.000
 113844479.08848  88709974.19848  21663893.8194   21663896.3084   21663893.9684
       241.000         207.000
 108073437.89748  84213065.64548  20565695.1824   20565696.6204   20565694.8514
       249.000         231.000
 122225254.91148  95240449.16948  23258699.3324   23258701.5954   23258699.3384
       230.000         191.000
 136807704.08448  88811201.38448  24130700.0664   24130700.6914   24130700.2104
       214.000         160.000
 129821162.64848 101159330.07748  24704159.0714   24704162.2484   24704159.2444
       214.000         163.000
 128723527.28148 100304035.33448  24495283.8444   24495284.8494   24495284.6874
       211.000         155.000
 118166861.81148  92078070.12648  22486408.0014   22486409.5584   22486408.0504
       234.000         198.000
 09  1 27  0 18 30.0000000  0 10G 5G 9G18G26G15G17G22G27G28G12
 123809955.42648  96475267.74548  23560269.1484   23560272.2214   23560269.2384
       224.000         176.000
 107426490.80348  83708946.27648  20442585.5204   20442587.9064   20442585.4644
       248.000         222.000
 117392224.82148  91474460.06848  22338998.2384   22339000.2064   22338999.1284
       236.000         194.000
 113923475.40848  88771529.77848  21678925.9974   21678928.8474   21678926.1334
       241.000         207.000
 108107481.98248  84239593.50148  20572173.4144   20572175.0134   20572173.1514
       249.000         231.000
 122211891.17148  95230035.88648  23256156.2484   23256158.6494   23256156.1344
       230.000         192.000
 136742659.06548  88760516.94948  24118323.5904   24118323.0924   24118324.3894
       220.000         165.000
 129890498.58748 101213358.08248  24717353.4734   24717357.6954   24717353.4644
       213.000         166.000
 128817227.30748 100377048.32748  24513114.0974   24513115.2834   24513115.3644
       214.000         153.000
 118073698.12348  92005475.07848  22468679.0604   22468681.1084   22468678.7694
       234.000         197.000
 09  1 27  0 19  0.0000000  0 10G 5G 9G18G26G15G17G22G27G28G12
 123703575.35748  96392374.20448  23540025.7074   23540029.0184   23540026.3194
       225.000         178.000
 107384816.52048  83676472.81648  20434655.0434   20434657.4954   20434655.2544
       248.000         222.000
 117374730.01348  91460827.74348  22335669.1524   22335671.0524   22335669.0194
       236.000         194.000
 114002801.46748  88833342.28548  21694021.1634   21694023.9924   21694021.0224
       241.000         207.000
 108141985.38248  84266479.25448  20578739.1644   20578740.8484   20578738.9704
       248.000         231.000
 122199058.79048  95220036.62948  23253714.6224   23253716.6514   23253713.8554
       232.000         192.000
 136678038.02948  88710162.88548  24106025.9364   24106026.7984   24106025.9164
       215.000         164.000
 129959864.10948 101267409.14648  24730553.1454   24730556.6304   24730553.1144
       218.000         166.000
 128911036.95848 100450146.75448  24530965.1784   24530966.1314   24530966.5744
       209.000         152.000
 117980841.50148  91933119.27148  22451008.9664   22451010.7924   22451008.8704
       235.000         196.000
 09  1 27  0 19 30.0000000  0 10G 5G 9G18G26G15G17G22G27G28G12
 123597395.53648  96309636.67948  23519820.2354   23519823.8184   23519820.8984
       223.000         178.000
 107343460.12048  83644247.04948  20426785.1394   20426787.6554   20426785.1914
       247.000         221.000
 117357810.20048  91447643.46448  22332449.4024   22332451.2454   22332450.0684
       237.000         194.000
 114082456.65348  88895411.25448  21709179.1114   21709181.7024   21709179.0784
       240.000         206.000
 108176948.26848  84293723.05048  20585392.2694   20585393.9974   20585391.9954
       247.000         230.000
 122186759.45348  95210452.74548  23251374.1664   23251376.0214   23251374.1214
       230.000         190.000
 136613843.32948  88660141.02148  24093809.8124   24093811.2434   24093809.1894
       219.000         167.000
 130029259.68848 101321483.62348  24743758.3584   24743762.7704   24743757.8034
       211.000         163.000
 129004954.46048 100523329.22248  24548837.3554   24548837.7774   24548837.1344
       212.000         152.000
 117888294.10748  91861004.43048  22433397.6924   22433399.4914   22433397.8674
       235.000         197.000
 09  1 27  0 20  0.0000000  0 10G 5G 9G18G26G15G17G22G27G28G12
 123491417.36748  96227056.28248  23499653.2964   23499656.8964   23499653.4114
       224.000         177.000
 107302421.66948  83612269.03648  20418975.6914   20418978.2954   20418975.9204
       247.000         221.000
 117341465.50048  91434907.33348  22329338.9684   22329341.0014   22329339.6374
       236.000         193.000
 114162439.20248  88957735.31648  21724399.4454   21724402.1374   21724399.4804
       241.000         206.000
 108212370.39348  84321324.70248  20592132.8504   20592134.5734   20592132.4614
       248.000         230.000
 122174993.77348  95201284.69348  23249134.8554   23249136.9844   23249134.0354
       230.000         190.000
 136550075.96448  88610452.21748  24081676.0244   24081676.7484   24081677.2604
       221.000         170.000
 130098684.88948 101375581.18048  24756969.2204   24756973.2774   24756969.5044
       214.000         162.000
 129098977.22848 100596593.71948  24566729.0234   24566729.6454   24566729.1134
       209.000         150.000
 117796057.34748  91789131.64248  22415845.9444   22415847.5624   22415845.5904
       237.000         199.000
 09  1 27  0 20 30.0000000  0 10G 5G 9G18G26G15G17G22G27G28G12
 123385642.08948  96144633.97948  23479525.1254   23479528.2524   23479525.6534
       224.000         177.000
 107261701.46448  83580539.01148  20411226.9854   20411229.5744   20411227.0824
       248.000         222.000
 117325695.45548  91422618.98148  22326338.1824   22326340.0194   22326338.9494
       236.000         194.000
 114242747.93848  89020313.55048  21739681.5574   21739684.4624   21739681.7084
       240.000         205.000
 108248251.13448  84349283.71448  20598960.8474   20598962.4004   20598960.7024
       247.000         230.000
 122163762.02148  95192532.68248  23246997.9714   23246999.3894   23246997.5774
       231.000         190.000
 136486737.90948  88561097.90748  24069623.6964   24069623.4674   24069623.7954
       219.000         168.000
 130168139.51248 101429701.69148  24770186.5274   24770190.2744   24770187.3614
       216.000         163.000
 129193102.97548 100669938.45348  24584639.8564   24584640.7824   24584640.6304
       208.000         148.000
 117704132.49048  91717501.90448  22398352.9804   22398354.7574   22398352.7464
       237.000         199.000
 09  1 27  0 21  0.0000000  0 10G 5G 9G18G26G15G17G22G27G28G12
 123280072.49548  96062371.96748  23459435.6744   23459439.1864   23459436.2164
       225.000         177.000
 107221300.63548  83549057.84848  20403539.0474   20403541.5634   20403539.3324
       249.000         222.000
 117310501.20048  91410779.29948  22323446.5754   22323448.4614   22323447.1544
       236.000         193.000
 114323382.17948  89083145.42148  21755025.6454   21755028.4384   21755025.4964
       240.000         205.000
 108284591.39848  84377600.79948  20605876.2494   20605877.8864   20605875.8714
       248.000         230.000
 122153066.21748  95184198.31148  23244962.4434   23244964.3734   23244962.2864
       231.000         190.000
 136423831.92948  88512080.28448  24057652.2304   24057652.6674   24057651.4894
       219.000         169.000
 130237624.53648 101483845.85648  24783409.4184   24783412.2584   24783410.4604
       213.000         162.000
 129287330.36548 100743362.40048  24602571.0604   24602571.8604   24602570.7664
       206.000         147.000
 117612522.14548  91646117.23648  22380920.2364   22380922.1564   22380920.3494
       237.000         199.000
 09  1 27  0 21 30.0000000  0 10G 5G 9G18G26G15G17G22G27G28G12
 123174709.79748  95980271.14848  23439386.1634   23439388.9974   23439387.2154
       225.000         177.000
 107181219.10248  83517825.49048  20395911.7744   20395914.2934   20395912.1454
       247.000         222.000
 117295882.83048  91399388.34748  22320664.9984   22320666.5674   22320665.1634
       235.000         192.000
 114404340.50348  89146229.81748  21770431.6014   21770434.4034   21770431.5174
       240.000         205.000
 108321390.23048  84406275.20348  20612879.0584   20612880.5834   20612878.9514
       248.000         230.000
 122142906.62348  95176281.74448  23243029.2584   23243031.1144   23243029.0324
       229.000         190.000
 136361359.04248  88463400.10048  24045764.3494   24045765.3144   24045764.9734
       221.000         170.000
 130307139.34148 101538013.23948  24796638.0284   24796640.7664   24796637.5174
       212.000         160.000
 129381657.04748 100816863.72848  24620520.5114   24620522.2814   24620520.5504
       206.000         147.000
 117521227.75148  91574978.76348  22363547.2264   22363549.4234   22363547.2394
       237.000         199.000
 09  1 27  0 22  0.0000000  0 10G 5G 9G18G26G15G17G22G27G28G12
 123069556.15048  95898333.23848  23419376.1454   23419378.7904   23419376.4064
       226.000         178.000
 107141457.57848  83486842.49548  20388345.3894   20388347.8114   20388345.4604
       247.000         222.000
 117281840.39048  91388446.18348  22317992.7554   22317994.3944   22317993.4194
       234.000         192.000
 114485622.00348  89209566.05648  21785899.1084   21785901.5434   21785899.0474
       241.000         204.000
 108358647.88648  84435307.14148  20619968.7504   20619970.3924   20619968.4304
       248.000         230.000
 122133284.51248  95168784.00548  23241198.0784   23241199.9314   23241197.9804
       229.000         191.000
 136299321.81048  88415059.42948  24033959.4494   24033959.4724   24033960.4124
       219.000         169.000
 130376684.39048 101592204.19948  24809871.0194   24809874.8564   24809870.8334
       209.000         159.000
 129476081.54948 100890441.22448  24638488.8514   24638490.6294   24638490.0594
       204.000         147.000
 117430251.47848  91504088.18148  22346235.2124   22346237.1054   22346235.0334
       239.000         200.000
 09  1 27  0 22 30.0000000  0 10G 5G 9G18G26G15G17G22G27G28G12
 122964612.64848  95816559.08748  23399405.8804   23399409.1154   23399407.1784
       224.000         179.000
 107102015.69248  83456108.56948  20380839.7534   20380842.3234   20380839.6924
       248.000         222.000
 117268373.93048  91377952.84548  22315429.9774   22315432.0234   22315430.8364
       234.000         192.000
 114567224.69948  89273152.56848  21801427.3874   21801430.1034   21801427.4354
       240.000         204.000
 108396363.63148  84464696.02548  20627145.7384   20627147.4114   20627145.4864
       247.000         229.000
 122124200.09748  95161705.25648  23239469.6154   23239471.2774   23239469.4624
       229.000         191.000
 136237721.18248  88367058.94348  24022236.3844   24022236.9704   24022236.1504
       220.000         167.000
 130446259.16948 101646418.29348  24823110.7894   24823114.0904   24823111.1254
       214.000         161.000
 129570600.90048 100964092.65848  24656476.2404   24656477.2484   24656476.6304
       204.000         149.000
 117339593.99248  91433445.99148  22328983.9454   22328985.3814   22328983.7904
       239.000         202.000
 09  1 27  0 23  0.0000000  0 10G 5G 9G18G26G15G17G22G27G28G12
 122859881.92948  95734950.73548  23379475.8994   23379479.4364   23379476.3504
       223.000         177.000
 107062894.79048  83425624.75648  20373395.4144   20373397.9214   20373395.6474
       249.000         223.000
 117255484.66248  91367909.24348  22312977.2814   22312979.1184   22312977.5904
       235.000         193.000
 114649148.56048  89336989.33748  21817017.1324   21817019.9034   21817016.9964
       242.000         205.000
 108434537.80448  84494442.12348  20634409.9664   20634411.6654   20634409.6664
       248.000         229.000
 122115655.09848  95155046.82748  23237843.5234   23237845.1384   23237843.2524
       230.000         192.000
 136176560.03348  88319400.91048  24010598.6684   24010598.5384   24010599.3604
       221.000         170.000
 130515864.60848 101700656.27848  24836356.6874   24836360.4094   24836357.3594
       215.000         162.000
 129665213.99448 101037817.15148  24674479.8414   24674481.6644   24674477.8824
       204.000         150.000
 117249258.01448  91363054.33248  22311793.6244   22311794.9274   22311793.5174
       240.000         202.000
 09  1 27  0 23 30.0000000  0 10G 5G 9G18G26G15G17G22G27G28G12
 122755365.97448  95653509.74148  23359586.8644   23359590.6394   23359587.5364
       223.000         177.000
 107024095.43448  83395391.49548  20366012.1694   20366014.6784   20366012.6694
       248.000         222.000
 117243172.86148  91358315.63848  22310634.5284   22310636.2764   22310635.2074
       236.000         193.000
 114731392.28548  89401075.36148  21832667.5374   21832670.2334   21832667.7144
       240.000         204.000
 108473170.92048  84524545.84048  20641761.5884   20641763.4424   20641761.4064
       248.000         229.000
 122107650.61348  95148809.58848  23236320.1564   23236322.1774   23236319.6234
       230.000         192.000
 136115840.26248  88272086.83748  23999043.8214   23999044.1914   23999044.5354
       222.000         165.000
 130585501.05548 101754918.44148  24849608.1334   24849611.9984   24849608.2324
       216.000         162.000
 129759919.16848 101111613.35048  24692501.4514   24692504.1024   24692501.5644
       203.000         149.000
 117159245.64548  91292914.83648  22294664.4814   22294666.1804   22294664.2944
       238.000         201.000
 09  1 27  0 24  0.0000000  0 10G 5G 9G18G26G15G17G22G27G28G12
 122651065.43448  95572236.60748  23339739.4474   23339742.7934   23339739.7844
       225.000         178.000
 106985616.95248  83365408.26448  20358689.9594   20358692.3004   20358689.9534
       249.000         223.000
 117231437.55948  91349171.24448  22308401.7464   22308402.9354   22308402.5274
       236.000         193.000
 114813953.97848  89465409.14248  21848378.5034   21848381.2554   21848378.2484
       241.000         205.000
 108512261.56848  84555006.07848  20649200.3474   20649202.0994   20649199.9844
       248.000         230.000
 122100186.33548  95142993.27248  23234899.7944   23234901.7674   23234899.7674
       231.000         192.000
 136055562.59848  88225117.18448  23987572.6184   23987573.0114   23987573.8984
       219.000         165.000
 130655167.32648 101809203.84648  24862864.8044   24862868.2604   24862865.1834
       216.000         160.000
 129854713.12648 101185478.75248  24710540.1824   24710542.6874   24710541.9404
       205.000         150.000
 117069557.46348  91223027.97548  22277597.0274   22277599.2704   22277596.9794
       239.000         201.000
 09  1 27  0 24 30.0000000  0 10G 5G 9G18G26G15G17G22G27G28G12
 122546983.75248  95491133.99448  23319933.4464   23319936.5214   23319934.4734
       226.000         179.000
 106947461.18748  83335676.51048  20351429.0614   20351431.4574   20351429.4834
       249.000         223.000
 117220280.57948  91340477.49548  22306278.1394   22306279.9024   22306279.0824
       235.000         192.000
 114896833.75048  89529990.77848  21864150.1754   21864152.9674   21864150.0854
       240.000         204.000
 108551810.98448  84585823.79548  20656726.4724   20656728.1284   20656726.2304
       248.000         229.000
 122093264.54548  95137599.67748  23233582.6514   23233584.4614   23233582.4654
       232.000         193.000
 135995730.53148  88178494.81248  23976186.9404   23976187.7614   23976186.0374
       222.000         172.000
 130724865.19448 101863513.86748  24876127.8934   24876131.3164   24876128.0044
       216.000         161.000
 129949595.74248 101259413.24848  24728596.3094   24728598.5604   24728595.2984
       205.000         151.000
 116980196.47148  91153396.05648  22260592.6344   22260594.5224   22260592.6384
       239.000         203.000
 09  1 27  0 25  0.0000000  0 10G 5G 9G18G26G15G17G22G27G28G12
 122443121.46548  95410202.36248  23300169.1134   23300172.3494   23300169.5864
       224.000         179.000
 106909627.60048  83306195.79748  20344229.6224   20344232.0184   20344229.7784
       248.000         222.000
 117209700.56448  91332233.31748  22304264.9104   22304266.3444   22304265.4794
       235.000         192.000
 114980029.22448  89594818.42148  21879981.5874   21879984.4714   21879981.1394
       241.000         203.000
 108591817.82848  84616997.95848  20664339.5284   20664341.3124   20664339.1474
       248.000         229.000
 122086884.75148  95132628.41548  23232368.8914   23232370.7054   23232369.3024
       233.000         193.000
 135936344.60048  88132220.06648  23964886.8174   23964887.9584   23964886.5374
       219.000         168.000
 130794593.64548 101917847.73048  24889397.1214   24889400.2074   24889397.0774
       216.000         159.000
 130044563.76648 101333414.32748  24746667.8604   24746670.1154   24746666.9774
       204.000         150.000
 116891163.24548  91084019.53648  22243650.5004   22243652.0564   22243650.2974
       240.000         203.000
 09  1 27  0 25 30.0000000  0 10G 5G 9G18G26G15G17G22G27G28G12
 122339479.91848  95329442.72948  23280446.5824   23280450.0364   23280447.3604
       223.000         177.000
 106872116.30248  83276966.22148  20337091.3154   20337094.0594   20337091.3114
       247.000         222.000
 117199698.02148  91324439.12748  22302361.6364   22302363.3114   22302361.8454
       237.000         193.000
 115063538.80148  89659890.81848  21895873.0814   21895875.6314   21895873.4034
       240.000         203.000
 108632281.17548  84648527.83548  20672039.5484   20672041.1374   20672039.2424
       247.000         228.000
 122081047.60448  95128079.99048  23231257.8424   23231259.7124   23231257.9344
       230.000         191.000
 135877406.50548  88086294.26348  23953670.8264   23953671.5754   23953671.5964
       219.000         166.000
 130864352.43248 101972205.23148  24902671.0094   24902673.9644   24902670.6494
       215.000         157.000
 130139614.85548 101407480.08048  24764755.4164   24764758.1814   24764756.2484
       204.000         149.000
 116802459.30648  91014899.59348  22226770.7414   22226771.8694   22226770.4924
       240.000         203.000
 09  1 27  0 26  0.0000000  0 10G 5G 9G18G26G15G17G22G27G28G12
 122236061.22248  95248856.73548  23260766.8844   23260770.0214   23260766.6824
       224.000         178.000
 106834927.91548  83247988.25948  20330014.6304   20330017.2334   20330014.9434
       247.000         222.000
 117190272.53948  91317094.59848  22300568.4224   22300569.6024   22300568.9204
       236.000         193.000
 115147361.64548  89725207.31048  21911823.8374   21911826.2954   21911823.6804
       239.000         202.000
 108673201.41748  84680413.73148  20679826.2054   20679827.9614   20679825.9674
       247.000         228.000
 122075754.04548  95123955.15348  23230250.3244   23230252.3464   23230250.5574
       231.000         192.000
 135818918.01048  88040718.83048  23942542.0164   23942540.9674   23942542.7164
       222.000         168.000
 130934141.88648 102026586.63048  24915952.5574   24915955.1314   24915952.1394
       214.000         159.000
 130234747.42548 101481609.33848  24782858.3444   24782861.0594   24782859.3364
       205.000         151.000
 116714086.68148  90946037.82148  22209953.9964   22209955.2354   22209954.0634
       239.000         202.000
 09  1 27  0 26 30.0000000  0 10G 5G 9G18G26G15G17G22G27G28G12
 122132866.88448  95168445.57748  23241129.8534   23241133.2304   23241130.8784
       225.000         179.000
 106798062.40348  83219261.88848  20322999.2744   20323001.8394   20322999.4484
       248.000         223.000
 117181424.17448  91310199.76548  22298884.1704   22298885.6414   22298884.4444
       235.000         192.000
 115231496.33548  89790766.81148  21927834.1644   21927836.5394   21927833.9484
       239.000         202.000
 108714578.00348  84712655.21748  20687699.9554   20687701.7484   20687699.6184
       247.000         228.000
 122071004.43448  95120254.16548  23229346.6814   23229348.8204   23229346.8344
       229.000         191.000
 135760880.92148  87995495.15148  23931497.5764   23931497.8524   23931497.7884
       223.000         173.000
 131003961.90248 102080991.84648  24929237.6504   24929241.9584   24929238.0674
       216.000         161.000
 130329959.49448 101555800.56448  24800977.2124   24800979.2544   24800977.1494
       201.000         149.000
 116626046.51448  90877435.11648  22193199.9614   22193201.6574   22193199.6424
       238.000         202.000
 09  1 27  0 27  0.0000000  0 10G 5G 9G18G26G15G17G22G27G28G12
 122029900.96248  95088212.39648  23221535.9844   23221539.4464   23221536.6244
       223.000         179.000
 106761522.49348  83190789.23548  20316046.0634   20316048.6824   20316046.3214
       248.000         223.000
 117173155.24348  91303756.43048  22297310.6124   22297312.4734   22297311.0044
       236.000         194.000
 115315943.84848  89856570.05848  21943904.0434   21943906.6924   21943904.0724
       240.000         202.000
 108756412.69648  84745253.67148  20695660.7664   20695662.7824   20695660.5044
       247.000         228.000
 122066801.87648  95116979.44848  23228546.5574   23228548.8734   23228546.4114
       229.000         190.000
 135703298.99948  87950626.11948  23920539.6484   23920540.1214   23920538.4734
       221.000         171.000
 131073814.90848 102135422.77448  24942531.7144   24942534.1844   24942533.1364
       215.000         160.000
 130425251.09548 101630053.71748  24819109.8334   24819112.9414   24819108.6004
       199.000         149.000
 116538342.87948  90809094.65248  22176510.1794   22176512.1754   22176509.9124
       238.000         202.000
 09  1 27  0 27 30.0000000  0 10G 5G 9G18G26G15G17G22G27G28G12
 121927163.62148  95008157.35248  23201985.1844   23201989.1624   23201985.5774
       223.000         179.000
 106725307.18148  83162569.51748  20309154.5074   20309156.9204   20309154.8414
       247.000         223.000
 117165463.96048  91297763.22348  22295847.1944   22295849.1704   22295848.0074
       235.000         194.000
 115400701.50348  89922614.98548  21960032.9624   21960035.4434   21960033.0914
       240.000         201.000
 108798703.88248  84778207.83148  20703708.5894   20703710.4844   20703708.2834
       247.000         228.000
 122063145.42048  95114130.28148  23227851.0624   23227852.7254   23227851.2644
       229.000         190.000
 135646172.45748  87906111.95348  23909669.4814   23909668.7524   23909670.2694
       226.000         169.000
 131143699.61848 102189878.39748  24955829.4484   24955832.7574   24955830.1314
       217.000         161.000
 130520618.72948 101704366.13648  24837257.8574   24837260.7784   24837257.0934
       204.000         152.000
 116450976.20048  90741016.72548  22159885.2944   22159886.7514   22159885.0294
       238.000         203.000
 09  1 27  0 28  0.0000000  0 10G 5G 9G18G26G15G17G22G27G28G12
 121824656.69648  94928281.84348  23182478.8394   23182482.8164   23182479.0254
       226.000         180.000
 106689416.96548  83134603.12048  20302324.7414   20302327.4684   20302324.8194
       248.000         223.000
 117158351.02948  91292220.67648  22294493.6574   22294495.4274   22294494.0174
       235.000         194.000
 115485767.97248  89988900.55348  21976220.7064   21976223.1444   21976221.0234
       240.000         201.000
 108841451.21948  84811517.43948  20711843.1194   20711844.9884   20711842.9124
       246.000         227.000
 122060035.70248  95111707.14848  23227259.3064   23227260.9984   23227259.7504
       229.000         190.000
 135589503.40848  87861954.24548  23898885.5584   23898885.2914   23898888.0074
       223.000         171.000
 131213615.87148 102244358.60048  24969133.7294   24969137.7844   24969135.2264
       214.000         161.000
 130616060.85848 101778736.61348  24855419.2914   24855423.2004   24855418.6284
       206.000         153.000
 116363947.82448  90673202.43148  22143324.3924   22143325.8364   22143324.1364
       239.000         204.000
 09  1 27  0 28 30.0000000  0 10G 5G 9G18G26G15G17G22G27G28G12
 121722381.28148  94848586.72148  23163016.7574   23163020.3624   23163017.8604
       223.000         180.000
 106653851.34748  83106889.65848  20295556.9624   20295559.4694   20295557.3284
       247.000         223.000
 117151815.27948  91287127.87948  22293249.9814   22293251.7364   22293250.4874
       234.000         193.000
 115571141.43948  90055425.32948  21992466.5914   21992469.2334   21992466.5844
       240.000         202.000
 108884653.51448  84845181.55648  20720064.1944   20720066.0484   20720063.9044
       246.000         227.000
 122057472.78348  95109710.06848  23226771.3474   23226773.4254   23226770.8014
       228.000         190.000
 135533292.75848  87818153.73148  23888188.2924   23888189.0364   23888188.0784
       224.000         171.000
 131283563.26048 102298863.05848  24982445.1984   24982447.7134   24982445.1244
       213.000         161.000
 130711574.68448 101853162.92148  24873595.6834   24873598.3244   24873595.7464
       207.000         153.000
 116277258.81248  90605652.56148  22126827.9544   22126829.6514   22126827.9234
       239.000         205.000
 09  1 27  0 29  0.0000000  0 10G 5G 9G18G26G15G17G22G27G28G12
 121620340.17448  94769074.17048  23143599.0114   23143602.3204   23143599.0004
       223.000         179.000
 106618612.02648  83079430.45548  20288851.0664   20288853.6684   20288851.2784
       249.000         223.000
 117145857.95048  91282485.79348  22292116.2184   22292118.0954   22292116.5124
       236.000         193.000
 115656821.64048  90122189.12548  22008771.0334   22008773.6154   22008771.1184
       239.000         200.000
 108928311.64448  84879200.86748  20728372.1654   20728373.8074   20728371.8224
       247.000         227.000
 122055458.49548  95108140.51648  23226388.2064   23226390.0224   23226387.2954
       230.000         191.000
 135477543.12748  87774712.46848  23877580.0304   23877580.5374   23877579.8804
       223.000         170.000
 131353543.06148 102353392.77548  24995761.0564   24995765.1214   24995761.3194
       212.000         158.000
 130807159.64148 101927644.70948  24891785.0654   24891787.1534   24891785.1574
       207.000         153.000
 116190911.91448  90538369.28148  22110396.6164   22110398.4974   22110396.7104
       237.000         204.000
 09  1 27  0 29 30.0000000  0 10G 5G 9G18G26G15G17G22G27G28G12
 121518534.50648  94689745.09348  23124225.6744   23124229.3244   23124226.7284
       224.000         179.000
 106583698.95748  83052225.46348  20282207.3824   20282209.8384   20282207.4924
       248.000         223.000
 117140478.14248  91278293.72548  22291092.3374   22291094.4284   22291092.7514
       235.000         193.000
 115742806.86048  90189190.59048  22025133.3914   22025135.8744   22025132.9504
       239.000         201.000
 108972424.85048  84913574.78748  20736766.6804   20736768.3804   20736766.3764
       247.000         227.000
 122053992.50148  95106998.18748  23226109.2244   23226111.4544   23226109.2774
       230.000         191.000
 135422255.71548  87731631.35848  23867058.4924   23867058.8054   23867059.5564
       224.000         170.000
 131423554.67148 102407947.27348  25009083.6154   25009087.7584   25009083.2644
       212.000         161.000
 130902812.90148 102002179.69748  24909987.0394   24909989.2224   24909987.0344
       208.000         156.000
 116104908.13448  90471353.36548  22094030.5164   22094032.2624   22094030.3984
       237.000         203.000
 09  1 27  0 30  0.0000000  0 10G 5G 9G18G26G15G17G22G27G28G12
 121416965.90948  94610600.73348  23104898.1944   23104901.6624   23104898.9574
       225.000         181.000
 106549112.09048  83025274.65648  20275625.8704   20275628.2334   20275626.1034
       248.000         224.000
 117135675.83448  91274551.67048  22290178.5314   22290180.4814   22290179.3064
       235.000         192.000
 115829095.44048  90256428.44448  22041553.7224   22041556.3144   22041553.6874
       239.000         201.000
 109016992.57448  84948302.87548  20745247.6054   20745249.3584   20745247.3804
       246.000         227.000
 122053075.36448  95106283.54048  23225934.6794   23225937.0124   23225934.4234
       229.000         191.000
 135367432.15648  87688911.69248  23856626.3994   23856626.4754   23856627.3574
       222.000         173.000
 131493598.17648 102462526.62248  25022413.4794   25022416.7964   25022412.9294
       216.000         160.000
 130998532.67248 102076766.50448  24928201.7184   24928203.8974   24928202.3704
       211.000         155.000
 116019249.03648  90404606.03148  22077730.3304   22077731.7854   22077730.0634
       238.000         204.000
 09  1 27  0 30 30.0000000  0 10G 5G 9G18G26G15G17G22G27G28G12
 121315635.76348  94531642.18348  23085615.5124   23085619.3704   23085616.0444
       225.000         181.000
 106514851.77348  82998578.31648  20269106.1414   20269108.7354   20269106.2754
       249.000         224.000
 117131450.57648  91271259.25348  22289374.3804   22289376.3514   22289375.0014
       235.000         193.000
 115915686.17748  90323901.73948  22058031.3214   22058034.3024   22058031.2924
       238.000         200.000
 109062013.96148  84983384.46848  20753814.7334   20753816.6594   20753814.3784
       247.000         226.000
 122052707.28948  95105996.75848  23225864.6704   23225866.7754   23225864.4354
       227.000         191.000
 135313073.82048  87646554.54548  23846282.4374   23846283.2074   23846281.7504
       221.000         173.000
 131563673.56948 102517130.81548  25035747.7674   25035751.0534   25035749.1524
       215.000         158.000
 131094316.90748 102151403.55848  24946429.1484   24946430.4684   24946430.1564
       212.000         155.000
 115933935.59048  90338128.02748  22061495.6044   22061497.0244   22061495.3514
       237.000         204.000
 09  1 27  0 31  0.0000000  0 10G 5G 9G18G26G15G17G22G27G28G12
 121214547.27948  94452871.94648  23066378.8844   23066382.9164   23066380.2094
       226.000         182.000
 106480919.83648  82972137.84748  20262649.2744   20262651.7434   20262649.5234
       249.000         224.000
 117127803.54248  91268417.40048  22288680.3344   22288682.2864   22288680.8144
       235.000         193.000
 116002579.11348  90391610.52148  22074566.3724   22074569.2114   22074566.1594
       239.000         200.000
 109107490.03948  85018820.36648  20762468.5554   20762470.4514   20762468.3994
       245.000         226.000
 122052890.16348  95106139.26948  23225898.8114   23225901.5084   23225898.2184
       226.000         189.000
 135259183.46748  87604562.07948  23836027.1974   23836027.4664   23836027.5484
       222.000         171.000
 131633782.31448 102571761.03548  25049089.3154   25049092.0364   25049089.7654
       214.000         156.000
 131190164.88348 102226090.29348  24964668.6794   24964669.4984   24964669.1624
       212.000         156.000
 115848971.07448  90271921.92948  22045327.2774   22045328.9894   22045326.9444
       238.000         205.000
 09  1 27  0 31 30.0000000  0 10G 5G 9G18G26G15G17G22G27G28G12
 121113703.05548  94374292.05848  23047188.9924   23047193.0424   23047189.0354
       225.000         183.000
 106447317.42348  82945954.16048  20256254.8304   20256257.3074   20256255.1514
       249.000         224.000
 117124735.47648  91266026.69848  22288096.8024   22288098.1084   22288097.2224
       237.000         194.000
 116089773.66848  90459554.33748  22091158.9274   22091161.7374   22091159.0284
       237.000         199.000
 109153421.22648  85054610.90048  20771208.9144   20771211.0004   20771208.4704
       247.000         226.000
 122053625.65048  95106712.37148  23226038.9674   23226041.1254   23226038.4984
       227.000         190.000
 135205764.51148  87562936.89348  23825862.3924   23825862.1274   23825862.9274
       226.000         174.000
 131703925.51448 102626418.06848  25062436.8714   25062440.0314   25062437.6054
       213.000         157.000
 131286075.43148 102300825.78148  24982920.1194   24982921.0074   24982920.8884
       212.000         156.000
 115764357.86748  90205989.57648  22029226.0864   22029227.9484   22029225.9114
       238.000         205.000
 09  1 27  0 32  0.0000000  0 10G 5G 9G18G26G15G17G22G27G28G12
 121013101.54948  94295901.30548  23028045.2844   23028049.0874   23028046.0384
       226.000         182.000
 106414041.93248  82920025.21148  20249922.5514   20249925.2304   20249922.7254
       249.000         224.000
 117122242.85648  91264084.39148  22287622.8294   22287623.9964   22287623.4614
       237.000         194.000
 116177265.34848  90527729.65848  22107807.9644   22107810.8704   22107807.6174
       239.000         199.000
 109199804.20048  85090753.46348  20780035.5184   20780037.3854   20780035.1564
       247.000         227.000
 122054910.80748  95107713.81848  23226283.5454   23226285.7384   23226283.9974
       228.000         189.000
 135152814.25648  87521676.97848  23815786.3474   23815786.7314   23815787.5204
       222.000         172.000
 131774100.17648 102681099.56248  25075790.6964   25075793.8844   25075791.3224
       209.000         155.000
 131382044.52148 102375606.84048  25001182.1014   25001183.6094   25001182.4764
       212.000         156.000
 115680094.44848  90140329.79248  22013191.2504   22013193.1124   22013191.2434
       239.000         205.000
 09  1 27  0 32 30.0000000  0 10G 5G 9G18G26G15G17G22G27G28G12
 120912745.03148  94217701.44148  23008947.7934   23008951.6044   23008948.6834
       225.000         181.000
 106381094.34848  82894351.77048  20243652.9334   20243655.3734   20243653.0404
       249.000         224.000
 117120326.15748  91262590.85248  22287257.6384   22287259.3974   22287258.4424
       236.000         194.000
 116265053.65048  90596136.13948  22124513.6334   22124516.2624   22124513.9594
       238.000         198.000
 109246638.66348  85127247.84548  20788947.7754   20788949.6284   20788947.6064
       247.000         227.000
 122056746.16648  95109143.96948  23226632.6144   23226634.8944   23226632.7254
       229.000         189.000
 135100335.03748  87480784.08648  23805798.9094   23805799.8694   23805798.6324
       225.000         175.000
 131844306.60948 102735805.88548  25089150.4874   25089154.4614   25089150.2554
       212.000         159.000
 131478069.99648 102450431.88448  25019454.8544   25019456.1674   25019455.3014
       207.000         153.000
 115596182.92948  90074944.19948  21997223.2444   21997224.9544   21997222.9594
       238.000         205.000
 09  1 27  0 33  0.0000000  0 10G 5G 9G18G26G15G17G22G27G28G12
 120812636.32548  94139694.67648  22989897.6794   22989901.2934   22989898.4114
       227.000         181.000
 106348476.23548  82868935.05848  20237446.0314   20237448.4114   20237446.3844
       249.000         224.000
 117118986.47248  91261546.92648  22287002.5564   22287004.2154   22287002.9604
       235.000         193.000
 116353138.20948  90664773.45548  22141275.5094   22141278.3524   22141275.2754
       237.000         198.000
 109293925.53548  85164094.74748  20797946.1474   20797948.0324   20797945.8664
       248.000         226.000
 122059133.74048  95111004.41648  23227087.5064   23227089.2624   23227086.7374
       229.000         191.000
 135048330.04348  87440260.68648  23795903.4764   23795903.4114   23795903.8574
       226.000         175.000
 131914546.19748 102790538.03348  25102516.1414   25102519.8504   25102516.5314
       208.000         154.000
 131574151.30048 102525300.39848  25037738.6574   25037740.7184   25037738.1324
       210.000         155.000
 115512625.86348  90009834.80648  21981322.6634   21981324.6864   21981322.6324
       239.000         206.000
 09  1 27  0 33 30.0000000  0 10G 5G 9G18G26G15G17G22G27G28G12
 120712776.63548  94061881.92848  22970895.5324   22970898.4804   22970895.9534
       226.000         181.000
 106316187.25048  82843774.80948  20231301.5584   20231303.9484   20231301.5434
       248.000         223.000
 117118222.74248  91260951.81548  22286857.6314   22286858.7664   22286857.8244
       234.000         193.000
 116441517.35448  90733640.31348  22158093.3854   22158096.5024   22158093.3074
       236.000         198.000
 109341663.76848  85201293.36348  20807030.4844   20807032.4614   20807030.2144
       246.000         225.000
 122062073.50448  95113295.16348  23227646.9164   23227648.8664   23227646.6544
       228.000         191.000
 134996800.11348  87400107.50648  23786097.1884   23786098.1484   23786096.8824
       219.000         172.000
 131984818.71948 102845295.83448  25115888.9244   25115892.5484   25115888.9114
       207.000         151.000
 131670286.16448 102600210.66148  25056032.3714   25056035.1864   25056034.3104
       209.000         155.000
 115429424.39248  89945002.49648  21965490.3364   21965492.1034   21965490.1614
       238.000         206.000
 09  1 27  0 34  0.0000000  0 10G 5G 9G18G26G15G17G22G27G28G12
 120613168.03048  93984264.85748  22951940.4644   22951943.6454   22951940.9654
       227.000         182.000
 106284228.36048  82818871.78648  20225219.9644   20225222.5024   20225220.2774
       249.000         224.000
 117118035.03048  91260805.53548  22286822.0544   22286823.3524   22286822.5284
       234.000         193.000
 116530189.90048  90802735.80448  22174967.4794   22174970.3254   22174967.5474
       238.000         198.000
 109389853.37248  85238843.69848  20816200.6464   20816202.5854   20816200.2794
       247.000         226.000
 122065566.12148  95116016.67348  23228311.3564   23228313.7564   23228311.6894
       228.000         191.000
 134945747.33448  87360326.10448  23776382.7094   23776382.5234   23776381.5924
       226.000         178.000
 132055124.71548 102900079.70848  25129268.1174   25129271.3144   25129267.3554
       212.000         157.000
 131766473.03148 102675161.43748  25074336.0434   25074338.6544   25074337.4034
       209.000         154.000
 115346580.32448  89880448.68348  21949725.3834   21949727.2934   21949725.1304
       238.000         206.000
 09  1 27  0 34 30.0000000  0 10G 5G 9G18G26G15G17G22G27G28G12
 120513811.04548  93906843.85348  22933033.0204   22933036.4804   22933033.8044
       227.000         182.000
 106252598.73648  82794225.32748  20219201.0134   20219203.6684   20219200.9704
       250.000         225.000
 117118421.51748  91261106.68848  22286895.1654   22286897.1164   22286896.0694
       233.000         193.000
 116619153.48848  90872058.08048  22191896.6654   22191899.3234   22191896.4564
       237.000         197.000
 109438492.47748  85276744.29448  20825456.4734   20825458.1804   20825456.3384
       248.000         226.000
 122069610.62848  95119168.24848  23229080.6084   23229083.2664   23229080.8404
       226.000         189.000
 134895171.97348  87320916.70748  23766758.7134   23766758.5994   23766758.4884
       224.000         177.000
 132125463.14548 102954888.87448  25142653.3954   25142656.5374   25142653.5124
       213.000         159.000
 131862709.15048 102750150.57848  25092649.0294   25092652.1984   25092650.1864
       212.000         154.000
 115264094.04848  89816173.67048  21934029.0034   21934030.5484   21934028.9054
       239.000         207.000
 09  1 27  0 35  0.0000000  0 10G 5G 9G18G26G15G17G22G27G28G12
 120414709.10548  93829621.58948  22914174.5714   22914178.0464   22914175.1994
       228.000         182.000
 106221300.72048  82769837.26648  20213245.2054   20213247.7524   20213245.2864
       249.000         225.000
 117119384.02848  91261856.68548  22287078.6314   22287079.9374   22287079.1704
       235.000         193.000
 116708408.47748  90941607.42248  22208881.1114   22208884.0194   22208880.8304
       237.000         198.000
 109487582.54048  85314996.28848  20834797.7884   20834799.6804   20834797.4254
       247.000         226.000
 122074209.09048  95122751.49348  23229955.5114   23229958.2904   23229955.1184
       227.000         190.000
 134845077.14748  87281881.81948  23757225.0474   23757225.9814   23757223.4424
       223.000         175.000
 132195835.78148 103009724.68648  25156043.6704   25156048.4064   25156043.1604
       210.000         152.000
 131958994.49748 102825178.08848  25110971.3744   25110974.9034   25110973.5214
       209.000         152.000
 115181968.88948  89752180.05448  21918401.2724   21918402.5534   21918401.2734
       239.000         207.000
 09  1 27  0 35 30.0000000  0 10G 5G 9G18G26G15G17G22G27G28G12
 120315862.83848  93752598.54448  22895365.0084   22895368.1674   22895365.8444
       227.000         184.000
 106190333.51848  82745706.97748  20207352.4104   20207355.0204   20207352.6124
       250.000         225.000
 117120921.43748  91263054.66248  22287371.0954   22287372.8294   22287371.5674
       234.000         194.000
 116797952.79748  91011382.21248  22225920.9344   22225923.7514   22225921.0574
       235.000         197.000
 109537122.02048  85353598.47148  20844224.8184   20844226.6444   20844224.4214
       247.000         225.000
 122079361.01348  95126765.98148  23230936.0214   23230938.5004   23230935.3274
       226.000         189.000
 134795463.91948  87243222.13248  23747785.1024   23747784.7594   23747784.3964
       226.000         177.000
 132266241.82848 103064586.58648  25169442.1324   25169445.6564   25169442.5534
       209.000         153.000
 132055326.03948 102900241.60448  25129302.9424   25129305.7054   25129304.1284
       209.000         153.000
 115100205.39248  89688468.24548  21902842.0534   21902843.4844   21902841.9624
       238.000         207.000
 09  1 27  0 36  0.0000000  0 10G 5G 9G18G26G15G17G22G27G28G12
 120217273.83148  93675775.97148  22876604.2904   22876607.2964   22876604.4264
       229.000         185.000
 106159697.53048  82721834.77648  20201522.6564   20201525.0894   20201522.6984
       251.000         225.000
 117123033.05148  91264700.07048  22287773.0064   22287774.6664   22287773.5314
       235.000         193.000
 116887784.81048  91081381.17948  22243015.3294   22243018.0164   22243015.1834
       237.000         196.000
 109587110.18448  85392550.27948  20853737.2954   20853739.2064   20853737.0474
       247.000         225.000
 122085066.57048  95131211.89148  23232022.2634   23232024.1554   23232022.2734
       229.000         188.000
 134746332.83648  87204938.16448  23738435.1214   23738435.3684   23738435.1884
       223.000         174.000
 132336681.39148 103119474.50048  25182846.4984   25182849.9384   25182846.6784
       209.000         154.000
 132151702.09748 102975339.80648  25147642.6634   25147644.8824   25147642.5124
       206.000         150.000
 115018804.85148  89625039.27648  21887351.9214   21887353.7584   21887351.8924
       238.000         208.000
 09  1 27  0 36 30.0000000  0 10G 5G 9G18G26G15G17G22G27G28G12
 120118943.28848  93599154.79048  22857892.7164   22857895.8634   22857893.5744
       229.000         184.000
 106129392.84848  82698220.74648  20195755.7644   20195758.4314   20195756.1584
       250.000         225.000
 117125717.67048  91266791.96748  22288283.6444   22288285.2934   22288284.0964
       234.000         193.000
 116977902.63848  91151602.87048  22260164.3734   22260166.8454   22260164.3184
       237.000         197.000
 109637545.55848  85431850.56548  20863334.9314   20863336.8654   20863334.6234
       247.000         225.000
 122091325.40548  95136088.91048  23233213.3184   23233214.8574   23233213.3384
       230.000         187.000
 134697685.27948  87167030.93848  23729177.9104   23729177.6724   23729178.4484
       225.000         175.000
 132407154.03348 103174388.28848  25196255.9984   25196260.5014   25196255.8754
       211.000         156.000
 132248120.44948 103050470.94948  25165990.5874   25165993.0864   25165989.8754
       205.000         153.000
 114937768.11748  89561893.78348  21871931.2954   21871932.9444   21871931.4074
       239.000         209.000
 09  1 27  0 37  0.0000000  0 10G 5G 9G18G26G15G17G22G27G28G12
 120020873.16248  93522736.51748  22839230.5724   22839233.7814   22839231.2894
       228.000         184.000
 106099419.86548  82674865.17848  20190052.1324   20190054.6544   20190052.1964
       250.000         225.000
 117128975.15748  91269330.27348  22288903.5744   22288905.2714   22288904.2614
       235.000         194.000
 117068305.17848  91222046.40448  22277367.4524   22277370.0254   22277367.5504
       235.000         196.000
 109688428.31948  85471499.46548  20873017.5114   20873019.3914   20873017.1264
       246.000         225.000
 122098137.89648  95141397.34448  23234509.4244   23234511.1024   23234509.3234
       228.000         188.000
 134649523.34848  87129502.16448  23720012.7214   23720013.6404   23720013.5704
       219.000         174.000
 132477660.17248 103229328.17148  25209673.8294   25209676.7474   25209674.1814
       208.000         151.000
 132344579.43548 103125633.76248  25184346.2974   25184348.6574   25184346.1434
       208.000         152.000
 114857096.85148  89499033.05548  21856580.1114   21856581.5144   21856579.9854
       240.000         208.000
 09  1 27  0 37 30.0000000  0 10G 5G 9G18G26G15G17G22G27G28G12
 119923065.59048  93446522.85448  22820617.9234   22820621.5504   22820618.3874
       227.000         185.000
 106069779.77348  82651769.00548  20184411.8804   20184414.3314   20184412.1164
       250.000         225.000
 117132805.97448  91272315.31148  22289632.6914   22289634.2724   22289633.3854
       234.000         192.000
 117158991.65748  91292711.18348  22294624.3614   22294626.9194   22294623.9494
       236.000         195.000
 109739758.56648  85511497.06048  20882785.3524   20882787.3424   20882784.9714
       246.000         225.000
 122105504.89948  95147137.89048  23235911.1434   23235913.2984   23235910.7564
       227.000         189.000
 134601848.51648  87092352.98248  23710940.1694   23710941.0394   23710940.9284
       222.000         173.000
 132548200.81948 103284294.86448  25223096.9054   25223101.0224   25223096.8754
       212.000         150.000
 132441077.94348 103200827.36848  25202709.1794   25202711.4494   25202710.0024
       206.000         150.000
 114776793.42348  89436458.96248  21841298.7624   21841300.1914   21841298.6824
       239.000         208.000
 09  1 27  0 38  0.0000000  0 10G 5G 9G18G26G15G17G22G27G28G12
 119825523.04448  93370515.70348  22802056.1254   22802059.9624   22802056.7224
       228.000         187.000
 106040473.95948  82628933.29948  20178835.0884   20178837.6284   20178834.9684
       251.000         226.000
 117137210.40848  91275747.32848  22290470.6274   22290472.3364   22290470.8974
       234.000         193.000
 117249961.55848  91363596.82348  22311935.4364   22311937.8284   22311935.5074
       236.000         195.000
 109791536.13448  85551843.20848  20892638.3064   20892640.3694   20892637.9434
       248.000         225.000
 122113427.69648  95153311.50548  23237418.6664   23237421.0004   23237418.5254
       227.000         188.000
 134554663.15548  87055585.15648  23701961.2524   23701961.7074   23701961.5264
       221.000         173.000
 132618776.82548 103339289.15748  25236527.6074   25236530.8534   25236528.3814
       210.000         151.000
 132537614.92848 103276050.94248  25221079.4844   25221081.6534   25221080.7774
       207.000         148.000
 114696860.15048  89374173.30748  21826087.9354   21826089.4884   21826087.9514
       238.000         208.000
 09  1 27  0 38 30.0000000  0 10G 5G 9G18G26G15G17G22G27G28G12
 119728245.75148  93294715.23648  22783544.9154   22783548.8474   22783545.5124
       229.000         186.000
 106011500.91548  82606356.90548  20173321.7744   20173324.1604   20173322.0854
       250.000         226.000
 117142186.03148  91279624.42348  22291417.5834   22291419.0244   22291417.7264
       233.000         191.000
 117341211.95148  91434701.02648  22329299.7704   22329302.4554   22329300.1884
       234.000         195.000
 109843759.01748  85592536.35248  20902576.1294   20902578.0944   20902576.1034
       247.000         225.000
 122121904.58948  95159916.88448  23239032.1604   23239034.1614   23239031.7324
       227.000         190.000
 134507967.25648  87019198.75248  23693075.0104   23693075.7424   23693074.6714
       224.000         176.000
 132689387.04148 103394310.13948  25249964.1434   25249967.2394   25249964.5004
       213.000         151.000
 132634187.17348 103351302.02648  25239456.5144   25239458.1574   25239455.8894
       202.000         145.000
 114617296.74848  89312175.85948  21810947.3914   21810949.1494   21810947.0884
       239.000         209.000
 09  1 27  0 39  0.0000000  0 10G 5G 9G18G26G15G17G22G27G28G12
 119631236.24848  93219123.41948  22765084.7514   22765088.4224   22765085.4644
       230.000         186.000
 105982861.98348  82584040.85148  20167871.8574   20167874.4844   20167872.1274
       250.000         226.000
 117147733.46948  91283947.09248  22292472.7534   22292474.7934   22292472.9584
       235.000         192.000
 117432742.52448  91506023.54248  22346717.3784   22346720.1094   22346716.9844
       235.000         194.000
 109896427.29848  85633576.56448  20912598.5324   20912600.5424   20912598.3104
       247.000         225.000
 122130936.77448  95166954.97548  23240751.1204   23240753.1314   23240750.8354
       227.000         190.000
 134461763.19948  86983195.59048  23684283.2094   23684283.4534   23684284.8754
       226.000         178.000
 132760032.30548 103449358.37948  25263407.7124   25263410.2254   25263407.8144
       212.000         150.000
 132730794.10648 103426580.13548  25257840.9564   25257841.8624   25257838.2694
       201.000         142.000
 114538105.57448  89250468.45448  21795878.0264   21795879.5214   21795878.0714
       239.000         209.000
 09  1 27  0 39 30.0000000  0 11G 5G 9G18G26G15G17G22G30G27G28G12
 119534495.01148  93143740.65248  22746675.2984   22746678.9564   22746676.0894
       228.000         186.000
 105954556.77348  82561984.84948  20162485.4294   20162488.1954   20162485.5154
       250.000         225.000
 117153851.01748  91288714.00648  22293637.4474   22293639.3214   22293638.1394
       235.000         193.000
 117524550.55848  91577562.26348  22364187.9984   22364190.4834   22364187.8854
       236.000         194.000
 109949539.55648  85674962.73248  20922705.4894   20922707.3554   20922705.2094
       247.000         224.000
 122140523.16648  95174424.87948  23242575.3324   23242577.3414   23242575.2234
       229.000         190.000
 134416051.20348  86947575.83848  23675584.9334   23675585.3044   23675584.7294
       226.000         179.000
 131434608.77558 102416567.17358  25011182.6815   25011185.3665   25011182.7275
       212.000         152.000
 132830711.41248 103504433.03248  25276856.8084   25276861.6144   25276858.1914
       208.000         149.000
 132827432.71448 103501882.91748  25276230.7594   25276230.8634   25276231.0044
       207.000         145.000
 114459286.89948  89189051.31548  21780879.3514   21780880.8134   21780879.3144
       239.000         209.000
 09  1 27  0 40  0.0000000  0 11G 5G 9G18G26G15G17G22G30G27G28G12
 119438023.88848  93068568.37648  22728317.5354   22728321.1654   22728318.2574
       230.000         187.000
 105926585.80348  82540189.29648  20157162.7774   20157165.3024   20157162.8884
       251.000         226.000
 117160538.36548  91293924.91948  22294910.0204   22294912.2444   22294910.2724
       233.000         193.000
 117616635.12548  91649316.47948  22381711.1064   22381713.4394   22381711.1834
       238.000         193.000
 110003095.39948  85716694.55348  20932896.8204   20932898.7464   20932896.5414
       247.000         224.000
 122150664.07948  95182326.90048  23244505.0424   23244506.9694   23244504.9334
       227.000         189.000
 134370832.80348  86912340.72848  23666979.9694   23666980.0924   23666980.4594
       224.000         178.000
 131322335.95648 102329081.90448  24989817.5354   24989820.6874   24989816.2034
       210.000         152.000
 132901424.92148 103559534.42848  25290313.8734   25290316.6174   25290313.2594
       208.000         149.000
 132924101.64948 103577209.35448  25294625.2174   25294626.7734   25294628.9484
       203.000         143.000
 114380842.53348  89127925.83648  21765951.7754   21765953.3614   21765951.8244
       238.000         209.000
 09  1 27  0 40 30.0000000  0 11G 5G 9G18G26G15G17G22G30G27G28G12
 119341824.86148  92993608.11548  22710011.5564   22710015.1494   22710012.3484
       231.000         188.000
 105898950.09148  82518654.97048  20151903.9474   20151906.3174   20151903.9534
       251.000         226.000
 117167795.26648  91299579.63148  22296290.9474   22296292.9074   22296291.1254
       234.000         194.000
 117708994.96848  91721285.18948  22399286.5714   22399289.1964   22399286.5224
       235.000         193.000
 110057094.42648  85758771.70548  20943172.3804   20943174.3804   20943172.0244
       247.000         224.000
 122161360.09648  95190661.46448  23246540.1024   23246541.9584   23246539.8614
       228.000         189.000
 134326109.80248  86877491.65548  23658469.2154   23658468.9004   23658469.3314
       226.000         174.000
 131210141.71048 102241657.85048  24968467.1804   24968470.8304   24968466.2834
       210.000         150.000
 132972173.38148 103614663.13548  25303776.3724   25303780.5624   25303776.6984
       207.000         152.000
 133020799.36848 103652558.18648  25313027.2964   25313028.0064   25313028.8324
       206.000         143.000
 114302773.90948  89067093.15048  21751095.6124   21751097.2394   21751095.2214
       238.000         208.000
 09  1 27  0 41  0.0000000  0 11G 5G 9G18G26G15G17G22G30G27G28G12
 119245899.98848  92918861.46948  22691757.6464   22691761.0904   22691758.2904
       231.000         188.000
 105871650.04648  82497382.20948  20146709.0264   20146711.3524   20146709.3504
       250.000         226.000
 117175621.41848  91305677.92548  22297780.2344   22297782.1464   22297780.5914
       234.000         193.000
 117801629.19548  91793467.69448  22416914.1434   22416916.9054   22416914.0104
       235.000         194.000
 110111536.32248  85801193.95648  20953532.3114   20953534.1914   20953531.9954
       248.000         224.000
 122172611.63948  95199428.91948  23248681.3544   23248683.0484   23248681.0114
       229.000         189.000
 134281883.81248  86843029.82348  23650053.9244   23650052.6264   23650054.8164
       225.000         178.000
 131098028.06448 102154296.59548  24947132.7524   24947135.4534   24947132.3824
       213.000         151.000
 133042957.43748 103669819.49848  25317246.2164   25317250.0934   25317246.2204
       211.000         154.000
 133117524.75348 103727928.59948  25331433.1314   25331433.3844   25331433.3444
       205.000         143.000
 114225082.99248  89006554.77748  21736311.4034   21736312.9264   21736311.3404
       237.000         209.000
 09  1 27  0 41 30.0000000  0 11G 5G 9G18G26G15G17G22G30G27G28G12
 119150250.28748  92844329.27248  22673556.0754   22673559.7574   22673556.4544
       231.000         188.000
 105844685.51648  82476370.89148  20141577.8184   20141580.3984   20141578.1494
       250.000         226.000
 117184015.67548  91312218.89948  22299377.2594   22299379.1054   22299377.7164
       233.000         192.000
 117894535.69048  91865862.35548  22434594.0594   22434596.6554   22434594.3104
       236.000         195.000
 110166419.78748  85843960.28348  20963976.3594   20963978.1444   20963976.1314
       247.000         224.000
 122184418.04948  95208628.70648  23250928.2774   23250929.9154   23250928.6444
       228.000         190.000
 134238155.51648  86808955.86248  23641731.8274   23641733.1054   23641731.6204
       223.000         178.000
 130985995.94248 102066998.87748  24925813.8524   24925816.9944   24925814.1794
       211.000         153.000
 133113776.60248 103725003.25648  25330722.2314   25330726.5604   25330722.5424
       207.000         155.000
 133214275.32848 103803318.61148  25349844.2284   25349845.3154   25349844.5754
       204.000         146.000
 114147770.47148  88946311.25748  21721599.3704   21721600.9824   21721599.1094
       239.000         210.000
 09  1 27  0 42  0.0000000  0 11G 5G 9G18G26G15G17G22G30G27G28G12
 119054877.58448  92770012.90548  22655407.0704   22655410.6754   22655407.7474
       233.000         188.000
 105818057.53448  82455621.81848  20136510.6054   20136513.1214   20136510.4974
       249.000         225.000
 117192977.48548  91319202.12348  22301082.9124   22301084.6114   22301083.2284
       234.000         191.000
 117987713.54848  91938468.48348  22452325.2454   22452327.7484   22452325.0854
       235.000         193.000
 110221744.64648  85887070.56448  20974504.4094   20974506.2154   20974504.1694
       246.000         223.000
 122196779.59948  95218261.10448  23253280.6344   23253282.3724   23253280.8124
       228.000         189.000
 134194926.88548  86775271.17548  23633505.7074   23633506.5224   23633505.8914
       222.000         172.000
 130874047.47148 101979766.33448  24904510.3904   24904514.2344   24904510.3314
       210.000         154.000
 133184631.43048 103780214.80548  25344205.3504   25344210.1404   25344204.8954
       207.000         155.000
 133311049.82448 103878727.26948  25368259.5194   25368262.5404   25368261.6414
       201.000         142.000
 114070838.13248  88886363.99048  21706959.9724   21706961.5344   21706959.8754
       240.000         210.000
 09  1 27  0 42 30.0000000  0 11G 5G 9G18G26G15G17G22G30G27G28G12
 118959783.32048  92695913.50348  22637311.5194   22637314.7164   22637312.3004
       232.000         189.000
 105791766.12648  82435135.01048  20131507.5154   20131509.9794   20131507.8814
       249.000         225.000
 117202505.82948  91326626.78948  22302896.0504   22302897.8744   22302896.4514
       233.000         192.000
 118081160.97448  92011284.65048  22470107.4024   22470110.0244   22470107.2974
       233.000         190.000
 110277509.50048  85930523.69148  20985116.0674   20985117.9644   20985115.7614
       246.000         223.000
 122209696.09448  95228325.91848  23255738.6724   23255740.1894   23255738.1914
       228.000         189.000
 134152198.44448  86741976.27748  23625374.6484   23625374.6744   23625373.5914
       222.000         176.000
 130762184.12048 101892600.11448  24883223.3694   24883227.3934   24883222.5434
       210.000         154.000
 133255521.80648 103835454.05348  25357695.5854   25357699.7494   25357696.0154
       207.000         151.000
 133407846.20348 103954152.94148  25386679.0144   25386681.4324   25386680.2074
       201.000         139.000
 113994287.04248  88826713.79648  21692392.6834   21692394.4714   21692392.5834
       238.000         211.000
 09  1 27  0 43  0.0000000  0 11G 5G 9G18G26G15G17G22G30G27G28G12
 118864969.67948  92622032.76248  22619269.0474   22619272.0914   22619269.4964
       233.000         189.000
 105765812.63348  82414911.51348  20126568.7724   20126571.2434   20126568.8604
       250.000         225.000
 117212600.82948  91334493.02548  22304817.2234   22304818.8084   22304817.9694
       235.000         192.000
 118174877.24548  92084310.32248  22487940.9954   22487943.5924   22487940.6294
       234.000         191.000
 110333714.34648  85974319.66948  20995811.4184   20995813.2734   20995811.0684
       247.000         223.000
 122223168.03848  95238823.54348  23258302.2844   23258303.9164   23258302.1094
       230.000         189.000
 134109972.27148  86709072.80648  23617340.0404   23617340.5204   23617339.0324
       223.000         177.000
 130650408.28548 101805502.07248  24861952.8814   24861956.9484   24861953.1774
       213.000         155.000
 133326448.41248 103890721.56748  25371192.3434   25371196.7664   25371193.2054
       206.000         149.000
 133504663.64448 104029595.05448  25405103.6464   25405105.5614   25405103.2104
       202.000         139.000
 113918119.24748  88767362.27748  21677898.2504   21677900.1354   21677898.1774
       239.000         210.000
 09  1 27  0 43 30.0000000  0 11G 5G 9G18G26G15G17G22G30G27G28G12
 118770437.68048  92548371.48448  22601280.0644   22601283.5824   22601280.9774
       233.000         190.000
 105740196.62548  82394950.98548  20121694.1934   20121696.5744   20121694.4484
       250.000         226.000
 117223260.96448  91342799.60948  22306845.9484   22306847.3854   22306846.3814
       235.000         192.000
 118268860.29748  92157543.87248  22505825.3664   22505828.0994   22505825.9074
       232.000         192.000
 110390357.99448  86018457.56748  21006590.3654   21006592.3394   21006590.0004
       246.000         223.000
 122237195.07748  95249753.71248  23260971.7054   23260973.0074   23260971.5764
       229.000         188.000
 134068249.08848  86676561.21048  23609399.7884   23609399.5184   23609398.7614
       221.000         171.000
 130538720.65248 101718472.77348  24840700.7344   24840703.5604   24840700.3884
       210.000         156.000
 133397411.07848 103946017.15148  25384696.1564   25384700.5444   25384696.8054
       210.000         146.000
 133601499.78148 104105051.75148  25423530.4474   25423532.8204   25423531.0224
       205.000         137.000
 113842335.48348  88708310.01248  21663477.1584   21663479.1164   21663476.8434
       240.000         212.000
 09  1 27  0 44  0.0000000  0 11G 5G 9G18G26G15G17G22G30G27G28G12
 118676188.39748  92474930.50548  22583345.2394   22583348.3554   22583346.4784
       233.000         190.000
 105714917.57048  82375253.01748  20116883.8434   20116886.2044   20116884.1304
       249.000         226.000
 117234485.07448  91351545.65748  22308981.7304   22308983.2254   22308982.1764
       235.000         190.000
 118363108.22148  92230983.79848  22523759.7394   22523763.0324   22523759.3714
       231.000         190.000
 110447439.17648  86062936.40948  21017452.7374   21017454.4864   21017452.5814
       247.000         223.000
 122251776.25448  95261115.67348  23263746.3744   23263747.6444   23263745.8204
       229.000         188.000
 134027029.53748  86644442.07548  23601555.3354   23601555.9634   23601554.6364
       222.000         173.000
 130427122.62848 101631513.33248  24819464.1354   24819466.9864   24819464.2984
       211.000         157.000
 133468409.53648 104001340.64048  25398206.9104   25398211.0934   25398207.1764
       204.000         147.000
 133698352.95348 104180521.70948  25441960.8304   25441964.1214   25441961.1844
       202.000         140.000
 113766936.49548  88649557.56148  21649129.2964   21649131.1024   21649129.1674
       240.000         212.000
 09  1 27  0 44 30.0000000  0 11G 5G 9G18G26G15G17G22G30G27G28G12
 118582224.40348  92401711.82348  22565464.7944   22565467.4944   22565465.2844
       234.000         191.000
 105689977.65848  82355819.32248  20112137.8184   20112140.4204   20112137.9834
       250.000         226.000
 117246273.86248  91360731.71748  22311224.8514   22311226.4804   22311225.8764
       233.000         190.000
 118457620.60648  92304629.80248  22541744.9764   22541748.1844   22541744.4064
       232.000         188.000
 110504957.96148  86107756.23548  21028398.1774   21028399.9004   21028398.0124
       247.000         223.000
 122266912.92348  95272910.48648  23266626.5684   23266628.0504   23266626.7154
       229.000         188.000
 133986315.80748  86612717.11748  23593808.4254   23593808.9154   23593808.6494
       220.000         172.000
 130315617.05448 101544625.91648  24798244.9074   24798248.0104   24798244.9484
       211.000         156.000
 133539445.00948 104056692.97648  25411724.7064   25411728.7824   25411724.5534
       202.000         141.000
 133795222.18748 104256004.13548  25460395.7894   25460397.8284   25460395.9614
       204.000         140.000
 113691924.39848  88591106.57648  21634854.9804   21634856.5444   21634854.7664
       241.000         211.000
 09  1 27  0 45  0.0000000  0 11G 5G 9G18G26G15G17G22G30G27G28G12
 118488545.47348  92328715.28148  22547637.9124   22547640.9834   22547639.0504
       234.000         191.000
 105665375.21748  82336648.59348  20107456.0754   20107458.8374   20107456.1524
       250.000         227.000
 117258623.95048  91370355.14848  22313574.9624   22313576.7104   22313574.9814
       234.000         191.000
 118552394.05948  92378479.25448  22559779.9474   22559782.8914   22559779.6424
       232.000         189.000
 110562911.66048  86152914.95748  21039426.2104   21039428.3504   21039425.9554
       245.000         223.000
 122282602.58448  95285136.21848  23269611.7524   23269613.7274   23269611.6614
       229.000         190.000
 133946107.14348  86581385.70748  23586156.7224   23586156.6324   23586155.8114
       224.000         172.000
 130204203.87348 101457810.48248  24777043.4124   24777047.0954   24777042.7124
       211.000         154.000
 133610515.79648 104112072.83748  25425247.8344   25425252.3444   25425248.1034
       201.000         142.000
 133892103.77948 104331496.18048  25478832.6844   25478834.2334   25478832.3314
       205.000         142.000
 113617298.79348  88532956.76548  21620654.2844   21620655.6684   21620654.3624
       240.000         211.000
 09  1 27  0 45 30.0000000  0 11G 5G 9G18G26G15G17G22G30G27G28G12
 118395154.76548  92255943.32248  22529866.3124   22529869.5804   22529867.2294
       233.000         191.000
 105641112.30348  82317742.42648  20102839.1244   20102841.7794   20102839.4164
       250.000         226.000
 117271536.21848  91380416.63948  22316032.3504   22316033.9024   22316032.4464
       234.000         192.000
 118647428.86148  92452532.35548  22577864.5274   22577867.1414   22577864.5084
       233.000         190.000
 110621301.19348  86198413.28848  21050537.3604   21050539.4724   21050536.7494
       246.000         222.000
 122298847.02648  95297794.22048  23272703.5524   23272705.3994   23272703.4614
       231.000         192.000
 133906407.01148  86550450.47948  23578602.9564   23578602.6014   23578602.6124
       225.000         178.000
 130092885.95848 101371069.28248  24755860.0254   24755863.6584   24755859.4074
       211.000         156.000
 133681623.34848 104167481.32248  25438779.6324   25438784.4824   25438779.3994
       200.000         138.000
 133988997.62948 104406997.83848  25497269.7874   25497271.7304   25497270.8764
       207.000         141.000
 113543062.80048  88475110.54948  21606527.3554   21606529.0144   21606527.1684
       241.000         212.000
 09  1 27  0 46  0.0000000  0 11G 5G 9G18G26G15G17G22G30G27G28G12
 118302052.56548  92183396.18648  22512149.0944   22512152.5934   22512149.7464
       235.000         190.000
 105617188.23748  82299100.29248  20098286.5004   20098289.0334   20098286.5664
       250.000         226.000
 117285009.00548  91390914.91248  22318596.0594   22318597.5614   22318596.8534
       234.000         191.000
 118742722.25448  92526786.93148  22595998.2074   22596001.1944   22595998.1794
       231.000         190.000
 110680124.75848  86244249.82048  21061731.3034   21061733.0744   21061731.1704
       247.000         222.000
 122315644.99148  95310883.54948  23275900.1274   23275901.6124   23275899.9444
       230.000         190.000
 133867214.95348  86519911.23548  23571143.8314   23571144.9174   23571144.1714
       223.000         175.000
 129981663.84948 101284402.70648  24734696.5104   24734698.8124   24734696.2224
       213.000         154.000
 133752766.99948 104222917.91548  25452318.3124   25452322.6434   25452317.8104
       188.000         129.000
 134085901.33648 104482507.20148  25515708.9344   25515711.6284   25515709.2954
       205.000         138.000
 113469216.24448  88417567.79048  21592475.0254   21592476.5414   21592475.0824
       241.000         213.000
 09  1 27  0 46 30.0000000  0 10G 5G 9G18G26G15G17G22G30G28G12
 118209241.14648  92111075.61148  22494487.8424   22494490.9094   22494488.6414
       235.000         193.000
 105593603.64448  82280722.68648  20093798.3334   20093800.9634   20093798.4344
       250.000         227.000
 117299041.48848  91401849.29748  22321266.0414   22321267.9554   22321266.3404
       234.000         192.000
 118838273.42948  92601242.37948  22614181.2184   22614184.0854   22614180.9434
       231.000         190.000
 110739382.24048  86290424.48648  21073007.5784   21073009.3294   21073007.2494
       247.000         223.000
 122332996.66848  95324404.35048  23279202.1534   23279203.4254   23279202.2124
       232.000         191.000
 133828532.64748  86489769.16048  23563783.8104   23563784.0064   23563783.7234
       225.000         179.000
 129870540.21048 101197812.89248  24713549.9754   24713551.8394   24713550.3354
       215.000         156.000
 134182814.15948 104558023.64548  25534150.5564   25534152.7794   25534150.9524
       202.000         134.000
 113395761.46748  88360330.31048  21578497.0454   21578498.4974   21578497.1484
       240.000         213.000
 09  1 27  0 47  0.0000000  0 10G 5G 9G18G26G15G17G22G30G28G12
 118116719.78648  92038981.07248  22476881.7084   22476884.9544   22476882.6924
       235.000         193.000
 105570357.26548  82262608.62348  20089374.9624   20089377.3784   20089375.2404
       250.000         226.000
 117313630.84848  91413217.62848  22324042.7894   22324043.9434   22324043.2104
       236.000         192.000
 118934078.82348  92675895.92848  22632412.2424   22632415.1094   22632412.0154
       232.000         189.000
 110799070.17248  86336934.55248  21084365.8724   21084367.6264   21084365.8184
       246.000         222.000
 122350899.26848  95338354.43248  23282608.2884   23282610.1354   23282608.5264
       229.000         189.000
 133790358.64848  86460023.19048  23556519.2014   23556519.9154   23556517.8754
       225.000         180.000
 129759514.59348 101111299.44548  24692422.6154   24692424.1934   24692422.4704
       214.000         155.000
 134279731.67248 104633543.76748  25552594.1354   25552596.6744   25552594.5154
       196.000         133.000
 113322696.78948  88303396.80948  21564593.0714   21564594.8524   21564592.8264
       242.000         213.000
 09  1 27  0 47 30.0000000  0  9G 5G 9G18G26G15G17G22G30G12
 118024491.78248  91967115.11748  22459331.3814   22459334.5104   22459332.3394
       236.000         194.000
 105547450.96648  82244759.56348  20085015.9624   20085018.4124   20085016.1174
       250.000         226.000
 117328777.83848  91425020.47248  22326925.1234   22326926.5324   22326926.2984
       235.000         192.000
 119030138.63048  92750747.73148  22650692.1674   22650694.7034   22650692.3624
       233.000         189.000
 110859189.69248  86383780.92948  21095806.1684   21095808.1184   21095805.7624
       246.000         222.000
 122369354.87048  95352735.42348  23286120.6054   23286122.1454   23286120.5304
       232.000         189.000
 133752696.47948  86430676.04448  23549352.5784   23549353.1184   23549353.4074
       224.000         177.000
 129648590.08748 101024864.78948  24671313.9114   24671316.9324   24671313.1304
       216.000         159.000
 113250025.82248  88246770.09648  21550764.4864   21550766.2164   21550764.4484
       241.000         214.000
 09  1 27  0 48  0.0000000  0  9G 5G 9G18G26G15G17G22G30G12
 117932559.61648  91895479.67748  22441837.3514   22441840.2574   22441838.4574
       235.000         194.000
 105524886.13048  82227176.57748  20080722.0044   20080724.4984   20080722.1414
       250.000         226.000
 117344482.42548  91437257.81448  22329913.3374   22329915.2104   22329913.8494
       233.000         192.000
 119126452.37148  92825797.41348  22669019.7844   22669022.7434   22669019.8994
       231.000         190.000
 110919740.89848  86430963.67948  21107328.6354   21107330.6924   21107328.3724
       246.000         222.000
 122388364.22948  95367547.92748  23289737.9524   23289739.2724   23289738.0574
       228.000         187.000
 133715547.94648  86401729.12448  23542282.3554   23542283.2034   23542282.3084
       221.000         174.000
 129537769.38148 100938511.01248  24650225.7494   24650228.5044   24650225.4544
       216.000         157.000
 113177749.91048  88190451.21048  21537010.7484   21537012.4674   21537010.6204
       241.000         213.000
 09  1 27  0 48 30.0000000  0  9G 5G 9G18G26G15G17G22G30G12
 117840926.21648  91824077.04448  22424400.1674   22424403.0854   22424401.1184
       236.000         194.000
 105502664.52648  82209861.04748  20076493.3584   20076495.8894   20076493.5474
       250.000         226.000
 117360744.99748  91449929.94048  22333007.7684   22333009.9614   22333008.1554
       233.000         191.000
 119223019.77948  92901044.72248  22687395.9454   22687399.0044   22687395.7244
       230.000         188.000
 110980723.83148  86478482.84348  21118933.3944   21118935.1954   21118933.3344
       246.000         221.000
 122407928.24348  95382792.62448  23293460.3044   23293462.2974   23293459.6744
       229.000         188.000
 133678915.28648  86373184.21548  23535312.3684   23535312.7624   23535312.4614
       223.000         177.000
 129427055.59648 100852240.51848  24629157.3664   24629160.2014   24629157.6314
       213.000         157.000
 113105872.26448  88134442.66848  21523332.8694   21523334.3424   21523332.7154
       242.000         213.000
 09  1 27  0 49  0.0000000  0  9G 5G 9G18G26G15G17G22G30G12
 117749590.94148  91752906.70748  22407019.4774   22407022.5354   22407020.9214
       235.000         195.000
 105480784.45248  82192811.63648  20072329.6294   20072332.1754   20072329.8014
       250.000         226.000
 117377562.29948  91463034.31348  22336208.3324   22336209.9234   22336208.5594
       232.000         191.000
 119319837.52348  92976487.10548  22705819.6244   22705822.6574   22705819.4404
       228.000         188.000
 111042135.55048  86526336.12848  21130619.6414   21130621.4864   21130619.1554
       246.000         221.000
 122428044.36848  95398467.51448  23297289.3734   23297290.3724   23297289.0434
       232.000         190.000
 133642797.53248  86345040.49048  23528438.3794   23528438.7174   23528437.3174
       220.000         172.000
 129316448.31648 100766053.03048  24608108.7634   24608112.1154   24608108.9244
       215.000         157.000
 113034391.97248  88078743.75148  21509730.7004   21509732.1054   21509730.4964
       241.000         214.000
 09  1 27  0 49 30.0000000  0  9G 5G 9G18G26G15G17G22G30G12
 117658555.51248  91681970.01848  22389695.9034   22389699.0944   22389696.6334
       235.000         196.000
 105459247.02248  82176029.22648  20068231.1204   20068233.7514   20068231.3564
       251.000         226.000
 117394933.59348  91476570.38648  22339513.9014   22339515.7434   22339514.5424
       234.000         192.000
 119416904.19248  93052123.47248  22724290.7234   22724293.4824   22724290.3304
       231.000         188.000
 111103975.57948  86574523.14848  21142387.2474   21142389.3734   21142387.0954
       246.000         221.000
 122448712.64248  95414572.66948  23301221.7814   23301223.4404   23301222.2274
       229.000         188.000
 133607195.98448  86317299.02648  23521664.2224   23521664.9684   23521663.9404
       222.000         178.000
 129205949.19248 100679949.79448  24587082.1714   24587084.7674   24587082.9054
       215.000         156.000
 112963310.27148  88023355.42448  21496204.1664   21496205.7474   21496203.9574
       243.000         214.000
 09  1 27  0 50  0.0000000  0  9G 5G 9G18G26G15G17G22G30G12
 117567821.12248  91611267.91448  22372429.6344   22372432.9324   22372430.4354
       234.000         195.000
 105438051.76648  82159513.44148  20064198.0154   20064200.4244   20064198.1984
       250.000         226.000
 117412857.63648  91490537.14648  22342924.8194   22342926.6644   22342925.3174
       234.000         191.000
 119514218.00848  93127952.42148  22742809.0204   22742811.8494   22742809.2194
       230.000         187.000
 111166242.89648  86623043.12948  21154236.3974   21154238.5224   21154236.0384
       246.000         221.000
 122469932.12148  95431107.34248  23305259.2314   23305261.3154   23305258.8464
       228.000         187.000
 133572111.16048  86289960.21548  23514987.5194   23514989.3304   23514987.7454
       222.000         177.000
 129095559.88348 100593932.17448  24566075.6574   24566078.0904   24566075.2524
       215.000         157.000
 112892628.27548  87968278.55648  21482753.9724   21482755.5024   21482754.0504
       243.000         215.000
 09  1 27  0 50 30.0000000  0  9G 5G 9G18G26G15G17G22G30G12
 117477389.70848  91540801.89248  22355220.6564   22355224.3414   22355221.0604
       234.000         195.000
 105417199.87148  82143265.21648  20060230.1004   20060232.4144   20060230.2034
       251.000         227.000
 117431333.58248  91504933.97248  22346440.7474   22346442.5784   22346441.1994
       234.000         190.000
 119611777.73848  93203972.99048  22761373.7474   22761376.7234   22761374.1734
       230.000         185.000
 111228936.57148  86671895.33748  21166166.7774   21166168.8004   21166166.6324
       246.000         221.000
 122491703.07548  95448071.73948  23309402.1844   23309404.1684   23309401.9544
       230.000         189.000
 133537544.63548  86263025.25548  23508410.8304   23508411.1214   23508410.8264
       225.000         179.000
 128985282.38348 100508001.68448  24545090.9724   24545092.8454   24545091.0384
       218.000         159.000
 112822347.39948  87913514.24648  21469379.8024   21469381.6054   21469379.6614
       242.000         215.000
 09  1 27  0 51  0.0000000  0  9G 5G 9G18G26G15G17G22G30G12
 117387261.98248  91470572.50548  22338070.2594   22338073.7854   22338070.9024
       234.000         197.000
 105396691.05948  82127284.32548  20056327.4404   20056329.7084   20056327.6934
       250.000         226.000
 117450359.74248  91519759.54648  22350061.2474   22350062.6174   22350061.9614
       234.000         190.000
 119709581.25148  93280183.51548  22779985.3684   22779987.9644   22779985.0194
       228.000         185.000
 111292055.20148  86721078.68648  21178177.7894   21178179.6824   21178177.6424
       245.000         220.000
 122514024.07248  95465464.73048  23313650.5524   23313651.5954   23313650.3824
       230.000         187.000
 133503496.66148  86236494.38748  23501931.6224   23501931.6524   23501930.8434
       225.000         178.000
 128875117.63748 100422159.06248  24524127.4754   24524129.2614   24524128.2864
       211.000         159.000
 112752467.76548  87859062.59748  21456082.0674   21456084.0604   21456081.7334
       243.000         215.000
 09  1 27  0 51 30.0000000  0  9G 5G 9G18G26G15G17G22G30G12
 117297440.10748  91400581.45948  22320977.7454   22320981.2944   22320977.9984
       235.000         197.000
 105376526.37148  82111571.57948  20052490.1354   20052492.4854   20052490.3154
       250.000         226.000
 117469935.50948  91535013.40148  22353786.3424   22353788.0994   22353787.0144
       234.000         190.000
 119807627.64848  93356583.29048  22798643.0004   22798645.7614   22798642.5674
       229.000         185.000
 111355598.19748  86770592.70148  21190269.4804   21190271.4674   21190269.0714
       245.000         220.000
 122536895.68648  95483286.77348  23318002.2334   23318003.9974   23318002.5114
       230.000         186.000
 133469968.63748  86210368.62948  23495551.3064   23495551.4074   23495551.3604
       225.000         178.000
 128765067.81048 100336406.00048  24503184.7274   24503187.4994   24503183.1784
       215.000         157.000
 112682991.56748  87804925.30548  21442861.3754   21442863.0924   21442861.1544
       243.000         216.000
 09  1 27  0 52  0.0000000  0  9G 5G 9G18G26G15G17G22G30G12
 117207925.13948  91330829.54648  22303943.4874   22303946.8604   22303944.1024
       235.000         197.000
 105356705.48748  82096126.73748  20048718.2414   20048720.6654   20048718.4714
       250.000         226.000
 117490059.44448  91550694.36848  22357615.6794   22357617.8094   22357616.4794
       234.000         191.000
 119905914.99548  93433170.84348  22817346.3974   22817349.0814   22817346.8574
       229.000         187.000
 111419564.33248  86820436.43348  21202442.0584   21202443.8334   21202441.8824
       245.000         220.000
 122560316.96648  95501537.12148  23322459.1434   23322460.7184   23322458.8994
       232.000         188.000
 133436961.37748  86184648.67948  23489270.2314   23489270.5464   23489271.1294
       227.000         177.000
 128655134.69748 100250743.82648  24482265.5284   24482268.3354   24482264.9114
       212.000         156.000
 112613919.21348  87751102.69848  21429717.3974   21429718.9034   21429717.4024
       243.000         216.000
 09  1 27  0 52 30.0000000  0  9G 5G 9G18G26G15G17G22G30G12
 117118718.19748  91261317.65748  22286968.2524   22286971.2594   22286968.9194
       237.000         197.000
 105337228.85548  82080950.14648  20045011.9414   20045014.3014   20045012.2984
       249.000         226.000
 117510729.89148  91566801.18548  22361549.3634   22361551.4034   22361550.1694
       234.000         192.000
 120004441.49148  93509944.72848  22836095.4274   22836098.2354   22836095.2344
       229.000         187.000
 111483952.40948  86870608.95848  21214694.5174   21214696.5334   21214694.4014
       246.000         220.000
 122584287.22048  95520215.23848  23327021.3004   23327022.0254   23327021.1274
       230.000         187.000
 133404475.17148  86159334.75148  23483088.5974   23483088.0674   23483089.8734
       229.000         177.000
 128545319.00948 100165173.16748  24461368.1394   24461371.2884   24461368.2824
       211.000         156.000
 112545251.62448  87697595.49748  21416650.2554   21416651.9814   21416650.1574
       242.000         216.000
 09  1 27  0 53  0.0000000  0  9G 5G 9G18G26G15G17G22G30G12
 117029819.81348  91192046.18348  22270051.5554   22270054.3524   22270052.3624
       237.000         197.000
 105318095.70448  82066041.19848  20041370.9984   20041373.4284   20041371.1214
       250.000         226.000
 117531944.90748  91583332.36448  22365586.5784   22365588.5834   22365587.0324
       235.000         193.000
 120103204.67948  93586903.04448  22854889.5584   22854892.4694   22854889.8064
       227.000         185.000
 111548760.28348  86921108.59648  21227027.0294   21227029.0424   21227026.7934
       245.000         219.000
 122608804.88748  95539319.93348  23331685.3194   23331687.7874   23331685.1804
       227.000         185.000
 133372510.14148  86134426.96548  23477005.5774   23477005.5004   23477006.9174
       227.000         178.000
 128435621.55348 100079694.64648  24440493.2424   24440496.6964   24440494.0154
       214.000         158.000
 112476989.06148  87644403.90548  21403660.0134   21403661.7904   21403659.8264
       243.000         216.000
 09  1 27  0 53 30.0000000  0  9G 5G 9G18G26G15G17G22G30G12
 116941233.84748  91123018.16148  22253194.1004   22253196.9404   22253194.7054
       237.000         198.000
 105299309.06748  82051402.26048  20037796.1834   20037798.4824   20037796.4794
       249.000         226.000
 117553705.62848  91600288.75048  22369727.4414   22369729.3034   22369727.9074
       235.000         192.000
 120202205.37148  93664046.43548  22873728.6434   22873731.5104   22873728.3884
       226.000         185.000
 111613989.29348  86971936.39448  21239439.6934   21239441.7124   21239439.4274
       245.000         219.000
 122633871.92048  95558852.67848  23336456.2934   23336458.0264   23336455.7294
       233.000         188.000
 133341069.43648  86109927.67648  23471022.8044   23471022.4174   23471022.6124
       227.000         178.000
 128326046.59548  99994311.61148  24419641.6874   24419645.2814   24419641.2594
       210.000         158.000
 112409134.76148  87591530.42648  21390748.0704   21390749.5324   21390747.8384
       244.000         217.000
 09  1 27  0 54  0.0000000  0  9G 5G 9G18G26G15G17G22G30G12
 116852960.56948  91054233.79748  22236396.3214   22236399.3604   22236397.1614
       237.000         199.000
 105280868.14348  82037032.70548  20034286.8794   20034289.3314   20034287.0594
       249.000         226.000
 117576009.78648  91617668.60448  22373971.5624   22373973.5794   22373971.8374
       234.000         190.000
 120301441.03848  93741372.91548  22892612.5934   22892615.8694   22892611.9694
       225.000         184.000
 111679637.39348  87023090.75248  21251932.1614   21251934.1684   21251931.9214
       244.000         219.000
 122659486.50148  95578812.08448  23341331.6344   23341332.4074   23341332.2574
       229.000         187.000
 133310152.66348  86085836.69648  23465138.8374   23465139.1654   23465138.2344
       224.000         176.000
 128216594.65048  99909024.42148  24398813.4694   24398817.5354   24398813.1744
       215.000         160.000
 112341688.74348  87538975.08848  21377913.6154   21377915.1224   21377913.4334
       243.000         216.000
 09  1 27  0 54 30.0000000  0  9G 5G 9G18G26G15G17G22G30G12
 116765001.39548  90985694.19248  22219658.0694   22219661.2184   22219658.6414
       237.000         199.000
 105262773.28448  82022932.81448  20030843.5574   20030845.9444   20030843.6644
       249.000         226.000
 117598855.87048  91635470.73948  22378318.9404   22378320.5464   22378318.9234
       233.000         187.000
 120400910.06748  93818881.24748  22911540.8564   22911544.0744   22911540.5234
       227.000         185.000
 111745703.10148  87074570.50948  21264504.1814   21264506.1354   21264503.8174
       245.000         219.000
 122685648.17048  95599197.83648  23346307.8354   23346310.7534   23346307.5384
       225.000         182.000
 133279760.79848  86062154.69448  23459356.1574   23459355.5264   23459355.2584
       226.000         176.000
 128107267.24848  99823834.27348  24378009.6024   24378013.3854   24378009.6314
       218.000         163.000
 112274652.09248  87486738.74148  21365156.7614   21365158.4314   21365156.5854
       243.000         216.000
 09  1 27  0 55  0.0000000  0  9G 5G 9G18G26G15G17G22G30G12
 116677357.87848  90917400.55248  22202980.0914   22202983.2184   22202980.8414
       237.000         199.000
 105245024.93348  82009102.93248  20027466.2414   20027468.6374   20027466.4064
       249.000         226.000
 117622242.69848  91653694.24848  22382769.5514   22382770.9924   22382770.3984
       232.000         188.000
 120500610.80448  93896570.13148  22930513.4244   22930516.4874   22930512.6674
       227.000         186.000
 111812185.94848  87126375.32448  21277155.5734   21277157.3244   21277155.4904
       245.000         219.000
 122712356.58548  95620009.58348  23351391.1114   23351393.1134   23351390.1704
       231.000         185.000
 133249894.77148  86038882.46948  23453672.2274   23453672.5984   23453672.3634
       224.000         178.000
 127998065.95148  99738742.40448  24357229.8444   24357232.8544   24357229.0214
       220.000         166.000
 112208025.92148  87434822.25748  21352478.1704   21352479.9504   21352477.8404
       244.000         217.000
 09  1 27  0 55 30.0000000  0  9G 5G 9G18G26G15G17G22G30G12
 116590030.53748  90849353.29148  22186362.0454   22186365.2354   22186362.9504
       236.000         200.000
 105227622.74848  81995542.78748  20024154.5384   20024157.2514   20024154.7724
       248.000         226.000
 117646168.21048  91672337.50048  22387322.1694   22387324.2954   22387322.6284
       233.000         189.000
 120600540.95548  93974437.78448  22949529.7704   22949532.3844   22949529.4214
       229.000         186.000
 111879083.94148  87178503.63448  21289885.6574   21289887.5034   21289885.3764
       245.000         218.000
 122739609.88848  95641245.93348  23356577.8874   23356579.1064   23356578.0724
       229.000         185.000
 133220554.29348  86016019.77148  23448089.2984   23448090.2024   23448089.1874
       229.000         183.000
 127888991.63548  99653749.44448  24336473.9064   24336476.5684   24336473.5224
       220.000         163.000
 112141810.47248  87383225.81848  21339877.9574   21339879.6694   21339877.6944
       244.000         217.000
 09  1 27  0 56  0.0000000  0  9G 5G 9G18G26G15G17G22G30G12
 116503020.42548  90781553.20848  22169804.5324   22169807.8094   22169805.1544
       238.000         201.000
 105210567.07348  81982252.65148  20020908.9214   20020911.4014   20020908.9084
       249.000         226.000
 117670630.75748  91691399.21548  22391977.5474   22391979.2994   22391977.9304
       236.000         191.000
 120700698.67248  94052482.76848  22968588.8434   22968591.6854   22968589.8084
       228.000         185.000
 111946395.51148  87230954.19448  21302694.6354   21302696.5404   21302694.2724
       245.000         219.000
 122767407.27448  95662906.23148  23361866.9114   23361868.7754   23361866.8264
       228.000         184.000
 133191739.85348  85993566.95948  23442605.8194   23442606.7734   23442607.0314
       227.000         183.000
 127780045.48948  99568856.36548  24315741.8664   24315744.6804   24315741.6254
       221.000         161.000
 112076006.41448  87331949.94048  21327355.7394   21327357.4774   21327355.6254
       245.000         218.000
 09  1 27  0 56 30.0000000  0  9G 5G 9G18G26G15G17G22G30G12
 116416329.36448  90714001.74048  22153307.8674   22153311.2644   22153308.5614
       238.000         201.000
 105193858.46348  81969232.95548  20017729.3624   20017731.9134   20017729.4744
       249.000         226.000
 117695629.05048  91710878.40948  22396734.6464   22396736.3674   22396735.2484
       234.000         190.000
 120801082.66448  94130704.04348  22987690.9214   22987694.2294   22987690.6504
       225.000         184.000
 112014119.90648  87283726.44848  21315582.1554   21315584.0964   21315581.6754
       245.000         219.000
 122795748.70448  95684990.46748  23367260.4504   23367261.7474   23367260.1734
       228.000         182.000
 133163452.81048  85971525.10248  23437223.0524   23437223.9724   23437223.8804
       225.000         184.000
 127671229.68548  99484064.83848  24295034.3244   24295037.2324   24295034.9274
       218.000         157.000
 112010615.10048  87280995.68448  21314912.2874   21314913.8244   21314912.0914
       246.000         218.000
 09  1 27  0 57  0.0000000  0  9G 5G 9G18G26G15G17G22G30G12
 116329959.47748  90646700.53348  22136872.3194   22136875.3954   22136873.1354
       238.000         201.000
 105177497.77248  81956484.36048  20014616.0724   20014618.6384   20014616.1704
       249.000         226.000
 117721162.62248  91730774.68048  22401593.3584   22401595.3464   22401594.1244
       233.000         189.000
 120901692.27348  94209101.12248  23006836.8094   23006839.7324   23006836.5994
       227.000         183.000
 112082256.82048  87336820.13548  21328548.0844   21328550.1154   21328547.7664
       244.000         218.000
 122824634.03248  95707498.54548  23372756.4874   23372758.7864   23372756.3524
       228.000         182.000
 133135694.40548  85949895.20148  23431940.3854   23431941.7894   23431940.1744
       228.000         183.000
 127562546.93248  99399376.99648  24274352.6654   24274355.4194   24274352.1314
       213.000         158.000
 111945638.10248  87230364.27348  21302547.6264   21302549.0194   21302547.5784
       246.000         218.000
 09  1 27  0 57 30.0000000  0  9G 5G 9G18G26G15G17G22G30G12
 116243911.84548  90579650.45048  22120498.1944   22120501.3174   22120498.7924
       237.000         202.000
 105161485.20848  81944007.03948  20011569.2244   20011571.3874   20011569.4514
       250.000         226.000
 117747229.92648  91751086.85048  22406554.1214   22406555.7234   22406554.6304
       233.000         189.000
 121002525.49448  94287672.45148  23026024.7354   23026027.8814   23026024.8934
       227.000         184.000
 112150804.84148  87390234.17648  21341592.5524   21341594.2764   21341592.3864
       244.000         218.000
 122854062.33248  95730429.68748  23378356.4734   23378359.0554   23378356.5514
       230.000         186.000
 133108465.05048  85928677.52148  23426759.6664   23426760.0754   23426761.2684
       227.000         182.000
 127453998.10248  99314793.54048  24253695.8564   24253699.5744   24253694.7694
       210.000         157.000
 111881076.25748  87180056.34648  21290261.9764   21290263.2934   21290261.9674
       246.000         218.000
 09  1 27  0 58  0.0000000  0  9G 5G 9G18G26G15G17G22G30G12
 116158187.66848  90512852.40448  22104185.3594   22104188.5784   22104186.0684
       237.000         201.000
 105145821.08048  81931801.22648  20008588.4454   20008590.6364   20008588.7064
       249.000         226.000
 117773829.20148  91771813.55848  22411615.6874   22411617.1434   22411616.2374
       233.000         188.000
 121103580.58848  94366416.67848  23045255.0134   23045257.7114   23045255.0234
       226.000         181.000
 112219762.48348  87443967.39948  21354714.7124   21354716.4524   21354714.3564
       244.000         217.000
 122884032.60948  95753783.14948  23384060.6854   23384061.9124   23384060.2504
       232.000         186.000
 133081765.07448  85907872.34648  23421678.1634   23421679.0944   23421678.4274
       226.000         179.000
 127345584.87348  99230315.75548  24233065.5994   24233069.2734   24233065.6244
       215.000         161.000
 111816930.01148  87130072.26248  21278055.4764   21278056.7044   21278055.3404
       246.000         217.000
 09  1 27  0 58 30.0000000  0  9G 5G 9G18G26G15G17G22G30G12
 116072787.94348  90446307.19248  22087933.9844   22087937.4434   22087934.5174
       239.000         203.000
 105130505.59748  81919867.08048  20005673.9224   20005676.1984   20005674.1474
       250.000         227.000
 117800958.67548  91792953.40948  22416777.9894   22416779.9534   22416778.7894
       231.000         187.000
 121204855.46948  94445332.15548  23064526.6594   23064529.5424   23064525.6714
       228.000         182.000
 112289128.39748  87498018.75348  21367914.7194   21367916.4404   21367914.4794
       245.000         218.000
 122914544.03848  95777558.29848  23389866.8944   23389867.9394   23389867.2364
       230.000         185.000
 133055594.74548  85887479.86348  23416698.6214   23416698.3514   23416698.5474
       227.000         180.000
 127237308.53748  99145944.64748  24212462.0124   24212464.8684   24212462.2094
       220.000         163.000
 111753200.49648  87080412.90948  21265927.8234   21265929.3374   21265927.7504
       246.000         218.000
 09  1 27  0 59  0.0000000  0  9G 5G 9G18G26G15G17G22G30G12
 115987714.13848  90380015.92948  22071745.1994   22071748.4654   22071746.0294
       238.000         204.000
 105115539.52648  81908205.21448  20002825.9784   20002828.3104   20002826.2044
       249.000         226.000
 117828616.91348  91814505.26048  22422040.9954   22422042.8044   22422041.4764
       231.000         186.000
 121306348.86548  94524417.93148  23083840.4294   23083842.9094   23083840.5724
       229.000         181.000
 112358901.44948  87552387.36148  21381192.0984   21381193.9084   21381191.8894
       245.000         218.000
 122945595.67448  95801754.38848  23395774.8664   23395777.1854   23395774.7104
       228.000         181.000
 133029954.98948  85867500.82148  23411819.0524   23411819.3364   23411819.6354
       226.000         178.000
 127129170.47248  99061681.25748  24191884.1524   24191886.1684   24191883.8524
       220.000         162.000
 111689888.65148  87031079.01748  21253879.9864   21253881.5974   21253879.9234
       246.000         219.000
 09  1 27  0 59 30.0000000  0  9G 5G 9G18G26G15G17G22G30G12
 115902968.04748  90313980.04248  22055618.3034   22055621.8144   22055618.7014
       239.000         204.000
 105100923.67848  81896816.24548  20000044.6174   20000046.9584   20000044.8934
       250.000         226.000
 117856802.93548  91836468.37748  22427404.5964   22427406.5304   22427405.2124
       232.000         186.000
 121408059.69048  94603673.12348  23103195.0344   23103197.7304   23103195.3334
       227.000         182.000
 112429080.87148  87607072.62548  21394546.7144   21394548.5584   21394546.4634
       244.000         216.000
 122977187.36248  95826371.31148  23401786.1734   23401788.6264   23401785.9944
       226.000         181.000
 133004847.22848  85847936.31148  23407041.3344   23407041.9584   23407041.0134
       223.000         179.000
 127021173.03448  98977527.43348  24171332.6244   24171334.6404   24171332.1814
       220.000         161.000
 111626995.68748  86982071.51748  21241911.8824   21241913.5644   21241911.8514
       246.000         220.000
 09  1 27  1  0  0.0000000  0  9G 5G 9G18G26G15G17G22G30G12
 115818550.93148  90248200.47848  22039554.5984   22039557.7104   22039555.1084
       240.000         204.000
 105086657.98148  81885700.12148  19997329.9444   19997332.2934   19997330.1604
       249.000         226.000
 117885515.40648  91858841.71948  22432868.5344   22432870.4254   22432868.9354
       234.000         188.000
 121509986.06748  94683096.26548  23122591.2064   23122593.6814   23122591.3214
       226.000         182.000
 112499665.29448  87662073.46648  21407978.1484   21407980.2644   21407977.8314
       243.000         216.000
 123009318.00548  95851408.17748  23407900.5874   23407903.1424   23407900.1954
       228.000         183.000
 132980271.42848  85828786.35948  23402363.8194   23402365.2064   23402363.7604
       224.000         179.000
 126913317.93248  98893484.52048  24150808.3764   24150810.6804   24150808.2934
       221.000         163.000
 111564522.34648  86933391.00148  21230023.6184   21230025.3024   21230023.6094
       247.000         220.000
 09  1 27  1  0 30.0000000  0  9G 5G 9G18G26G15G17G22G30G12
 115734463.08248  90182677.49448  22023553.2254   22023556.1404   22023554.2314
       238.000         203.000
 105072742.07748  81874856.54948  19994681.7314   19994684.3424   19994681.8204
       249.000         226.000
 117914751.51748  91881623.08748  22438432.4804   22438433.9534   22438432.8644
       233.000         189.000
 121612125.53048  94762685.45548  23142027.9514   23142030.3314   23142027.6164
       226.000         182.000
 112570652.76348  87717388.36748  21421486.7914   21421488.6954   21421486.3434
       242.000         216.000
 123041985.93748  95876863.69148  23414117.7514   23414119.8554   23414117.4354
       230.000         183.000
 132956227.26148  85810050.67248  23397788.9934   23397789.9944   23397789.1374
       226.000         181.000
 126805605.72548  98809552.93248  24130311.5624   24130313.8654   24130311.4334
       221.000         164.000
 111502468.56348  86885037.40548  21218215.2234   21218216.9304   21218214.9644
       247.000         220.000
 09  1 27  1  1  0.0000000  0  9G 5G 9G18G26G15G17G22G30G12
 115650706.26448  90117412.43948  22007614.7354   22007617.7194   22007615.0184
       238.000         204.000
 105059176.75348  81864286.17148  19992100.3464   19992102.8614   19992100.5984
       249.000         226.000
 117944509.89148  91904811.41348  22444095.1144   22444097.0504   22444095.6024
       233.000         189.000
 121714476.76748  94842439.64148  23161504.5754   23161507.2764   23161504.5674
       225.000         183.000
 112642042.39448  87773016.65548  21435071.9274   21435073.7714   21435071.6934
       243.000         216.000
 123075190.97948  95902737.74648  23420436.6854   23420438.0834   23420436.3904
       229.000         182.000
 132932715.70948  85791729.96048  23393315.9144   23393315.3514   23393315.8064
       229.000         182.000
 126698038.14748  98725734.05948  24109841.8454   24109844.9544   24109841.2584
       219.000         164.000
 111440835.78148  86837011.86848  21206486.9244   21206488.4084   21206486.8784
       247.000         220.000
 09  1 27  1  1 30.0000000  0  9G 5G 9G18G26G15G17G22G30G12
 115567281.34848  90052406.02848  21991739.3764   21991742.5494   21991740.1154
       239.000         204.000
 105045962.06048  81853989.00548  19989585.6274   19989588.2354   19989585.7404
       249.000         227.000
 117974788.56148  91928405.16948  22449857.2024   22449858.8834   22449857.7134
       234.000         189.000
 121817037.84148  94922357.34148  23181021.1554   23181024.0594   23181020.8314
       226.000         183.000
 112713832.19548  87828956.74948  21448733.0194   21448734.8784   21448732.8044
       242.000         215.000
 123108931.45148  95929029.03848  23426856.9494   23426858.6874   23426856.8334
       227.000         182.000
 132909737.03348  85773824.48148  23388942.7684   23388942.6954   23388943.4564
       228.000         181.000
 126590616.50248  98642028.89248  24089400.7394   24089403.1484   24089400.6674
       216.000         162.000
 111379624.30148  86789314.61748  21194838.7424   21194840.2164   21194838.4874
       247.000         220.000
 09  1 27  1  2  0.0000000  0  9G 5G 9G18G26G15G17G22G30G12
 115484190.09948  89987659.61648  21975927.3414   21975930.8934   21975927.9724
       237.000         204.000
 105033098.75948  81843965.65548  19987137.8144   19987140.5514   19987137.9624
       248.000         227.000
 118005587.39848  91952404.24748  22455717.9624   22455719.6344   22455718.7434
       232.000         187.000
 121919807.51448  95002437.60448  23200577.6554   23200580.5184   23200577.7774
       227.000         183.000
 112786021.62948  87885208.25248  21462470.2404   21462471.9934   21462470.0894
       243.000         215.000
 123143206.63248  95955736.97448  23433378.8974   23433381.6474   23433378.7584
       225.000         182.000
 132887291.98248  85756334.81748  23384671.6324   23384672.0164   23384671.6584
       229.000         181.000
 126483342.65248  98558438.92348  24068986.5944   24068989.6894   24068986.5824
       216.000         163.000
 111318835.47948  86741946.70848  21183271.0654   21183272.6614   21183270.8724
       247.000         221.000
 09  1 27  1  2 30.0000000  0  9G 5G 9G18G26G15G17G22G30G12
 115401434.02248  89923174.36548  21960179.3974   21960182.8624   21960179.9594
       239.000         204.000
 105020587.38148  81834216.52348  19984757.0874   19984759.7024   19984757.1744
       249.000         226.000
 118036904.07748  91976806.82948  22461677.0574   22461678.8284   22461677.5094
       233.000         185.000
 122022784.29748  95082679.24848  23220173.4434   23220176.3544   23220173.6524
       227.000         183.000
 112858609.80848  87941770.45648  21476283.2114   21476285.2094   21476282.8264
       243.000         214.000
 123178016.38048  95982861.46748  23440003.1584   23440005.5974   23440003.4134
       227.000         181.000
 132865381.23248  85739261.49748  23380502.3274   23380501.6634   23380503.1474
       227.000         178.000
 126376218.69448  98474965.75348  24048601.7964   24048604.5874   24048601.1844
       221.000         163.000
 111258470.41848  86694909.00648  21171783.8064   21171785.5434   21171783.7924
       246.000         220.000
 09  1 27  1  3  0.0000000  0  9G 5G 9G18G26G15G17G22G30G12
 115319013.53548  89858950.61348  21944495.6794   21944498.8334   21944496.3364
       237.000         205.000
 105008427.42148  81824741.23448  19982443.0774   19982445.5934   19982443.3394
       248.000         226.000
 118068735.85848  92001610.81048  22467734.4084   22467736.2274   22467734.7244
       231.000         186.000
 122125965.84348  95163080.45048  23239808.4114   23239811.3934   23239808.1464
       227.000         181.000
 112931594.29448  87998641.49048  21490171.8914   21490173.6024   21490171.5734
       241.000         215.000
 123213358.90548  96010401.10148  23446729.1074   23446730.4434   23446728.9224
       228.000         180.000
 132844004.41048  85722604.25748  23376434.1104   23376434.6974   23376434.3454
       226.000         181.000
 126269245.15648  98391609.76148  24028245.7994   24028248.1934   24028246.1794
       217.000         160.000
 111198528.80548  86648201.26448  21160377.1954   21160378.9214   21160376.9224
       247.000         220.000
 09  1 27  1  3 30.0000000  0  9G 5G 9G18G26G15G17G22G30G12
 115236930.83548  89794990.07748  21928875.9934   21928878.8634   21928876.5874
       239.000         205.000
 104996620.15948  81815540.77748  19980196.3594   19980198.7374   19980196.6244
       249.000         226.000
 118101082.18948  92026815.74048  22473889.8664   22473891.6374   22473890.6584
       231.000         185.000
 122229351.47948  95243640.68648  23259481.9114   23259484.6994   23259481.7434
       226.000         179.000
 113004974.89148  88055821.17248  21504135.6744   21504137.5594   21504135.4164
       242.000         215.000
 123249234.25148  96038355.91748  23453556.1044   23453557.0004   23453555.5704
       229.000         177.000
 132823162.87348  85706364.09548  23372468.7884   23372468.2174   23372468.7004
       229.000         181.000
 126162424.84248  98308373.19548  24007917.9474   24007920.7864   24007917.4134
       217.000         161.000
 111139012.49948  86601824.91948  21149051.7864   21149053.3384   21149051.6834
       247.000         220.000
 09  1 27  1  4  0.0000000  0  9G 5G 9G18G26G15G17G22G30G12
 115155186.73348  89731293.38248  21913320.3134   21913323.0664   21913320.8274
       240.000         205.000
 104985165.79048  81806615.29148  19978016.6224   19978019.0404   19978016.8764
       249.000         227.000
 118133941.35948  92052420.27248  22480142.3244   22480144.6484   22480143.0064
       231.000         185.000
 122332938.80448  95324358.08748  23279193.7824   23279196.5514   23279193.2164
       227.000         179.000
 113078749.55548  88113307.91048  21518174.6414   21518176.4634   21518174.3214
       242.000         215.000
 123285640.47248  96066724.41648  23460483.3994   23460484.9854   23460483.7184
       225.000         176.000
 132802856.81448  85690541.19248  23368604.4974   23368604.3844   23368604.4314
       228.000         180.000
 126055758.62748  98225256.68848  23987620.1814   23987622.9874   23987620.1654
       217.000         165.000
 111079922.02448  86555780.39648  21137807.3154   21137808.6684   21137807.3194
       248.000         221.000
 09  1 27  1  4 30.0000000  0  9G 5G 9G18G26G15G17G22G30G12
 115073782.74548  89667861.71948  21897829.7674   21897832.6044   21897830.2604
       241.000         206.000
 104974064.92448  81797965.27148  19975904.0824   19975906.6584   19975904.2134
       250.000         227.000
 118167311.45948  92078422.94448  22486492.7484   22486494.7744   22486492.7724
       233.000         188.000
 122436726.84848  95405231.89248  23298944.0444   23298946.7834   23298944.1974
       226.000         177.000
 113152917.32148  88171100.97048  21532288.2014   21532290.2814   21532287.8524
       243.000         216.000
 123322577.11148  96095506.22548  23467512.3354   23467513.8534   23467511.9654
       224.000         177.000
 132783086.54248  85675135.75948  23364841.8194   23364841.5164   23364842.7924
       228.000         177.000
 125949248.38548  98142261.74248  23967352.0764   23967354.7424   23967351.3834
       219.000         166.000
 111021258.14548  86510068.29248  21126643.7924   21126645.3754   21126643.5624
       247.000         222.000
 09  1 27  1  5  0.0000000  0  9G 5G 9G18G26G15G17G22G30G12
 114992719.64948  89604695.68748  21882403.8454   21882406.8864   21882404.7404
       239.000         206.000
 104963317.44848  81789590.61448  19973858.9954   19973861.4024   19973859.1204
       251.000         227.000
 118201190.49048  92104822.17648  22492939.8584   22492941.8664   22492940.7704
       232.000         185.000
 122540713.46048  95486260.42748  23318731.9834   23318734.2864   23318731.9464
       224.000         177.000
 113227476.75048  88229199.22248  21546476.4734   21546478.2214   21546476.2844
       242.000         214.000
 123360042.92248  96124700.37548  23474641.3434   23474643.3004   23474641.3214
       226.000         178.000
 132763852.18948  85660147.96348  23361181.4534   23361181.0734   23361180.9934
       224.000         177.000
 125842895.49248  98059389.39848  23947113.4224   23947116.4564   23947113.5874
       217.000         166.000
 110963021.38548  86464689.00748  21115561.7324   21115563.3694   21115561.5464
       247.000         222.000
 09  1 27  1  5 30.0000000  0  9G 5G 9G18G26G15G17G22G30G12
 114911998.93548  89541796.43148  21867043.0904   21867046.3004   21867043.5724
       241.000         206.000
 104952923.83548  81781491.69548  19971881.1404   19971883.6674   19971881.4214
       251.000         227.000
 118235577.03948  92131616.87948  22499483.4334   22499485.3674   22499484.0864
       232.000         186.000
 122644897.07548  95567442.45248  23338557.2894   23338560.1324   23338557.2514
       222.000         175.000
 113302426.37848  88287601.52148  21560738.8704   21560740.5794   21560738.4924
       242.000         214.000
 123398036.87148  96154306.05048  23481871.8184   23481873.5824   23481871.6704
       225.000         177.000
 132745154.08048  85645578.00248  23357623.6084   23357623.6464   23357623.0034
       229.000         181.000
 125736701.22648  97976640.63048  23926904.9344   23926908.3084   23926904.5814
       219.000         166.000
 110905212.49248  86419643.12848  21104561.0624   21104562.6884   21104560.9624
       246.000         222.000
 09  1 27  1  6  0.0000000  0  9G 5G 9G18G26G15G17G22G30G12
 114831621.44248  89479164.62648  21851747.5344   21851751.0684   21851748.0904
       239.000         206.000
 104942884.28948  81773668.67648  19969970.6494   19969973.2974   19969970.8164
       250.000         226.000
 118270469.11348  92158805.48148  22506123.6664   22506124.8694   22506124.2234
       231.000         186.000
 122749275.64348  95648776.39448  23358419.9914   23358422.8004   23358419.4254
       223.000         176.000
 113377764.75248  88346306.74848  21575075.1534   21575077.2044   21575074.8614
       241.000         213.000
 123436557.63048  96184322.23848  23489202.4024   23489203.9574   23489202.1314
       225.000         177.000
 132726992.47048  85631426.09248  23354167.6484   23354167.8044   23354167.8714
       228.000         180.000
 125630667.15348  97894016.71548  23906727.5844   23906730.8364   23906727.2384
       217.000         166.000
 110847831.99448  86374931.05948  21093641.9254   21093643.5244   21093641.7044
       246.000         221.000
 09  1 27  1  6 30.0000000  0  9G 5G 9G18G26G15G17G22G30G12
 114751588.02948  89416800.93148  21836517.9154   21836521.3544   21836518.4774
       241.000         207.000
 104933198.97548  81766121.67748  19968127.6094   19968130.2414   19968127.7564
       251.000         226.000
 118305864.22248  92186386.06748  22512859.0454   22512860.3734   22512859.7164
       231.000         186.000
 122853847.24648  95730260.74748  23378319.4574   23378322.0864   23378319.0994
       223.000         178.000
 113453490.12248  88405313.51748  21589485.2124   21589487.2624   21589484.7574
       242.000         213.000
 123475603.31048  96214747.44448  23496632.3384   23496633.7964   23496631.9274
       227.000         177.000
 132709367.13848  85617692.03948  23350814.4094   23350813.7784   23350814.2514
       230.000         181.000
 125524794.52748  97811518.60648  23886580.7204   23886583.7194   23886580.2674
       220.000         167.000
 110790880.23248  86330553.06248  21082804.4394   21082806.0054   21082804.2134
       247.000         222.000
 09  1 27  1  7  0.0000000  0  9G 5G 9G18G26G15G17G22G30G12
 114671899.99248  89354706.36148  21821353.9854   21821357.3014   21821354.5564
       241.000         207.000
 104923868.26348  81758850.99048  19966351.9724   19966354.4354   19966352.2274
       250.000         226.000
 118341760.69348  92214357.33148  22519689.3554   22519691.1764   22519690.1664
       229.000         183.000
 122958610.15748  95811894.16248  23398255.0864   23398258.0664   23398254.6244
       224.000         180.000
 113529600.93348  88464620.64048  21603968.8654   21603970.6194   21603968.7994
       241.000         214.000
 123515173.53948  96245581.41148  23504161.9074   23504163.3474   23504161.6384
       226.000         177.000
 132692278.35548  85604376.12048  23347561.7734   23347561.9004   23347562.9204
       228.000         182.000
 125419084.97048  97729147.53648  23866465.0294   23866467.6814   23866465.5414
       222.000         166.000
 110734358.02448  86286509.79148  21072048.5704   21072050.1584   21072048.4594
       247.000         222.000
 09  1 27  1  7 30.0000000  0  9G 5G 9G18G26G15G17G22G30G12
 114592559.43548  89292882.56148  21806255.9724   21806259.0514   21806256.4934
       239.000         207.000
 104914893.35348  81751857.55548  19964644.1804   19964646.5974   19964644.3734
       250.000         227.000
 118378157.56548  92242718.51248  22526614.9684   22526617.0904   22526615.0904
       229.000         183.000
 123063563.63148  95893676.07448  23418227.3134   23418230.4004   23418226.8274
       228.000         182.000
 113606096.63248  88524227.66648  21618525.4244   21618527.2654   21618525.1604
       242.000         213.000
 123555267.73448  96276823.65748  23511791.8214   23511792.9964   23511791.2594
       226.000         178.000
 132675727.44148  85591479.28648  23344412.2774   23344412.3614   23344411.4104
       228.000         180.000
 125313540.71048  97646905.27948  23846380.5304   23846382.9674   23846380.2994
       215.000         163.000
 110678266.89748  86242802.42248  21061374.7374   21061376.3684   21061374.5334
       247.000         222.000
 09  1 27  1  8  0.0000000  0  9G 5G 9G18G26G15G17G22G30G12
 114513566.61348  89231329.72048  21791223.9494   21791227.2454   21791224.4614
       242.000         208.000
 104906273.86948  81745141.07348  19963003.9644   19963006.3994   19963004.1274
       250.000         226.000
 118415051.85448  92271467.28748  22533636.2514   22533637.9684   22533636.8424
       230.000         184.000
 123168705.11548  95975604.50848  23438235.1794   23438237.9524   23438235.4904
       227.000         183.000
 113682975.19348  88584133.03748  21633154.9804   21633156.8374   21633154.8694
       241.000         212.000
 123595884.09548  96308472.77748  23519521.0454   23519522.7554   23519521.0434
       229.000         180.000
 132659713.59548  85579000.98148  23341364.8754   23341365.0344   23341365.9554
       229.000         180.000
 125208162.42648  97564792.34848  23826327.0504   23826329.7804   23826326.8354
       217.000         162.000
 110622606.49348  86199430.68748  21050782.7604   21050784.3274   21050782.6274
       247.000         222.000
 09  1 27  1  8 30.0000000  0  9G 5G 9G18G26G15G17G22G30G12
 114434922.33748  89170048.46148  21776259.0084   21776261.9694   21776259.8714
       241.000         208.000
 104898009.61948  81738701.39248  19961431.2114   19961433.8924   19961431.3474
       251.000         226.000
 118452441.82548  92300602.32648  22540751.2524   22540752.9984   22540752.0784
       231.000         183.000
 123274032.67648  96057677.92448  23458278.0954   23458281.1434   23458277.6204
       227.000         182.000
 113760234.44048  88644335.03248  21647856.7754   21647858.8924   21647856.3294
       240.000         212.000
 123637020.89548  96340527.41448  23527349.3534   23527350.8064   23527349.5394
       227.000         180.000
 132644236.74948  85566941.09448  23338419.7584   23338419.6984   23338420.7864
       228.000         178.000
 125102951.60748  97482809.90948  23806306.3474   23806308.8194   23806306.1274
       216.000         164.000
 110567377.19448  86156394.87548  21040273.1684   21040274.5544   21040272.9614
       247.000         222.000
 09  1 27  1  9  0.0000000  0  9G 5G 9G18G26G15G17G22G30G12
 114356628.44748  89109040.25348  21761359.7954   21761362.9424   21761360.2274
       241.000         208.000
 104890101.86348  81732539.50848  19959926.4704   19959928.9904   19959926.7634
       250.000         226.000
 118490326.10048  92330122.54548  22547960.5484   22547962.3844   22547961.2894
       231.000         185.000
 123379545.22648  96139895.48948  23478356.8244   23478359.5984   23478357.1224
       229.000         185.000
 113837874.02748  88704833.40848  21662631.2064   21662633.1074   21662630.8404
       241.000         212.000
 123678677.72148  96372987.28148  23535275.9654   23535277.5694   23535275.7684
       226.000         179.000
 132629297.66148  85555300.22348  23335576.7864   23335577.1094   23335576.7384
       227.000         180.000
 124997910.18748  97400959.48548  23786317.7214   23786320.4084   23786316.6434
       219.000         169.000
 110512580.38248  86113696.07148  21029845.5774   21029846.8664   21029845.5364
       248.000         222.000
 09  1 27  1  9 30.0000000  0  9G 5G 9G18G26G15G17G22G30G12
 114278686.15748  89048306.00048  21746528.0854   21746530.9784   21746528.5764
       241.000         209.000
 104882550.74348  81726655.51648  19958489.3724   19958492.0494   19958489.4074
       251.000         227.000
 118528702.58248  92360026.28348  22555263.5584   22555265.4574   22555264.2324
       230.000         186.000
 123485241.12848  96222255.91448  23498470.0024   23498473.0214   23498470.2494
       229.000         185.000
 113915892.25548  88765626.82848  21677477.5914   21677479.3194   21677477.2034
       241.000         213.000
 123720853.21348  96405851.31948  23543301.5324   23543303.6224   23543301.1874
       224.000         181.000
 132614896.53448  85544078.56448  23332836.3384   23332836.5954   23332835.8644
       227.000         180.000
 124893039.79848  97319242.31148  23766362.2334   23766364.4974   23766362.0414
       224.000         171.000
 110458216.48848  86071334.60648  21019500.5104   21019501.9054   21019500.3464
       248.000         223.000
 09  1 27  1 10  0.0000000  0  9G 5G 9G18G26G15G17G22G30G12
 114201096.27048  88987846.35748  21731762.9144   21731766.0514   21731763.6244
       241.000         209.000
 104875356.54548  81721049.65248  19957120.4324   19957123.1144   19957120.6994
       251.000         228.000
 118567569.30448  92390312.02548  22562659.7034   22562661.6144   22562660.2334
       232.000         185.000
 123591118.19148  96304757.52748  23518617.8194   23518620.5674   23518617.8554
       230.000         184.000
 113994287.57848  88826714.08848  21692395.6764   21692397.5784   21692395.3234
       240.000         212.000
 123763546.10548  96439118.51648  23551425.8174   23551428.0254   23551425.1294
       225.000         180.000
 132601033.05648  85533275.85448  23330198.5504   23330198.8264   23330198.3454
       229.000         183.000
 124788341.74848  97237659.44848  23746438.5264   23746441.2744   23746439.0954
       222.000         170.000
 110404286.01448  86029310.87548  21009237.9154   21009239.4484   21009237.9384
       248.000         224.000
 09  1 27  1 10 30.0000000  0  9G 5G 9G18G26G15G17G22G30G12
 114123860.03948  88927662.29048  21717065.3184   21717068.1444   21717066.0034
       240.000         207.000
 104868519.78148  81715722.29748  19955819.3774   19955822.0954   19955819.4874
       250.000         226.000
 118606924.42948  92420978.33548  22570148.5884   22570150.4724   22570149.1204
       232.000         186.000
 123697175.23248  96387399.36648  23538799.4584   23538802.3554   23538799.5004
       228.000         183.000
 114073058.66748  88888094.15148  21707385.1994   21707387.2744   21707384.8554
       240.000         212.000
 123806755.04348  96472787.84348  23559648.4314   23559650.0734   23559648.7174
       226.000         179.000
 132587707.73948  85522892.48048  23327662.8634   23327662.5144   23327662.5464
       229.000         178.000
 124683817.61048  97156212.06248  23726548.4224   23726551.1574   23726548.3714
       222.000         169.000
 110350789.94148  85987625.63648  20999057.9314   20999059.6374   20999057.7924
       248.000         224.000
 09  1 27  1 11  0.0000000  0  9G 5G 9G18G26G15G17G22G30G12
 114046977.64548  88867753.93848  21702435.0954   21702437.9014   21702435.4364
       241.000         208.000
 104862039.88548  81710673.03348  19954586.4254   19954588.9274   19954586.5804
       251.000         227.000
 118646764.67648  92452022.69048  22577730.2224   22577731.9304   22577730.9354
       231.000         185.000
 123803409.19248  96470179.07348  23559015.3534   23559018.0664   23559015.0774
       230.000         182.000
 114152202.99348  88949765.05348  21722446.0294   21722448.0434   21722445.7664
       240.000         212.000
 123850477.93248  96506857.63548  23567968.6074   23567970.2934   23567968.2654
       225.000         179.000
 132574919.47348  85512927.60848  23325228.9794   23325228.8514   23325229.3574
       229.000         182.000
 124579467.74748  97074900.51448  23706691.0354   23706693.2894   23706689.7104
       220.000         167.000
 110297727.39448  85946278.21248  20988960.5304   20988961.9544   20988960.5064
       248.000         224.000
 09  1 27  1 11 30.0000000  0  9G 5G 9G18G26G15G17G22G30G12
 113970451.69148  88808123.34048  21687872.6874   21687875.6104   21687873.4924
       241.000         208.000
 104855918.49548  81705903.11248  19953421.4824   19953424.1604   19953421.6294
       251.000         227.000
 118687089.99648  92483444.99848  22585403.4154   22585405.6764   22585404.0524
       230.000         185.000
 123909820.10548  96553096.65848  23579265.0514   23579267.5814   23579265.6694
       229.000         181.000
 114231720.23348  89011726.52148  21737577.5084   21737579.6614   21737577.0994
       239.000         211.000
 123894715.02948  96541328.10048  23576386.3244   23576387.7714   23576385.8584
       223.000         176.000
 132562669.88448  85503382.46348  23322898.1964   23322898.8164   23322898.6044
       227.000         183.000
 124475295.45948  96993727.29548  23686867.5944   23686869.6444   23686867.3954
       221.000         167.000
 110245100.55748  85905270.29148  20978945.9184   20978947.3824   20978945.8464
       248.000         224.000
 09  1 27  1 12  0.0000000  0  9G 5G 9G18G26G15G17G22G30G12
 113894282.61748  88748770.82048  21673378.1914   21673381.3324   21673378.7034
       242.000         209.000
 104850155.34848  81701412.34448  19952324.9394   19952327.4754   19952325.1664
       250.000         227.000
 118727897.26248  92515242.84848  22593168.8194   22593171.0484   22593169.3684
       229.000         184.000
 124016405.37548  96636150.11348  23599546.9134   23599549.9764   23599547.1644
       227.000         178.000
 114311608.75648  89073977.31748  21752779.9044   21752781.9034   21752779.5454
       240.000         211.000
 123939464.07748  96576197.49448  23584901.4064   23584903.7394   23584901.2924
       223.000         176.000
 132550957.99448  85494256.29448  23320669.1034   23320669.6984   23320668.4334
       229.000         181.000
 124371301.18948  96912692.82548  23667078.0014   23667080.3954   23667078.4824
       221.000         165.000
 110192909.22748  85864601.72548  20969014.1444   20969015.7404   20969013.9644
       248.000         224.000
 09  1 27  1 12 30.0000000  0  9G 5G 9G18G26G15G17G22G30G12
 113818471.50648  88689697.23348  21658951.8594   21658954.9914   21658952.6694
       241.000         209.000
 104844751.03448  81697201.19348  19951296.3424   19951299.0024   19951296.4904
       251.000         227.000
 118769184.87448  92547415.00748  22601025.4214   22601027.4254   22601026.1534
       229.000         184.000
 124123163.49248  96719338.24748  23619862.4444   23619865.0344   23619862.5344
       225.000         173.000
 114391866.89048  89136516.11948  21768052.7134   21768054.4824   21768052.5144
       240.000         211.000
 123984724.36748  96611465.25748  23593514.1724   23593516.0794   23593513.8344
       224.000         175.000
 132539784.38448  85485549.57848  23318542.6914   23318543.7554   23318542.8424
       227.000         182.000
 124267487.05648  96831798.70748  23647322.9724   23647325.1714   23647322.6454
       223.000         171.000
 110141154.51248  85824273.39548  20959165.5364   20959167.1474   20959165.3044
       249.000         224.000
 09  1 27  1 13  0.0000000  0  9G 5G 9G18G26G15G17G22G30G12
 113743019.14748  88630903.18848  21644593.7884   21644596.9564   21644594.1814
       241.000         210.000
 104839705.42848  81693269.54948  19950336.3114   19950338.8604   19950336.4984
       250.000         227.000
 118810950.43248  92579959.58148  22608973.2654   22608975.1824   22608973.9164
       230.000         184.000
 124230092.39848  96802659.47348  23640210.2814   23640212.8604   23640210.4324
       220.000         171.000
 114472492.63448  89199341.36748  21783395.2024   21783396.9694   21783394.8714
       239.000         210.000
 124030493.72648  96647129.68648  23602223.7744   23602225.1974   23602223.5484
       223.000         176.000
 132529148.52248  85477261.87748  23316519.4504   23316519.5724   23316519.5304
       228.000         182.000
 124163853.70048  96751045.44348  23627602.3434   23627605.0714   23627602.3474
       221.000         173.000
 110089836.14048  85784285.05648  20949400.1544   20949401.5494   20949400.0034
       247.000         224.000
 09  1 27  1 13 30.0000000  0  9G 5G 9G18G26G15G17G22G30G12
 113667926.60048  88572389.51348  21630304.3634   21630307.0384   21630305.2894
       241.000         209.000
 104835018.73848  81689617.58448  19949444.3784   19949447.1164   19949444.4774
       250.000         226.000
 118853191.45748  92612874.65948  22617011.9014   22617013.9574   22617012.2784
       230.000         183.000
 124337190.33648  96886112.40148  23660590.1864   23660593.3564   23660590.0704
       222.000         169.000
 114553484.35948  89262451.80448  21798807.3904   21798809.1064   21798807.1514
       239.000         209.000
 124076771.02248  96683189.93448  23611030.5644   23611032.1954   23611030.6284
       223.000         178.000
 132519050.26548  85469393.12448  23314597.3164   23314597.9034   23314597.1104
       227.000         181.000
 124060403.14948  96670434.65748  23607915.8494   23607919.2004   23607915.7154
       220.000         172.000
 110038954.77848  85744637.24648  20939717.6434   20939718.9804   20939717.6964
       247.000         224.000
 09  1 27  1 14  0.0000000  0  9G 5G 9G18G26G15G17G22G30G12
 113593194.96348  88514157.07648  21616083.2944   21616086.2274   21616083.6894
       242.000         210.000
 104830691.91048  81686246.02148  19948621.1084   19948623.5494   19948621.3504
       250.000         227.000
 118895906.30348  92646158.93348  22625140.0884   22625142.1844   22625141.0294
       230.000         183.000
 124444455.64748  96969695.75948  23681002.4944   23681005.1264   23681002.6114
       220.000         167.000
 114634840.73748  89325846.38048  21814288.8904   21814290.6774   21814288.6484
       239.000         209.000
 124123554.84948  96719644.85548  23619933.4034   23619935.7824   23619933.1714
       225.000         181.000
 132509489.96648  85461943.50248  23312778.7794   23312778.8054   23312778.2194
       228.000         182.000
 123957136.61748  96589967.22948  23588264.9164   23588268.4424   23588265.1384
       221.000         170.000
 109988510.80648  85705330.25848  20930118.4634   20930119.9384   20930118.1694
       248.000         224.000
 09  1 27  1 14 30.0000000  0  9G 5G 9G18G26G15G17G22G30G12
 113518824.41348  88456206.00648  21601930.9414   21601933.8134   21601931.7254
       240.000         209.000
 104826723.84848  81683154.02548  19947866.0344   19947868.5124   19947866.2684
       250.000         227.000
 118939091.69748  92679809.89748  22633358.1344   22633359.6014   22633358.1934
       230.000         182.000
 124551885.71148  97053407.49248  23701445.4214   23701448.0854   23701445.8184
       220.000         164.000
 114716559.33348  89389523.19848  21829839.3154   21829841.4314   21829839.0704
       238.000         208.000
 124170842.96048  96756492.75148  23628931.9564   23628934.0954   23628932.5124
       226.000         181.000
 132500466.44948  85454912.20648  23311060.8084   23311061.7854   23311061.0944
       228.000         182.000
 123854054.66548  96509643.63948  23568649.3884   23568652.4354   23568648.3904
       222.000         171.000
 109938503.90448  85666363.85048  20920602.3824   20920603.9714   20920602.2804
       248.000         225.000
 09  1 27  1 15  0.0000000  0  9G 5G 9G18G26G15G17G22G30G12
 113444816.67748  88398537.65448  21587847.3834   21587850.6204   21587847.7254
       243.000         210.000
 104823115.82448  81680342.57748  19947179.3484   19947181.9844   19947179.4654
       250.000         227.000
 118982746.57948  92713826.66448  22641665.2454   22641667.0814   22641665.8704
       229.000         182.000
 124659479.40848  97137246.73248  23721920.0954   23721922.7074   23721920.5864
       218.000         163.000
 114798639.30748  89453481.62448  21845458.7714   21845460.6134   21845458.5274
       238.000         208.000
 124218634.51448  96793732.92848  23638026.3614   23638028.4464   23638026.6144
       227.000         181.000
 132491980.27648  85448299.60448  23309446.3584   23309447.0494   23309446.7424
       228.000         184.000
 123751159.48148  96429465.57348  23549068.9944   23549071.6334   23549069.1844
       219.000         169.000
 109888935.29748  85627738.97548  20911169.9624   20911171.4754   20911169.7914
       249.000         225.000
 09  1 27  1 15 30.0000000  0  9G 5G 9G18G26G15G17G22G30G12
 113371173.16348  88341153.10248  21573833.6604   21573836.8114   21573834.4064
       242.000         209.000
 104819868.55548  81677812.23348  19946561.5544   19946564.0934   19946561.6334
       250.000         227.000
 119026868.77348  92748207.59848  22650061.1964   22650063.2874   22650061.6804
       228.000         180.000
 124767235.48048  97221212.52548  23742425.3464   23742427.9294   23742424.4464
       214.000         160.000
 114881079.33548  89517720.61248  21861146.5844   21861148.2954   21861146.1864
       238.000         208.000
 124266928.48348  96831364.59448  23647216.2574   23647218.0974   23647216.0314
       225.000         180.000
 132484031.57748  85442105.82548  23307933.4014   23307934.5224   23307932.8934
       229.000         185.000
 123648452.96148  96349434.53948  23529524.5114   23529527.3044   23529523.7244
       224.000         172.000
 109839805.19748  85589455.79048  20901820.8454   20901822.1624   20901820.8104
       248.000         225.000
 09  1 27  1 16  0.0000000  0  9G 5G 9G18G26G15G17G22G30G12
 113297895.12248  88284053.33948  21559889.1664   21559892.3284   21559889.7894
       242.000         209.000
 104816982.37548  81675563.26148  19946012.3024   19946014.9244   19946012.5084
       250.000         226.000
 119071456.63448  92782951.37448  22658545.8264   22658547.6414   22658546.5814
       226.000         178.000
 124875152.32548  97305303.57648  23762961.3614   23762963.8254   23762961.0274
       213.000         157.000
 114963877.94548  89582238.99548  21876902.3484   21876904.7154   21876901.9454
       238.000         208.000
 124315723.57548  96869386.75648  23656501.5704   23656503.5674   23656501.8054
       226.000         178.000
 132476620.64548  85436331.05448  23306523.6674   23306524.1444   23306523.3434
       229.000         183.000
 123545937.01048  96269551.98148  23510016.7284   23510019.2484   23510016.3864
       221.000         171.000
 109791115.21448  85551515.54848  20892555.2814   20892556.7814   20892555.0864
       248.000         224.000
 09  1 27  1 16 30.0000000  0  9G 5G 9G18G26G15G17G22G30G12
 113224982.56348  88227238.35948  21546014.7184   21546017.5654   21546015.5024
       242.000         210.000
 104814456.90048  81673595.35648  19945531.7904   19945534.3724   19945531.9644
       250.000         227.000
 119116507.00348  92818055.55448  22667118.5964   22667120.6844   22667119.2634
       227.000         179.000
 124983227.28048  97389517.80348  23783526.8034   23783529.7654   23783525.9544
       213.000         153.000
 115047032.53348  89647034.77848  21892726.4594   21892728.6074   21892726.1244
       238.000         209.000
 124365017.86648  96907797.89948  23665882.2174   23665883.5924   23665882.1234
       225.000         175.000
 132469746.13948  85430974.30248  23305215.4004   23305215.8504   23305216.2534
       229.000         183.000
 123443611.97148  96189818.19548  23490544.5344   23490547.4224   23490544.5484
       223.000         173.000
 109742864.38448  85513917.51848  20883373.4494   20883374.8784   20883373.4584
       248.000         225.000
 09  1 27  1 17  0.0000000  0  9G 5G 9G18G26G15G17G22G30G12
 113152436.80648  88170709.20448  21532209.8234   21532212.8454   21532210.3194
       242.000         211.000
 104812292.88848  81671909.11048  19945119.9054   19945122.5614   19945120.0064
       250.000         227.000
 119162017.99848  92853518.64348  22675779.4754   22675781.4704   22675779.9204
       226.000         178.000
 125091458.82248  97473854.06648  23804123.1364   23804125.7184   23804122.0694
       207.000         150.000
 115130542.05248  89712107.12648  21908617.7614   21908619.7664   21908617.1964
       238.000         207.000
 124414809.40048  96946596.49448  23675357.0164   23675357.5454   23675356.9824
       222.000         173.000
 132463408.20148  85426035.63248  23304009.5204   23304009.6354   23304009.8954
       227.000         183.000
 123341479.44548  96110234.41748  23471109.4454   23471112.2284   23471109.4184
       222.000         174.000
 109695053.15648  85476662.02948  20874275.1974   20874276.6764   20874275.0224
       248.000         225.000
 09  1 27  1 17 30.0000000  0  9G 5G 9G18G26G15G17G22G30G12
 113080259.04448  88114466.79748  21518474.8734   21518477.9474   21518475.5864
       243.000         212.000
 104810490.61948  81670504.74848  19944777.0034   19944779.5364   19944777.3434
       250.000         227.000
 119207987.26648  92889338.84348  22684526.8024   22684528.8404   22684527.6354
       225.000         177.000
 125199845.52648  97558311.21348  23824748.3784   23824751.3554   23824748.0424
       209.000         148.000
 115214404.70448  89777454.64748  21924576.2344   21924578.3394   21924575.9614
       238.000         207.000
 124465097.14748  96985781.74448  23684926.0924   23684928.2674   23684925.7154
       224.000         177.000
 132457606.89948  85421515.13648  23302905.0664   23302905.7464   23302905.2634
       228.000         182.000
 123239541.11548  96030801.96148  23451711.2424   23451714.0314   23451711.0134
       223.000         174.000
 109647682.35348  85439749.72248  20865260.9904   20865262.2944   20865260.8244
       248.000         226.000
 09  1 27  1 18  0.0000000  0  9G 5G 9G18G26G15G17G22G30G12
 113008450.12148  88058511.80148  21504809.7164   21504812.9964   21504810.5524
       241.000         211.000
 104809050.43448  81669382.52148  19944502.9134   19944505.4604   19944503.0544
       250.000         227.000
 119254412.67048  92925514.48648  22693361.3024   22693363.2134   22693361.7524
       225.000         178.000
 125308385.47348  97642887.79548  23845403.2094   23845406.0294   23845403.0904
       206.000         146.000
 115298619.05348  89843076.21548  21940601.7734   21940603.5254   21940601.4604
       239.000         206.000
 124515879.53348  97025352.47548  23694590.4394   23694593.1024   23694589.8764
       226.000         178.000
 132452341.77448  85417412.42348  23301903.3084   23301903.8514   23301903.3354
       228.000         180.000
 123137798.44448  95951521.99048  23432350.2924   23432353.1084   23432350.6724
       221.000         173.000
 109600752.15048  85403180.74248  20856330.3414   20856331.8344   20856330.2554
       248.000         225.000
 09  1 27  1 18 30.0000000  0  9G 5G 9G18G26G15G17G22G30G12
 112937010.75648  88002844.77648  21491214.9464   21491218.6314   21491215.4834
       241.000         211.000
 104807972.60848  81668542.65248  19944297.8774   19944300.4154   19944298.0584
       251.000         227.000
 119301291.59048  92962043.51048  22702282.1014   22702284.1854   22702282.6754
       226.000         178.000
 125417076.61148  97727582.18448  23866086.1354   23866088.4614   23866085.3574
       201.000         142.000
 115383183.17148  89908970.33248  21956693.5674   21956695.4854   21956693.0984
       236.000         205.000
 124567154.98548  97065307.39148  23704347.7664   23704349.1544   23704347.9274
       222.000         172.000
 132447612.44648  85413727.23048  23301003.0844   23301003.9804   23301003.6354
       226.000         181.000
 123036252.58048  95872395.35248  23413026.6104   23413029.1584   23413026.4444
       224.000         173.000
 109554262.66248  85366955.17748  20847483.7314   20847485.0314   20847483.5354
       248.000         225.000
 09  1 27  1 19  0.0000000  0  9G 5G 9G18G26G15G17G22G30G12
 112865942.00148  87947466.52648  21477691.2724   21477694.5814   21477691.6404
       244.000         212.000
 104807257.26348  81667985.23148  19944161.7834   19944164.2974   19944161.9964
       251.000         227.000
 119348622.16548  92998924.46648  22711288.6064   22711290.6474   22711289.1864
       227.000         179.000
 125525917.37848  97812393.17948  23886797.3314   23886800.4684   23886795.1134
       201.000         138.000
 115468095.44148  89975135.73248  21972851.9654   21972854.0234   21972851.8984
       238.000         207.000
 124618921.83348  97105645.17248  23714198.3334   23714198.2584   23714198.2634
       222.000         172.000
 132443418.53548  85410459.23748  23300205.3164   23300205.8684   23300204.8234
       229.000         183.000
 122934905.02548  95793423.23148  23393741.3484   23393743.4734   23393740.8894
       227.000         175.000
 109508214.30848  85331073.35548  20838720.9894   20838722.3944   20838720.7874
       249.000         226.000
 09  1 27  1 19 30.0000000  0  9G 5G 9G18G26G15G17G22G30G12
 112795244.46348  87892377.54148  21464237.9924   21464241.2084   21464238.6804
       243.000         211.000
 104806904.47848  81667710.33248  19944094.6104   19944097.1234   19944094.7314
       250.000         227.000
 119396401.79848  93036155.34848  22720381.1544   22720383.0214   22720381.4804
       227.000         180.000
 125634905.63548  97897319.10848  23907537.1904   23907540.1454   23907536.4804
       204.000         138.000
 115553353.93648  90041570.91848  21989076.1074   21989078.1684   21989075.9214
       237.000         206.000
 124671178.28048  97146364.48648  23724142.3564   23724144.7754   23724142.1264
       223.000         177.000
 132439759.17648  85407607.78448  23299508.5234   23299509.5714   23299509.7054
       225.000         181.000
 122833757.04948  95714606.63548  23374493.3034   23374495.3704   23374493.2804
       224.000         173.000
 109462607.22048  85295535.37548  20830042.2624   20830043.7694   20830042.1814
       248.000         226.000
 09  1 27  1 20  0.0000000  0  9G 5G 9G18G26G15G17G22G30G12
 112724919.53948  87837578.91448  21450855.6184   21450859.0104   21450856.2634
       241.000         211.000
 104806915.00748  81667718.53248  19944096.5864   19944099.2094   19944096.7534
       249.000         226.000
 119444628.27148  93073734.40148  22729558.3804   22729560.5474   22729558.7784
       227.000         180.000
 125744039.82648  97982358.73848  23928304.7194   23928308.9724   23928306.3704
       195.000         135.000
 115638957.33648  90108274.86148  22005365.8684   22005368.1614   22005365.3144
       236.000         206.000
 124723923.07048  97187464.36648  23734179.3544   23734183.4804   23734179.0354
       223.000         173.000
 132436634.92748  85405173.29748  23298914.6184   23298914.9674   23298913.7534
       229.000         184.000
 122732810.40848  95635946.92748  23355283.5994   23355285.8374   23355283.0094
       224.000         174.000
 109417442.15648  85260341.82448  20821447.6374   20821448.9684   20821447.5064
       247.000         226.000
 09  1 27  1 20 30.0000000  0  9G 5G 9G18G26G15G17G22G30G12
 112654967.99948  87783071.22848  21437544.3114   21437547.6424   21437544.8064
       243.000         212.000
 104807289.11948  81668010.05148  19944167.7824   19944170.3534   19944167.9984
       251.000         227.000
 119493299.32648  93111659.88048  22738820.0884   22738822.1014   22738820.6924
       227.000         180.000
 135853316.31958  88067504.78058  23949099.8285   23949103.2905   23949098.0705
       194.000         131.000
 115724903.70848  90175246.05748  22021721.0284   22021723.1374   22021720.8204
       238.000         207.000
 124777154.38348  97228943.33648  23744308.7774   23744311.7004   23744308.7184
       221.000         170.000
 132434045.60548  85403155.65048  23298421.8294   23298422.5984   23298422.7174
       227.000         183.000
 122632066.41348  95557445.12448  23336112.8904   23336114.9304   23336113.3214
       222.000         175.000
 109372719.24248  85225492.80548  20812937.0164   20812938.4154   20812936.8394
       248.000         227.000
 09  1 27  1 21  0.0000000  0  9G 5G 9G18G26G15G17G22G30G12
 112585390.07248  87728854.66348  21424304.3094   21424307.3164   21424304.7054
       244.000         213.000
 104808026.32848  81668584.50448  19944308.1224   19944310.4824   19944308.3054
       251.000         227.000
 119542412.08448  93149929.54648  22748165.9104   22748168.0954   22748166.4034
       227.000         180.000
 115962770.69658 108152803.40158  23969921.5185   23969925.9235   23969921.3705
       192.000         134.000
 115811190.71948  90242482.67248  22038140.8924   22038142.9444   22038140.8514
       236.000         204.000
 124830869.93448  97270799.60848  23754530.4164   23754530.6914   23754529.9044
       222.000         168.000
 132431989.17448  85401553.22048  23298030.3434   23298031.1524   23298029.6404
       230.000         182.000
 122531525.65948  95479101.70348  23316980.1184   23316982.8904   23316979.7274
       224.000         176.000
 109328437.94048  85190987.90548  20804510.7124   20804512.0374   20804510.8274
       248.000         227.000
 09  1 27  1 21 30.0000000  0  9G 5G 9G18G26G15G17G22G30G12
 112516187.90548  87674930.90148  21411135.4214   21411138.6424   21411136.1164
       243.000         212.000
 104809128.49348  81669443.33148  19944517.7984   19944520.3314   19944517.8914
       250.000         226.000
 119591965.35448  93188542.45948  22757596.0314   22757597.7404   22757596.4564
       225.000         177.000
 116072332.03248 108238175.84548  23990768.7834   23990773.3404   23990769.3704
       201.000         130.000
 115897817.67548  90309984.20148  22054625.4334   22054627.1734   22054624.7604
       236.000         204.000
 124885069.25048  97313032.80248  23764844.3974   23764844.5004   23764844.5874
       221.000         169.000
 132430467.33548  85400367.38148  23297740.4984   23297741.6944   23297741.8384
       227.000         183.000
 122431190.91948  95400918.81048  23297887.0674   23297890.3814   23297886.7164
       224.000         176.000
 109284599.53848  85156828.12248  20796168.5194   20796169.9664   20796168.1794
       248.000         227.000
 09  1 27  1 22  0.0000000  0  9G 5G 9G18G26G15G17G22G30G12
 112447360.87148  87621299.46048  21398038.0234   21398041.2404   21398038.5334
       243.000         212.000
 104810594.27548  81670585.49448  19944796.7064   19944799.3264   19944796.7604
       250.000         227.000
 119641955.19148  93227495.56048  22767108.3954   22767110.4854   22767108.9624
       224.000         177.000
 116182031.43048 108323655.90548  24011645.7184   24011645.8144   24011646.4344
       197.000         129.000
 115984781.73848  90377748.40448  22071174.0294   22071175.7484   22071173.8484
       237.000         204.000
 124939749.36148  97355640.67448  23775249.3854   23775250.9794   23775248.8204
       220.000         171.000
 132429477.58548  85399596.11948  23297552.2964   23297553.3534   23297552.0534
       228.000         183.000
 122331062.16448  95322896.41848  23278833.6864   23278836.6084   23278833.8194
       227.000         176.000
 109241203.34948  85123012.92248  20787910.3094   20787911.9994   20787910.1694
       248.000         227.000
 09  1 27  1 22 30.0000000  0  8G 5G 9G18G15G17G22G30G12
 112378910.92348  87567961.85548  21385012.2774   21385015.6324   21385012.7044
       244.000         212.000
 104812424.89848  81672011.95148  19945145.1414   19945147.5674   19945145.4034
       250.000         226.000
 119692380.47448  93266787.98548  22776703.5414   22776706.2484   22776704.2504
       224.000         176.000
 116072081.98348  90445774.55848  22087786.8934   22087789.0054   22087786.5904
       236.000         205.000
 124994909.72948  97398622.81748  23785745.8204   23785748.5594   23785745.9384
       219.000         171.000
 132429020.32048  85399239.79748  23297465.4004   23297466.0434   23297465.5234
       227.000         182.000
 122231141.70348  95245036.34348  23259819.1384   23259822.1594   23259819.5144
       225.000         177.000
 109198250.40748  85089543.10648  20779736.5874   20779738.2284   20779736.3464
       248.000         227.000
 09  1 27  1 23  0.0000000  0  8G 5G 9G18G15G17G22G30G12
 112310838.39548  87514918.32848  21372058.8464   21372061.8684   21372059.4324
       243.000         213.000
 104814620.19048  81673722.56748  19945562.9244   19945565.2854   19945563.0704
       250.000         226.000
 119743238.19548  93306417.37248  22786381.5874   22786384.1164   22786382.0014
       226.000         177.000
 116159716.20048  90514060.95248  22104463.1784   22104465.1374   22104462.6394
       237.000         204.000
 125050548.04048  97441977.34448  23796333.5234   23796337.1334   23796332.7434
       218.000         173.000
 132429095.42948  85399298.31548  23297479.8314   23297480.3094   23297480.3594
       227.000         181.000
 122131430.39348  95167339.23648  23240844.7184   23240847.6254   23240844.0524
       228.000         176.000
 109155740.38948  85056418.42848  20771647.4484   20771648.7294   20771647.2894
       248.000         227.000
 09  1 27  1 23 30.0000000  0  8G 5G 9G18G15G17G22G30G12
 112243143.86348  87462169.35148  21359176.9884   21359179.7934   21359177.6224
       243.000         213.000
 104817180.21448  81675717.38648  19946050.0094   19946052.5264   19946050.4114
       249.000         226.000
 119794525.49748  93346381.49848  22796141.8264   22796143.7304   22796142.2074
       227.000         178.000
 116247682.25748  90582605.93648  22121202.3454   22121204.3654   22121202.2094
       235.000         203.000
 125106661.86348  97485702.44448  23807011.5834   23807015.7194   23807011.6404
       218.000         171.000
 132429701.42048  85399770.50448  23297595.0974   23297595.7544   23297595.3244
       229.000         181.000
 122031929.65048  95089806.19948  23221910.3444   23221912.4744   23221910.6784
       225.000         174.000
 109113673.15448  85023638.77548  20763642.2824   20763643.6994   20763642.1684
       247.000         227.000
 09  1 27  1 24  0.0000000  0  8G 5G 9G18G15G17G22G30G12
 112175828.46748  87409715.79548  21346367.1434   21346370.0684   21346367.8534
       243.000         213.000
 104820105.43848  81677996.77748  19946606.5284   19946609.1914   19946606.6154
       249.000         226.000
 119846239.87348  93386678.39448  22805983.0474   22805984.5154   22805983.8144
       228.000         179.000
 116335978.72948  90651408.36548  22138004.8244   22138006.5034   22138004.4824
       236.000         204.000
 125163249.96948  97529797.08448  23817780.0584   23817782.7714   23817779.8864
       221.000         168.000
 132430838.06648  85400656.20648  23297811.6024   23297812.2964   23297812.2364
       228.000         182.000
 121932640.90648  95012438.36348  23203015.7564   23203018.4054   23203015.5954
       222.000         174.000
 109072049.23448  84991204.55948  20755721.5134   20755722.9004   20755721.2334
       249.000         228.000
 09  1 27  1 24 30.0000000  0  8G 5G 9G18G15G17G22G30G12
 112108894.11848  87357559.16548  21333629.8414   21333633.1374   21333630.5314
       242.000         214.000
 104823397.55048  81680562.05448  19947232.9864   19947235.6144   19947233.0924
       250.000         226.000
 119898380.82648  93427307.70548  22815905.0694   22815906.4384   22815905.8834
       228.000         179.000
 116424605.06748  90720467.84548  22154869.9024   22154871.5774   22154869.4684
       237.000         203.000
 125220312.10248  97574261.06048  23828639.0714   23828639.9854   23828639.1774
       217.000         167.000
 132432506.24648  85401956.07448  23298128.9794   23298129.2224   23298129.3074
       228.000         181.000
 121833566.63448  94935237.65448  23184162.5354   23184165.3524   23184162.3064
       225.000         176.000
 109030869.86748  84959116.74848  20747885.3244   20747886.7934   20747885.1674
       248.000         228.000
 09  1 27  1 25  0.0000000  0  9G 5G 9G18G26G15G17G22G30G12
 112042340.49448  87305699.21448  21320964.8244   21320968.3614   21320965.2134
       243.000         213.000
 104827055.56648  81683412.45848  19947929.1604   19947931.7384   19947929.4714
       250.000         226.000
 119950944.50148  93468266.41148  22825907.2584   22825908.9684   22825907.4434
       228.000         178.000
 136843067.39758  88838756.09558  24137431.4835   24137433.2535   24137429.8455
       195.000         133.000
 116513558.02448  90789781.84248  22171796.9144   22171798.7824   22171796.9174
       235.000         202.000
 125277845.39548  97619092.19848  23839587.4724   23839587.6934   23839587.5694
       219.000         165.000
 132434704.09748  85403668.69348  23298546.9594   23298547.6944   23298546.7454
       228.000         180.000
 121734707.26648  94858204.40048  23165350.5354   23165353.1604   23165350.3994
       226.000         177.000
 108990134.01248  84927374.53748  20740133.5384   20740135.0324   20740133.4604
       248.000         229.000
 09  1 27  1 25 30.0000000  0  9G 5G 9G18G26G15G17G22G30G12
 111976168.26548  87254136.45248  21308372.8944   21308376.2324   21308373.4604
       243.000         213.000
 104831079.21048  81686547.75648  19948694.9174   19948697.4324   19948695.0594
       249.000         225.000
 120003927.97848  93509552.21148  22835989.9404   22835991.6844   22835990.1804
       229.000         177.000
 136953687.00848  88924953.13548  24158482.4284   24158485.4744   24158482.4524
       201.000         135.000
 116602836.13748  90859349.19148  22188785.8614   22188787.7984   22188785.1864
       235.000         202.000
 125335847.63248  97664288.73948  23850624.7014   23850625.4414   23850624.3844
       218.000         165.000
 132437430.89248  85405793.44648  23299065.2774   23299065.8774   23299065.3204
       226.000         178.000
 121636063.80648  94781339.38748  23146579.3144   23146582.0024   23146578.7634
       227.000         177.000
 108949841.51548  84895977.79048  20732466.1844   20732467.5624   20732465.8294
       248.000         228.000
 09  1 27  1 26  0.0000000  0  8G 5G 9G18G15G17G22G30G12
 111910378.16148  87202871.44848  21295853.6704   21295856.7624   21295854.0854
       243.000         213.000
 104835469.23848  81689968.55248  19949530.4414   19949532.7874   19949530.6064
       249.000         225.000
 120057328.97148  93551163.35748  22846151.4244   22846153.2104   22846152.3224
       225.000         175.000
 116692436.87348  90929167.94348  22205836.6234   22205838.1434   22205836.5824
       236.000         202.000
 125394316.48648  97709848.87048  23861751.0644   23861752.9374   23861750.3184
       217.000         166.000
 132440685.92448  85408329.84948  23299685.2144   23299685.7944   23299685.5454
       228.000         180.000
 121537637.75248  94704643.77848  23127849.3364   23127852.1594   23127849.2914
       225.000         175.000
 108909992.86448  84864926.90348  20724883.2464   20724884.5174   20724883.2384
       248.000         228.000
 09  1 27  1 26 30.0000000  0  9G 5G 9G18G26G15G17G22G30G12
 111844970.46048  87151904.41448  21283407.0864   21283409.8494   21283407.5524
       244.000         213.000
 104840225.54848  81693674.76548  19950435.4744   19950437.8254   19950435.7094
       250.000         225.000
 120111144.52748  93593097.52948  22856392.1094   22856394.1354   22856392.5794
       223.000         176.000
 137175294.98848  89097634.60248  24200651.9124   24200655.7794   24200653.3634
       196.000         133.000
 116782358.53148  90999236.75748  22222948.1094   22222949.9834   22222947.7214
       235.000         202.000
 125453250.43348  97755771.46848  23872965.5354   23872968.1324   23872965.8954
       217.000         168.000
 132444468.33248  85411277.15948  23300405.0904   23300405.0334   23300405.5934
       227.000         178.000
 121439429.97548  94628118.25048  23109161.3024   23109163.6754   23109160.7594
       224.000         176.000
 108870587.53448  84834221.46248  20717384.7114   20717386.0024   20717384.4734
       248.000         229.000
 09  1 27  1 27  0.0000000  0  9G 5G 9G18G26G15G17G22G30G12
 111779947.11648  87101236.88348  21271033.5304   21271036.4434   21271034.3844
       243.000         213.000
 104845349.46248  81697667.42548  19951410.4504   19951412.9194   19951410.6134
       249.000         225.000
 120165373.07948  93635353.54348  22866711.7444   22866713.5894   22866711.9804
       226.000         177.000
 117286172.79758 109184008.09658  24221771.1795   24221775.0215   24221771.0515
       193.000         129.000
 116872600.47948  91069555.16748  22240120.4184   22240122.2094   22240120.2834
       236.000         201.000
 125512648.64448  97802055.79748  23884268.8334   23884271.9844   23884268.8154
       215.000         169.000
 132448778.32748  85414635.57748  23301224.9834   23301225.1544   23301225.1184
       226.000         176.000
 121341442.68248  94551764.55548  23090514.7164   23090517.6204   23090514.1064
       225.000         178.000
 108831626.75448  84803862.42248  20709970.6804   20709971.9484   20709970.7074
       248.000         229.000
 09  1 27  1 27 30.0000000  0  8G 5G 9G18G15G17G22G30G12
 111715308.08848  87050868.81348  21258732.9924   21258735.9044   21258733.4674
       244.000         213.000
 104850840.39248  81701946.06548  19952455.3454   19952457.7234   19952455.6274
       250.000         225.000
 120220011.51348  93677928.93248  22877109.5124   22877111.2694   22877110.5004
       229.000         177.000
 116963159.58548  91140120.69248  22257353.2514   22257355.1674   22257353.0664
       236.000         202.000
 125572508.02048  97848699.47448  23895659.4894   23895662.1074   23895659.8674
       217.000         169.000
 132453614.67748  85418404.14048  23302145.4984   23302145.0154   23302145.5984
       227.000         177.000
 121243676.25848  94475582.93648  23071910.2464   23071913.4144   23071910.3474
       225.000         178.000
 108793109.87748  84773849.27648  20702641.1114   20702642.4404   20702640.8124
       249.000         229.000
 09  1 27  1 28  0.0000000  0  9G 5G 9G18G26G15G17G22G30G12
 111651054.63248  87000801.19148  21246506.0524   21246509.0954   21246506.5504
       245.000         214.000
 104856699.01148  81706511.21948  19953570.1974   19953572.6194   19953570.3424
       250.000         226.000
 120275057.64548  93720822.00048  22887584.0564   22887585.8714   22887584.5734
       224.000         177.000
 137508514.87058  89357269.38558  24264077.3005   24264080.7065   24264079.0985
       198.000         125.000
 117054034.64948  91210932.42648  22274646.4294   22274648.5624   22274646.2214
       236.000         203.000
 125632827.88548  97895701.97848  23907138.4094   23907139.4874   23907137.5234
       219.000         168.000
 132458976.98848  85422582.56248  23303166.0344   23303165.7164   23303166.4474
       228.000         178.000
 121146132.78448  94399575.05448  23053348.5794   23053351.3104   23053347.3454
       228.000         180.000
 108755037.40748  84744182.42948  20695396.0324   20695397.4694   20695396.0914
       248.000         229.000
 09  1 27  1 28 30.0000000  0  8G 5G 9G18G15G17G22G30G12
 111587187.17448  86951034.35648  21234352.4984   21234355.5504   21234353.0824
       244.000         214.000
 104862925.16348  81711362.76448  19954755.0174   19954757.3474   19954755.3584
       249.000         225.000
 120330508.36948  93764030.34648  22898135.8664   22898137.8264   22898136.5724
       225.000         178.000
 117145223.64648  91281988.78948  22291998.8504   22292001.1384   22291999.3094
       234.000         201.000
 125693605.78148  97943061.37748  23918703.5184   23918705.2434   23918703.3394
       217.000         169.000
 132464864.18248  85427169.97148  23304286.2384   23304285.9764   23304285.7374
       226.000         179.000
 121048813.28248  94323741.70748  23034828.9734   23034831.8804   23034829.0554
       225.000         178.000
 108717409.05048  84714861.63748  20688235.7194   20688237.1804   20688235.5754
       249.000         230.000
 09  1 27  1 29  0.0000000  0  8G 5G 9G18G15G17G22G30G12
 111523706.72048  86901569.07548  21222272.4434   21222275.3144   21222272.8994
       245.000         214.000
 104869519.49248  81716501.19748  19956009.7764   19956012.3464   19956009.9914
       248.000         225.000
 120386361.94748  93807552.59348  22908764.5254   22908766.2484   22908764.5834
       226.000         177.000
 117236724.72048  91353288.32148  22309410.8234   22309412.7564   22309410.3784
       235.000         200.000
 125754839.74948  97990776.16848  23930356.7184   23930357.7814   23930356.4454
       220.000         169.000
 132471275.39748  85432165.71948  23305506.3224   23305506.5364   23305506.5974
       226.000         178.000
 120951719.35248  94248084.11048  23016352.7484   23016355.5354   23016351.8254
       228.000         180.000
 108680224.91648  84685886.99048  20681159.8504   20681161.2094   20681159.8514
       248.000         230.000
 09  1 27  1 29 30.0000000  0  9G 5G 9G18G26G15G17G22G30G12
 111460613.28748  86852405.36348  21210266.1114   21210268.9734   21210266.7154
       244.000         213.000
 104876481.69748  81721926.28348  19957334.8034   19957337.2554   19957334.8604
       248.000         226.000
 120442614.98548  93851386.10848  22919469.0704   22919470.7944   22919469.5584
       227.000         177.000
 117842859.48058 109617791.67558  24327702.4915   24327707.2175   24327706.1615
       194.000         122.000
 117328535.72748  91424829.36548  22326882.1664   22326883.6524   22326881.7584
       235.000         201.000
 125816527.47048  98038844.51848  23942095.3134   23942097.1344   23942095.6654
       219.000         170.000
 132478210.07448  85437569.37248  23306825.4834   23306825.7784   23306826.0424
       227.000         180.000
 120854851.54048  94172602.73048  22997919.6154   22997922.3864   22997919.5274
       229.000         180.000
 108643484.48748  84657258.09648  20674168.1764   20674169.6984   20674167.9804
       249.000         230.000
 09  1 27  1 30  0.0000000  0  9G 5G 9G18G26G15G17G22G30G12
 111397907.44448  86803543.67348  21198333.3974   21198336.5314   21198333.7534
       245.000         214.000
 104883812.08448  81727638.26948  19958729.5864   19958732.1094   19958729.7764
       248.000         225.000
 120499264.46348  93895528.55548  22930249.5394   22930250.8784   22930249.8854
       227.000         176.000
 117954527.86948 109704805.96748  24348956.4254   24348957.3874   24348956.3614
       191.000         125.000
 117420654.36448  91496610.11748  22344411.6374   22344413.5704   22344411.6904
       235.000         201.000
 125878666.81748  98087264.79948  23953919.8744   23953921.5324   23953919.6844
       222.000         170.000
 132485666.48648  85443379.53048  23308244.8814   23308245.2174   23308244.6804
       226.000         178.000
 120758211.32648  94097298.67748  22979529.8454   22979532.0014   22979529.9814
       228.000         180.000
 108607187.74248  84628974.92048  20667261.2044   20667262.4864   20667261.1734
       249.000         230.000
 09  1 27  1 30 30.0000000  0  9G 5G 9G18G26G15G17G22G30G12
 111335590.46048  86754984.99648  21186474.8924   21186478.0084   21186475.7654
       244.000         213.000
 104891511.47648  81733637.79148  19960194.7654   19960197.2784   19960194.8704
       248.000         225.000
 120556308.43948  93939978.41448  22941104.3214   22941106.1604   22941105.3544
       226.000         177.000
 138066265.93858  89791868.19458  24370219.1835   24370225.3065   24370221.3345
       200.000         127.000
 117513079.49248  91568629.68448  22361999.8414   22362001.5654   22361999.4644
       234.000         201.000
 125941256.61648  98136036.06248  23965830.9704   23965831.6624   23965831.2564
       221.000         170.000
 132493644.77048  85449596.36848  23309763.0884   23309763.3994   23309763.0594
       227.000         177.000
 120661800.41448  94022173.31348  22961183.4444   22961185.7454   22961183.5074
       228.000         181.000
 108571335.40748  84601038.04248  20660438.7404   20660440.1414   20660438.8024
       248.000         230.000
 09  1 27  1 31  0.0000000  0  9G 5G 9G18G26G15G17G22G30G12
 111273662.84448  86706729.72048  21174690.6854   21174693.7314   21174690.9654
       246.000         214.000
 104899579.59548  81739924.63248  19961730.1444   19961732.5834   19961730.3194
       248.000         225.000
 120613744.39648  93984733.68548  22952033.6964   22952035.7014   22952034.2034
       226.000         177.000
 138178147.37448  89879048.54548  24391512.8244   24391515.9404   24391514.9044
       199.000         130.000
 117605808.74848  91640886.24748  22379645.5814   22379647.5034   22379645.1694
       236.000         201.000
 126004294.71548  98185156.66948  23977826.5984   23977827.5204   23977827.2044
       222.000         171.000
 132502143.70248  85456218.90148  23311380.8124   23311380.3764   23311380.4044
       226.000         177.000
 120565619.56448  93947227.20748  22942880.8314   22942883.2844   22942880.5004
       228.000         181.000
 108535926.91548  84573447.02048  20653700.5914   20653702.1124   20653700.5154
       248.000         230.000
 09  1 27  1 31 30.0000000  0  9G 5G 9G18G26G15G17G22G30G12
 111212124.94448  86658778.11948  21162980.5044   21162983.3154   21162981.0194
       245.000         214.000
 104908016.21748  81746498.61948  19963335.6464   19963338.0404   19963335.9534
       248.000         225.000
 120671568.83948  94029791.66748  22963037.5804   22963039.5354   22963038.1884
       226.000         178.000
 138290132.17148  89966309.44248  24412825.2644   24412825.9944   24412825.0624
       203.000         132.000
 117698839.92048  91713378.06248  22397348.7594   22397350.5834   22397348.6964
       235.000         199.000
 126067778.65548  98234624.67048  23989906.6214   23989908.0914   23989906.7404
       222.000         170.000
 132511162.09648  85463246.21148  23313096.8554   23313097.0044   23313097.2744
       226.000         180.000
 120469669.95948  93872461.31248  22924621.7674   22924624.6184   22924622.0384
       225.000         178.000
 108500961.83048  84546201.50048  20647046.9904   20647048.4044   20647046.7804
       248.000         230.000
 09  1 27  1 32  0.0000000  0  9G 5G 9G18G26G15G17G22G30G12
 111150977.29848  86611130.61448  21151344.4274   21151347.2724   21151345.2444
       244.000         214.000
 104916821.83548  81753360.13648  19965011.2064   19965013.7044   19965011.3884
       249.000         225.000
 120729779.21948  94075150.40648  22974114.8764   22974116.8764   22974115.3364
       226.000         177.000
 138402218.37848  90053649.34748  24434153.0694   24434156.2974   24434155.1304
       202.000         134.000
 117792171.31148  91786103.82448  22415109.2804   22415110.9374   22415108.8734
       234.000         199.000
 126131706.45448  98284438.55048  24002071.4284   24002073.3094   24002071.7604
       218.000         169.000
 132520698.99848  85470677.53848  23314910.9554   23314911.9914   23314911.5894
       226.000         180.000
 120373953.20948  93797876.84248  22906407.2584   22906410.0004   22906407.1964
       226.000         179.000
 108466440.52848  84519301.78748  20640477.8404   20640479.2184   20640477.7744
       248.000         230.000
 09  1 27  1 32 30.0000000  0  9G 5G 9G18G26G15G17G22G30G12
 111090222.27348  86563789.04448  21139783.0504   21139786.0264   21139783.3804
       245.000         214.000
 104925998.21448  81760510.55848  19966757.3914   19966759.8274   19966757.7404
       248.000         225.000
 120788374.57248  94120809.09848  22985265.3184   22985267.1284   22985265.8614
       224.000         174.000
 138514405.71748  90141067.99148  24455500.1714   24455503.2704   24455501.7984
       208.000         137.000
 117885802.17248  91859062.93148  22432926.4404   22432928.1424   22432926.2484
       233.000         199.000
 126196077.80548  98334598.04448  24014321.2694   24014322.9204   24014320.4604
       219.000         171.000
 132530755.09848  85478513.45648  23316825.1204   23316825.8304   23316825.3504
       226.000         181.000
 120278471.91648  93723475.84948  22888238.1924   22888240.5284   22888237.9134
       227.000         182.000
 108432364.12948  84492748.75448  20633993.3954   20633994.6954   20633993.1574
       249.000         230.000
 09  1 27  1 33  0.0000000  0  9G 5G 9G18G26G15G17G22G30G12
 111029858.76548  86516752.54948  21128296.2324   21128299.1114   21128296.8844
       245.000         213.000
 104935543.78448  81767948.66248  19968573.7844   19968576.4064   19968573.7914
       248.000         225.000
 120847350.83148  94166764.60948  22996488.1824   22996489.5834   22996488.5144
       226.000         174.000
 138626690.73748  90228562.83548  24476868.3084   24476870.3604   24476870.7054
       210.000         142.000
 117979729.28748  91932252.88348  22450800.2814   22450801.9014   22450799.4374
       234.000         200.000
 126260889.09448  98385100.35848  24026653.8934   24026655.8164   24026654.2704
       218.000         168.000
 132541327.91048  85486751.98948  23318837.1764   23318837.2224   23318837.0694
       228.000         180.000
 120183225.69248  93649258.03148  22870113.4974   22870115.8864   22870113.7064
       224.000         181.000
 108398730.70848  84466540.90648  20627593.0894   20627594.4794   20627592.9364
       249.000         231.000
 09  1 27  1 33 30.0000000  0 10G 5G 9G18G26G15G17G22G14G30G12
 110969888.67048  86470022.61648  21116884.2204   21116887.1904   21116884.4954
       246.000         213.000
 104945460.16948  81775675.70848  19970461.0244   19970463.6054   19970461.3444
       249.000         226.000
 120906706.35948  94213015.65448  23007783.1564   23007784.6744   23007783.9534
       223.000         174.000
 138739072.70548  90316133.19348  24498253.8054   24498256.3794   24498254.1654
       207.000         144.000
 118073951.96848  92005673.14548  22468730.2624   22468732.3064   22468730.0004
       235.000         199.000
 126326139.30548  98435944.67848  24039071.2264   24039072.2184   24039070.4904
       218.000         170.000
 132552417.33048  85495393.09348  23320947.2744   23320947.2804   23320947.1174
       228.000         178.000
 138780445.08558  90348385.63458  24506113.5095   24506117.3585   24506114.6455
       207.000         153.000
 120088216.95348  93575225.27848  22852033.2114   22852036.0324   22852032.6014
       226.000         181.000
 108365542.33448  84440679.84048  20621277.6664   20621278.8284   20621277.3254
       250.000         231.000
 09  1 27  1 34  0.0000000  0 10G 5G 9G18G26G15G17G22G14G30G12
 110910312.54248  86423599.66548  21105547.1884   21105550.1084   21105547.8234
       245.000         213.000
 104955747.76548  81783692.01348  19972418.5984   19972421.2964   19972418.7604
       249.000         225.000
 120966438.13248  94259559.88548  23019149.5004   23019151.3084   23019149.9084
       225.000         172.000
 138851550.06348  90403777.87748  24519657.9764   24519659.2704   24519657.7594
       207.000         147.000
 118168467.79848  92079321.84748  22486715.8874   22486717.7484   22486716.3964
       234.000         197.000
 126391826.49848  98487129.49948  24051570.9674   24051572.2644   24051570.9494
       217.000         168.000
 132564022.58248  85504436.13648  23323155.4274   23323155.6494   23323156.2924
       226.000         177.000
 138676389.89948  90267303.64548  24486312.5384   24486316.0834   24486312.7994
       207.000         152.000
 119993446.84448  93501378.45948  22833999.4814   22834001.9194   22833999.3404
       228.000         181.000
 108332798.20348  84415164.94248  20615046.6584   20615047.7804   20615046.6644
       248.000         231.000
 09  1 27  1 34 30.0000000  0 10G 5G 9G18G26G15G17G22G14G30G12
 110851129.94148  86377483.34948  21094285.2794   21094288.0454   21094285.9764
       245.000         214.000
 104966405.66448  81791996.86448  19974446.8494   19974449.2884   19974447.1654
       249.000         225.000
 121026542.63748  94306394.54648  23030586.7504   23030588.4404   23030587.1504
       223.000         172.000
 138964119.75648  90491494.49348  24541079.6434   24541081.2374   24541079.6084
       215.000         149.000
 118263274.14448  92153196.92548  22504756.8394   22504758.9204   22504756.4514
       233.000         199.000
 126457947.76448  98538652.55048  24064153.5614   24064154.7274   24064154.0874
       216.000         167.000
 132576141.63948  85513879.52648  23325461.8504   23325462.2844   23325461.6954
       228.000         179.000
 138572442.69748  90186305.88248  24466532.9984   24466534.3994   24466533.8964
       210.000         152.000
 119898915.67448  93427717.82048  22816010.9344   22816013.3674   22816010.6904
       228.000         183.000
 108300497.30748  84389995.41448  20608899.8734   20608901.2744   20608899.6774
       249.000         231.000
 09  1 27  1 35  0.0000000  0 10G 5G 9G18G26G15G17G22G14G30G12
 110792341.54348  86331674.20748  21083098.4214   21083101.1964   21083099.0274
       245.000         215.000
 104977434.32148  81800590.61348  19976545.4574   19976547.9224   19976545.5944
       249.000         225.000
 121087017.21148  94353517.58648  23042094.8954   23042096.3664   23042095.4674
       226.000         173.000
 139076779.82848  90579281.56348  24562517.2164   24562519.8504   24562518.2084
       215.000         152.000
 118358369.07048  92227296.84648  22522852.9504   22522854.9034   22522852.2214
       233.000         198.000
 126524501.09948  98590512.26648  24076818.0524   24076819.1304   24076817.5804
       214.000         166.000
 132588773.51548  85523722.53348  23327865.7664   23327865.7484   23327865.7904
       229.000         179.000
 138468606.41948  90105394.38548  24446773.2664   24446775.3144   24446773.2494
       209.000         151.000
 119804624.81948  93354244.44648  22798068.0444   22798070.3884   22798067.8354
       228.000         183.000
 108268639.40248  84365171.08348  20602837.3894   20602838.9694   20602837.2024
       249.000         231.000
 09  1 27  1 35 30.0000000  0 10G 5G 9G18G26G15G17G22G14G30G12
 110733948.67848  86286173.28348  21071986.5164   21071989.4654   21071986.9654
       246.000         215.000
 104988834.53848  81809473.90448  19978714.8894   19978717.2604   19978715.0874
       248.000         225.000
 121147859.93248  94400927.49248  23053672.9624   23053674.8204   23053673.5684
       227.000         172.000
 139189529.24848  90667138.27048  24583972.9074   24583975.3644   24583973.6954
       218.000         157.000
 118453751.09648  92301620.49748  22541003.6484   22541005.6274   22541003.6944
       233.000         198.000
 126591485.16448  98642707.65448  24089564.8184   24089565.9574   24089564.9344
       218.000         167.000
 132601918.02648  85533964.98548  23330366.7364   23330367.0224   23330367.3044
       226.000         178.000
 138364884.05148  90024571.79448  24427035.3994   24427037.7924   24427035.3044
       204.000         152.000
 119710576.48248  93280960.04248  22780171.2704   22780173.5224   22780171.3934
       230.000         182.000
 108237225.12848  84340692.43748  20596859.5494   20596860.9654   20596859.6574
       249.000         231.000
 09  1 27  1 36  0.0000000  0 10G 5G 9G18G26G15G17G22G14G30G12
 110675950.88648  86240980.21048  21060949.8154   21060952.8064   21060950.4054
       245.000         213.000
 105000605.40748  81818646.00248  19980954.7414   19980957.1734   19980954.8844
       248.000         224.000
 121209067.05948  94448621.35148  23065320.0634   23065322.1934   23065320.5374
       224.000         172.000
 139302365.17248  90755062.38548  24605445.7414   24605447.8144   24605446.0754
       219.000         158.000
 118549417.50748  92376165.74048  22559208.1064   22559210.1074   22559208.0924
       232.000         196.000
 126658896.73748  98695236.17648  24102393.0354   24102394.7224   24102393.0874
       217.000         166.000
 132615572.79448  85544605.06048  23332965.3334   23332965.7304   23332964.7974
       229.000         179.000
 138261277.04348  89943839.12248  24407319.8394   24407322.2334   24407320.9084
       209.000         156.000
 119616770.58548  93207864.56548  22762320.5564   22762322.9174   22762320.5034
       228.000         182.000
 108206252.93948  84316558.27148  20590965.7244   20590967.2424   20590965.5694
       249.000         231.000
 09  1 27  1 36 30.0000000  0 10G 5G 9G18G26G15G17G22G14G30G12
 110618348.78948  86196095.46148  21049988.4954   21049991.3664   21049989.0634
       245.000         214.000
 105012747.26748  81828107.18748  19983265.3044   19983267.7364   19983265.4264
       248.000         225.000
 121270635.70348  94496596.89948  23077036.6984   23077038.6134   23077037.4104
       225.000         174.000
 139415285.93348  90843052.58248  24626933.6074   24626936.3954   24626934.2234
       218.000         160.000
 118645366.17648  92450930.94748  22577466.8284   22577468.3954   22577466.5344
       232.000         197.000
 126726733.74048  98748096.16848  24115301.4104   24115303.6314   24115301.4614
       216.000         165.000
 132629737.14248  85555642.21748  23335661.1324   23335660.6634   23335662.2174
       228.000         178.000
 138157787.49548  89863197.90048  24387626.4014   24387628.6074   24387627.0694
       208.000         152.000
 119523208.43248  93134959.00948  22744516.3734   22744518.6444   22744516.1354
       229.000         183.000
 108175723.37548  84292769.01148  20585156.2624   20585157.6954   20585156.2444
       250.000         232.000
 09  1 27  1 37  0.0000000  0 10G 5G 9G18G26G15G17G22G14G30G12
 110561143.51948  86151519.93348  21039102.5994   21039105.5194   21039102.9314
       245.000         215.000
 105025260.67148  81837857.88848  19985646.5714   19985648.9964   19985646.7094
       248.000         225.000
 121332563.83548  94544852.57248  23088821.0344   23088823.2554   23088821.3854
       227.000         175.000
 139528290.00648  90931107.67848  24648437.4114   24648440.6954   24648437.7664
       215.000         159.000
 118741595.78848  92525915.06148  22595778.5244   22595780.3534   22595777.5244
       232.000         196.000
 126794994.66048  98801286.50448  24128291.5794   24128293.1664   24128291.4944
       216.000         163.000
 132644410.27348  85567075.81148  23338453.1274   23338453.5984   23338453.3404
       228.000         179.000
 138054418.76048  89782650.83648  24367955.8454   24367956.4874   24367956.3764
       208.000         151.000
 119429891.81848  93062244.78448  22726758.5894   22726761.3114   22726758.4704
       228.000         185.000
 108145636.74148  84269324.88548  20579430.9624   20579432.2194   20579430.8554
       250.000         232.000
 09  1 27  1 37 30.0000000  0 10G 5G 9G18G26G15G17G22G14G30G12
 110504335.94048  86107254.29648  21028292.3764   21028295.5244   21028292.9254
       246.000         216.000
 105038146.91248  81847899.11548  19988098.7104   19988101.2554   19988098.9984
       249.000         225.000
 121394849.17848  94593386.60748  23100673.4954   23100675.8034   23100673.9854
       226.000         174.000
 139641375.98148  91019226.59948  24669957.2024   24669959.4554   24669957.3414
       217.000         161.000
 118838104.62748  92601116.74048  22614143.5494   22614145.5354   22614142.8914
       231.000         197.000
 126863677.68548  98854805.73948  24141361.5414   24141362.4744   24141361.6014
       217.000         162.000
 132659591.39648  85578905.24448  23341341.8584   23341342.2604   23341341.9844
       229.000         180.000
 137951173.68448  89702200.06148  24348309.2874   24348309.5994   24348308.0254
       207.000         147.000
 119336822.11348  92989722.96748  22709047.6204   22709050.6214   22709047.2204
       230.000         184.000
 108115992.86548  84246225.76148  20573789.9504   20573791.1904   20573789.7934
       251.000         232.000
 09  1 27  1 38  0.0000000  0 10G 5G 9G18G26G15G17G22G14G30G12
 110447925.68148  86063298.26948  21017558.1034   21017561.0234   21017558.7194
       246.000         216.000
 105051404.90048  81858230.00648  19990621.6564   19990624.1824   19990621.7924
       249.000         225.000
 121457487.78048  94642195.89748  23112593.5634   23112595.4494   23112593.9134
       225.000         172.000
 139754540.87748  91107407.05748  24691491.2124   24691494.0084   24691490.8614
       212.000         159.000
 118934889.84148  92676533.78748  22632561.2204   22632563.2924   22632561.1044
       232.000         196.000
 126932779.90048  98908651.61348  24154511.9864   24154511.9124   24154512.1654
       218.000         166.000
 132675278.59648  85591129.03848  23344327.3414   23344327.5674   23344327.7484
       228.000         181.000
 137848053.60648  89621846.78648  24328685.5434   24328687.1814   24328685.2424
       206.000         151.000
 119243999.89048  92917393.99148  22691384.7334   22691387.3354   22691384.4284
       229.000         185.000
 108086790.77948  84223470.90148  20568233.1454   20568234.2404   20568233.2094
       249.000         232.000
 09  1 27  1 38 30.0000000  0 10G 5G 9G18G26G15G17G22G14G30G12
 110391914.01048  86019652.81248  21006899.5504   21006902.4294   21006899.9524
       246.000         216.000
 105065035.16648  81868850.99248  19993215.5134   19993217.8574   19993215.7724
       248.000         225.000
 121520477.66048  94691278.90248  23124579.6084   23124581.7144   23124579.5734
       224.000         172.000
 139867784.03648  91195648.47648  24713040.2704   24713043.2944   24713040.8924
       212.000         154.000
 119031950.09048  92752165.14548  22651031.1564   22651033.0934   22651030.9094
       231.000         196.000
 127002299.99348  98962823.11548  24167740.6144   24167741.8374   24167741.2944
       218.000         166.000
 132691471.28548  85603746.71048  23347408.6894   23347409.2864   23347408.2744
       225.000         180.000
 137745061.31448  89541593.08948  24309086.9894   24309088.9174   24309087.4884
       206.000         152.000
 119151427.41648  92845259.60648  22673768.9144   22673771.1394   22673768.8234
       231.000         185.000
 108058030.99048  84201060.68548  20562760.0754   20562761.4314   20562759.6324
       250.000         233.000
 09  1 27  1 39  0.0000000  0 10G 5G 9G18G26G15G17G22G14G30G12
 110336300.66448  85976317.74848  20996316.3014   20996319.6074   20996316.9554
       245.000         215.000
 105079037.43948  81879761.84348  19995879.8984   19995882.2974   19995880.0734
       247.000         225.000
 121583815.67848  94740633.19148  23136632.1634   23136634.5624   23136632.7414
       222.000         170.000
 139981102.65648  91283948.70648  24734604.3874   24734607.8454   24734603.4404
       209.000         156.000
 119129282.53648  92828008.59948  22669553.1474   22669554.7544   22669552.7804
       233.000         196.000
 127072235.23048  99017318.10748  24181048.9684   24181050.4114   24181048.2814
       217.000         162.000
 132708167.72248  85616756.89148  23350585.6114   23350586.3354   23350586.1904
       226.000         178.000
 137642199.01348  89461440.65848  24289512.8574   24289515.3294   24289509.9714
       207.000         157.000
 119059104.86248  92773319.99148  22656200.1134   22656202.5314   22656200.2194
       228.000         184.000
 108029712.46548  84178994.30848  20557371.3134   20557372.5854   20557371.0344
       250.000         232.000
 09  1 27  1 39 30.0000000  0 10G 5G 9G18G26G15G17G22G14G30G12
 110281086.41548  85933293.66948  20985809.5204   20985812.4944   20985810.1364
       245.000         215.000
 105093412.31048  81890963.04248  19998615.2404   19998617.7104   19998615.2984
       248.000         224.000
 121647498.59048  94790256.22848  23148751.0274   23148752.7204   23148751.6434
       223.000         169.000
 140094495.03248  91372306.38748  24756182.6364   24756185.6014   24756182.0234
       211.000         154.000
 119226885.62548  92904062.95548  22688126.4784   22688128.0104   22688126.1224
       231.000         195.000
 127142583.55848  99072135.00548  24194435.5214   24194437.2364   24194435.8774
       215.000         163.000
 132725366.79448  85630158.76048  23353858.6784   23353858.8704   23353858.5764
       227.000         178.000
 137539469.50948  89381391.69848  24269964.6804   24269966.5944   24269964.7004
       207.000         158.000
 118967033.41748  92701576.02748  22638679.6204   22638681.9664   22638678.7444
       230.000         186.000
 108001835.22848  84157271.79648  20552066.4304   20552067.6144   20552066.1294
       249.000         232.000
 09  1 27  1 40  0.0000000  0 10G 5G 9G18G26G15G17G22G14G30G12
 110226271.28848  85890580.58948  20975378.6754   20975381.5174   20975379.1634
       245.000         215.000
 105108159.44548  81902454.31148  20001421.5214   20001424.0244   20001421.6134
       247.000         224.000
 121711523.11648  94840145.45448  23160934.6214   23160936.2474   23160934.8764
       222.000         169.000
 140207958.62748  91460719.64048  24777774.0474   24777776.3874   24777774.0144
       206.000         148.000
 119324756.62648  92980326.07548  22706750.6584   22706752.5344   22706750.0374
       232.000         195.000
 127213342.13248  99127271.55448  24207899.9064   24207901.9404   24207899.5494
       213.000         163.000
 132743066.70248  85643950.89348  23357227.1584   23357227.2084   23357227.4244
       229.000         179.000
 137436874.38948  89301447.46648  24250440.2694   24250443.1964   24250438.9524
       202.000         150.000
 118875213.66448  92630028.19048  22621206.9114   22621209.1954   22621206.8624
       230.000         186.000
 107974398.60148  84135892.61448  20546845.3224   20546846.5764   20546845.2814
       249.000         233.000
 09  1 27  1 40 30.0000000  0 10G 5G 9G18G26G15G17G22G14G30G12
 110171857.21248  85848180.01448  20965023.8314   20965026.7714   20965024.2624
       245.000         216.000
 105123280.62548  81914237.04148  20004299.0674   20004301.5454   20004299.1094
       249.000         225.000
 121775888.47848  94890300.28648  23173183.1924   23173184.7514   23173183.8404
       225.000         171.000
 140321493.39148  91549188.28848  24799378.2314   24799382.3664   24799377.5624
       205.000         144.000
 119422895.28248  93056797.74348  22725425.7124   22725427.6994   22725426.0024
       231.000         195.000
 127284510.62348  99182727.49748  24221442.8744   24221445.1354   24221442.3214
       212.000         163.000
 132761267.86848  85658133.57048  23360690.5114   23360690.7794   23360691.0184
       226.000         178.000
 137334417.68348  89221611.06448  24230943.6924   24230945.8564   24230942.6534
       208.000         149.000
 118783648.64848  92558678.82948  22603782.6404   22603784.9204   22603782.5174
       230.000         187.000
 107947403.65248  84114857.59148  20541708.4554   20541709.7504   20541708.2144
       250.000         234.000
 09  1 27  1 41  0.0000000  0 10G 5G 9G18G26G15G17G22G14G30G12
 110117842.74748  85806090.83248  20954745.1734   20954748.3084   20954745.8974
       245.000         216.000
 105138774.10148  81926309.88148  20007247.4514   20007249.7544   20007247.6884
       248.000         225.000
 121840589.62648  94940716.74948  23185495.1544   23185497.0114   23185495.4284
       227.000         173.000
 140435095.58148  91637709.46248  24820995.3394   24821000.1394   24820994.8024
       207.000         143.000
 119521297.31948  93133474.64248  22744151.0704   22744152.9254   22744150.7254
       231.000         194.000
 127356084.81548  99238499.59048  24235062.9764   24235065.7764   24235062.6664
       211.000         163.000
 132779966.97048  85672704.28948  23364248.4914   23364249.2284   23364248.5214
       224.000         176.000
 137232099.94848  89141882.94748  24211473.5114   24211475.6644   24211473.7494
       202.000         152.000
 118692337.71848  92487527.46548  22586406.6794   22586408.8934   22586405.8414
       229.000         186.000
 107920848.06948  84094164.94448  20536654.9794   20536656.5234   20536654.7864
       251.000         234.000
 09  1 27  1 41 30.0000000  0 10G 5G 9G18G26G15G17G22G14G30G12
 110064229.82848  85764314.53448  20944543.0714   20944546.0464   20944543.7954
       246.000         216.000
 105154641.41648  81938674.01348  20010266.9604   20010269.2464   20010267.2164
       248.000         224.000
 121905625.33148  94991393.90548  23197871.3424   23197873.0024   23197871.7874
       225.000         172.000
 140548764.67948  91726282.75048  24842627.0054   24842629.8374   24842626.7684
       210.000         145.000
 119619962.11148  93210356.28648  22762926.3224   22762928.3684   22762926.1424
       230.000         193.000
 127428063.88148  99294587.20148  24248760.1734   24248762.3994   24248759.6894
       213.000         163.000
 132799164.20248  85687663.15248  23367901.6974   23367902.0884   23367901.8464
       225.000         177.000
 137129925.21248  89062266.29848  24192029.7324   24192032.1994   24192029.5984
       207.000         152.000
 118601283.27948  92416575.97848  22569079.3574   22569082.0854   22569079.7374
       230.000         187.000
 107894733.41148  84073815.86448  20531685.8184   20531686.9784   20531685.8064
       250.000         234.000
 09  1 27  1 42  0.0000000  0 10G 5G 9G18G26G15G17G22G14G30G12
 110011017.79748  85722850.61848  20934417.2944   20934420.0324   20934417.8304
       246.000         216.000
 105170881.43048  81951328.56248  20013357.3094   20013359.5784   20013357.5104
       248.000         225.000
 121970991.72148  95042328.73248  23210309.9664   23210311.8574   23210311.1434
       225.000         172.000
 140662497.67748  91814905.83448  24864269.5804   24864272.6864   24864269.4204
       212.000         148.000
 119718886.43148  93287440.17348  22781750.7004   22781752.6734   22781750.0644
       230.000         193.000
 127500444.34948  99350987.54748  24262534.2254   24262535.8624   24262533.9594
       210.000         162.000
 132818857.46048  85703008.55848  23371649.2474   23371649.9864   23371649.2304
       226.000         178.000
 137027894.80848  88982762.10848  24172614.6344   24172616.5224   24172615.5624
       210.000         155.000
 118510485.60748  92345824.53648  22551801.5344   22551803.7734   22551801.0454
       231.000         188.000
 107869057.90248  84053808.98148  20526799.6664   20526801.0724   20526799.4984
       250.000         234.000
 09  1 27  1 42 30.0000000  0 10G 5G 9G18G26G15G17G22G14G30G12
 109958206.79548  85681699.19748  20924367.4804   20924370.5224   20924368.2264
       246.000         217.000
 105187494.13848  81964273.52248  20016518.6194   20016520.8614   20016518.8124
       248.000         225.000
 122036685.57648  95093518.72848  23222811.1144   23222813.5074   23222811.4334
       225.000         174.000
 140776292.54348  91903577.15448  24885923.7584   24885927.2474   24885923.0134
       207.000         147.000
 119818068.25548  93364724.70848  22800624.6254   22800626.2934   22800624.3034
       231.000         193.000
 127573224.06348  99407698.96648  24276383.6324   24276385.3394   24276383.2264
       212.000         164.000
 132839044.40948  85718738.63448  23375490.8544   23375491.1574   23375490.5834
       229.000         181.000
 136926010.94248  88903372.04748  24153227.4084   24153229.0904   24153227.3204
       209.000         156.000
 118419945.47148  92275273.80148  22534572.0134   22534574.7214   22534571.8564
       229.000         187.000
 107843821.19648  84034144.01648  20521997.2904   20521998.6584   20521997.0794
       251.000         234.000
 09  1 27  1 43  0.0000000  0 10G 5G 9G18G26G15G17G22G14G30G12
 109905798.49348  85640861.55948  20914394.4544   20914397.6464   20914394.9794
       245.000         217.000
 105204481.17248  81977510.16148  20019751.1084   20019753.3934   20019751.3184
       248.000         225.000
 122102704.97148  95144962.42148  23235374.0784   23235376.5274   23235375.0274
       224.000         171.000
 140890148.54448  91992296.08548  24907589.2794   24907593.8884   24907588.2964
       205.000         147.000
 119917506.62448  93442209.14548  22819547.0854   22819548.9544   22819546.9074
       229.000         193.000
 127646401.87648  99464720.62148  24290308.9824   24290310.6244   24290309.2154
       217.000         167.000
 132859725.52448  85734853.78148  23379426.7624   23379427.2394   23379427.3844
       227.000         180.000
 136824277.16948  88824099.05348  24133866.7164   24133869.6864   24133867.1974
       206.000         153.000
 118329665.24348  92204925.57948  22517392.3464   22517394.8734   22517391.8474
       230.000         189.000
 107819024.12548  84014821.63348  20517278.7114   20517279.8104   20517278.4904
       250.000         234.000
 09  1 27  1 43 30.0000000  0 10G 5G 9G18G26G15G17G22G14G30G12
 109853792.32548  85600337.28448  20904498.1554   20904501.1894   20904498.7514
       246.000         217.000
 105221841.58648  81991037.75948  20023054.5444   20023056.9914   20023054.6454
       248.000         225.000
 122169046.15348  95196656.84848  23247998.0914   23248000.5284   23247998.8694
       222.000         169.000
 141004062.94648  92081060.54048  24929266.4054   24929270.3044   24929265.0664
       205.000         148.000
 120017198.66348  93519891.26248  22838517.8814   22838519.4844   22838517.2054
       230.000         192.000
 127719974.58948  99522050.01248  24304309.0994   24304311.3824   24304309.7764
       217.000         168.000
 132880898.07048  85751351.85048  23383455.3144   23383456.0794   23383455.2804
       226.000         179.000
 136722695.44448  88744944.46448  24114536.7414   24114538.7734   24114536.2564
       208.000         152.000
 118239645.18148  92134780.07548  22500262.4274   22500264.9304   22500261.9594
       232.000         190.000
 107794665.24348  83995840.69648  20512643.1044   20512644.5624   20512642.7524
       250.000         234.000
 09  1 27  1 44  0.0000000  0 10G 5G 9G18G26G15G17G22G14G30G12
 109802189.45848  85560127.26448  20894678.4544   20894681.3264   20894678.9214
       247.000         217.000
 105239576.34148  82004857.03848  20026429.2844   20026431.9054   20026429.5394
       248.000         225.000
 122235707.18948  95248600.50548  23260683.1254   23260685.5184   23260683.1504
       224.000         171.000
 141118034.53048  92169869.60848  24950955.3634   24950958.2224   24950954.7314
       206.000         151.000
 120117142.85848  93597769.83548  22857536.2974   22857538.3684   22857536.2774
       229.000         193.000
 127793940.77748  99579685.99948  24318384.6344   24318386.5544   24318384.2494
       211.000         165.000
 132902561.59448  85768232.50548  23387577.3144   23387578.0364   23387577.3054
       227.000         176.000
 136621268.77148  88665910.68748  24095236.0944   24095238.4064   24095236.0624
       210.000         154.000
 118149887.25648  92064838.85048  22483181.7454   22483184.1984   22483181.9274
       231.000         189.000
 107770744.81948  83977201.40648  20508091.3204   20508092.6064   20508091.2954
       250.000         234.000
 09  1 27  1 44 30.0000000  0 10G 5G 9G18G26G15G17G22G14G30G12
 109750989.72748  85520231.37848  20884935.5814   20884938.3364   20884936.3694
       247.000         217.000
 105257685.18348  82018967.82348  20029875.5174   20029878.0504   20029875.6174
       249.000         225.000
 122302684.23048  95300790.40648  23273428.9414   23273430.7134   23273429.4954
       223.000         169.000
 141232060.69748  92258721.21848  24972654.3774   24972656.9364   24972654.4764
       204.000         151.000
 120217336.45448  93675842.76548  22876602.8834   22876604.8064   22876602.3704
       230.000         193.000
 127868297.67548  99637626.44048  24332533.9764   24332535.9644   24332532.8784
       209.000         162.000
 132924714.25348  85785494.32548  23391793.4224   23391793.3884   23391793.9744
       224.000         177.000
 136519999.04348  88586999.24448  24075965.1854   24075967.6304   24075966.2864
       210.000         157.000
 118060392.00148  91995102.29048  22466151.2854   22466153.7814   22466151.3624
       231.000         189.000
 107747262.18048  83958903.26148  20503622.5394   20503623.9624   20503622.1714
       250.000         233.000
 09  1 27  1 45  0.0000000  0 10G 5G 9G18G26G15G17G22G14G30G12
 109700193.52648  85480649.92448  20875269.3704   20875272.1624   20875270.1934
       247.000         217.000
 105276168.35848  82033370.29548  20033392.7214   20033395.2544   20033393.0224
       248.000         225.000
 122369974.64248  95353224.46748  23286233.7624   23286235.8664   23286234.2174
       223.000         170.000
 141346139.92148  92347614.10848  24994361.4984   24994366.1064   24994361.3314
       202.000         147.000
 120317777.50148  93754108.50348  22895716.2074   22895718.1184   22895715.7824
       231.000         192.000
 127943043.08748  99695869.58048  24346757.7334   24346759.3744   24346757.4454
       211.000         161.000
 132947354.48548  85803136.06548  23396101.5284   23396102.3254   23396101.7204
       224.000         177.000
 136418888.91448  88508212.10648  24056725.4164   24056726.7864   24056726.0104
       213.000         156.000
 117971160.20948  91925571.02448  22449171.2734   22449173.3934   22449170.9494
       232.000         190.000
 107724216.64248  83940945.70248  20499237.2654   20499238.5194   20499237.2034
       250.000         234.000
 09  1 27  1 45 30.0000000  0 10G 5G 9G18G26G15G17G22G14G30G12
 109649800.92348  85441382.96348  20865679.8394   20865682.7024   20865680.4544
       246.000         217.000
 105295025.52148  82048064.17048  20036981.3104   20036983.6534   20036981.4674
       249.000         225.000
 122437575.83348  95405900.72648  23299097.7514   23299099.5694   23299098.5274
       222.000         170.000
 141460270.02148  92436546.58948  25016080.7714   25016084.1554   25016080.3574
       208.000         145.000
 120418463.51148  93832565.12748  22914876.0394   22914877.6584   22914875.9204
       230.000         191.000
 128018174.43448  99754413.45948  24361054.4404   24361056.6424   24361054.2814
       214.000         164.000
 132970480.74648  85821156.50748  23400501.9014   23400503.0634   23400501.3404
       225.000         178.000
 136317940.85448  88429551.28548  24037515.5314   24037516.7644   24037515.3784
       209.000         157.000
 117882192.79648  91856245.77948  22432241.2054   22432243.6754   22432241.0654
       232.000         190.000
 107701607.92148  83923328.52748  20494934.9644   20494936.2374   20494934.6924
       250.000         234.000
 09  1 27  1 46  0.0000000  0 10G 5G 9G18G26G15G17G22G14G30G12
 109599812.71348  85402431.12148  20856167.5384   20856170.4464   20856168.0474
       245.000         217.000
 105314257.16248  82063049.87048  20040640.8344   20040643.3604   20040641.1384
       247.000         225.000
 122505484.81548  95458816.79648  23312020.6894   23312022.5184   23312020.9394
       222.000         170.000
 141574449.45448  92525517.61748  25037808.5374   25037810.1074   25037808.6814
       208.000         142.000
 120519393.10648  93911211.55948  22934082.2604   22934084.1004   22934081.6934
       227.000         189.000
 128093689.62248  99813256.46848  24375425.0294   24375426.2974   24375424.9064
       214.000         164.000
 132994092.06548  85839554.92248  23404995.2834   23404996.0334   23404995.2834
       225.000         177.000
 136217157.49448  88351018.82848  24018336.7524   24018338.4964   24018336.1004
       206.000         156.000
 117793491.48048  91787127.89648  22415361.4634   22415364.1004   22415361.0104
       229.000         189.000
 107679436.03848  83906051.74248  20490715.7684   20490717.1184   20490715.7544
       250.000         234.000
 09  1 27  1 46 30.0000000  0 10G 5G 9G18G26G15G17G22G14G30G12
 109550229.51648  85363794.87348  20846732.1014   20846735.0424   20846732.5934
       246.000         218.000
 105333863.84948  82078327.79648  20044371.8314   20044374.5054   20044371.8944
       248.000         225.000
 122573699.10148  95511970.77848  23325001.1254   23325003.3624   23325001.8824
       222.000         170.000
 141688676.65948  92614525.82748  25059544.2164   25059547.6864   25059544.8834
       203.000         140.000
 120620563.71448  93990045.81048  22953334.4794   22953336.4814   22953333.9924
       228.000         190.000
 128169586.78048  99872397.11648  24389867.3284   24389869.1974   24389866.9704
       215.000         164.000
 133018186.60048  85858329.85748  23409580.1684   23409580.7424   23409580.5514
       223.000         175.000
 136116541.50748  88272616.75248  23999189.8784   23999191.8874   23999189.0574
       208.000         157.000
 117705057.75048  91718218.52648  22398533.0974   22398535.7374   22398532.8444
       231.000         190.000
 107657700.52248  83889114.97848  20486579.7074   20486580.9384   20486579.6184
       250.000         234.000
 09  1 27  1 47  0.0000000  0 10G 5G 9G18G26G15G17G22G14G30G12
 109501051.63248  85325474.45348  20837373.9094   20837376.7794   20837374.2754
       245.000         218.000
 105353845.77848  82093898.13948  20048174.1164   20048176.9554   20048174.2324
       248.000         225.000
 122642215.37648  95565360.08948  23338039.5484   23338041.4614   23338040.4494
       224.000         171.000
 141802949.71748  92703569.69848  25081289.2004   25081293.6334   25081288.8984
       202.000         139.000
 120721974.07148  94069066.86948  22972632.2274   22972634.3754   22972632.1304
       228.000         190.000
 128245863.75148  99931833.71748  24404382.7774   24404384.1104   24404382.5004
       213.000         162.000
 133042762.88848  85877480.21448  23414257.0864   23414257.3824   23414256.7794
       224.000         175.000
 136016095.63748  88194347.27248  23980075.1684   23980078.5124   23980073.3894
       208.000         159.000
 117616892.43448  91649518.29148  22381756.4624   22381758.3754   22381756.1734
       232.000         191.000
 107636400.98748  83872517.94248  20482526.6124   20482527.7104   20482526.4364
       251.000         234.000
 09  1 27  1 47 30.0000000  0 10G 5G 9G18G26G15G17G22G14G30G12
 109452279.08048  85287469.87948  20828092.5534   20828095.7644   20828093.1084
       246.000         218.000
 105374202.61848  82109760.59748  20052047.9384   20052050.6684   20052048.0244
       248.000         225.000
 122711030.52548  95618982.26748  23351134.6434   23351136.8144   23351135.0304
       224.000         172.000
 121917312.45558 112792692.66658  25103044.3825   25103048.3895   25103042.1185
       196.000         139.000
 120823621.52248  94148272.67348  22991974.8004   22991977.1544   22991974.6174
       226.000         189.000
 128322517.77248  99991564.13148  24418969.1574   24418971.3064   24418968.3684
       212.000         160.000
 133067819.49648  85897004.79848  23419025.2984   23419025.6604   23419025.4694
       222.000         175.000
 135915821.94948  88116211.93648  23960994.6644   23960997.0314   23960994.7314
       211.000         157.000
 117528996.29948  91581027.81648  22365030.1324   22365032.3304   22365029.9234
       233.000         190.000
 107615536.71348  83856260.07348  20478556.2764   20478557.4244   20478556.0364
       252.000         234.000
 09  1 27  1 48  0.0000000  0 10G 5G 9G18G26G15G17G22G14G30G12
 109403911.31248  85249780.71748  20818888.5624   20818891.4274   20818889.1704
       247.000         218.000
 105394933.42548  82125914.47548  20055993.0584   20055995.5214   20055993.2584
       249.000         225.000
 122780140.83548  95672834.43248  23364286.0064   23364287.8804   23364286.8944
       221.000         169.000
 122031670.06948 112881802.49248  25124805.1514   25124808.0064   25124803.9884
       203.000         144.000
 120925502.58148  94227660.48648  23011362.0964   23011364.5304   23011361.3574
       225.000         189.000
 128399545.76348 100051585.92848  24433627.6354   24433629.7494   24433627.7764
       208.000         154.000
 133093353.95048  85916901.76348  23423884.4344   23423884.9354   23423884.5344
       223.000         176.000
 135815722.52748  88038212.37948  23941945.9654   23941947.8554   23941946.3014
       213.000         158.000
 117441369.84848  91512747.46848  22348355.4224   22348357.6194   22348355.4034
       233.000         191.000
 107595105.97148  83840340.01848  20474668.4054   20474669.3694   20474668.3224
       252.000         234.000
 09  1 27  1 48 30.0000000  0 10G 5G 9G18G26G15G17G22G14G30G12
 109355949.94948  85212408.23548  20809761.7444   20809764.6454   20809762.4874
       246.000         217.000
 105416039.80148  82142360.98748  20060009.3144   20060011.8894   20060009.4654
       248.000         225.000
 122849544.62048  95726915.29548  23377492.6194   23377495.2184   23377492.8714
       218.000         167.000
 122146068.13648 112970943.92648  25146573.9534   25146578.0074   25146573.6364
       197.000         141.000
 121027616.88548  94307230.06848  23030794.0724   23030796.1154   23030793.7374
       226.000         189.000
 128476946.57748 100111898.24948  24448356.1514   24448358.3594   24448355.9204
       204.000         148.000
 133119365.82048  85937170.74648  23428833.9874   23428835.0724   23428834.3684
       224.000         175.000
 135715801.00748  87960351.46548  23922932.2144   23922933.8444   23922933.5384
       212.000         161.000
 117354015.28648  91444678.99548  22331732.4614   22331734.7064   22331732.3804
       234.000         192.000
 107575110.33248  83824759.01548  20470863.3014   20470864.5364   20470863.2944
       252.000         234.000
 09  1 27  1 49  0.0000000  0 10G 5G 9G18G26G15G17G22G14G30G12
 109308395.29348  85175352.66848  20800712.1434   20800715.3494   20800712.5584
       246.000         217.000
 105437522.10948  82159100.44748  20064097.3854   20064099.8324   20064097.5524
       248.000         225.000
 122919239.22048  95781222.75348  23390754.7294   23390757.6174   23390755.0804
       222.000         168.000
 122260504.46648 113060115.06048  25168350.6024   25168355.0764   25168350.2654
       204.000         142.000
 121129962.37448  94386979.79648  23050269.5514   23050271.5684   23050269.2214
       229.000         189.000
 128554718.15448 100172499.48248  24463156.0484   24463157.9634   24463154.9484
       203.000         143.000
 133145853.61648  85957810.58648  23433874.2504   23433875.7074   23433874.3014
       223.000         175.000
 135616060.04048  87882631.24648  23903951.4174   23903953.5154   23903950.7754
       211.000         158.000
 117266933.78648  91376823.30048  22315161.2684   22315163.7154   22315160.8354
       233.000         192.000
 107555548.97748  83809516.40848  20467140.9564   20467142.1984   20467140.9444
       252.000         234.000
 09  1 27  1 49 30.0000000  0 10G 5G 9G18G26G15G17G22G14G30G12
 109261246.65648  85138613.47548  20791740.0954   20791743.1474   20791740.7314
       246.000         217.000
 105459379.66548  82176132.31048  20068256.6534   20068259.0924   20068256.8084
       248.000         224.000
 122989220.39248  95835753.53048  23404072.5394   23404074.7574   23404073.6784
       221.000         169.000
 122374976.69548 113149314.21448  25190134.1734   25190137.0544   25190132.7494
       202.000         139.000
 121232535.66348  94466907.03148  23069789.1114   23069790.6384   23069788.9104
       228.000         188.000
 128632856.99548 100233386.88548  24478025.1624   24478026.6924   24478025.3044
       196.000         140.000
 133172814.52848  85978819.08248  23439005.4794   23439005.4154   23439005.8084
       224.000         173.000
 135516501.15748  87805052.90548  23885005.7914   23885008.0374   23885006.7124
       213.000         161.000
 117180125.38448  91309180.40548  22298641.8954   22298644.4144   22298641.9174
       232.000         191.000
 107536419.89948  83794610.63948  20463500.8034   20463501.8684   20463500.8284
       252.000         234.000
 09  1 27  1 50  0.0000000  0 10G 5G 9G18G26G15G17G22G14G30G12
 109214503.42748  85102190.18048  20782845.3074   20782848.3364   20782846.1354
       247.000         218.000
 105481611.52748  82193455.83548  20072487.3544   20072489.7544   20072487.6724
       249.000         225.000
 123059484.26348  95890504.60648  23417443.2964   23417445.6904   23417443.3794
       223.000         170.000
 122489481.91848 113238539.08648  25211924.1664   25211927.1204   25211921.3234
       194.000         143.000
 121335333.99348  94547009.62348  23089350.6844   23089352.5574   23089350.2404
       228.000         186.000
 128711360.09148 100294558.11748  24492964.0914   24492965.3494   24492964.0044
       193.000         132.000
 133200246.27648  86000194.45648  23444225.0474   23444225.6054   23444224.9444
       224.000         174.000
 135417125.96748  87727617.70148  23866095.4404   23866098.1404   23866096.5634
       211.000         160.000
 117093590.21848  91241750.42448  22282174.5494   22282177.4034   22282174.2874
       233.000         191.000
 107517722.54348  83780041.27248  20459942.9114   20459943.7334   20459942.7574
       252.000         234.000
 09  1 27  1 50 30.0000000  0 10G 5G 9G18G26G15G17G22G14G30G12
 109168167.37548  85066084.16548  20774027.9924   20774031.0194   20774028.6764
       247.000         219.000
 105504219.10848  82211072.12848  20076789.4864   20076792.0734   20076789.8154
       248.000         225.000
 123130029.59048  95945474.97148  23430867.4614   23430870.2084   23430868.0884
       222.000         170.000
 122604019.64848 113327789.21448  25233719.2894   25233723.4224   25233718.5414
       199.000         144.000
 121438356.50748  94627286.90548  23108954.9414   23108956.9834   23108954.8734
       226.000         186.000
 138790206.24858  90355992.27558  24507972.8955   24507973.0655   24507973.9455
       189.000         128.000
 133228148.67748  86021936.56448  23449535.1184   23449535.4654   23449535.4494
       226.000         174.000
 135317938.74048  87650328.94048  23847221.3194   23847223.2104   23847220.2304
       214.000         161.000
 117007330.86148  91174535.35648  22265760.2304   22265762.6344   22265759.8314
       233.000         192.000
 107499457.72748  83765808.95948  20456467.0484   20456468.1034   20456467.1734
       251.000         234.000
 09  1 27  1 51  0.0000000  0 10G 5G 9G18G26G15G17G22G14G30G12
 109122238.89248  85030295.74448  20765288.1324   20765290.9854   20765288.8424
       248.000         219.000
 105527202.66548  82228981.38248  20081163.1914   20081165.7324   20081163.2754
       249.000         225.000
 123200853.55148  96000662.46648  23444345.0514   23444347.4364   23444345.3554
       222.000         168.000
 122718588.19348 113417063.39948  25255521.5054   25255524.9084   25255520.4594
       207.000         150.000
 121541601.04848  94707737.18448  23128602.0364   23128604.0664   23128601.9314
       227.000         186.000
 118869443.67758 110417738.93458  24523048.0205   24523050.3315   24523046.7925
       191.000         124.000
 133256520.08148  86044044.13848  23454934.4124   23454933.7584   23454934.8804
       225.000         176.000
 135218942.10748  87573188.70648  23828382.7674   23828384.6764   23828381.8264
       211.000         160.000
 116921348.94848  91107536.48348  22249398.1744   22249400.7384   22249398.2674
       233.000         191.000
 107481624.73748  83751913.12848  20453073.4084   20453074.6864   20453073.2794
       252.000         234.000
 09  1 27  1 51 30.0000000  0  9G 5G 9G18G26G15G22G14G30G12
 109076716.81048  84994824.00248  20756625.6274   20756628.4894   20756626.3124
       247.000         219.000
 105550561.07648  82247182.73948  20085608.0174   20085610.5614   20085608.1294
       248.000         224.000
 123271951.62948  96056063.55448  23457874.1184   23457876.6864   23457875.3374
       221.000         169.000
 122833184.07848 113506358.91648  25277329.2834   25277332.7994   25277328.4294
       204.000         147.000
 121645064.04248  94788357.69748  23148290.4624   23148292.5014   23148290.5124
       227.000         186.000
 133285357.43748  86066514.79148  23460421.5604   23460421.7894   23460421.3484
       225.000         174.000
 135120137.27448  87496197.92148  23809580.8744   23809582.5234   23809579.5144
       216.000         164.000
 116835643.68848  91040753.17448  22233089.3174   22233091.6624   22233088.9204
       235.000         193.000
 107464221.89848  83738352.48048  20449761.7894   20449763.0884   20449761.5944
       252.000         234.000
 09  1 27  1 52  0.0000000  0  9G 5G 9G18G26G15G22G14G30G12
 109031602.80848  84959670.24548  20748040.7044   20748043.4894   20748041.1734
       247.000         219.000
 105574295.74248  82265677.27748  20090124.4384   20090127.2164   20090124.4674
       248.000         224.000
 123343322.22248  96111676.98548  23471455.5504   23471458.0604   23471456.1524
       220.000         168.000
 122947807.17148 113595675.62148  25299140.2804   25299144.3814   25299139.1024
       201.000         142.000
 121748744.92548  94869147.97948  23168020.1064   23168022.1854   23168019.3094
       226.000         186.000
 133314660.59848  86089348.40848  23465997.9944   23465998.0374   23465997.7544
       225.000         174.000
 135021528.27048  87419359.72948  23790816.7294   23790817.8344   23790817.5644
       213.000         163.000
 116750217.25048  90974187.11548  22216833.1064   22216835.6564   22216833.2014
       233.000         192.000
 107447249.52548  83725127.25148  20446532.1744   20446533.5354   20446532.2004
       251.000         235.000
 09  1 27  1 52 30.0000000  0  8G 5G 9G18G15G22G14G30G12
 108986896.63248  84924834.27948  20739533.3074   20739536.2614   20739534.0154
       247.000         219.000
 105598406.30148  82284464.72148  20094712.5124   20094715.2724   20094712.7274
       247.000         224.000
 123414961.82248  96167500.03448  23485087.9964   23485090.4884   23485087.9984
       221.000         166.000
 121852641.15848  94950106.08748  23187791.0504   23187792.9074   23187790.9784
       225.000         186.000
 133344427.24148  86112543.19548  23471661.9114   23471661.9354   23471662.4924
       224.000         173.000
 134923117.25448  87342675.83648  23772089.3484   23772091.2964   23772089.0414
       216.000         165.000
 116665070.71548  90907839.19448  22200629.9014   22200633.0844   22200629.7604
       232.000         192.000
 107430707.22148  83712237.15048  20443384.1724   20443385.5804   20443383.9794
       251.000         234.000
 09  1 27  1 53  0.0000000  0  9G 5G 9G18G26G15G22G14G30G12
 108942597.37848  84890315.38848  20731103.3364   20731106.2524   20731103.8464
       246.000         218.000
 105622891.87948  82303544.38548  20099371.8854   20099374.7074   20099371.9884
       247.000         224.000
 123486866.52548  96223529.67248  23498771.5004   23498773.2694   23498772.5994
       223.000         166.000
 143177133.93258  93774373.70858  25342777.8665   25342782.9465   25342776.5295
       197.000         134.000
 121956749.52948  95031229.48848  23207601.9604   23207604.2184   23207602.1174
       225.000         184.000
 133374654.54848  86136096.93648  23477414.6244   23477414.5964   23477414.9114
       223.000         176.000
 134824905.80948  87266147.44648  23753400.4334   23753401.7314   23753400.8444
       212.000         162.000
 116580203.89748  90841709.21548  22184480.1734   22184483.3254   22184479.7034
       233.000         192.000
 107414593.12848  83699680.71448  20440317.6994   20440319.1184   20440317.5294
       252.000         234.000
 09  1 27  1 53 30.0000000  0  9G 5G 9G18G26G15G22G14G30G12
 108898705.49948  84856113.93048  20722750.9744   20722753.8604   20722751.8164
       247.000         219.000
 105647752.74748  82322916.48848  20104102.7384   20104105.4274   20104102.8884
       247.000         224.000
 123559033.60148  96279763.71548  23512504.8124   23512506.2814   23512505.6094
       224.000         166.000
 143291823.79048  93863742.47748  25364602.9634   25364606.5294   25364602.4274
       202.000         140.000
 122061067.82648  95112516.47448  23227453.0594   23227454.9964   23227452.4374
       225.000         184.000
 133405340.88048  86160008.34848  23483253.8924   23483254.4954   23483254.0724
       224.000         174.000
 134726896.81048  87189776.81548  23734749.2714   23734751.0414   23734749.0514
       213.000         162.000
 116495618.02648  90775798.15048  22168384.4494   22168387.0394   22168384.0884
       234.000         194.000
 107398906.83548  83687457.62948  20437332.8304   20437334.0274   20437332.9314
       252.000         234.000
 09  1 27  1 54  0.0000000  0  9G 5G 9G18G26G15G22G14G30G12
 108855223.43948  84822231.81648  20714476.6784   20714479.5684   20714477.4704
       247.000         219.000
 105672991.29848  82342582.88248  20108905.5644   20108908.1244   20108905.7144
       248.000         224.000
 123631462.15048  96336201.55148  23526287.0634   23526288.6984   23526288.0684
       219.000         162.000
 143406534.42148  93953127.38748  25386433.0004   25386434.9714   25386432.6794
       200.000         138.000
 122165596.21548  95193967.18148  23247344.5154   23247346.0994   23247343.9614
       227.000         186.000
 133436486.81748  86184277.90048  23489180.1824   23489180.5854   23489180.2444
       223.000         172.000
 134629095.16448  87113567.74148  23716138.3054   23716140.6544   23716138.5314
       217.000         167.000
 116411316.25048  90710108.45048  22152342.4714   22152344.4664   22152342.2864
       234.000         194.000
 107383649.83848  83675569.06448  20434429.3884   20434430.7274   20434429.1864
       251.000         234.000
 09  1 27  1 54 30.0000000  0  9G 5G 9G18G26G15G22G14G30G12
 108812149.13448  84788667.42348  20706279.9184   20706282.7424   20706280.4794
       248.000         220.000
 105698605.30448  82362541.84048  20113779.8364   20113782.3574   20113779.9424
       248.000         224.000
 123704147.24848  96392839.28748  23540118.3474   23540119.7674   23540118.7234
       220.000         164.000
 143521261.36548  94042524.99548  25408263.4844   25408266.1114   25408263.6654
       194.000         138.000
 122270330.26748  95275578.11248  23267274.6444   23267276.8754   23267274.3094
       225.000         184.000
 133468087.95948  86208902.16148  23495194.0074   23495194.0944   23495193.9944
       223.000         173.000
 134531501.11948  87037520.40848  23697567.0924   23697568.7114   23697566.5714
       213.000         165.000
 116327297.50948  90644639.32348  22136354.1774   22136356.4884   22136354.0174
       235.000         194.000
 107368819.40548  83664012.89448  20431607.1254   20431608.6224   20431606.8014
       252.000         235.000
 09  1 27  1 55  0.0000000  0  9G 5G 9G18G26G15G22G14G30G12
 108769488.55048  84755425.42048  20698161.9344   20698164.8854   20698163.0744
       247.000         220.000
 105724600.75048  82382798.02548  20118726.7184   20118729.1554   20118726.9284
       248.000         224.000
 123777091.39448  96449678.86648  23553999.4014   23554001.2714   23554000.0584
       219.000         164.000
 143636008.68948  94131938.49248  25430099.3864   25430102.0684   25430098.8244
       201.000         141.000
 122375273.75748  95357352.24848  23287245.0244   23287246.4554   23287244.7374
       227.000         184.000
 133500148.85948  86233884.68948  23501295.8474   23501295.2454   23501296.2664
       226.000         175.000
 134434123.03048  86961641.39448  23679035.7794   23679038.6044   23679035.7134
       215.000         165.000
 116243568.35448  90579395.84248  22120421.1834   22120423.1244   22120420.5244
       236.000         195.000
 107354420.76048  83652793.17248  20428867.4094   20428868.5344   20428867.2504
       252.000         235.000
 09  1 27  1 55 30.0000000  0  9G 5G 9G18G26G15G22G14G30G12
 108727233.56048  84722499.46648  20690120.8924   20690123.8884   20690121.5014
       246.000         219.000
 105750969.47548  82403345.07648  20123744.4144   20123747.0694   20123744.6744
       247.000         224.000
 123850283.05448  96506711.31848  23567927.0214   23567929.2164   23567927.7594
       219.000         162.000
 143750766.36348  94221360.05148  25451936.9824   25451940.0844   25451937.0364
       200.000         136.000
 122480416.11248  95439281.35148  23307253.1874   23307254.3864   23307253.0054
       227.000         184.000
 133532659.31548  86259217.49648  23507481.4834   23507481.6064   23507482.4804
       223.000         174.000
 134336955.50948  86885926.43548  23660545.8774   23660548.3494   23660545.3914
       216.000         169.000
 116160121.52248  90514372.34248  22104541.7904   22104543.6044   22104541.7734
       236.000         195.000
 107340444.70348  83641902.74148  20426207.8264   20426209.0784   20426207.7064
       252.000         235.000
 09  1 27  1 56  0.0000000  0  9G 5G 9G18G26G15G22G14G30G12
 108685386.93648  84689891.71948  20682157.7494   20682160.7384   20682158.2824
       246.000         219.000
 105777713.77648  82424184.78448  20128833.7614   20128836.3654   20128833.9234
       248.000         224.000
 123923721.93348  96563936.41048  23581902.2604   23581904.4854   23581902.3444
       220.000         164.000
 143865534.87848  94310790.06048  25473776.5974   25473778.5014   25473775.1524
       198.000         129.000
 122585757.75248  95521365.73348  23327298.5644   23327300.4284   23327298.1964
       226.000         183.000
 133565619.96448  86284901.09848  23513753.6584   23513754.0444   23513753.4164
       223.000         175.000
 134240003.69148  86810379.58348  23642096.8034   23642099.0364   23642097.6704
       216.000         169.000
 116076960.51848  90449571.57648  22088716.7694   22088718.7914   22088716.7594
       235.000         194.000
 107326893.83448  83631343.62848  20423629.1134   20423630.4184   20423629.0184
       252.000         234.000
 09  1 27  1 56 30.0000000  0  9G 5G 9G18G26G15G22G14G30G12
 108643948.49048  84657602.03248  20674272.4224   20674275.1714   20674273.0444
       247.000         220.000
 105804833.63848  82445317.13548  20133994.4714   20133997.2374   20133994.5574
       248.000         224.000
 123997405.26748  96621351.96348  23595923.9344   23595926.2374   23595924.7344
       219.000         165.000
 143980312.28048  94400227.11148  25495617.6834   25495617.8824   25495619.0404
       206.000         133.000
 122691296.00948  95603603.33748  23347381.3774   23347383.4484   23347380.8584
       224.000         182.000
 133599028.83148  86310933.96948  23520111.4684   23520111.9954   23520111.5314
       225.000         175.000
 134143269.80548  86735002.53948  23623689.4184   23623691.1594   23623688.6404
       217.000         167.000
 115994086.27648  90384994.25148  22072946.0564   22072948.2584   22072945.0464
       235.000         195.000
 107313766.65648  83621114.65948  20421131.1184   20421132.3444   20421131.1294
       252.000         234.000
 09  1 27  1 57  0.0000000  0  9G 5G 9G18G26G15G22G14G30G12
 108602919.11248  84625631.09748  20666464.8934   20666467.5884   20666465.4504
       247.000         220.000
 105832329.95148  82466742.82848  20139226.9444   20139229.4864   20139227.1464
       249.000         224.000
 124071330.31348  96678955.89348  23609991.2414   23609993.5074   23609991.3024
       220.000         165.000
 144095097.28548  94489669.90948  25517461.1624   25517463.9884   25517460.8634
       206.000         142.000
 122797029.54248  95685993.09448  23367502.1294   23367503.6624   23367501.0544
       226.000         181.000
 133632884.74248  86337315.16748  23526553.8944   23526554.6764   23526553.7364
       224.000         173.000
 134046757.51348  86659798.17048  23605323.4054   23605325.6724   23605323.1034
       218.000         169.000
 115911500.55648  90320641.76248  22057230.4744   22057232.9424   22057230.5404
       237.000         197.000
 107301063.38548  83611216.00248  20418713.6804   20418715.0324   20418713.7604
       252.000         235.000
 09  1 27  1 57 30.0000000  0  9G 5G 9G18G26G15G22G14G30G12
 108562298.38648  84593978.59348  20658735.0024   20658737.7234   20658735.6114
       247.000         220.000
 105860202.16548  82488461.43048  20144530.8764   20144533.4694   20144531.0094
       249.000         224.000
 124145493.73848  96736745.57248  23624104.1184   23624106.4284   23624105.0924
       218.000         165.000
 144209887.58148  94579116.85148  25539304.4754   25539308.0744   25539303.8574
       199.000         142.000
 122902955.81248  95768533.03848  23387659.8734   23387661.1294   23387659.8794
       227.000         180.000
 133667184.90848  86364042.57048  23533081.5194   23533081.2514   23533081.8224
       223.000         173.000
 133950468.63348  86584767.87348  23587000.4604   23587002.2244   23587000.3954
       220.000         168.000
 115829203.70848  90256514.37648  22041569.7544   22041572.4964   22041569.7104
       236.000         196.000
 107288782.76748  83601646.69148  20416376.9104   20416378.0584   20416376.4934
       252.000         235.000
 09  1 27  1 58  0.0000000  0  8G 5G 9G18G15G22G14G30G12
 108522085.40348  84562643.81048  20651082.4974   20651085.3764   20651083.1644
       247.000         220.000
 105888449.42348  82510472.27448  20149906.3194   20149908.5664   20149906.5854
       249.000         224.000
 124219891.65548  96794717.96148  23638261.5004   23638263.8504   23638261.7084
       215.000         163.000
 123009071.48748  95851220.56448  23407852.2994   23407854.0044   23407852.7394
       224.000         181.000
 133701926.79448  86391114.15248  23539691.7974   23539692.3274   23539691.4954
       220.000         171.000
 133854405.10148  86509913.17748  23568719.9094   23568721.8544   23568720.3654
       220.000         170.000
 115747195.38848  90192611.81848  22025964.0214   22025966.8974   22025963.5754
       237.000         197.000
 107276923.25848  83592405.51848  20414120.1074   20414121.2974   20414119.7484
       252.000         235.000
 09  1 27  1 58 30.0000000  0  9G 5G 9G18G26G15G22G14G30G12
 108482282.57148  84531628.62448  20643508.4634   20643511.3244   20643509.2834
       247.000         221.000
 105917073.92048  82532777.06848  20155353.2934   20155355.5084   20155353.4244
       249.000         224.000
 124294523.02748  96852872.27448  23652463.3034   23652465.0904   23652463.7434
       217.000         160.000
 124439469.27758 114758012.19458  25582991.3505   25582996.5155   25582993.3995
       195.000         130.000
 123115376.39248  95934055.54248  23428081.5764   23428083.6854   23428080.7644
       226.000         183.000
 133737110.47148  86418529.98648  23546387.3954   23546387.9024   23546387.7964
       221.000         173.000
 133758571.69848  86435237.81848  23550483.5504   23550485.3914   23550483.7484
       216.000         170.000
 115665478.96648  90128936.70248  22010414.1834   22010416.4354   22010413.9174
       238.000         197.000
 107265486.33448  83583493.63548  20411943.7604   20411945.0674   20411943.5284
       252.000         235.000
 09  1 27  1 59  0.0000000  0  9G 5G 9G18G26G15G22G14G30G12
 108442888.72148  84500932.12448  20636011.9414   20636014.8684   20636012.6604
       247.000         221.000
 105946074.52648  82555374.94348  20160871.8554   20160874.1364   20160871.9794
       248.000         223.000
 124369383.36648  96911204.99448  23666708.5244   23666710.7554   23666708.9304
       216.000         161.000
 124554264.78348 114847463.20148  25604837.0904   25604841.8814   25604837.6874
       205.000         135.000
 123221866.98948  96017035.24348  23448346.0234   23448347.8044   23448345.6414
       224.000         179.000
 133772733.07248  86446287.82448  23553166.1004   23553166.3964   23553166.5564
       224.000         174.000
 133662969.82848  86360742.86148  23532290.5244   23532293.1344   23532290.2594
       219.000         172.000
 115584054.46348  90065489.04348  21994919.7514   21994921.8214   21994919.8244
       237.000         197.000
 107254469.92748  83574909.42448  20409847.3084   20409848.6674   20409847.3664
       252.000         235.000
 09  1 27  1 59 30.0000000  0  9G 5G 9G18G26G15G22G14G30G12
 108403905.27448  84470555.42048  20628593.8064   20628596.6194   20628594.5514
       249.000         221.000
 105975452.46148  82578266.83048  20166462.1714   20166464.7224   20166462.3454
       248.000         223.000
 124444470.91548  96969714.78948  23680997.1344   23680998.8534   23680997.4794
       216.000         159.000
 124669059.33048 114936913.54248  25626684.1564   25626685.8004   25626682.5864
       198.000         135.000
 123328542.93948  96100159.33448  23468645.5274   23468647.8124   23468645.1554
       225.000         178.000
 133808793.73148  86474387.03348  23560028.6324   23560028.5574   23560029.0084
       225.000         175.000
 133567603.68948  86286431.58748  23514143.1394   23514145.3234   23514142.4254
       219.000         170.000
 115502923.99948  90002270.50948  21979481.0784   21979483.4084   21979480.8214
       238.000         198.000
 107243874.88248  83566653.55048  20407831.1694   20407832.3014   20407830.8944
       253.000         235.000
 09  1 27  2  0  0.0000000  0  8G 5G 9G18G15G22G14G30G12
 108365330.58048  84440497.22048  20621253.2594   20621256.0064   20621254.0384
       250.000         221.000
 106005206.27648  82601451.62148  20172123.9344   20172126.7314   20172123.9134
       248.000         223.000
 124519781.49648  97028398.35648  23695328.8274   23695330.4074   23695329.1354
       215.000         161.000
 123435400.12748  96183424.69048  23488980.1524   23488981.7254   23488980.2294
       224.000         178.000
 133845288.97548  86502824.86848  23566973.3504   23566973.6144   23566973.5444
       226.000         174.000
 133472474.10848  86212304.64348  23496041.1024   23496042.7864   23496041.6604
       221.000         173.000
 115422086.89648  89939280.57048  21964097.8754   21964100.5664   21964097.6314
       236.000         197.000
 107233698.36148  83558723.80048  20405894.7094   20405895.7574   20405894.5574
       252.000         234.000
 09  1 27  2  0 30.0000000  0  8G 5G 9G18G15G22G14G30G12
 108327164.58948  84410757.48948  20613990.3914   20613993.1674   20613991.3504
       249.000         220.000
 106035335.91648  82624929.25148  20177857.5154   20177860.3314   20177857.6264
       248.000         223.000
 124595311.72948  97087253.04648  23709702.0054   23709703.6814   23709702.4744
       220.000         162.000
 123542435.94748  96266829.23048  23509348.2954   23509350.2134   23509347.9444
       224.000         179.000
 133882216.55248  86531599.60648  23574000.6144   23574000.4964   23574000.8684
       225.000         173.000
 133377583.70448  86138364.05048  23477984.2914   23477985.6724   23477984.5234
       220.000         171.000
 115341543.92248  89876519.82248  21948771.2304   21948773.8054   21948771.0074
       237.000         197.000
 107223939.96448  83551119.85748  20404037.7314   20404038.7624   20404037.7674
       252.000         234.000
 09  1 27  2  1  0.0000000  0  8G 5G 9G18G15G22G14G30G12
 108289407.27548  84381336.21348  20606805.4884   20606808.2164   20606805.7934
       250.000         221.000
 106065841.15248  82648699.56248  20183662.4824   20183665.6064   20183662.6224
       248.000         223.000
 124671058.47248  97146276.46448  23724116.4064   23724118.2174   23724116.9334
       221.000         162.000
 123649648.23348  96350371.27448  23529749.9514   23529752.3844   23529749.6444
       223.000         179.000
 133919574.14348  86560709.39448  23581109.5784   23581109.4964   23581109.6874
       224.000         173.000
 133282935.08648  86064611.89348  23459972.8214   23459974.5584   23459973.5634
       223.000         173.000
 115261295.68948  89813988.74948  21933500.7024   21933502.9384   21933500.6394
       238.000         198.000
 107214598.84548  83543841.07148  20402260.1284   20402261.2844   20402259.9374
       251.000         235.000
 09  1 27  2  1 30.0000000  0  9G 5G 9G18G26G15G22G14G30G12
 108252059.76248  84352234.26548  20599698.3774   20599701.2044   20599699.0924
       248.000         221.000
 106096723.24948  82672763.52948  20189539.3234   20189541.6344   20189539.4804
       248.000         223.000
 124747019.81648  97205467.08748  23738571.1534   23738572.9494   23738572.0554
       219.000         162.000
 145128212.97458  95294700.53758  25714050.5235   25714054.3955   25714050.2385
       196.000         136.000
 123757036.15448  96434050.15348  23550185.2874   23550187.7454   23550184.6634
       223.000         179.000
 133957361.04748  86590153.71948  23588299.8154   23588300.2564   23588299.2484
       223.000         171.000
 133188532.07148  85991051.10848  23442008.7424   23442010.5114   23442009.2304
       221.000         172.000
 115181344.25848  89751688.93948  21918286.5424   21918288.4904   21918286.0374
       238.000         198.000
 107205675.20848  83536887.60048  20400561.9274   20400563.1344   20400561.7754
       253.000         235.000
 09  1 27  2  2  0.0000000  0  9G 5G 9G18G26G15G22G14G30G12
 108215121.05248  84323450.86548  20592668.9854   20592671.9324   20592669.4504
       249.000         221.000
 106127980.84548  82697120.08748  20195487.4774   20195490.1574   20195487.8144
       248.000         223.000
 124823191.63248  97264821.72948  23753065.3104   23753068.0694   23753066.3934
       216.000         161.000
 145242968.35148  95384120.31348  25735888.9204   25735891.7904   25735888.5664
       196.000         138.000
 123864596.03248  96517863.04348  23570653.6124   23570655.6994   23570653.0764
       224.000         178.000
 133995574.19048  86619930.19648  23595571.1234   23595571.8484   23595571.9234
       219.000         170.000
 133094376.41248  85917683.07748  23424091.5554   23424093.2784   23424092.4014
       223.000         174.000
 115101689.62648  89689620.39448  21903128.5684   21903130.8514   21903128.5064
       238.000         199.000
 107197167.26548  83530258.03548  20398943.1704   20398944.2404   20398942.9974
       252.000         235.000
 09  1 27  2  2 30.0000000  0  9G 5G 9G18G26G15G22G14G30G12
 108178592.24848  84294986.86948  20585717.9874   20585720.7764   20585718.6384
       249.000         221.000
 106159615.55148  82721770.50248  20201507.3714   20201509.5724   20201507.5424
       249.000         223.000
 124899572.01848  97324338.89448  23767599.8874   23767603.1694   23767600.3004
       212.000         160.000
 145357710.99648  95473530.14848  25757723.4504   25757725.5764   25757723.2364
       203.000         135.000
 123972327.00348  96601809.25548  23591154.0314   23591155.5444   23591153.7154
       223.000         176.000
 134034212.57648  86650037.99448  23602923.8674   23602924.6654   23602923.7114
       222.000         170.000
 133000471.71148  85844510.58448  23406222.0084   23406224.0884   23406222.2814
       220.000         174.000
 115022333.68148  89627784.60548  21888027.7234   21888030.2564   21888027.5304
       239.000         200.000
 107189075.36048  83523952.66048  20397403.1984   20397404.3294   20397402.7604
       252.000         235.000
 09  1 27  2  3  0.0000000  0  9G 5G 9G18G26G15G22G14G30G12
 108142472.90048  84266841.93348  20578844.4224   20578847.4324   20578844.6264
       250.000         221.000
 106191626.36148  82746713.98648  20207598.9274   20207601.1014   20207599.1384
       249.000         223.000
 124976157.51548  97384015.90148  23782173.9744   23782176.7824   23782174.1214
       213.000         161.000
 145472438.62548  95562928.33348  25779553.8264   25779557.2944   25779555.4444
       199.000         136.000
 124080226.19048  96685886.52448  23611686.4364   23611688.0294   23611686.3294
       222.000         174.000
 134073273.55448  86680475.11448  23610357.4764   23610358.1054   23610358.5124
       221.000         170.000
 132906820.12248  85771535.33348  23388400.3304   23388402.8054   23388399.8764
       222.000         175.000
 114943276.79848  89566181.85148  21872983.8374   21872986.1674   21872983.6754
       238.000         200.000
 107181397.96148  83517970.28148  20395942.1574   20395943.2994   20395941.9814
       252.000         235.000
 09  1 27  2  3 30.0000000  0  9G 5G 9G18G26G15G22G14G30G12
 108106762.95448  84239016.00648  20572049.2824   20572052.0174   20572049.9764
       249.000         221.000
 106224013.56948  82771950.76548  20213762.1574   20213764.3694   20213762.4464
       249.000         222.000
 125052944.51648  97443849.90248  23796785.9444   23796788.7124   23796786.1004
       215.000         159.000
 145587149.60148  95652313.54648  25801381.1174   25801387.4344   25801381.9134
       198.000         133.000
 124188291.39748  96770093.16548  23632250.3284   23632252.0084   23632249.8534
       222.000         175.000
 134112755.26448  86711240.06348  23617870.6324   23617870.5434   23617870.6504
       224.000         170.000
 132813424.47348  85698759.51848  23370627.5664   23370630.3784   23370627.6704
       220.000         175.000
 114864519.91748  89504812.85148  21857996.8944   21857999.0864   21857996.2934
       237.000         200.000
 107174134.59048  83512310.51348  20394560.0394   20394561.2354   20394559.9954
       252.000         235.000
 09  1 27  2  4  0.0000000  0  8G 5G 9G18G15G22G14G30G12
 108071462.44848  84211509.12948  20565331.7234   20565334.5524   20565332.2924
       250.000         221.000
 106256777.17848  82797480.84448  20219996.7754   20219998.7764   20219996.9564
       248.000         222.000
 125129930.56348  97503839.07348  23811436.2754   23811438.9934   23811437.3344
       218.000         161.000
 124296520.30348  96854427.37848  23652845.2694   23652847.4084   23652845.5984
       220.000         176.000
 134152655.51148  86742331.16348  23625463.1374   23625463.4364   23625463.4904
       221.000         171.000
 132720287.73348  85626185.43148  23352904.5054   23352906.7504   23352904.3094
       221.000         173.000
 114786064.09748  89443678.45848  21843067.1224   21843069.3334   21843067.1814
       238.000         200.000
 107167284.29248  83506972.62248  20393256.4124   20393257.5874   20393256.3804
       252.000         234.000
 09  1 27  2  4 30.0000000  0  8G 5G 9G18G15G22G14G30G12
 108036571.05548  84184321.04048  20558692.0124   20558695.0074   20558692.5474
       250.000         221.000
 106289916.93148  82823304.02648  20226303.0044   20226305.4854   20226303.0664
       248.000         223.000
 125207112.26748  97563980.61248  23826123.5714   23826126.6974   23826124.3214
       218.000         162.000
 124404910.38548  96938887.17448  23673471.6514   23673473.8264   23673471.0694
       223.000         177.000
 134192971.71348  86773746.38348  23633134.9994   23633135.3854   23633135.4144
       223.000         172.000
 132627411.68148  85553814.49648  23335230.6404   23335233.0634   23335231.4764
       217.000         173.000
 114707909.79148  89382779.00548  21828195.0144   21828197.0754   21828194.5654
       238.000         201.000
 107160845.87548  83501955.67348  20392031.2414   20392032.3164   20392031.1894
       251.000         235.000
 09  1 27  2  5  0.0000000  0  8G 5G 9G18G15G22G14G30G12
 108002088.28848  84157451.35448  20552130.3384   20552133.0834   20552130.8184
       250.000         222.000
 106323432.19148  82849419.80048  20232680.7114   20232683.0954   20232680.7924
       249.000         223.000
 125284485.83248  97624271.69848  23840847.6194   23840850.0924   23840848.5384
       217.000         162.000
 124513458.92148  97023470.43148  23694128.5024   23694130.1484   23694128.7984
       222.000         176.000
 134233701.55448  86805483.88448  23640886.0954   23640886.1124   23640886.3714
       225.000         172.000
 132534799.00748  85481648.78648  23317607.0154   23317608.9564   23317607.1084
       223.000         174.000
 114630057.00848  89322114.51248  21813379.9884   21813382.2674   21813379.7014
       238.000         200.000
 107154818.14448  83497258.74148  20390884.2074   20390885.4144   20390884.0564
       250.000         235.000
 09  1 27  2  5 30.0000000  0  8G 5G 9G18G15G22G14G30G12
 107968014.08348  84130900.02848  20545646.1794   20545649.0904   20545646.7084
       250.000         222.000
 106357322.99148  82875828.21048  20239129.9184   20239132.3334   20239130.2524
       248.000         223.000
 125362048.52948  97684710.13748  23855607.0754   23855609.6844   23855606.8614
       215.000         160.000
 124622163.79448  97108175.52548  23714813.8384   23714815.4544   23714813.4094
       219.000         172.000
 134274842.79748  86837541.99748  23648714.6094   23648715.0654   23648715.0294
       221.000         170.000
 132442452.31148  85409690.32648  23300034.5844   23300035.9654   23300035.5644
       225.000         176.000
 114552506.85148  89261685.82148  21798622.6124   21798624.7484   21798622.6914
       238.000         200.000
 107149200.28848  83492881.19748  20389815.0584   20389816.3234   20389814.9364
       250.000         235.000
 09  1 27  2  6  0.0000000  0  8G 5G 9G18G15G22G14G30G12
 107934348.78948  84104667.33548  20539240.0634   20539243.0004   20539240.9404
       251.000         222.000
 106391589.74048  82902529.56648  20245650.6744   20245653.0434   20245650.7774
       250.000         223.000
 125439797.38548  97745293.59648  23870401.7384   23870404.3304   23870402.7934
       215.000         158.000
 124731022.95248  97193000.84248  23735529.0284   23735530.3984   23735528.9144
       222.000         172.000
 134316393.59248  86869919.22548  23656621.2844   23656621.5654   23656621.8644
       220.000         170.000
 132350374.82148  85337941.63348  23282512.8604   23282514.0264   23282513.9104
       222.000         176.000
 114475260.74348  89201494.04548  21783923.0494   21783925.1454   21783922.6584
       238.000         200.000
 107143991.76648  83488822.61448  20388823.8974   20388825.2044   20388823.6694
       251.000         235.000
 09  1 27  2  6 30.0000000  0  8G 5G 9G18G15G22G14G30G12
 107901092.89448  84078753.65848  20532911.5474   20532914.4664   20532912.3944
       249.000         222.000
 106426233.13048  82929524.40848  20252243.0564   20252245.4594   20252243.2294
       248.000         223.000
 125517729.82648  97806020.15748  23885231.7964   23885234.1884   23885232.4984
       217.000         158.000
 124840034.67348  97277945.02548  23756273.4984   23756274.8274   23756273.2054
       221.000         176.000
 134358352.04748  86902614.09748  23664606.0914   23664606.7164   23664606.2304
       219.000         170.000
 132258569.64048  85266405.13548  23265042.4324   23265044.0844   23265043.2174
       220.000         173.000
 114398319.91148  89141540.14348  21769281.6984   21769284.0724   21769281.4054
       238.000         202.000
 107139191.75748  83485082.35048  20387910.5964   20387911.7464   20387910.6034
       250.000         235.000
 09  1 27  2  7  0.0000000  0  8G 5G 9G18G15G22G14G30G12
 107868245.81248  84053158.54448  20526660.8954   20526663.9924   20526661.1874
       249.000         222.000
 106461252.19048  82956811.98348  20258906.9994   20258909.4414   20258907.1764
       249.000         223.000
 125595842.72848  97866887.31048  23900096.3864   23900098.6634   23900097.1474
       215.000         155.000
 124949196.58448  97363006.25448  23777045.9384   23777048.2824   23777045.2124
       219.000         174.000
 134400715.83848  86935624.84548  23672667.1934   23672668.1424   23672667.5264
       220.000         171.000
 132167038.82848  85195082.43748  23247624.8204   23247626.8204   23247625.4414
       222.000         177.000
 114321684.79648  89081824.47548  21754698.7624   21754701.1544   21754698.5754
       238.000         203.000
 107134800.20148  83481660.36148  20387074.8704   20387075.9644   20387075.1624
       250.000         235.000
 09  1 27  2  7 30.0000000  0  8G 5G 9G18G15G22G14G30G12
 107835808.21348  84027882.50248  20520488.3184   20520491.0184   20520488.5994
       251.000         222.000
 106496647.73248  82984392.91348  20265642.5534   20265645.1134   20265642.6984
       249.000         223.000
 125674133.71548  97927893.26248  23914994.8014   23914996.6484   23914994.9624
       212.000         154.000
 125058506.89248  97448183.10048  23797846.8334   23797849.4264   23797846.3674
       220.000         174.000
 134443483.56748  86968950.32148  23680805.1744   23680806.4304   23680805.6374
       218.000         168.000
 132075786.33548  85123976.60948  23230259.7774   23230262.3294   23230259.9704
       222.000         176.000
 114245356.71848  89022348.05748  21740173.6814   21740176.1964   21740172.9894
       237.000         203.000
 107130816.20348  83478555.95848  20386316.6134   20386318.0824   20386316.3474
       251.000         235.000
 09  1 27  2  8  0.0000000  0  8G 5G 9G18G15G22G14G30G12
 107803779.06148  84002924.73148  20514393.2644   20514395.9864   20514393.2994
       250.000         222.000
 106532418.71848  83012266.39648  20272449.5994   20272452.1264   20272449.8684
       249.000         223.000
 125752598.25948  97989034.44948  23929926.3934   23929927.6934   23929927.0964
       213.000         156.000
 125167962.28148  97533473.00548  23818675.7534   23818678.1914   23818675.9214
       216.000         174.000
 134486651.84748  87002587.92048  23689020.1464   23689021.0214   23689019.8774
       220.000         169.000
 131984813.43848  85053088.63948  23212948.2814   23212950.7254   23212948.0274
       222.000         176.000
 114169335.71148  88963110.92148  21725707.4784   21725709.8914   21725707.0524
       239.000         204.000
 107127237.94748  83475767.70848  20385635.7954   20385637.0674   20385635.9244
       251.000         235.000
 09  1 27  2  8 30.0000000  0  8G 5G 9G18G15G22G14G30G12
 107772158.88448  83978285.64048  20508376.2834   20508379.0054   20508376.8194
       250.000         222.000
 106568565.96748  83040433.08548  20279328.1114   20279330.7234   20279328.2514
       248.000         223.000
 125831234.14948  98050309.16148  23944890.6644   23944891.8164   23944891.1414
       215.000         157.000
 125277561.25548  97618874.77248  23839531.6934   23839534.2744   23839530.6114
       216.000         171.000
 134530219.10648  87036536.42748  23697310.7704   23697311.8954   23697310.6714
       221.000         169.000
 131894123.76948  84982421.34748  23195690.6644   23195692.8754   23195689.5334
       226.000         176.000
 114093623.35148  88904114.27648  21711300.0434   21711302.0614   21711299.7894
       240.000         204.000
 107124065.00548  83473295.28248  20385032.1074   20385033.3134   20385032.3554
       250.000         235.000
 09  1 27  2  9  0.0000000  0  8G 5G 9G18G15G22G14G30G12
 107740946.95148  83953964.65948  20502436.7864   20502439.6174   20502437.5334
       249.000         222.000
 106605088.71248  83068892.35348  20286278.0474   20286280.7094   20286278.1254
       249.000         223.000
 125910038.05048  98111714.76348  23959886.0544   23959887.7874   23959886.5274
       216.000         155.000
 125387300.88048  97704386.17148  23860414.5594   23860416.0994   23860414.0164
       219.000         171.000
 134574182.37948  87070793.50748  23705677.3494   23705676.6544   23705677.4304
       223.000         170.000
 131803719.33848  84911976.33448  23178487.5074   23178489.3964   23178487.8944
       223.000         177.000
 114018219.67748  88845358.16548  21696951.1334   21696953.1814   21696950.7744
       239.000         204.000
 107121296.22448  83471137.79548  20384505.0874   20384506.3704   20384505.0994
       250.000         235.000
 09  1 27  2  9 30.0000000  0  8G 5G 9G18G15G22G14G30G12
 107710142.13448  83929960.91648  20496574.7154   20496577.6894   20496575.0124
       251.000         222.000
 106641985.80948  83097643.33748  20293299.3824   20293302.0004   20293299.5094
       249.000         223.000
 125989005.59348  98173247.89048  23974912.9314   23974914.8914   23974913.2764
       213.000         153.000
 125497178.02148  97790004.73248  23881323.3444   23881325.2764   23881323.5294
       218.000         170.000
 134618538.43148  87105356.65448  23714117.8104   23714117.9804   23714118.5614
       221.000         170.000
 131713601.94548  84841754.99348  23161338.3514   23161340.4834   23161339.1804
       223.000         175.000
 113943124.58248  88786842.51248  21682660.9444   21682663.1864   21682660.8444
       238.000         203.000
 107118929.86248  83469293.87548  20384054.7994   20384056.0624   20384054.4974
       251.000         235.000
 09  1 27  2 10  0.0000000  0  8G 5G 9G18G15G22G14G30G12
 107679745.45248  83906275.19748  20490790.4844   20490793.3464   20490791.3824
       250.000         222.000
 106679258.19048  83126686.74048  20300392.1654   20300394.7424   20300392.3354
       249.000         223.000
 126068135.06448  98234907.19548  23989970.3574   23989973.1934   23989970.6884
       214.000         153.000
 125607191.41948  97875729.46748  23902258.0044   23902259.9294   23902256.9254
       216.000         167.000
 134663286.37548  87140225.15948  23722633.6324   23722633.3924   23722633.6704
       224.000         172.000
 131623775.27348  84771760.17948  23144245.2574   23144246.8584   23144245.7174
       223.000         177.000
 113868339.88948  88728568.72748  21668429.6424   21668432.0974   21668429.3764
       238.000         203.000
 107116965.60048  83467763.28448  20383680.9844   20383682.3454   20383680.9344
       250.000         235.000
 09  1 27  2 10 30.0000000  0  8G 5G 9G18G15G22G14G30G12
 107649756.88448  83882907.48948  20485083.8834   20485086.5474   20485084.5134
       249.000         222.000
 106716905.81448  83156022.54048  20307556.3014   20307558.9004   20307556.5244
       248.000         223.000
 126147423.69448  98296690.53948  24005058.9494   24005061.2794   24005059.6174
       211.000         151.000
 125717339.10848  97961558.83448  23923218.1254   23923220.6064   23923216.9674
       213.000         168.000
 134708423.71348  87175397.11348  23731222.8674   23731223.3694   23731222.8114
       222.000         171.000
 131534242.50548  84701994.40748  23127207.3494   23127209.3374   23127207.4914
       222.000         176.000
 113793866.72348  88670537.68048  21654258.0814   21654260.3584   21654257.7234
       238.000         203.000
 107115402.74848  83466545.48648  20383383.5624   20383384.9194   20383383.4714
       249.000         235.000
 09  1 27  2 11  0.0000000  0  8G 5G 9G18G15G22G14G30G12
 107620176.19448  83859857.60748  20479454.8784   20479457.6034   20479455.7804
       250.000         222.000
 106754928.83048  83185650.85648  20314791.7724   20314794.4724   20314791.7834
       249.000         223.000
 126226867.78948  98358595.02648  24020176.2854   24020179.0614   24020177.2394
       206.000         150.000
 125827618.34248  98047490.67648  23944203.2724   23944206.4904   23944202.0624
       213.000         169.000
 134753947.91848  87210870.51248  23739885.7734   23739886.2274   23739885.7324
       223.000         172.000
 131445006.01848  84632459.46348  23110226.4864   23110228.1084   23110227.0414
       222.000         176.000
 113719705.37248  88612749.62448  21640145.5034   21640147.9654   21640145.1804
       238.000         203.000
 107114240.34048  83465639.72548  20383162.3314   20383163.7094   20383161.9274
       250.000         235.000
 09  1 27  2 11 30.0000000  0  8G 5G 9G18G15G22G14G30G12
 107591002.63048  83837124.96748  20473903.2414   20473905.9764   20473903.9374
       248.000         222.000
 106793326.42548  83215571.05448  20322098.7474   20322101.2514   20322099.0074
       249.000         223.000
 126306464.00048  98420617.99748  24035322.8984   24035326.2914   24035323.4374
       211.000         153.000
 125938026.30448  98133522.83848  23965214.0954   23965216.3664   23965213.1884
       218.000         170.000
 134799856.65848  87246643.56148  23748621.7574   23748622.5814   23748622.0594
       222.000         171.000
 131356067.61648  84563156.82948  23093301.6264   23093303.8994   23093301.9554
       222.000         177.000
 113645856.36748  88555204.95348  21626092.5884   21626094.7704   21626092.2664
       240.000         204.000
 107113476.53248  83465044.55348  20383017.0194   20383018.3704   20383016.4584
       250.000         236.000
 09  1 27  2 12  0.0000000  0  8G 5G 9G18G15G22G14G30G12
 107562236.15848  83814709.54048  20468429.0754   20468431.9734   20468429.6464
       248.000         222.000
 106832098.78748  83245783.27548  20329476.8034   20329479.3094   20329476.8944
       249.000         223.000
 126386209.39548  98482757.24548  24050498.5784   24050500.7624   24050499.4634
       215.000         156.000
 126048561.28048  98219654.01148  23986248.4084   23986249.7194   23986249.2024
       221.000         169.000
 134846147.38948  87282714.22848  23757429.7864   23757430.7344   23757429.0004
       221.000         169.000
 131267430.57048  84494088.98848  23076435.0344   23076436.7714   23076435.2614
       225.000         178.000
 113572320.26148  88497904.10748  21612099.1284   21612101.3684   21612099.0074
       240.000         204.000
 107113111.07048  83464759.77848  20382947.5094   20382948.8614   20382947.1854
       249.000         235.000
 09  1 27  2 12 30.0000000  0  8G 5G 9G18G15G22G14G30G12
 107533875.41148  83792610.26648  20463032.3274   20463035.0764   20463032.5804
       249.000         223.000
 106871244.44948  83276286.37548  20336926.0154   20336928.5694   20336926.2864
       248.000         223.000
 126466099.41748  98545009.20848  24065701.2284   24065703.3214   24065701.3984
       213.000         154.000
 126159219.35048  98305881.05548  24007305.6124   24007307.6264   24007306.5854
       219.000         167.000
 134892816.89548  87319080.06448  23766311.1124   23766312.1544   23766311.3234
       222.000         170.000
 131179096.58348  84425257.31548  23059625.8414   23059627.5294   23059626.0634
       223.000         177.000
 113499096.76648  88440846.84148  21598165.0144   21598167.6144   21598164.8644
       240.000         204.000
 107113141.41448  83464783.41848  20382953.3314   20382954.5674   20382952.6854
       250.000         235.000
 09  1 27  2 13  0.0000000  0  8G 5G 9G18G15G22G14G30G12
 107505921.95848  83770828.36348  20457712.8454   20457715.8184   20457713.4544
       249.000         223.000
 106910765.24548  83307081.80348  20344446.4884   20344449.0164   20344446.7494
       248.000         222.000
 126546133.07648  98607373.06648  24080931.4834   24080933.4704   24080931.4824
       212.000         150.000
 126270000.51348  98392204.04648  24028386.9084   24028388.6544   24028387.3464
       217.000         167.000
 134939864.28648  87355740.35148  23775264.3394   23775264.4444   23775264.1304
       222.000         169.000
 131091070.00248  84356665.16448  23042874.9324   23042876.6664   23042874.3444
       224.000         178.000
 113426188.61748  88384035.30648  21584291.1994   21584293.4884   21584291.0364
       240.000         205.000
 107113568.83148  83465116.46748  20383034.5524   20383035.8524   20383034.0814
       250.000         235.000
 09  1 27  2 13 30.0000000  0  8G 5G 9G18G15G22G14G30G12
 107478374.78548  83749363.03548  20452470.9284   20452473.7374   20452471.3524
       249.000         223.000
 106950660.11448  83338168.70548  20352038.2024   20352040.7734   20352038.2404
       248.000         222.000
 126626306.00648  98669845.48848  24096186.7994   24096189.4094   24096188.7554
       212.000         151.000
 126380901.44948  98478620.34148  24049490.6854   24049492.7164   24049490.6614
       217.000         167.000
 134987286.04448  87392692.34548  23784288.1584   23784288.1334   23784288.4134
       221.000         168.000
 131003352.60448  84288313.95348  23026182.6954   23026184.5154   23026183.3204
       224.000         179.000
 113353595.30848  88327469.09048  21570477.3894   21570479.4344   21570477.0574
       241.000         206.000
 107114391.32048  83465757.36348  20383191.2484   20383192.4094   20383191.2544
       251.000         236.000
