     2.11           OBSERVATION DATA    G (GPS)             RINEX VERSION / TYPE
teqc  2008Oct2      gpsops              20090119 00:05:51UTCPGM / RUN BY / DATE
    30.0000                                                 INTERVAL
     1     1                                                WAVELENGTH FACT L1/2
     7    L1    L2    P1    P2    C1    S1    S2            # / TYPES OF OBSERV
Linux 2.4.20-8|Pentium IV|gcc -static|Linux|486/DX+         COMMENT
     2.10           OBSERVATION DATA    GPS                 COMMENT
soc2rnx ver 1.20    gpsops              19-Jan-2009 00:05:48COMMENT
S1, if present, is the SNR for the C/A data stream on L1.   COMMENT
 SNR is mapped to RINEX snr flag value [1,4-9]              COMMENT
    SNR:   >316  >100  >31.6  >10  >3.2    >0 bad=0         COMMENT
L1 & L2:      9     8     7     6     5     4     1         COMMENT
                                                            COMMENT
This data is provided as a public service by NASA/JPL.      COMMENT
No warranty is expressed or implied regarding suitability   COMMENT
for use.  For further information, contact:                 COMMENT
Dave Stowers, NASA/JPL m/s 238-600                          COMMENT
4800 Oak Grove Drive, Pasadena CA 91109 USA                 COMMENT
                                                            COMMENT
Forced Modulo Decimation to 30 seconds                      COMMENT
  2009     1    18     0     0    0.0000000     GPS         TIME OF FIRST OBS
DSN                 JPL                                     OBSERVER / AGENCY
451-U               AOAD/M_T        NONE                    ANT # / TYPE
  4849202.3940  -360328.9929  4114913.1862                  APPROX POSITION XYZ
        0.0254        0.0000        0.0000                  ANTENNA: DELTA H/E/N
LP03574             ASHTECH Z-XII3      CC00                REC # / TYPE / VERS
MADR                                                        MARKER NAME
13407S012                                                   MARKER NUMBER
                                                            END OF HEADER
 09  1 18  0  0  0.0000000  0 10G26G15G 8G27G 9G18G17G28G12G10
 107360445.11848  83657478.65848  20430022.6354   20430025.1234   20430022.5704
       251.000         225.000
 107067711.03048  83429376.23348  20374315.4164   20374316.7624   20374314.9864
       253.000         239.000
 130754773.94948 101886841.38448  24881802.7764   24881805.6434   24881802.7904
       217.000         163.000
 124971449.51748  97380342.05248  23781281.3604   23781285.0754   23781280.6414
       224.000         180.000
 113921671.09048  88770123.02848  21678580.0154   21678582.8684   21678579.8014
       239.000         203.000
 122503735.42248  95457452.90748  23311686.9834   23311689.1824   23311687.3924
       229.000         178.000
 126552465.37748  98612302.25348  24082140.8714   24082140.9694   24082139.9264
       216.000         170.000
 119538121.51848  93146578.52848  22747355.1364   22747357.8694   22747356.3004
       236.000         194.000
 129662545.05148 101035726.84348  24673981.0524   24673982.4414   24673982.0324
       215.000         157.000
 124162444.16548  96749944.11848  23627336.6804   23627340.2774   23627336.6674
       222.000         174.000
 09  1 18  0  0 30.0000000  0 10G26G15G 8G27G 9G18G17G28G12G10
 107398445.64748  83687089.45848  20437253.7964   20437256.4194   20437253.7594
       251.000         225.000
 107053245.11848  83418104.09148  20371562.6164   20371564.0114   20371562.3084
       253.000         239.000
 130845429.77748 101957482.26048  24899053.3204   24899056.6284   24899054.2244
       218.000         165.000
 125040775.17848  97434362.03448  23794473.0104   23794476.6414   23794473.5924
       226.000         181.000
 113847702.38348  88712485.09248  21664504.3494   21664507.0854   21664504.4774
       239.000         204.000
 122430534.04248  95400412.86648  23297757.7734   23297759.6884   23297758.1764
       227.000         180.000
 126491319.69748  98564656.27348  24070504.8124   24070507.0144   24070504.0384
       217.000         170.000
 119606556.98148  93199904.87248  22760378.2634   22760380.8954   22760379.2434
       235.000         195.000
 129548242.21348 100946659.71348  24652230.1054   24652231.3624   24652229.5984
       213.000         158.000
 124271247.19548  96834725.68648  23648041.0394   23648045.1784   23648041.2284
       225.000         174.000
 09  1 18  0  1  0.0000000  0 10G26G15G 8G27G 9G18G17G28G12G10
 107436842.02848  83717008.70648  20444560.4574   20444562.8824   20444560.4114
       251.000         225.000
 107039166.08748  83407133.41748  20368883.3514   20368884.8804   20368883.0534
       253.000         240.000
 130936079.78048 102028118.65148  24916303.3304   24916306.9844   24916304.2764
       220.000         163.000
 125110123.50148  97488399.67848  23807669.8064   23807673.1244   23807670.7024
       224.000         179.000
 113773996.58348  88655052.01848  21650478.5444   21650481.2434   21650478.5264
       240.000         203.000
 122357742.04748  95343691.81448  23283906.1344   23283907.9524   23283906.6694
       227.000         181.000
 126430479.64148  98517248.48448  24058926.3824   24058929.0254   24058927.2014
       215.000         166.000
 119675343.24048  93253504.56148  22773467.7534   22773470.6194   22773468.4994
       236.000         195.000
 129434015.51148 100857651.94348  24630493.0724   24630494.7394   24630491.6974
       214.000         159.000
 124380159.93248  96919592.75148  23668766.8694   23668770.5334   23668768.2094
       223.000         174.000
 09  1 18  0  1 30.0000000  0 10G26G15G 8G27G 9G18G17G28G12G10
 107475633.59948  83747235.89748  20451942.0774   20451944.6754   20451941.9164
       250.000         225.000
 107025474.45148  83396464.60448  20366278.0844   20366279.4644   20366277.8904
       253.000         240.000
 131026722.67648 102098749.47148  24933552.4484   24933555.5204   24933553.5324
       219.000         167.000
 125179493.93448  97542454.54548  23820870.6704   23820873.7184   23820870.4934
       223.000         176.000
 113700553.51048  88597823.67448  21636502.4674   21636505.4114   21636502.4074
       239.000         203.000
 122285361.14848  95287291.12548  23270132.4974   23270134.2494   23270132.0234
       230.000         182.000
 126369947.64548  98470080.70448  24047408.3524   24047410.4514   24047407.3954
       216.000         170.000
 119744477.89448  93307375.72648  22786623.9944   22786626.4954   22786624.7974
       236.000         195.000
 129319866.96148 100768705.04848  24608771.2594   24608772.7574   24608769.6634
       212.000         157.000
 124489179.30848  97004542.89848  23689512.0954   23689516.0054   23689513.6204
       221.000         171.000
 09  1 18  0  2  0.0000000  0 10G26G15G 8G27G 9G18G17G28G12G10
 107514820.04648  83777770.79248  20459399.1044   20459401.8154   20459398.9984
       251.000         225.000
 107012170.91348  83386098.21448  20363746.2994   20363747.8294   20363746.0854
       253.000         240.000
 131117357.47548 102169373.96448  24950799.4384   24950802.5714   24950800.2554
       221.000         171.000
 125248885.61248  97596525.96348  23834075.1144   23834078.3134   23834075.3494
       223.000         175.000
 113627373.36148  88540800.19848  21622576.9934   21622579.6524   21622576.9914
       240.000         204.000
 122213393.32948  95231212.29948  23256437.8654   23256439.0134   23256439.0604
       228.000         180.000
 126309725.75348  98423154.56248  24035949.2444   24035950.3874   24035948.9174
       219.000         170.000
 119813958.01348  93361516.08148  22799845.6074   22799847.9114   22799846.3254
       234.000         194.000
 129205798.20048 100679820.30348  24587064.6274   24587066.0984   24587063.4084
       216.000         160.000
 124598302.56948  97089573.98448  23710277.7654   23710280.9984   23710278.1284
       223.000         169.000
 09  1 18  0  2 30.0000000  0 10G26G15G 8G27G 9G18G17G28G12G10
 107554400.93948  83808613.03948  20466931.1464   20466933.7804   20466931.1454
       251.000         225.000
 106999256.66748  83376035.16048  20361288.9194   20361290.2944   20361288.6474
       254.000         240.000
 131207983.42148 102239991.59148  24968044.7914   24968048.4834   24968045.0634
       221.000         168.000
 125318298.17848  97650613.65348  23847284.0574   23847287.2334   23847284.6394
       226.000         176.000
 113554456.70148  88483982.02948  21608701.6704   21608703.9984   21608701.8084
       241.000         204.000
 122141840.39348  95175456.77648  23242821.2774   23242822.9574   23242822.6814
       228.000         178.000
 126249816.50548  98376472.04248  24024548.2004   24024550.5304   24024548.1614
       219.000         172.000
 119883781.41448  93415923.91948  22813132.5314   22813134.5614   22813132.8944
       234.000         193.000
 129091811.73348 100590999.71748  24565374.2354   24565375.7814   24565373.4254
       218.000         163.000
 124707526.53948  97174683.57648  23731062.5224   23731065.7384   23731063.8544
       223.000         170.000
 09  1 18  0  3  0.0000000  0  9G26G15G 8G27G 9G18G17G28G10
 107594378.25548  83839764.18748  20474538.3244   20474541.0534   20474538.1544
       250.000         225.000
 106986735.09448  83366278.08548  20358906.1234   20358907.6774   20358906.0534
       253.000         240.000
 131298601.87948 102310603.37048  24985289.0604   24985292.5124   24985289.7754
       216.000         158.000
 125387733.40248  97704718.99548  23860497.1204   23860500.2464   23860497.3024
       224.000         176.000
 113481806.39648  88427371.43248  21594876.3754   21594879.2334   21594876.1394
       239.000         204.000
 122070707.16448  95120028.28948  23229284.9904   23229286.4214   23229285.6374
       230.000         178.000
 126190224.88448  98330037.03848  24013208.8584   24013211.1934   24013208.9874
       216.000         172.000
 119953947.78448  93470599.01048  22826484.2284   22826486.3114   22826484.5714
       233.000         193.000
 124816850.77848  97259871.28348  23751865.8704   23751870.2404   23751866.3464
       221.000         169.000
 09  1 18  0  3 30.0000000  0  9G26G15G 8G27G 9G18G17G28G10
 107634750.54748  83871223.11548  20482221.1954   20482223.6404   20482221.0624
       251.000         225.000
 106974605.67148  83356826.58348  20356598.1254   20356599.5844   20356597.7544
       254.000         240.000
 131389210.59348 102381207.53648  25002531.4614   25002534.7894   25002531.9364
       205.000         143.000
 125457189.56048  97758840.67548  23873714.2584   23873717.2234   23873714.4724
       225.000         176.000
 113409421.54548  88370967.67848  21581102.0094   21581104.9644   21581102.3214
       240.000         205.000
 121999994.13048  95064927.22948  23215828.5634   23215830.2194   23215830.2114
       229.000         177.000
 126130952.25648  98283850.57848  24001928.9354   24001931.3214   24001927.8974
       218.000         171.000
 120024453.62148  93525538.63548  22839901.2744   22839902.9434   22839901.4754
       235.000         193.000
 124926271.34048  97345134.05648  23772688.2394   23772691.6004   23772688.7924
       223.000         169.000
 09  1 18  0  4  0.0000000  0  9G26G15G 8G27G 9G18G17G28G10
 107675517.22048  83902989.34748  20489978.7204   20489981.3904   20489978.7074
       251.000         225.000
 106962869.59748  83347681.59048  20354364.8154   20354366.2054   20354364.5734
       254.000         240.000
 141479725.34558  92451718.96958  25019771.4295   25019773.8175   25019772.2245
       199.000         131.000
 125526665.89148  97812978.05248  23886935.1434   23886938.0974   23886936.0424
       223.000         174.000
 113337302.55248  88314771.06548  21567378.5464   21567380.9184   21567378.5184
       242.000         205.000
 121929703.54548  95010155.33548  23202452.6304   23202454.2734   23202453.6414
       229.000         177.000
 126072000.83648  98237914.41348  23990711.8074   23990713.1624   23990711.1804
       222.000         174.000
 120095296.70748  93580741.04448  22853382.4534   22853383.9744   22853383.1774
       233.000         191.000
 125035784.97548  97430469.33948  23793527.4694   23793531.5684   23793528.1624
       222.000         170.000
 09  1 18  0  4 30.0000000  0  8G26G15G27G 9G18G17G28G10
 107716677.69748  83935062.43548  20497811.2834   20497813.9634   20497811.1884
       250.000         225.000
 106951527.19848  83338843.35448  20352206.3934   20352207.7484   20352206.0894
       254.000         240.000
 125596161.64848  97867130.56548  23900159.1944   23900162.6994   23900159.5354
       222.000         173.000
 113265449.11948  88258781.38348  21553705.3254   21553707.5724   21553705.1634
       241.000         205.000
 121859837.17848  94955714.00948  23189157.2414   23189159.1404   23189157.8244
       228.000         179.000
 126013373.14648  98192230.50248  23979554.7764   23979556.9994   23979555.2804
       216.000         170.000
 120166473.96448  93636203.82248  22866926.9854   22866928.3744   22866927.0414
       233.000         192.000
 125145388.93348  97515875.01848  23814384.8004   23814388.9124   23814385.5614
       224.000         170.000
 09  1 18  0  5  0.0000000  0  8G26G15G27G 9G18G17G28G10
 107758232.33348  83967442.66748  20505719.1464   20505721.4624   20505719.1204
       251.000         225.000
 106940580.36648  83330313.35448  20350123.2794   20350124.5624   20350123.0254
       254.000         240.000
 125665677.18348  97921298.50748  23913387.6384   23913390.7254   23913388.1824
       223.000         173.000
 113193862.57048  88202999.69148  21540082.3814   21540085.3074   21540082.6164
       239.000         205.000
 121790397.57548  94901605.19548  23175943.9674   23175945.3634   23175944.2254
       228.000         179.000
 125955072.42048  98146801.38648  23968460.3974   23968461.7934   23968460.2594
       218.000         170.000
 120237983.91048  93691925.85948  22880535.1394   22880536.7214   22880535.6204
       233.000         191.000
 125255080.95248  97601349.31148  23835258.8024   23835262.0484   23835260.1484
       220.000         168.000
 09  1 18  0  5 30.0000000  0  8G26G15G27G 9G18G17G28G10
 107800180.96148  84000129.90048  20513701.3354   20513703.9944   20513701.1064
       251.000         225.000
 106930030.13948  83322092.39248  20348115.6234   20348116.9564   20348115.4204
       253.000         240.000
 125735212.31248  97975481.71648  23926620.3424   23926622.7354   23926620.7794
       224.000         173.000
 113122543.43848  88147426.36048  21526510.7804   21526513.7864   21526510.3724
       241.000         206.000
 121721387.02148  94847830.74748  23162811.4414   23162813.5184   23162811.6994
       230.000         181.000
 125897101.16948  98101628.98948  23957428.7294   23957430.8174   23957428.8074
       217.000         171.000
 120309824.29748  93747905.37348  22894205.3774   22894207.2624   22894205.4674
       230.000         189.000
 125364858.43848  97686890.21648  23856148.5194   23856151.4744   23856148.9544
       223.000         168.000
 09  1 18  0  6  0.0000000  0  8G26G15G27G 9G18G17G28G10
 107842523.42348  84033124.03248  20521759.4144   20521761.3834   20521759.4194
       251.000         224.000
 106919877.87048  83314181.53248  20346183.5344   20346185.0264   20346183.2584
       253.000         240.000
 125804766.68148  98029679.90948  23939856.3234   23939858.7244   23939856.8094
       225.000         174.000
 113051492.46048  88092061.96748  21512990.5714   21512993.2634   21512990.7784
       240.000         206.000
 121652807.87948  94794392.44248  23149761.4984   23149763.4114   23149762.3374
       229.000         182.000
 125839462.11948  98056715.46248  23946460.1144   23946461.8254   23946460.1344
       220.000         170.000
 120381992.98448  93804140.71148  22907938.2864   22907940.5344   22907937.7874
       230.000         189.000
 125474719.33548  97772496.09348  23877054.3154   23877058.0894   23877054.9514
       220.000         168.000
 09  1 18  0  6 30.0000000  0  8G26G15G27G 9G18G17G28G10
 107885259.49948  84066424.85448  20529891.1924   20529893.7764   20529890.9474
       251.000         225.000
 106910124.48948  83306581.48948  20344327.5624   20344328.9964   20344327.1154
       253.000         240.000
 125874339.81748  98083892.73048  23953095.7454   23953098.3224   23953096.0874
       224.000         174.000
 112980709.73148  88036906.63048  21499520.5754   21499523.9074   21499520.5474
       239.000         206.000
 121584662.16848  94741291.89348  23136793.5244   23136795.3734   23136794.8024
       229.000         179.000
 125782158.01348  98012062.90148  23935555.7494   23935557.1334   23935555.8334
       217.000         171.000
 120454487.75848  93860630.14548  22921733.7234   22921735.7374   22921734.1184
       232.000         188.000
 125584660.33948  97858164.38148  23897975.6944   23897980.0624   23897976.9664
       223.000         170.000
 09  1 18  0  7  0.0000000  0  8G26G15G27G 9G18G17G28G10
 107928388.93448  84100032.21248  20538098.9464   20538101.1424   20538099.0164
       250.000         224.000
 106900770.85348  83299292.94448  20342547.8204   20342549.0774   20342547.6504
       254.000         240.000
 125943931.71248  98138120.17148  23966338.2164   23966341.2464   23966338.5674
       223.000         173.000
 112910196.16348  87981961.00748  21486102.6884   21486105.4574   21486102.8624
       241.000         207.000
 121516952.01248  94688530.72648  23123909.0904   23123910.7354   23123910.2064
       229.000         181.000
 125725191.39148  97967673.36248  23924715.3934   23924717.2534   23924715.8634
       217.000         171.000
 120527306.24348  93917371.81648  22935590.7204   22935592.4254   22935591.1724
       232.000         187.000
 125694679.05648  97943893.24048  23918911.2544   23918915.2764   23918911.8654
       221.000         167.000
 09  1 18  0  7 30.0000000  0  8G26G15G27G 9G18G17G28G10
 107971911.97448  84133946.25248  20546380.7964   20546383.4714   20546380.4454
       252.000         225.000
 106891818.62748  83292317.17948  20340844.2574   20340845.6194   20340843.9444
       254.000         240.000
 126013542.34748  98192362.20148  23979584.7404   23979587.5524   23979585.2424
       223.000         173.000
 112839952.46748  87927225.66948  21472735.6204   21472738.5434   21472735.3834
       241.000         206.000
 121449680.10348  94636111.08548  23111107.0914   23111109.1434   23111108.7044
       230.000         179.000
 125668565.34348  97923549.18148  23913939.4184   23913941.2114   23913939.7214
       218.000         171.000
 120600446.39648  93974364.14148  22949509.0574   22949510.3494   22949509.9674
       231.000         187.000
 125804772.95748  98029680.68248  23939861.2624   23939864.3574   23939862.3904
       221.000         164.000
 09  1 18  0  8  0.0000000  0  8G26G15G27G 9G18G17G28G10
 108015827.74148  84168166.33548  20554737.9074   20554740.2924   20554738.1104
       251.000         224.000
 106883268.66348  83285654.87248  20339217.1384   20339218.5384   20339217.0854
       254.000         240.000
 126083171.07648  98246618.34548  23992834.5264   23992837.7064   23992834.7754
       223.000         172.000
 112769979.08448  87872700.97048  21459420.4514   21459422.8934   21459420.8524
       241.000         207.000
 121382848.15448  94584034.24648  23098389.7634   23098391.4604   23098390.4964
       230.000         180.000
 125612282.02948  97879692.07348  23903229.0774   23903231.2314   23903229.3104
       222.000         173.000
 120673905.96748  94031605.34848  22963487.6904   22963489.3754   22963488.4534
       231.000         186.000
 125914938.98548  98115524.33848  23960826.4684   23960828.5544   23960827.0204
       222.000         167.000
 09  1 18  0  8 30.0000000  0  8G26G15G27G 9G18G17G28G10
 108060135.96648  84202692.21248  20563169.3904   20563171.9324   20563169.1044
       251.000         225.000
 106875121.66548  83279306.56048  20337666.8214   20337668.1114   20337666.2624
       254.000         240.000
 126152817.40748  98300888.21248  24006087.9014   24006090.5184   24006088.7284
       223.000         170.000
 112700275.96648  87818386.86448  21446156.2074   21446159.0874   21446155.9464
       242.000         207.000
 121316458.35448  94532301.92048  23085756.3744   23085757.9884   23085757.5284
       227.000         179.000
 125556344.09048  97836104.07248  23892584.9004   23892586.6114   23892585.6874
       218.000         171.000
 120747682.49948  94089093.55448  22977527.0304   22977528.5854   22977527.4824
       231.000         186.000
 126025174.38648  98201422.05648  23981803.9984   23981806.1504   23981805.2824
       224.000         167.000
 09  1 18  0  9  0.0000000  0  9G26G12G15G27G 9G18G17G28G10
 108104836.25648  84237523.60448  20571675.6124   20571678.2284   20571675.6914
       251.000         225.000
 137618626.31658  89443083.44258  24285019.1415   24285020.3155   24285020.3335
       220.000         166.000
 106867378.99448  83273273.30648  20336193.3414   20336194.8084   20336193.2674
       255.000         240.000
 126222480.80948  98355171.37848  24019344.0954   24019347.2754   24019344.2724
       222.000         170.000
 112630843.59548  87764283.73648  21432943.4994   21432946.5564   21432943.5594
       239.000         207.000
 121250512.69948  94480915.70748  23073206.4924   23073209.2674   23073206.6644
       228.000         181.000
 125500753.88448  97792787.05948  23882006.0584   23882008.2664   23882005.7484
       218.000         171.000
 120821773.42448  94146826.74948  22991626.2244   22991627.5964   22991626.6934
       231.000         186.000
 126135476.48648  98287371.74048  24002793.0524   24002795.3314   24002794.7324
       221.000         165.000
 09  1 18  0  9 30.0000000  0  9G26G12G15G27G 9G18G17G28G10
 108149929.42648  84272661.13248  20580256.8104   20580259.0074   20580256.6014
       252.000         225.000
 137506032.80948  89355348.26248  24263592.2284   24263595.0854   24263593.1184
       217.000         166.000
 116860058.34958  73267572.43358  20334797.3185   20334798.7315   20334797.0625
       255.000         240.000
 126292162.24248  98409468.58548  24032604.3214   24032607.5624   24032604.1794
       222.000         171.000
 112561684.14348  87710393.27548  21419782.9784   21419785.8294   21419783.2694
       242.000         208.000
 121185014.19548  94429877.89048  23060743.2544   23060744.6724   23060743.3834
       228.000         179.000
 125445515.11948  97749743.84048  23871494.4834   23871496.5144   23871494.6484
       219.000         174.000
 120896177.69948  94204804.11148  23005784.6654   23005786.7094   23005784.5394
       229.000         186.000
 126245844.17448  98373372.52448  24023794.7294   24023798.3444   24023794.9474
       219.000         166.000
 09  1 18  0 10  0.0000000  0  8G26G12G27G 9G18G17G28G10
 108195415.67748  84308104.95948  20588912.4944   20588914.7984   20588912.5384
       252.000         225.000
 137393556.86548  89267704.70448  24242188.6034   24242191.4104   24242188.0864
       217.000         166.000
 126361861.95048  98463780.04548  24045867.8124   24045871.4074   24045867.7324
       224.000         170.000
 112492798.38948  87656716.07448  21406674.6994   21406677.1314   21406674.8654
       242.000         208.000
 121119965.77748  94379190.82448  23048365.0474   23048366.3704   23048364.8624
       226.000         180.000
 125390630.86448  97706976.90048  23861050.1034   23861052.8554   23861050.6054
       219.000         173.000
 120970893.58748  94263024.27548  23020002.6384   23020004.5824   23020002.5804
       230.000         186.000
 126356275.03748  98459422.51848  24044809.0044   24044813.5814   24044809.1924
       219.000         164.000
 09  1 18  0 10 30.0000000  0  9G26G12G15G27G 9G18G17G28G10
 108241294.99348  84343855.07348  20597642.9594   20597645.3914   20597643.0274
       251.000         225.000
 137281200.91548  89180154.65048  24220808.9614   24220810.9724   24220808.4344
       220.000         170.000
  96846610.35858  93257092.69458  20332238.1205   20332239.4945   20332237.9125
       255.000         240.000
 126431579.65048  98518105.49548  24059134.6824   24059138.2454   24059134.5604
       222.000         170.000
 112424186.61548  87603252.36548  21393617.8544   21393620.8864   21393618.4514
       241.000         207.000
 121055369.38348  94328855.97148  23036072.6134   23036073.9804   23036073.2624
       227.000         181.000
 125336103.57548  97664488.10848  23850674.6544   23850677.0104   23850674.7964
       222.000         176.000
 121045918.67348  94321485.38348  23034279.7464   23034281.1954   23034279.9594
       231.000         186.000
 126466766.67648  98545519.89748  24065835.0334   24065838.6984   24065835.9334
       218.000         163.000
 09  1 18  0 11  0.0000000  0  8G26G12G27G 9G18G17G28G10
 108287565.28648  84379909.84048  20606447.8124   20606450.1774   20606447.6744
       251.000         225.000
 137168965.58248  89092698.55148  24199451.8384   24199453.5094   24199451.0634
       221.000         171.000
 126501313.65148  98572443.68048  24072404.4584   24072408.2764   24072404.9034
       221.000         167.000
 112355847.86748  87550001.39848  21380613.5934   21380616.3534   21380613.5664
       241.000         208.000
 120991225.34248  94278873.60548  23023866.2854   23023868.1224   23023867.1944
       229.000         181.000
 125281934.50948  97622278.43548  23840366.4484   23840367.9314   23840366.5514
       217.000         171.000
 121121249.53448  94380184.75848  23048614.4374   23048615.9784   23048615.1024
       230.000         185.000
 126577314.70048  98631661.19748  24086871.5714   24086874.6544   24086872.0814
       220.000         164.000
 09  1 18  0 11 30.0000000  0  9G26G12G15G27G 9G18G17G28G10
 108334227.58148  84416270.05548  20615327.6174   20615329.8404   20615327.5454
       252.000         225.000
 137056853.91148  89005338.79148  24178116.9594   24178118.8354   24178117.5504
       219.000         167.000
 116834800.42158  73247890.79558  20329990.2435   20329991.4275   20329989.9005
       255.000         240.000
 126571065.11848  98626795.45548  24085677.9114   24085681.2694   24085677.9914
       219.000         167.000
 112287784.01848  87496964.64948  21367661.4264   21367664.3524   21367661.7634
       241.000         208.000
 120927537.19048  94229246.46148  23011747.1064   23011748.6664   23011748.0404
       229.000         182.000
 125228127.73648  97580351.07348  23830126.7354   23830129.1354   23830125.1744
       220.000         171.000
 121196884.74548  94439121.28848  23063007.3914   23063009.1314   23063007.6184
       229.000         187.000
 126687917.76048  98717845.41948  24107918.9024   24107921.6554   24107919.3394
       219.000         162.000
 09  1 18  0 12  0.0000000  0  8G26G12G27G 9G18G17G28G10
 108381281.26848  84452935.26948  20624281.4864   20624283.9804   20624281.5174
       252.000         225.000
 136944868.20148  88918077.19948  24156806.5374   24156808.1314   24156806.9754
       220.000         169.000
 126640833.37148  98681160.32248  24098954.1454   24098957.5824   24098954.1774
       218.000         166.000
 112219995.21748  87444142.22148  21354761.5664   21354764.4624   21354761.9514
       241.000         208.000
 120864306.73348  94179976.00548  22999714.4454   22999716.4384   22999714.7724
       229.000         181.000
 125174685.07648  97538707.45248  23819957.8804   23819959.0254   23819958.0124
       220.000         173.000
 121272821.58948  94498292.84448  23077457.5254   23077459.2174   23077457.3944
       231.000         186.000
 126798573.02448  98804070.30748  24128975.4764   24128978.5414   24128976.6394
       217.000         161.000
 09  1 18  0 12 30.0000000  0  8G26G12G27G 9G18G17G28G10
 108428725.65448  84489904.91548  20633309.9504   20633312.2784   20633310.0354
       252.000         225.000
 136833010.51548  88830915.37048  24135521.0654   24135522.8984   24135520.7334
       221.000         170.000
 126710618.15648  98735538.07548  24112233.6334   24112237.5064   24112233.9784
       219.000         165.000
 112152481.63048  87391534.24948  21341914.3864   21341916.9824   21341914.5154
       242.000         208.000
 120801535.57048  94131063.39648  22987770.0984   22987771.3874   22987770.4764
       229.000         182.000
 125121609.18948  97497349.62948  23809857.4774   23809859.1044   23809858.2664
       217.000         170.000
 121349058.20848  94557697.99348  23091964.8984   23091966.8174   23091965.7514
       230.000         186.000
 126909277.99448  98890333.89148  24150041.2774   24150045.4604   24150042.0094
       217.000         162.000
 09  1 18  0 13  0.0000000  0  8G26G12G27G 9G18G17G28G10
 108476560.68848  84527178.95648  20642412.6104   20642414.8974   20642412.4174
       252.000         225.000
 136721282.78848  88743854.80348  24114260.2724   24114261.6994   24114260.3644
       218.000         170.000
 126780419.22048  98789928.53048  24125516.6074   24125519.7064   24125517.0114
       218.000         163.000
 112085243.79648  87339141.15948  21329119.0514   21329122.1204   21329119.3974
       241.000         209.000
 120739226.06248  94082510.53448  22975912.8934   22975914.6674   22975914.1924
       230.000         183.000
 125068902.24448  97456279.28048  23799827.6224   23799829.6514   23799826.4614
       218.000         172.000
 121425592.06148  94617334.75748  23106528.9134   23106530.8504   23106529.3134
       231.000         186.000
 127020029.18248  98976633.49248  24171117.5874   24171121.1674   24171117.9784
       217.000         164.000
 09  1 18  0 13 30.0000000  0  8G26G12G27G 9G18G17G28G10
 108524785.40948  84564756.65748  20651589.2144   20651591.6604   20651589.0904
       251.000         225.000
 136609687.19648  88656897.22548  24093023.9854   24093025.7094   24093023.0494
       219.000         170.000
 126850235.58848  98844330.88148  24138802.0994   24138805.1644   24138801.4724
       219.000         163.000
 112018282.28848  87286963.37848  21316376.8804   21316379.9184   21316376.6604
       242.000         209.000
 120677379.71648  94034318.59248  22964143.9324   22964145.9994   22964145.0084
       231.000         185.000
 125016566.34248  97415498.11648  23789867.5334   23789870.6154   23789867.8434
       216.000         173.000
 121502420.33748  94677200.93948  23121148.8594   23121150.5304   23121149.4504
       231.000         185.000
 127130823.98448  99062967.07648  24192200.6874   24192204.8774   24192201.3674
       217.000         163.000
 09  1 18  0 14  0.0000000  0  8G26G12G27G 9G18G17G28G10
 108573400.62648  84602638.64048  20660840.4794   20660843.0334   20660840.1694
       251.000         225.000
 136498226.80748  88570045.02948  24071812.9784   24071815.1614   24071812.6234
       220.000         169.000
 126920068.28548  98898745.97848  24152090.7084   24152093.4714   24152091.7784
       217.000         163.000
 111951598.19148  87235001.76948  21303687.2964   21303689.8944   21303687.3074
       241.000         208.000
 120615999.47548  93986489.83748  22952463.2854   22952464.9394   22952465.0684
       229.000         181.000
 124964605.26548  97375008.93248  23779980.4164   23779982.4944   23779979.9104
       218.000         174.000
 121579541.79048  94737295.57648  23135824.8594   23135826.1394   23135825.7644
       232.000         185.000
 127241661.19648  99149333.70848  24213292.5244   24213296.3244   24213292.5174
       221.000         164.000
 09  1 18  0 14 30.0000000  0  8G26G12G27G 9G18G17G28G10
 108622405.00948  84640823.87448  20670165.8784   20670168.2564   20670165.8114
       251.000         225.000
 136386903.23748  88483299.39348  24050629.2154   24050631.1064   24050628.9424
       219.000         170.000
 126989916.36648  98953173.04548  24165382.7844   24165385.3824   24165382.7484
       221.000         164.000
 111885191.31748  87183256.16148  21291050.4634   21291053.1054   21291049.8654
       241.000         209.000
 120555086.99248  93939025.56248  22940872.0534   22940873.8894   22940873.3434
       230.000         184.000
 124913020.51048  97334813.05548  23770164.0714   23770166.0274   23770164.4804
       220.000         177.000
 121656953.63648  94797616.49348  23150555.7854   23150557.2384   23150556.3524
       230.000         184.000
 127352536.96248  99235730.44948  24234392.0424   24234394.7364   24234393.2484
       223.000         162.000
 09  1 18  0 15  0.0000000  0  8G26G12G27G 9G18G17G28G10
 108671799.11548  84679312.78248  20679565.1014   20679567.5814   20679565.0614
       251.000         224.000
 136275719.21248  88396662.47848  24029471.3154   24029473.4964   24029470.6204
       223.000         172.000
 127059780.50648  99007612.59648  24178677.5724   24178681.1544   24178678.1494
       221.000         165.000
 111819062.97348  87131727.59848  21278466.8304   21278469.3394   21278466.7824
       243.000         209.000
 120494644.69048  93891927.65348  22929370.0734   22929371.9234   22929370.7334
       230.000         185.000
 124861815.66148  97294913.17248  23760420.0604   23760421.7664   23760419.1674
       221.000         176.000
 121734654.54548  94858162.65748  23165341.7734   23165343.1104   23165341.9094
       231.000         183.000
 127463449.55348  99322155.86948  24255496.9994   24255500.2994   24255498.3084
       216.000         158.000
 09  1 18  0 15 30.0000000  0  8G26G12G27G 9G18G17G28G10
 108721582.49048  84718105.01248  20689038.6144   20689041.1324   20689038.4424
       251.000         224.000
 136164677.06248  88310136.12948  24008340.7874   24008343.1884   24008340.9124
       220.000         170.000
 127129660.36148  99062064.42448  24191975.4254   24191978.5004   24191975.8234
       220.000         163.000
 111753213.61248  87080416.42348  21265936.1604   21265938.3644   21265937.2044
       242.000         208.000
 120434674.49048  93845197.64148  22917958.3644   22917959.9564   22917958.6354
       230.000         185.000
 124810992.82848  97255310.98248  23750748.8604   23750751.2964   23750748.6334
       221.000         177.000
 121812641.52448  94918931.74248  23180182.2114   23180183.6704   23180182.2604
       230.000         182.000
 127574396.70848  99408608.17248  24276609.8444   24276613.1664   24276611.2624
       218.000         161.000
 09  1 18  0 16  0.0000000  0  9G26G12G15G27G 9G18G17G28G10
 108771754.01848  84757199.70748  20698585.9234   20698588.4624   20698585.7634
       251.000         224.000
 136053778.20648  88223721.43748  23987237.9574   23987239.6584   23987237.6384
       221.000         170.000
  96802108.54358  93222416.25558  20323770.2145   20323771.7615   20323769.8195
       255.000         241.000
 127199554.95248  99116527.72748  24205275.6304   24205279.0314   24205275.3354
       215.000         160.000
 111687643.10148  87029322.54448  21253458.1944   21253460.7444   21253458.4134
       243.000         209.000
 120375177.57648  93798836.41048  22906636.5984   22906638.2584   22906637.1634
       231.000         185.000
 124760553.98948  97216008.00848  23741150.8994   23741152.6744   23741150.8924
       223.000         177.000
 121890911.87148  94979921.61748  23195076.3374   23195077.5364   23195077.2844
       231.000         181.000
 127685374.70348  99495084.53548  24297728.6934   24297731.8734   24297730.0934
       219.000         162.000
 09  1 18  0 16 30.0000000  0  8G26G12G27G 9G18G17G28G10
 108822314.05848  84796597.13348  20708207.2164   20708209.7194   20708207.1494
       252.000         224.000
 135943025.60048  88137420.72348  23966162.3194   23966163.9874   23966161.6644
       223.000         171.000
 127269464.76348  99171002.88748  24218578.9044   24218581.4204   24218578.5964
       218.000         157.000
 111622352.80348  86978447.00048  21241033.9844   21241036.5634   21241034.7624
       242.000         209.000
 120316156.80748  93752846.18948  22895405.4054   22895406.9224   22895405.6754
       230.000         186.000
 124710502.16748  97177006.58348  23731625.8964   23731628.5184   23731625.4354
       223.000         178.000
 121969463.70748  95041130.83948  23210024.5424   23210025.5444   23210025.5484
       230.000         182.000
 127796381.82848  99581583.59448  24318851.7794   24318855.9984   24318853.6314
       216.000         161.000
 09  1 18  0 17  0.0000000  0  8G26G12G27G 9G18G17G28G10
 108873262.11348  84836296.90448  20717902.3784   20717904.6524   20717902.4004
       250.000         224.000
 135832421.46348  88051235.67748  23945115.3914   23945116.4544   23945116.1744
       223.000         173.000
 127339389.58448  99225489.76648  24231885.2324   24231888.1074   24231886.1964
       217.000         159.000
 111557342.85848  86927789.92448  21228662.7084   21228665.5214   21228662.7134
       242.000         209.000
 120257613.79748  93707228.26048  22884264.7474   22884266.5804   22884265.6974
       231.000         186.000
 124660839.80848  97138308.67848  23722176.3234   23722178.1454   23722176.1424
       221.000         177.000
 122048295.16548  95102557.95048  23225025.3724   23225026.9944   23225025.7514
       229.000         180.000
 127907415.29648  99668103.16348  24339980.2174   24339985.0284   24339979.8654
       214.000         161.000
 09  1 18  0 17 30.0000000  0  8G26G12G27G 9G18G17G28G10
 108924597.88848  84876298.80748  20727671.1954   20727673.6074   20727671.1104
       251.000         224.000
 135721968.08448  87965168.10748  23924096.2864   23924097.6204   23924096.1294
       221.000         172.000
 127409329.51348  99279988.40348  24245194.3844   24245197.5554   24245194.6674
       213.000         160.000
 111492613.88748  86877351.77748  21216345.3744   21216347.8474   21216345.7874
       243.000         210.000
 120199550.91848  93661984.46948  22873216.0594   22873217.4134   22873216.1694
       232.000         187.000
 124611569.10648  97099915.91448  23712799.7964   23712801.4274   23712799.8914
       223.000         175.000
 122127404.05748  95164201.23948  23240079.4114   23240080.7474   23240080.3234
       230.000         181.000
 128018472.77848  99754641.47348  24361114.7324   24361118.8824   24361115.1274
       217.000         161.000
 09  1 18  0 18  0.0000000  0  8G26G12G27G 9G18G17G28G10
 108976320.72848  84916602.30848  20737513.7394   20737516.1784   20737513.5364
       251.000         223.000
 135611667.53548  87879219.65748  23903105.7634   23903108.1564   23903106.0154
       221.000         172.000
 127479283.96448  99334498.37348  24258506.3704   24258509.2754   24258506.2634
       210.000         158.000
 111428166.28448  86827132.87648  21204081.4584   21204084.0794   21204081.9144
       243.000         210.000
 120141969.73048  93617116.01248  22862258.5164   22862259.9284   22862259.0674
       231.000         185.000
 124562692.84048  97061830.50848  23703499.3144   23703500.5214   23703499.2964
       222.000         175.000
 122206787.85048  95226058.74148  23255185.3344   23255187.2184   23255186.2884
       230.000         182.000
 128129551.39948  99841196.23948  24382251.8984   24382256.7774   24382253.4154
       216.000         156.000
 09  1 18  0 18 30.0000000  0  8G26G12G27G 9G18G17G28G10
 109028430.48748  84957207.30948  20747429.9914   20747432.1754   20747429.9884
       251.000         223.000
 135501522.05948  87793392.01148  23882146.1414   23882148.9404   23882146.0824
       222.000         176.000
 127549252.97548  99389019.66548  24271820.7434   24271823.8534   24271820.9924
       210.000         157.000
 111364000.55448  86777133.62248  21191871.1534   21191873.6504   21191871.2724
       243.000         210.000
 120084872.20548  93572624.43648  22851393.3884   22851394.9634   22851393.7314
       231.000         185.000
 124514213.36048  97024054.29648  23694274.1024   23694275.8724   23694273.7464
       218.000         174.000
 122286444.62848  95288128.95848  23270343.6094   23270345.7224   23270344.3144
       231.000         182.000
 128240648.89748  99927765.74748  24403393.1744   24403397.3614   24403394.0494
       213.000         153.000
 09  1 18  0 19  0.0000000  0  8G26G12G27G 9G18G17G28G10
 109080926.87948  84998113.58248  20757419.6564   20757421.9144   20757419.6694
       250.000         223.000
 135391534.23348  87707687.23748  23861216.6114   23861219.5754   23861216.0364
       223.000         176.000
 127619236.57048  99443552.30448  24285138.6124   24285141.4844   24285138.4744
       208.000         157.000
 111300117.39348  86727354.55048  21179714.5534   21179717.1204   21179714.8744
       243.000         210.000
 120028260.31048  93528511.26848  22840620.1954   22840621.7594   22840620.7484
       231.000         186.000
 124466132.90148  96986589.00448  23685124.3424   23685125.8914   23685123.9814
       223.000         176.000
 122366371.73148  95350409.81948  23285553.4724   23285555.4354   23285554.7884
       230.000         182.000
 128351762.89448 100014348.06348  24424537.6734   24424541.4334   24424538.2194
       212.000         157.000
 09  1 18  0 19 30.0000000  0  8G26G12G27G 9G18G17G28G10
 109133808.95448  85039320.38848  20767482.6994   20767485.2774   20767482.4594
       250.000         223.000
 135281705.73648  87622106.60248  23840317.5914   23840320.2204   23840319.2444
       225.000         175.000
 127689234.34548  99498096.03748  24298458.5254   24298461.7654   24298457.8374
       209.000         156.000
 111236516.85048  86677795.70848  21167611.5014   21167614.3544   21167611.7754
       243.000         210.000
 119972135.84948  93484777.92348  22829940.0214   22829941.8424   22829940.6544
       231.000         185.000
 124418453.84448  96949436.50148  23676051.5244   23676053.5384   23676051.9124
       222.000         175.000
 122446566.86348  95412899.52348  23300814.0194   23300815.8694   23300814.4174
       228.000         183.000
 128462890.57248 100100941.04748  24445685.2174   24445689.1414   24445684.9814
       219.000         163.000
 09  1 18  0 20  0.0000000  0  8G26G12G27G 9G18G17G28G10
 109187076.28348  85080827.38748  20777619.0944   20777621.7904   20777618.9194
       251.000         223.000
 135172038.51548  87536651.63948  23819447.8934   23819450.8484   23819448.2094
       222.000         176.000
 127759246.18048  99552650.68148  24311781.3954   24311784.9044   24311781.8524
       205.000         154.000
 111173199.68948  86628457.67348  21155562.7954   21155565.4714   21155562.8984
       243.000         211.000
 119916500.46148  93441425.68148  22819352.9994   22819354.5774   22819353.6144
       230.000         184.000
 124371178.35448  96912598.44848  23667055.2044   23667056.7824   23667054.7564
       223.000         175.000
 122527027.64248  95475596.23248  23316125.4994   23316126.8454   23316125.3204
       230.000         183.000
 128574029.18448 100187542.55748  24466833.7774   24466838.2574   24466834.2144
       212.000         159.000
 09  1 18  0 20 30.0000000  0  8G26G12G27G 9G18G17G28G10
 109240729.14148  85122634.80448  20787829.0594   20787831.4294   20787829.1554
       250.000         223.000
 135062535.91848  87451324.93348  23798610.5394   23798612.8844   23798609.6644
       223.000         176.000
 127829272.57548  99607216.69048  24325106.6064   24325110.9674   24325106.5944
       208.000         153.000
 111110166.77048  86579341.12948  21143568.3884   21143570.6994   21143568.3624
       244.000         212.000
 119861356.75548  93398456.53748  22808859.4554   22808861.2804   22808859.6784
       230.000         186.000
 124324309.75648  96876077.48248  23658136.5494   23658137.6874   23658136.8534
       223.000         174.000
 122607752.08648  95538498.39648  23331486.8824   23331488.0244   23331486.9924
       230.000         182.000
 128685176.64748 100274150.95048  24487984.2674   24487987.8444   24487985.0954
       212.000         153.000
 09  1 18  0 21  0.0000000  0  8G26G12G27G 9G18G17G28G10
 109294766.03548  85164741.47448  20798111.8724   20798114.4144   20798111.7164
       250.000         223.000
 134953199.34148  87366127.61148  23777804.2614   23777806.4834   23777804.3254
       223.000         176.000
 127899312.59848  99661793.32648  24338434.6834   24338438.8914   24338434.4504
       206.000         153.000
 111047417.95248  86530445.95448  21131627.4144   21131630.0274   21131627.7714
       245.000         212.000
 119806705.84548  93355871.42348  22798459.6314   22798461.7624   22798460.4384
       230.000         186.000
 124277849.31548  96839874.53848  23649294.8914   23649297.0414   23649294.9984
       223.000         175.000
 122688737.94648  95601604.26348  23346898.2084   23346899.0084   23346898.5654
       230.000         183.000
 128796330.28448 100360764.16248  24509135.6724   24509139.5134   24509136.6514
       211.000         155.000
 09  1 18  0 21 30.0000000  0  8G26G12G27G 9G18G17G28G10
 109349187.33148  85207147.66548  20808467.8404   20808470.4474   20808467.5494
       249.000         223.000
 134844031.04948  87281061.40248  23757030.1004   23757032.5784   23757030.3414
       220.000         176.000
 127969366.44448  99716380.73348  24351765.8364   24351769.2004   24351766.1194
       208.000         153.000
 110984954.55348  86481773.18948  21119740.9934   21119743.7014   21119741.3114
       243.000         212.000
 119752549.78748  93313671.88048  22788154.4954   22788155.8404   22788154.2644
       233.000         188.000
 124231799.75748  96803991.77748  23640532.6244   23640534.1964   23640532.3114
       224.000         175.000
 122769983.20748  95664912.24548  23362358.2284   23362359.5854   23362358.8514
       231.000         183.000
 128907487.46148 100447380.16148  24530289.2074   24530292.7784   24530289.8474
       212.000         157.000
 09  1 18  0 22  0.0000000  0  8G26G12G27G 9G18G17G28G10
 109403991.71448  85249852.37048  20818896.9264   20818899.2294   20818896.8204
       250.000         222.000
 134735032.70248  87196127.67248  23736287.9814   23736291.2594   23736287.8654
       222.000         178.000
 128039433.35548  99770978.31748  24365098.8584   24365102.2184   24365100.1874
       204.000         152.000
 110922776.31848  86433322.64148  21107908.5644   21107911.6974   21107908.2824
       243.000         212.000
 119698889.68848  93271858.82348  22777943.5964   22777945.1004   22777944.2864
       232.000         187.000
 124186162.98248  96768430.65048  23631848.0264   23631849.6444   23631848.2594
       222.000         176.000
 122851484.55648  95728419.79248  23377867.5094   23377868.6764   23377867.4724
       230.000         183.000
 129018644.95148 100533996.37548  24551441.2314   24551445.4154   24551441.7074
       209.000         151.000
 09  1 18  0 22 30.0000000  0  8G26G12G27G 9G18G17G28G10
 109459180.27648  85292856.43748  20829398.8794   20829401.3784   20829398.8084
       250.000         222.000
 134626208.29948  87111329.45248  23715580.0144   23715582.3124   23715579.8794
       224.000         178.000
 128109515.06548  99825587.44648  24378434.4574   24378438.0794   24378435.3494
       201.000         151.000
 110860885.07848  86385095.70748  21096131.2474   21096133.7364   21096131.0994
       243.000         212.000
 119645729.19148  93230435.04848  22767827.2324   22767828.7084   22767827.6014
       232.000         188.000
 124140942.83548  96733194.18248  23623242.9824   23623244.5144   23623242.2734
       222.000         178.000
 122933241.72748  95792126.67548  23393425.2974   23393426.8854   23393425.0514
       229.000         181.000
 129129802.15948 100620612.38748  24572592.7994   24572597.8104   24572593.3364
       211.000         151.000
 09  1 18  0 23  0.0000000  0  8G26G12G27G 9G18G17G28G10
 109514751.19148  85336158.45148  20839973.6854   20839976.2124   20839973.6914
       250.000         222.000
 134517558.80648  87026667.52548  23694905.0414   23694906.9444   23694904.6944
       226.000         180.000
 128179610.04448  99880206.92948  24391773.6314   24391777.4714   24391772.9854
       201.000         153.000
 110799279.92748  86337091.71148  21084408.2884   21084411.0584   21084408.5894
       244.000         213.000
 119593068.90748  93189401.05648  22757806.4224   22757808.2614   22757807.0564
       231.000         188.000
 124096140.18248  96698283.03848  23614717.0154   23614718.6844   23614716.9444
       223.000         176.000
 123015251.00548  95856030.01548  23409030.9054   23409032.4234   23409031.0694
       230.000         180.000
 129240955.04248 100707225.05148  24593745.1144   24593748.6304   24593745.4504
       211.000         156.000
 09  1 18  0 23 30.0000000  0  8G26G12G27G 9G18G17G28G10
 109570704.57248  85379758.48148  20850621.1144   20850623.7274   20850621.0644
       248.000         221.000
 134409086.90948  86942143.98448  23674264.0654   23674265.7364   23674263.9004
       228.000         181.000
 128249719.02148  99934837.24748  24405114.0424   24405118.4524   24405113.8244
       207.000         152.000
 110737961.99148  86289311.51248  21072739.8054   21072742.2944   21072740.1894
       244.000         213.000
 119540910.84448  93148758.41348  22747880.9004   22747882.8124   22747881.2444
       232.000         188.000
 124051758.05148  96663699.55148  23606271.0464   23606272.5464   23606270.4824
       222.000         176.000
 123097510.49048  95920128.32548  23424684.3944   23424686.0904   23424685.1724
       230.000         180.000
 129352101.84148 100793832.94348  24614895.9054   24614900.3104   24614895.9244
       209.000         156.000
 09  1 18  0 24  0.0000000  0  9G26G12G27G 9G18G17G28G 5G10
 109627038.24748  85423654.83548  20861341.1204   20861343.5404   20861340.8994
       248.000         221.000
 134300793.14948  86857759.22948  23653656.3824   23653658.2344   23653656.9924
       226.000         178.000
 128319839.82948  99989476.83748  24418457.9894   24418461.6474   24418458.9254
       207.000         152.000
 110676930.23148  86241754.31348  21061125.8174   21061128.5974   21061126.2374
       246.000         214.000
 119489255.00348  93108507.11448  22738051.1634   22738052.5194   22738051.6084
       233.000         188.000
 124007796.94848  96629444.17848  23597905.9554   23597908.1164   23597906.0524
       223.000         177.000
 123180016.44048  95984418.66348  23440384.8974   23440386.6494   23440385.4984
       230.000         182.000
 140812725.55458  91931977.83358  24892846.1695   24892850.0735   24892846.9695
       212.000         156.000
 129463238.34448 100880432.76048  24636044.6074   24636049.4334   24636044.3094
       208.000         152.000
 09  1 18  0 24 30.0000000  0 10G26G12G15G27G 9G18G17G28G 5G10
 109683750.77448  85467846.40648  20872133.1514   20872135.7134   20872132.8614
       249.000         221.000
 134192678.68348  86773514.20148  23633081.9614   23633084.8154   23633080.9844
       223.000         179.000
 116833791.64458  73247104.74958  20329798.9765   20329800.3675   20329798.6205
       255.000         240.000
 128389971.62148 100044124.98448  24431803.0174   24431807.2114   24431804.6374
       206.000         152.000
 110616184.30448  86194419.83748  21049566.3084   21049569.1434   21049566.5334
       245.000         214.000
 119438102.56948  93068648.06848  22728317.3504   22728318.6624   22728317.7864
       234.000         188.000
 123964258.23648  96595517.90648  23589620.6184   23589622.6624   23589621.0124
       223.000         177.000
 123262765.74948  96048898.65348  23456131.4284   23456133.6924   23456131.8454
       229.000         181.000
 140697593.43748  91842264.49748  24870937.1724   24870940.4224   24870937.9154
       213.000         155.000
 129574361.00148 100967021.81848  24657189.8274   24657195.0114   24657191.8184
       216.000         152.000
 09  1 18  0 25  0.0000000  0  9G26G12G27G 9G18G17G28G 5G10
 109740845.78648  85512336.01948  20882997.9914   20883000.4364   20882997.7104
       250.000         221.000
 134084749.50048  86689413.54548  23612543.2914   23612546.3714   23612542.3744
       221.000         176.000
 128460118.21448 100098784.69448  24445152.7304   24445155.1714   24445153.8644
       208.000         154.000
 110555728.52548  86147311.44248  21038061.9084   21038064.8114   21038061.9774
       244.000         214.000
 119387459.05648  93029185.59848  22718679.5114   22718681.6004   22718680.9164
       230.000         186.000
 123921148.22348  96561925.70748  23581417.0064   23581418.7924   23581417.2294
       222.000         177.000
 123345760.14648  96113569.61448  23471924.5304   23471926.7754   23471925.4114
       229.000         180.000
 140582540.87448  91752613.16948  24849042.8464   24849046.6334   24849043.9954
       214.000         153.000
 129685471.11848 101053601.21948  24678334.7424   24678336.7934   24678336.3714
       217.000         151.000
 09  1 18  0 25 30.0000000  0  9G26G12G27G 9G18G17G28G 5G10
 109798321.61748  85557122.38148  20893935.3064   20893937.8334   20893935.4084
       250.000         221.000
 133977007.19948  86605458.53048  23592040.1484   23592043.1054   23592040.1504
       225.000         179.000
 128530278.67948 100153455.16248  24458503.6544   24458507.3814   24458504.3704
       207.000         154.000
 110495562.45848  86100428.80748  21026612.6604   21026615.4524   21026612.8554
       245.000         214.000
 119337325.29448  92990120.30548  22709139.5294   22709141.1514   22709139.4964
       232.000         187.000
 123878468.10248  96528668.47148  23573294.9964   23573297.7544   23573295.4734
       222.000         177.000
 123428996.51748  96178429.10648  23487763.9234   23487766.0464   23487765.0114
       228.000         179.000
 140467568.97548  91663024.68248  24827165.6184   24827167.4244   24827166.2144
       214.000         153.000
 129796565.68548 101140168.45248  24699475.0824   24699477.7114   24699475.2534
       212.000         152.000
 09  1 18  0 26  0.0000000  0 10G26G12G15G27G 9G18G17G28G 5G10
 109856177.45948  85602204.84748  20904944.7104   20904947.4884   20904944.5254
       248.000         221.000
 133869453.82148  86521650.71648  23571574.4034   23571576.1274   23571574.7244
       225.000         179.000
  96852328.05358  93261549.56958  20333325.7415   20333326.9825   20333325.4045
       255.000         240.000
 128600452.71748 100208136.19548  24471857.4434   24471860.8774   24471859.3524
       208.000         153.000
 110435686.34748  86053772.10948  21015218.7054   21015221.3074   21015218.9314
       245.000         214.000
 119287702.55148  92951453.24048  22699696.8734   22699698.4674   22699697.4494
       230.000         187.000
 123836219.75448  96495747.67748  23565255.9714   23565257.3354   23565255.8164
       223.000         177.000
 123512472.20348  96243475.11348  23503648.9314   23503650.7214   23503649.6034
       229.000         179.000
 140352679.33248  91573500.29848  24805302.8784   24805305.0074   24805304.8124
       213.000         155.000
 129907641.98248 101226721.34948  24720611.5334   24720615.8414   24720612.9714
       212.000         155.000
 09  1 18  0 26 30.0000000  0 10G26G12G15G27G 9G18G17G28G 5G10
 109914412.12948  85647582.49848  20916026.5424   20916029.0474   20916026.4234
       248.000         221.000
 133762090.70748  86437991.16248  23551143.6894   23551145.0904   23551143.5804
       227.000         180.000
 116859379.38558  73267043.88658  20334667.6655   20334668.9675   20334667.4325
       255.000         240.000
 128670639.69148 100262827.35448  24485212.9284   24485217.0444   24485213.9004
       209.000         153.000
 110376100.22548  86007341.37448  21003879.6514   21003882.2694   21003879.5904
       246.000         214.000
 119238592.05048  92913185.30548  22690351.3814   22690352.7844   22690351.4094
       233.000         187.000
 123794405.04948  96463164.78548  23557298.4784   23557300.2454   23557297.9004
       222.000         178.000
 123596184.41348  96308705.39148  23519578.8544   23519580.6844   23519579.9884
       228.000         179.000
 140237873.38248  91484041.14548  24783456.4384   24783459.6914   24783458.2764
       210.000         154.000
 130018697.17748 101313257.84348  24741745.1824   24741749.1244   24741746.7954
       215.000         157.000
 09  1 18  0 27  0.0000000  0  9G26G12G27G 9G18G17G28G 5G10
 109973026.01248  85693255.64448  20927180.6234   20927182.9644   20927180.6234
       248.000         220.000
 133654920.96248  86354482.29648  23530750.4164   23530751.6724   23530750.5834
       227.000         180.000
 128740840.30148 100317529.12348  24498572.0634   24498575.3484   24498573.2564
       207.000         153.000
 110316805.22848  85961137.48648  20992596.3394   20992599.0664   20992596.8004
       246.000         214.000
 119189996.08948  92875318.32248  22681103.7654   22681105.2914   22681104.4324
       231.000         186.000
 123753027.02648  96430922.17248  23549425.0554   23549426.6754   23549424.3484
       225.000         178.000
 123680131.65948  96374118.84948  23535553.5014   23535555.5564   23535553.2494
       228.000         180.000
 140123153.93548  91394649.40048  24761625.1174   24761629.0744   24761624.9694
       208.000         153.000
 130129728.88648 101399776.08048  24762873.6124   24762877.7034   24762874.5074
       214.000         156.000
 09  1 18  0 27 30.0000000  0  9G26G12G27G 9G18G17G28G 5G10
 110032018.25848  85739223.63148  20938406.2704   20938408.8934   20938406.1154
       249.000         220.000
 133547946.37248  86271125.48448  23510393.9284   23510395.0164   23510393.6754
       226.000         182.000
 128811054.33348 100372241.35548  24511933.2044   24511936.7474   24511933.4154
       211.000         155.000
 110257801.96348  85915160.93248  20981368.3414   20981370.8184   20981369.0234
       246.000         214.000
 119141916.11648  92837853.40848  22671954.4204   22671956.0024   22671954.6734
       233.000         187.000
 123712087.21148  96399021.02648  23541633.8644   23541636.0724   23541633.5654
       224.000         178.000
 123764311.58248  96439713.57148  23551572.4694   23551574.6544   23551573.2694
       230.000         180.000
 140008522.71848  91305326.39948  24739810.9234   24739815.3124   24739810.7194
       208.000         153.000
 130240734.70148 101486274.10248  24783996.8474   24784001.8254   24783996.4534
       210.000         153.000
 09  1 18  0 28  0.0000000  0  9G26G12G27G 9G18G17G28G 5G10
 110091388.38248  85785486.05848  20949703.9544   20949706.5754   20949703.7054
       249.000         220.000
 133441169.15748  86187922.47648  23490074.4104   23490076.7514   23490073.3884
       226.000         182.000
 128881281.90448 100426964.10648  24525298.2374   24525301.9004   24525298.6614
       210.000         156.000
 110199090.54348  85869411.79048  20970195.9664   20970198.4704   20970196.4244
       246.000         215.000
 119094354.04048  92800792.04048  22662903.5954   22662905.4654   22662903.1204
       232.000         187.000
 123671588.04848  96367463.24548  23533927.4104   23533929.1574   23533926.7864
       223.000         178.000
 123848721.81748  96505487.79348  23567635.4084   23567637.0284   23567636.5134
       228.000         179.000
 139893981.74348  91216073.72148  24718014.5554   24718018.4974   24718014.4164
       210.000         153.000
 130351712.21248 101572750.07048  24805115.0134   24805118.9754   24805114.5634
       211.000         149.000
 09  1 18  0 28 30.0000000  0  9G26G12G27G 9G18G17G28G 5G10
 110151134.97848  85832041.84148  20961073.4754   20961076.1274   20961073.3514
       249.000         220.000
 133334591.18348  86104874.71448  23469793.5024   23469795.8864   23469793.6504
       226.000         182.000
 128951522.21248 100481696.82448  24538663.3864   24538667.2864   24538663.4224
       209.000         155.000
 110140670.86248  85823889.96348  20959079.2594   20959081.6484   20959079.5044
       247.000         215.000
 119047310.82148  92764134.98048  22653951.5624   22653953.1694   22653952.0004
       230.000         186.000
 123631531.18048  96336250.11048  23526304.9274   23526306.6574   23526304.4004
       226.000         178.000
 123933359.81948  96571439.46048  23583740.9414   23583743.2334   23583741.8744
       227.000         179.000
 139779532.48848  91126892.49848  24696236.3314   24696238.9774   24696237.1294
       211.000         153.000
 130462658.48248 101659201.77248  24826228.4344   24826230.0794   24826229.9504
       214.000         146.000
 09  1 18  0 29  0.0000000  0 10G26G12G15G27G 9G18G17G28G 5G10
 110211257.62248  85878890.65348  20972514.4844   20972517.0164   20972514.3824
       249.000         220.000
 133228214.16548  86021983.55948  23449549.9694   23449553.1324   23449550.2824
       226.000         182.000
  96901241.24058  93299663.92358  20342633.4145   20342634.7085   20342633.3045
       255.000         240.000
 129021774.96248 100536439.22048  24552031.7424   24552035.7794   24552031.9684
       205.000         154.000
 110082543.22948  85778595.70648  20948017.8564   20948020.2294   20948018.1544
       247.000         215.000
 119000787.68448  92727883.17948  22645098.9644   22645100.3204   22645099.3124
       231.000         187.000
 123591918.48348  96305383.06048  23518766.3644   23518768.2874   23518765.8874
       224.000         178.000
 124018223.21348  96637566.76848  23599890.1524   23599892.2354   23599890.3364
       227.000         179.000
 139665176.64548  91037784.04248  24674475.6934   24674477.0144   24674475.7654
       213.000         153.000
 130573570.81148 101745626.96148  24847334.2874   24847337.9994   24847336.1614
       213.000         152.000
 09  1 18  0 29 30.0000000  0 10G26G12G15G27G 9G18G17G28G 5G10
 110271755.75648  85926032.05148  20984026.9654   20984029.3154   20984027.0404
       248.000         220.000
 133122040.56448  85939250.90448  23429346.1744   23429348.9204   23429346.1194
       227.000         183.000
  96910936.66948  93307218.79648  20344478.3624   20344479.7684   20344478.0124
       255.000         240.000
 129092040.33148 100591191.43848  24565402.4494   24565406.8754   24565401.5274
       211.000         154.000
 110024708.83848  85733529.95648  20937012.3754   20937014.5994   20937012.8904
       247.000         215.000
 118954786.44648  92692038.06648  22636344.8114   22636347.1194   22636345.2944
       232.000         188.000
 123552752.18248  96274863.88448  23511313.5734   23511315.3624   23511312.8044
       225.000         180.000
 124103309.57048  96703867.83248  23616081.8334   23616083.4384   23616083.1604
       229.000         177.000
 139550916.61148  90948750.23648  24652732.8904   24652733.5864   24652733.2684
       208.000         151.000
 130684446.92448 101832023.91848  24868433.1054   24868436.5284   24868433.6844
       218.000         160.000
 09  1 18  0 30  0.0000000  0 10G26G12G15G27G 9G18G17G28G 5G10
 110332628.27048  85973465.16548  20995610.5104   20995613.0924   20995610.3764
       248.000         219.000
 133016072.25748  85856678.20248  23409181.3584   23409183.2424   23409180.8324
       227.000         182.000
  96921074.63248  93315118.50848  20346407.5214   20346409.0604   20346407.3154
       255.000         240.000
 129162318.04648 100645953.30848  24578776.2954   24578780.4034   24578776.9494
       211.000         157.000
 109967167.75848  85688692.75448  20926062.6864   20926065.0364   20926063.0544
       246.000         216.000
 118909308.55548  92656600.74048  22627690.8744   22627692.5234   22627691.4734
       233.000         188.000
 123514034.16548  96244694.00448  23503945.4814   23503947.9204   23503945.1414
       224.000         179.000
 124188616.61248  96770340.85148  23632315.3874   23632316.6674   23632316.5634
       228.000         179.000
 139436753.74248  90859792.18348  24631007.5344   24631010.1774   24631007.2434
       210.000         152.000
 130795284.23848 101918390.62148  24889524.8844   24889528.0924   24889525.8414
       214.000         157.000
 09  1 18  0 30 30.0000000  0 10G26G12G15G27G 9G18G17G28G 5G10
 110393875.53048  86021190.29948  21007265.6604   21007268.0654   21007265.5634
       249.000         219.000
 132910312.29948  85774267.86348  23389056.2524   23389057.4494   23389055.8944
       229.000         182.000
  96931656.28348  93323363.94748  20348421.1744   20348422.6744   20348421.0174
       255.000         240.000
 129232608.89948 100700725.37848  24592153.2944   24592156.2314   24592154.0914
       212.000         161.000
 109909921.00848  85644084.90248  20915168.7284   20915171.5504   20915169.2614
       247.000         216.000
 118864356.15248  92621572.90448  22619136.6854   22619138.2844   22619137.5574
       233.000         189.000
 123475767.09848  96214875.51248  23496663.7694   23496665.1434   23496662.9404
       225.000         179.000
 124274142.89048  96836984.69948  23648590.3544   23648591.5804   23648590.9964
       227.000         178.000
 139322690.83548  90770912.02348  24609302.1224   24609305.1154   24609303.1914
       212.000         157.000
 130906081.06948 102004725.80048  24910608.6334   24910612.3584   24910609.3644
       205.000         140.000
 09  1 18  0 31  0.0000000  0 10G26G12G15G27G 9G18G17G28G 5G10
 110455495.55348  86069205.89448  21018991.4584   21018993.7914   21018991.3254
       249.000         219.000
 132804761.45148  85692020.45648  23368970.3554   23368971.3994   23368970.0554
       229.000         182.000
  96942681.37448  93331954.92648  20350519.1894   20350520.6774   20350518.9124
       255.000         240.000
 129302911.72248 100755506.77148  24605531.7214   24605534.1384   24605532.6304
       213.000         160.000
 109852968.01748  85599705.95248  20904331.0244   20904333.4344   20904331.2454
       246.000         216.000
 118819929.48348  92586954.71948  22610682.5704   22610684.3034   22610683.0374
       235.000         189.000
 123437952.19948  96185409.37348  23489467.8504   23489469.8214   23489467.8204
       225.000         180.000
 124359885.08948  96903796.81348  23664906.3234   23664907.9284   23664906.6124
       226.000         178.000
 139208728.93848  90682110.55748  24587616.3924   24587619.4874   24587616.5024
       212.000         160.000
 131016833.38448 102091026.36048  24931681.6224   24931686.1064   24931683.5744
       209.000         138.000
 09  1 18  0 31 30.0000000  0 10G26G12G15G27G 9G18G17G28G 5G10
 110517490.08948  86117513.31748  21030788.6214   21030791.0614   21030788.6924
       248.000         219.000
 132699424.23548  85609939.53748  23348925.0024   23348926.4694   23348925.4294
       230.000         184.000
  96954152.87848  93340893.75548  20352702.0344   20352703.6814   20352701.7444
       255.000         240.000
 129373228.79848 100810299.25848  24618912.4914   24618915.2324   24618912.4754
       210.000         161.000
 109796311.43948  85555557.97548  20893549.6524   20893552.1404   20893549.9044
       247.000         216.000
 118776032.08348  92552748.94448  22602329.3604   22602330.6734   22602329.9694
       234.000         189.000
 123400593.74248  96156298.86748  23482358.5754   23482360.3464   23482357.6454
       227.000         179.000
 124445843.09048  96970777.05648  23681263.8074   23681265.4554   23681263.4654
       227.000         179.000
 139094872.19048  90593391.04648  24565949.0864   24565953.7984   24565948.6304
       210.000         160.000
 131127541.46648 102177292.45548  24952750.5484   24952754.3114   24952750.9144
       216.000         154.000
 09  1 18  0 32  0.0000000  0 10G26G12G15G27G 9G18G17G28G 5G10
 110579857.56048  86166111.33548  21042656.7024   21042659.4644   21042656.5324
       248.000         219.000
 132594301.78048  85528025.94248  23328921.4094   23328922.7804   23328920.6094
       229.000         185.000
  96966070.47748  93350180.19248  20354970.0544   20354971.5284   20354969.8974
       255.000         240.000
 129443559.14748 100865102.13648  24632294.9354   24632298.3844   24632293.7174
       212.000         159.000
 109739950.66548  85511640.49348  20882824.4554   20882826.8504   20882824.8724
       247.000         216.000
 118732664.57948  92518956.07748  22594076.9044   22594078.1204   22594076.9414
       234.000         189.000
 123363692.63848  96127544.77948  23475336.8404   23475338.7704   23475337.3494
       225.000         179.000
 124532013.69948  97037922.97448  23697661.6534   23697663.2674   23697662.5284
       227.000         177.000
 138981121.61248  90504754.23848  24544302.8274   24544307.1824   24544302.8624
       210.000         159.000
 131238201.94748 102263521.38548  24973809.3234   24973812.6604   24973809.4514
       213.000         156.000
 09  1 18  0 32 30.0000000  0 10G26G12G15G27G 9G18G17G28G 5G10
 110642596.45848  86214998.77648  21054595.4644   21054598.1744   21054595.2644
       247.000         218.000
 132489395.25048  85446280.61148  23308958.2504   23308960.0344   23308958.4264
       228.000         186.000
  96978433.88648  93359814.01348  20357322.7704   20357324.0834   20357322.5664
       255.000         240.000
 129513901.84448 100919914.62648  24645680.3984   24645684.4454   24645679.9264
       210.000         161.000
 109683885.55548  85467953.40148  20872155.7814   20872158.2184   20872155.8854
       247.000         216.000
 118689827.88048  92485576.84348  22585925.1234   22585926.8364   22585926.0704
       234.000         190.000
 123327249.81648  96099147.78948  23468401.6654   23468403.8284   23468401.5904
       226.000         180.000
 124618393.70448  97105232.06448  23714099.1114   23714100.6374   23714099.6064
       227.000         175.000
 138867478.19548  90416200.91348  24522677.2634   24522681.3044   24522678.0414
       215.000         159.000
 131348811.24348 102349710.37048  24994856.7984   24994860.5414   24994858.6384
       207.000         145.000
 09  1 18  0 33  0.0000000  0 10G26G12G15G27G 9G18G17G28G 5G10
 110705705.70848  86264174.81048  21066604.7704   21066607.3234   21066604.5744
       247.000         218.000
 132384706.68548  85364705.11948  23289036.3984   23289038.5134   23289036.0354
       227.000         184.000
  96991243.19648  93369795.29048  20359760.3464   20359761.5834   20359760.2054
       255.000         240.000
 129584256.44648 100974736.37148  24659068.8634   24659072.7884   24659069.1414
       213.000         161.000
 109628116.01748  85424496.61748  20861543.1094   20861545.2884   20861543.4344
       247.000         216.000
 118647523.46848  92452612.35148  22577875.1324   22577876.2604   22577875.6734
       235.000         190.000
 123291267.19448  96071109.39348  23461554.0224   23461555.9454   23461553.5744
       228.000         180.000
 124704980.93948  97172702.64248  23730576.0604   23730577.5234   23730576.6264
       226.000         175.000
 138753943.64248  90327732.45148  24501073.4884   24501076.4574   24501074.7594
       216.000         160.000
 131459366.75948 102435857.48748  25015894.7274   25015898.0944   25015896.2584
       215.000         147.000
 09  1 18  0 33 30.0000000  0 10G26G12G15G27G 9G18G17G28G 5G10
 110769184.88248  86313639.09648  21078684.5734   21078686.8814   21078684.4004
       248.000         218.000
 132280238.65548  85283301.48348  23269156.5134   23269158.6164   23269156.4224
       229.000         186.000
  97004499.45548  93380124.83448  20362282.7684   20362284.2424   20362282.5474
       254.000         239.000
 129654623.38948 101029567.74848  24672459.3254   24672463.0434   24672459.3304
       211.000         160.000
 109572643.11248  85381270.98548  20850986.8304   20850989.3544   20850986.8704
       246.000         216.000
 118605752.39648  92420063.45148  22569925.8854   22569927.6864   22569926.5954
       234.000         191.000
 123255746.78448  96043431.16548  23454795.5454   23454797.3874   23454795.7284
       229.000         180.000
 124791773.33948  97240333.08848  23747091.9844   23747093.7054   23747091.8984
       226.000         176.000
 138640520.28648  90239350.64248  24479489.8394   24479493.2494   24479491.0364
       217.000         163.000
 131569866.46048 102521961.26448  25036922.6834   25036924.8824   25036923.2194
       215.000         148.000
 09  1 18  0 34  0.0000000  0 10G26G12G15G27G 9G18G17G28G 5G10
 110833033.16248  86363390.99948  21090834.2814   21090836.9854   21090834.1414
       247.000         217.000
 132175992.89648  85202071.03148  23249319.7174   23249321.4754   23249320.0734
       228.000         186.000
  97018203.25348  93390803.10948  20364890.4534   20364892.0404   20364890.1324
       254.000         239.000
 129725002.39548 101084408.52748  24685851.9924   24685856.0024   24685851.3644
       213.000         161.000
 109517467.26848  85338276.83248  20840487.1694   20840489.8464   20840487.0694
       246.000         217.000
 118564515.79248  92387931.02748  22562079.3144   22562080.2374   22562079.9664
       236.000         191.000
 123220690.96848  96016114.94148  23448124.3874   23448126.3454   23448124.4094
       229.000         181.000
 124878768.50148  97308121.51548  23763646.5704   23763648.8054   23763646.9674
       227.000         174.000
 138527209.85848  90151056.83348  24457927.3984   24457931.1404   24457929.1084
       213.000         161.000
 131680307.77748 102608019.48148  25057938.5014   25057942.0634   25057940.3914
       206.000         147.000
 09  1 18  0 34 30.0000000  0 10G26G12G15G27G 9G18G17G28G 5G10
 110897251.08048  86413430.92948  21103054.5924   21103057.3194   21103054.5394
       248.000         217.000
 132071972.27248  85121016.03648  23229524.8914   23229527.0414   23229523.8984
       227.000         184.000
  97032356.07248  93401831.27148  20367583.9194   20367585.2484   20367583.7894
       255.000         239.000
 129795394.51548 101139259.52248  24699246.9764   24699250.8584   24699247.5434
       215.000         163.000
 109462589.60048  85295515.02148  20830044.4364   20830047.0674   20830044.7394
       247.000         217.000
 118523816.25648  92356217.10348  22554334.4904   22554335.6014   22554334.8244
       236.000         192.000
 123186102.34548  95989162.76248  23441542.7124   23441544.0984   23441542.4024
       228.000         182.000
 124965965.02148  97376066.84548  23780239.9474   23780241.6324   23780241.5244
       228.000         173.000
 138414015.32048  90062853.29348  24436386.4214   24436390.7754   24436385.9784
       214.000         161.000
 131790689.31248 102694030.94748  25078943.1844   25078947.3384   25078942.8504
       207.000         148.000
 09  1 18  0 35  0.0000000  0 10G26G12G15G27G 9G18G17G28G 5G10
 110961837.29048  86463757.83348  21115345.0054   21115347.5354   21115344.8674
       248.000         217.000
 131968178.55948  85040137.81848  23209773.6254   23209775.2774   23209774.0924
       229.000         184.000
  97046957.99748  93413209.39148  20370362.5024   20370363.9014   20370362.3134
       254.000         239.000
 129865799.49948 101194120.52748  24712645.0314   24712648.8164   24712646.0574
       215.000         164.000
 109408010.15948  85252985.60048  20819658.1904   20819660.8354   20819658.2614
       246.000         217.000
 118483654.84148  92324922.49848  22546691.9694   22546693.2904   22546692.8584
       235.000         192.000
 123151982.55448  95962575.91348  23435049.9144   23435051.2374   23435049.6744
       230.000         182.000
 125053360.55848  97444167.27548  23796870.5114   23796872.0234   23796870.8954
       225.000         170.000
 138300938.25248  89974741.27048  24414868.3484   24414872.3174   24414868.3874
       214.000         159.000
 131901008.60648 102779994.04748  25099936.8804   25099939.8124   25099937.3484
       215.000         151.000
 09  1 18  0 35 30.0000000  0 10G26G12G15G27G 9G18G17G28G 5G10
 111026790.52448  86514370.74148  21127705.1694   21127707.8754   21127705.0944
       247.000         217.000
 131864613.74548  84959437.98048  23190065.4924   23190067.1584   23190065.6764
       227.000         184.000
  97062009.17748  93424937.57948  20373226.4604   20373228.0264   20373226.0694
       254.000         239.000
 129936216.94648 101248991.25848  24726045.4124   24726048.0754   24726046.0064
       212.000         163.000
 109353729.23348  85210688.77748  20809329.0894   20809331.4604   20809329.1824
       247.000         217.000
 118444032.31848  92294047.80948  22539151.6814   22539153.6984   22539152.3984
       234.000         193.000
 123118332.93348  95936355.42448  23428646.3664   23428648.3044   23428646.3454
       230.000         184.000
 125140952.54148  97512420.75448  23813538.8404   23813540.1004   23813539.1484
       226.000         168.000
 138187980.15348  89886721.96248  24393373.5034   24393377.0344   24393374.9124
       215.000         161.000
 142011238.42058  92865882.16558  25120916.3175   25120921.1815   25120917.7485
       211.000         147.000
 09  1 18  0 36  0.0000000  0 10G26G12G15G27G 9G18G17G28G 5G10
 111092110.80248  86565269.65148  21140135.4424   21140137.9274   21140135.3444
       248.000         217.000
 131761280.36948  84878918.47548  23170401.9564   23170403.9884   23170401.3564
       228.000         186.000
  97077510.97048  93437016.89048  20376176.3684   20376177.9204   20376176.0784
       254.000         239.000
 130006647.45748 101303872.15048  24739447.1264   24739451.1034   24739447.5064
       212.000         162.000
 109299747.74048  85168625.28648  20799056.4344   20799059.2084   20799056.6764
       247.000         218.000
 118404950.72348  92263594.61148  22531714.8174   22531716.8394   22531715.1224
       235.000         193.000
 123085155.86648  95910503.17348  23422333.2774   23422335.1614   23422332.9484
       231.000         184.000
 125228739.16548  97580825.95248  23830244.1214   23830244.7764   23830244.8044
       227.000         167.000
 138075143.59548  89798797.40548  24371901.9174   24371905.1124   24371902.6194
       214.000         161.000
 142121425.05148  92951741.87248  25141885.2264   25141888.2734   25141886.8444
       206.000         146.000
 09  1 18  0 36 30.0000000  0 10G26G12G15G27G 9G18G17G28G 5G10
 111157797.08248  86616453.76448  21152634.9634   21152637.4254   21152635.0844
       248.000         217.000
 131658180.28148  84798580.76448  23150782.3644   23150784.9734   23150782.4044
       228.000         187.000
  97093462.89448  93449446.94948  20379211.9614   20379213.4714   20379211.7314
       254.000         239.000
 130077090.73748 101358763.00448  24752852.3484   24752856.2664   24752852.5864
       217.000         164.000
 109246065.74548  85126795.17548  20788841.2644   20788843.8094   20788841.0964
       248.000         217.000
 118366410.84648  92233563.54048  22524380.9134   22524382.4724   22524381.7914
       235.000         193.000
 123052452.75548  95885020.23248  23416109.9254   23416111.7014   23416109.8704
       229.000         185.000
 125316717.75748  97649380.69548  23846986.0274   23846986.8744   23846987.2564
       226.000         168.000
 137962430.30748  89710968.88548  24350453.5934   24350456.5324   24350453.9114
       217.000         161.000
 142231541.98448  93037547.24948  25162841.3614   25162843.6814   25162841.5054
       208.000         149.000
 09  1 18  0 37  0.0000000  0 10G26G12G15G27G 9G18G17G28G 5G10
 111223848.52248  86667922.40148  21165204.1024   21165206.7454   21165203.9194
       247.000         217.000
 131555315.39248  84718426.31348  23131207.6554   23131210.2404   23131206.9444
       228.000         187.000
  97109865.98348  93462228.56948  20382333.3604   20382334.8504   20382333.0714
       253.000         238.000
 130147546.59348 101413663.64948  24766259.9824   24766263.1874   24766261.2774
       214.000         163.000
 109192683.57148  85085198.67548  20778683.2104   20778685.4014   20778683.3564
       248.000         219.000
 118328414.03848  92203955.63648  22517150.2644   22517152.0484   22517151.1064
       235.000         194.000
 123020225.50148  95859908.09848  23409977.3834   23409979.2594   23409976.8124
       229.000         185.000
 125404886.23048  97718083.40048  23863764.3294   23863764.8394   23863764.8624
       226.000         173.000
 137849841.99948  89623237.75248  24329028.3234   24329031.2604   24329029.3164
       218.000         162.000
 142341586.59548  93123296.26648  25183781.5244   25183784.9064   25183781.9384
       212.000         149.000
 09  1 18  0 37 30.0000000  0 10G26G12G15G27G 9G18G17G28G 5G10
 111290264.74148  86719675.30048  21177842.6494   21177845.1664   21177842.6134
       247.000         216.000
 131452688.19748  84638457.07648  23111678.7694   23111680.6014   23111678.5024
       227.000         186.000
  97126721.27648  93475362.56148  20385540.8394   20385542.2274   20385540.6164
       252.000         238.000
 130218015.47548 101468574.47248  24779668.9064   24779673.2144   24779668.7704
       216.000         166.000
 109139602.62048  85043836.90948  20768582.2194   20768584.8324   20768582.4614
       247.000         219.000
 118290962.01248  92174772.23048  22510023.5674   22510025.4284   22510023.6444
       237.000         194.000
 122988476.93548  95835168.96248  23403935.9764   23403937.6834   23403935.5644
       228.000         185.000
 125493243.13548  97786932.92448  23880577.6384   23880578.9954   23880577.6334
       225.000         172.000
 137737381.14048  89535605.88548  24307627.8944   24307630.7924   24307628.3614
       219.000         164.000
 142451556.56348  93208987.18348  25204707.5284   25204711.2394   25204707.9994
       209.000         148.000
 09  1 18  0 38  0.0000000  0 10G26G12G15G27G 9G18G17G28G 5G10
 111357044.24048  86771711.26448  21190550.5974   21190552.9174   21190550.5484
       248.000         216.000
 131350300.01248  84558674.09848  23092194.4864   23092196.6174   23092194.1704
       227.000         185.000
  97144028.46948  93488848.67548  20388834.2504   20388835.5854   20388834.0094
       252.000         238.000
 130288496.56848 101523494.78848  24793081.7664   24793085.5284   24793082.5824
       214.000         166.000
 109086822.21848  85002709.33248  20758538.2124   20758540.9514   20758538.3984
       249.000         219.000
 118254055.02048  92146013.52848  22503000.3814   22503001.9664   22503000.8684
       236.000         194.000
 122957208.15048  95810803.68248  23397985.2564   23397986.9564   23397984.8574
       227.000         184.000
 125581785.91148  97855927.27848  23897426.5184   23897427.8174   23897426.9954
       222.000         170.000
 137625048.92148  89448074.28448  24286251.5484   24286254.9774   24286252.8114
       222.000         166.000
 142561449.01348  93294617.66448  25225618.7644   25225622.6704   25225619.1644
       203.000         143.000
 09  1 18  0 38 30.0000000  0 10G26G12G15G27G 9G18G17G28G 5G10
 111424186.98148  86824030.27148  21203327.2354   21203329.9254   21203327.0914
       247.000         216.000
 131248153.84248  84479079.67248  23072757.5444   23072758.6174   23072757.5584
       229.000         186.000
  97161788.48848  93502687.64248  20392213.8544   20392215.2324   20392213.5064
       252.000         238.000
 130358990.67148 101578425.23848  24806496.2564   24806500.1264   24806496.0374
       219.000         168.000
 109034343.45148  84961816.79448  20748551.8614   20748554.5684   20748552.2394
       247.000         219.000
 118217695.11048  92117681.12748  22496081.1994   22496083.0014   22496081.7354
       236.000         194.000
 122926420.65248  95786813.43248  23392126.5874   23392128.8764   23392126.6514
       229.000         185.000
 125670512.03348  97925064.50748  23914310.7584   23914311.7364   23914310.9924
       222.000         166.000
 137512847.95448  89360644.96548  24264900.1664   24264903.8044   24264901.9264
       217.000         165.000
 142671262.71548  93380186.80048  25246515.0664   25246519.5694   25246514.8834
       206.000         142.000
 09  1 18  0 39  0.0000000  0 10G26G12G15G27G 9G18G17G28G 5G10
 111491691.26748  86876631.00648  21216172.7934   21216175.3754   21216172.7614
       247.000         215.000
 131146251.07448  84399674.93648  23053366.1804   23053367.7164   23053366.3334
       231.000         189.000
  97180000.81648  93516879.05848  20395679.7664   20395681.0464   20395679.5564
       252.000         238.000
 130429496.91048 101633365.13148  24819913.1704   24819916.8084   24819913.2454
       218.000         167.000
 108982166.19848  84921159.20548  20738622.8514   20738625.3804   20738622.8614
       248.000         219.000
 118181882.68748  92089775.33848  22489266.3334   22489267.9204   22489267.0024
       236.000         194.000
 122896115.81848  95763199.28648  23386360.0574   23386361.4594   23386359.9814
       228.000         184.000
 125759418.68648  97994342.42248  23931229.0354   23931229.8864   23931230.7974
       222.000         163.000
 137400779.34448  89273318.81348  24243574.4154   24243577.7544   24243575.2044
       216.000         165.000
 142780994.47548  93465692.05048  25267396.0234   25267400.8664   25267397.8644
       207.000         142.000
 09  1 18  0 39 30.0000000  0 10G26G12G15G27G 9G18G17G28G 5G10
 111559557.62548  86929513.87548  21229087.5574   21229089.8914   21229087.5014
       247.000         216.000
 131044594.21448  84320461.81348  23034021.2454   23034023.2124   23034021.4834
       228.000         189.000
  97198667.47248  93531424.50048  20399231.7364   20399233.1804   20399231.5044
       252.000         238.000
 130500016.58848 101688315.52148  24833332.5924   24833336.0534   24833332.8274
       214.000         167.000
 108930291.93248  84880737.70348  20728751.6114   20728754.0064   20728751.7984
       248.000         219.000
 118146620.09248  92062297.97548  22482556.5454   22482557.8594   22482556.6854
       237.000         195.000
 122866296.84348  95739963.72248  23380685.5614   23380686.8704   23380685.5024
       229.000         183.000
 125848504.91348  98063760.27548  23948181.3224   23948182.3444   23948182.1184
       220.000         161.000
 137288846.26948  89186098.24548  24222274.3184   24222277.6634   24222274.3874
       216.000         165.000
 142890642.93448  93551132.42248  25288263.9224   25288266.6324   25288264.9074
       209.000         148.000
 09  1 18  0 40  0.0000000  0 10G26G12G15G27G 9G18G17G28G 5G10
 111627784.90048  86982677.98348  21242070.7494   21242073.2934   21242070.6734
       247.000         216.000
 130943185.50748  84241442.05248  23014724.0724   23014725.8634   23014723.4914
       229.000         190.000
  97217788.44548  93546323.95248  20402870.3694   20402871.7444   20402870.1414
       252.000         238.000
 130570549.72248 101743276.39548  24846754.3754   24846758.0804   24846754.4464
       219.000         168.000
 108878721.21248  84840552.73448  20718937.8624   20718940.5134   20718937.7134
       250.000         220.000
 118111908.06248  92035249.63248  22475951.0654   22475952.3494   22475952.2264
       236.000         195.000
 122836965.09748  95717107.81748  23375103.9334   23375105.5204   23375103.8114
       229.000         184.000
 125937768.59948  98133316.41048  23965167.3464   23965168.7134   23965167.0624
       218.000         163.000
 137177050.48048  89098984.62848  24201000.2714   24201004.0014   24201000.1594
       214.000         163.000
 143000205.67148  93636505.96448  25309112.4814   25309115.5714   25309113.9014
       207.000         146.000
 09  1 18  0 40 30.0000000  0 10G26G12G15G27G 9G18G17G28G 5G10
 111696372.05548  87036122.50848  21255122.3644   21255124.8914   21255122.2794
       247.000         215.000
 130842026.55848  84162616.91848  22995474.0754   22995476.0614   22995474.3114
       229.000         188.000
  97237364.04848  93561577.66548  20406595.4484   20406596.9264   20406595.1594
       251.000         237.000
 130641095.95748 101798247.47448  24860179.4914   24860181.8804   24860180.7284
       217.000         165.000
 108827453.79548  84800604.09948  20709182.2164   20709184.6774   20709182.3374
       250.000         220.000
 118077747.76648  92008631.20648  22469450.3704   22469451.9994   22469450.2234
       236.000         194.000
 122808122.00948  95694632.69548  23369615.2284   23369616.4344   23369614.6454
       229.000         184.000
 126027207.07148  98203008.70048  23982187.1324   23982188.2054   23982185.9394
       220.000         163.000
 137065393.54948  89011979.23548  24179752.2464   24179755.9804   24179752.6924
       217.000         165.000
 143109679.59248  93721810.30348  25329943.8394   25329947.7544   25329943.9424
       205.000         144.000
 09  1 18  0 41  0.0000000  0 10G26G12G15G27G 9G18G17G28G 5G10
 111765318.22548  87089846.79148  21268242.5034   21268244.7634   21268242.5014
       246.000         215.000
 130741119.66248  84083988.17248  22976272.0004   22976274.2494   22976272.1124
       230.000         189.000
  97257394.41548  93577185.73748  20410407.0344   20410408.6594   20410406.6774
       252.000         237.000
 130711655.27648 101853228.73948  24873605.6114   24873609.7414   24873605.9484
       216.000         166.000
 108776490.10648  84760892.15448  20699484.0614   20699486.4644   20699484.4684
       250.000         220.000
 118044139.92948  91982443.27448  22463055.2714   22463056.4584   22463055.9834
       237.000         194.000
 122779769.21548  95672539.60748  23364219.7344   23364221.1034   23364219.3424
       231.000         184.000
 126116818.30848  98272835.64148  23999239.7984   23999241.1764   23999241.5104
       220.000         164.000
 136953877.39348  88925083.53448  24158531.4634   24158534.9684   24158532.9364
       219.000         167.000
 143219062.43648  93807043.68648  25350758.8884   25350761.4724   25350760.2844
       211.000         142.000
 09  1 18  0 41 30.0000000  0 10G26G12G15G27G 9G18G17G28G 5G10
 111834621.60248  87143849.42348  21281430.5144   21281432.9394   21281430.2534
       247.000         215.000
 130640465.79748  84005556.59548  22957118.3744   22957120.4244   22957118.0484
       231.000         190.000
  97277879.22148  93593147.91648  20414305.3244   20414306.7854   20414305.0084
       252.000         237.000
 130782226.74848 101908219.49048  24887035.6974   24887038.6624   24887036.1944
       216.000         165.000
 108725829.90548  84721416.68448  20689843.7444   20689846.0784   20689844.1464
       249.000         220.000
 118011085.01748  91956686.19248  22456765.2474   22456766.3714   22456766.0384
       236.000         195.000
 122751907.49648  95650829.18748  23358918.1424   23358919.4904   23358918.0834
       230.000         184.000
 126206599.23348  98342794.77048  24016324.6724   24016326.2164   24016325.7514
       217.000         161.000
 136842503.01648  88838298.34148  24137338.2584   24137341.2504   24137339.2324
       223.000         167.000
 143328351.31148  93892203.90248  25371557.4304   25371558.9524   25371559.3364
       209.000         139.000
 09  1 18  0 42  0.0000000  0 10G26G12G15G27G 9G18G17G28G 5G10
 111904282.29548  87198130.47248  21294686.7194   21294688.9004   21294686.9494
       246.000         215.000
 130540068.02648  83927324.57848  22938013.1244   22938015.3494   22938012.8794
       230.000         190.000
  97298819.90048  93609465.32048  20418290.2074   20418291.5904   20418289.9494
       252.000         237.000
 130852811.42048 101963220.52648  24900467.5674   24900470.8404   24900468.0374
       215.000         166.000
 108675474.67548  84682178.84448  20680261.3274   20680263.8824   20680261.1904
       250.000         220.000
 117978584.90648  91931361.42648  22450580.3134   22450582.0714   22450580.7464
       236.000         193.000
 122724539.40348  95629503.41748  23353709.5874   23353711.3224   23353709.3854
       230.000         185.000
 126296548.42248  98412885.04048  24033440.6904   24033443.3224   24033441.2374
       216.000         162.000
 136731273.43248  88751625.93948  24116172.2804   24116174.9894   24116173.5264
       223.000         170.000
 143437544.59048  93977289.56348  25392335.1374   25392337.8334   25392336.0894
       204.000         138.000
 09  1 18  0 42 30.0000000  0 10G26G12G15G27G 9G18G17G28G 5G10
 111974299.86048  87252689.59848  21308010.3674   21308013.0034   21308010.3724
       246.000         215.000
 130439928.65348  83849293.90248  22918957.1704   22918959.1794   22918957.1354
       229.000         190.000
  97320216.70048  93626138.14748  20422361.7614   20422363.2004   20422361.5534
       252.000         237.000
 130923409.64348 102018232.10148  24913902.1004   24913905.3624   24913902.9784
       217.000         167.000
 108625424.93448  84643179.04948  20670737.1434   20670739.6724   20670737.4524
       249.000         220.000
 117946640.78148  91906469.88348  22444501.6784   22444503.0214   22444502.4054
       235.000         193.000
 122697666.42848  95608563.43348  23348596.0844   23348597.6234   23348595.6494
       231.000         187.000
 126386664.06248  98483104.99148  24050589.8104   24050592.0454   24050591.0494
       218.000         160.000
 136620190.57548  88665067.88348  24095033.6374   24095036.7754   24095034.1004
       221.000         169.000
 143546640.20548  94062299.13548  25413095.3344   25413097.5794   25413095.9614
       205.000         138.000
 09  1 18  0 43  0.0000000  0 10G26G12G15G27G 9G18G17G28G 5G10
 112044672.71648  87307525.59048  21321402.1734   21321404.6114   21321402.1444
       247.000         215.000
 130340048.94648  83771465.58348  22899950.5154   22899952.5194   22899950.7324
       231.000         191.000
  97342069.73648  93643166.48348  20426520.3094   20426521.7324   20426520.0614
       251.000         236.000
 130994021.17048 102073254.06048  24927338.4524   24927342.3964   24927338.9084
       216.000         165.000
 108575680.79248  84604417.38648  20661271.3044   20661273.8084   20661271.4654
       251.000         220.000
 117915253.53248  91882012.29048  22438528.6524   22438530.1204   22438528.8454
       237.000         192.000
 122671290.51348  95588010.78548  23343576.8974   23343578.6774   23343576.5434
       230.000         187.000
 126476943.74748  98553452.80748  24067769.1384   24067771.4744   24067770.4664
       214.000         159.000
 136509256.16648  88578625.49148  24073923.2574   24073926.6544   24073924.1554
       219.000         169.000
 143655635.64848  94147230.70848  25433834.7224   25433838.9824   25433837.9624
       203.000         140.000
 09  1 18  0 43 30.0000000  0 10G26G12G15G27G 9G18G17G28G 5G10
 112115400.84848  87362638.41048  21334861.1714   21334863.5684   21334861.1724
       246.000         214.000
 130240431.64148  83693841.71848  22880994.3244   22880996.1824   22880994.5604
       231.000         192.000
  97364379.99348  93660551.09148  20430765.7384   20430767.2384   20430765.4704
       251.000         236.000
 131064646.30648 102128286.60748  24940777.6644   24940781.7024   24940777.2794
       215.000         164.000
 108526243.04548  84565894.48148  20651863.4214   20651865.8534   20651864.0864
       250.000         220.000
 117884424.35948  91857989.55548  22432661.9524   22432663.2824   22432662.6514
       235.000         192.000
 122645413.51648  95567846.89548  23338652.9684   23338654.3194   23338652.5354
       232.000         189.000
 126567385.79548  98623927.13048  24084979.6564   24084982.0514   24084979.7504
       212.000         159.000
 136398472.54148  88492300.60748  24052841.2014   24052845.3174   24052840.5684
       218.000         169.000
 143764528.85848  94232082.54748  25454557.2054   25454563.0944   25454558.2984
       205.000         140.000
 09  1 18  0 44  0.0000000  0 11G26G12G15G27G 9G18G22G17G28G 5G10
 112186481.34448  87418025.80948  21348387.2564   21348389.5404   21348387.3584
       246.000         214.000
 130141076.94248  83616422.48848  22862087.6204   22862090.0034   22862087.2534
       230.000         192.000
  97387145.71948  93678290.61148  20435098.0274   20435099.4274   20435097.8054
       251.000         236.000
 131135283.37748 102183328.49148  24954220.1784   24954223.3534   24954220.2664
       220.000         166.000
 108477110.97248  84527609.75348  20642514.1274   20642516.3594   20642514.3264
       250.000         220.000
 117854152.45148  91834401.04448  22426901.4764   22426902.8384   22426901.7674
       235.000         192.000
 138321913.38358  89991100.90358  24418848.8175   24418849.1205   24418847.2605
       216.000         168.000
 122620035.27848  95548071.63348  23333823.7484   23333825.2874   23333823.9704
       232.000         189.000
 126657986.34548  98694524.93948  24102220.2834   24102222.7884   24102221.6124
       214.000         155.000
 136287839.93648  88406093.37648  24031788.9344   24031792.9444   24031789.2054
       218.000         171.000
 143873316.16848  94316851.90348  25475259.9774   25475261.7374   25475260.7334
       203.000         141.000
 09  1 18  0 44 30.0000000  0 11G26G12G15G27G 9G18G22G17G28G 5G10
 112257914.67648  87473688.13848  21361980.8084   21361983.1134   21361981.1124
       246.000         214.000
 130041988.07048  83539210.37748  22843231.4914   22843233.8274   22843231.5984
       230.000         192.000
  97410368.88448  93696386.57748  20439517.2544   20439518.7414   20439516.9784
       251.000         236.000
 131205933.73348 102238380.68948  24967664.7324   24967667.6794   24967665.1624
       218.000         165.000
 108428285.41048  84489563.87448  20633222.6494   20633225.1714   20633222.9584
       250.000         221.000
 117824440.00248  91811248.48348  22421247.4004   22421249.0304   22421248.1734
       236.000         193.000
 138248176.63748  89933643.71848  24404817.3204   24404817.3214   24404817.5574
       218.000         160.000
 122595158.21548  95528686.92848  23329089.3984   23329091.0664   23329089.4844
       230.000         189.000
 126748744.17848  98765245.30548  24119490.9664   24119493.5704   24119493.4484
       212.000         155.000
 136177361.33248  88320006.16948  24010765.5344   24010769.5534   24010766.1284
       219.000         171.000
 143981996.78948  94401538.08848  25495941.4944   25495943.2104   25495941.9554
       206.000         140.000
 09  1 18  0 45  0.0000000  0 11G26G12G15G27G 9G18G22G17G28G 5G10
 112329699.92248  87529624.69348  21375640.6924   21375643.3974   21375640.6004
       246.000         214.000
 129943167.16948  83462207.09848  22824426.2534   22824428.8014   22824426.2394
       230.000         192.000
  97434049.73448  93714839.18448  20444023.4874   20444025.0204   20444023.2064
       251.000         236.000
 131276597.49048 102293443.37048  24981111.3074   24981114.3344   24981112.9104
       220.000         162.000
 108379767.04248  84451757.36048  20623990.0404   20623992.5634   20623990.1124
       250.000         221.000
 117795288.27648  91788532.83948  22415700.0214   22415701.7684   22415700.5164
       236.000         193.000
 138174818.45048  89876481.43248  24390858.0774   24390857.3654   24390859.9194
       222.000         163.000
 122570784.29648  95509694.28048  23324451.0374   23324452.8914   23324450.8784
       231.000         188.000
 126839657.40148  98836086.78048  24136791.1104   24136793.5424   24136791.2194
       213.000         156.000
 136067038.81048  88234040.59248  23989771.7374   23989775.8654   23989772.3644
       222.000         172.000
 144090568.07448  94486139.14448  25516600.9744   25516602.7764   25516602.1804
       196.000         136.000
 09  1 18  0 45 30.0000000  0 11G26G12G15G27G 9G18G22G17G28G 5G10
 112401836.91748  87585835.32548  21389368.1264   21389370.6444   21389368.0944
       246.000         213.000
 129844616.95248  83385414.72648  22805672.8394   22805675.0864   22805672.5714
       230.000         193.000
  97458188.88048  93733648.90248  20448617.0704   20448618.4954   20448616.8254
       251.000         236.000
 131347275.42548 102348517.06348  24994560.9414   24994564.0584   24994562.0104
       220.000         162.000
 108331557.23748  84414191.28648  20614815.9854   20614818.7274   20614816.5424
       250.000         221.000
 117766698.62048  91766255.17948  22410259.2824   22410260.9184   22410260.1824
       236.000         192.000
 138101841.58948  89819616.32848  24376970.3264   24376970.5204   24376970.1614
       215.000         167.000
 122546915.56748  95491095.28448  23319909.4044   23319911.0624   23319909.1654
       233.000         189.000
 126930724.63248  98907048.25248  24154120.6404   24154123.0154   24154121.5014
       213.000         156.000
 135956874.93148  88148198.60648  23968808.4014   23968812.2504   23968809.1694
       223.000         171.000
 144199028.06848  94570653.40848  25537239.8354   25537243.0374   25537240.3014
       198.000         136.000
 09  1 18  0 46  0.0000000  0 11G26G12G15G27G 9G18G22G17G28G 5G10
 112474324.89348  87642319.46048  21403161.9814   21403164.4934   21403161.6724
       245.000         213.000
 129746339.24248  83308834.70948  22786970.9374   22786973.3664   22786970.4484
       229.000         192.000
  97482787.13248  93752816.36548  20453297.8924   20453299.4064   20453297.5294
       251.000         236.000
 131417967.76348 102403602.01248  25008013.9274   25008015.7524   25008014.8824
       219.000         163.000
 108283656.68448  84376866.18348  20605700.9054   20605703.4484   20605700.7964
       251.000         222.000
 117738672.16448  91744416.36848  22404926.3724   22404928.1024   22404926.7964
       237.000         194.000
 138029248.37748  89763050.23548  24363155.6694   24363156.9624   24363153.8314
       217.000         165.000
 122523553.65348  95472891.19348  23315463.6394   23315465.2424   23315463.2394
       231.000         188.000
 127021943.84848  98978128.14848  24171479.3224   24171481.3604   24171478.4554
       211.000         157.000
 135846871.74248  88062481.86348  23947875.4524   23947879.3814   23947876.5854
       221.000         171.000
 144307375.10248  94655079.66648  25557857.0234   25557860.3714   25557857.2424
       199.000         133.000
 09  1 18  0 46 30.0000000  0 11G26G12G15G27G 9G18G22G17G28G 5G10
 112547163.15848  87699076.53748  21417022.7754   21417025.2194   21417022.8274
       246.000         213.000
 129648336.37248  83232468.84948  22768321.7874   22768324.3284   22768321.4384
       231.000         193.000
  97507844.53748  93772341.60648  20458066.1964   20458067.8654   20458065.9564
       251.000         236.000
 131488674.60048 102458698.25848  25021468.0434   25021472.0644   25021468.8874
       218.000         165.000
 108236065.90548  84339782.46048  20596644.8414   20596647.4004   20596645.1354
       251.000         222.000
 117711209.83648  91723017.14748  22399700.4634   22399702.0304   22399701.4514
       236.000         193.000
 137957040.68548  89706784.41648  24349415.9324   24349416.6934   24349415.8124
       221.000         165.000
 122500700.22148  95455083.32348  23311114.4494   23311116.2144   23311114.2374
       230.000         187.000
 127113312.88248  99049324.80048  24188866.2454   24188868.2384   24188865.8044
       215.000         156.000
 135737031.31248  87976891.94248  23926973.5674   23926977.3334   23926974.2684
       221.000         172.000
 144415606.76848  94739416.05748  25578453.4474   25578455.9384   25578454.8904
       202.000         138.000
 09  1 18  0 47  0.0000000  0 10G26G12G15G27G 9G18G22G17G28G 5
 112620348.97848  87756104.44648  21430949.6264   21430952.0994   21430949.6194
       245.000         213.000
 129550608.62348  83156317.37748  22749724.8604   22749727.2514   22749724.7784
       232.000         194.000
  97533359.97248  93792223.76248  20462921.5594   20462923.2824   20462921.1834
       251.000         236.000
 131559394.59448 102513804.74848  25034925.6734   25034928.9634   25034926.0034
       219.000         161.000
 108188783.69948  84302939.18848  20587647.1114   20587649.7204   20587647.2254
       250.000         222.000
 117684311.44148  91702057.36148  22394582.0744   22394583.1844   22394582.4444
       236.000         193.000
 137885219.88048  89650820.18448  24335748.7754   24335748.3084   24335748.5384
       218.000         167.000
 122478355.46148  95437671.84048  23306862.3174   23306864.5254   23306861.8534
       228.000         189.000
 127204828.32348  99120635.50048  24206281.6644   24206283.2134   24206282.6614
       214.000         155.000
 135627354.03248  87891429.15248  23906102.8404   23906106.4374   23906103.8194
       222.000         173.000
 09  1 18  0 47 30.0000000  0 10G26G12G15G27G 9G18G22G17G28G 5
 112693881.89948  87813402.82048  21444942.4924   21444944.9004   21444942.3874
       246.000         212.000
 129453158.21448  83080382.01448  22731180.9434   22731182.8514   22731180.4714
       233.000         194.000
  97559334.07548  93812463.31748  20467864.3434   20467865.9614   20467863.9694
       251.000         236.000
 131630128.03148 102568921.69248  25048385.6414   25048388.9954   25048385.8014
       220.000         161.000
 108141810.66948  84266336.83348  20578708.3184   20578711.0044   20578708.8214
       249.000         222.000
 117657977.39048  91681537.30348  22389570.6114   22389571.7464   22389571.2354
       236.000         192.000
 137813788.12848  89595159.06448  24322155.6784   24322156.4314   24322155.8024
       212.000         164.000
 122456520.67348  95420657.71648  23302707.3954   23302709.2564   23302706.8954
       231.000         189.000
 127296488.21448  99192058.78448  24223723.5194   24223725.6074   24223724.8374
       212.000         155.000
 135517841.92648  87806095.05748  23885263.3434   23885266.7444   23885264.2184
       224.000         174.000
 09  1 18  0 48  0.0000000  0 10G26G12G15G27G 9G18G22G17G28G 5
 112767761.77648  87870971.54348  21459001.2674   21459003.7094   21459001.1604
       245.000         213.000
 129355988.03448  83004664.99748  22712690.6344   22712691.3984   22712690.5654
       233.000         194.000
  97585767.79248  93833061.01548  20472894.5654   20472896.1184   20472894.4164
       251.000         235.000
 131700876.03848 102624050.01148  25061848.5744   25061852.6964   25061849.6844
       220.000         165.000
 108095148.51548  84229976.72248  20569828.6554   20569831.5634   20569828.7784
       250.000         222.000
 117632209.26248  91661458.23748  22384666.8544   22384668.6944   22384667.1274
       235.000         192.000
 137742748.36348  89539803.44448  24308637.6544   24308638.1524   24308636.7824
       221.000         174.000
 122435198.16748  95404042.78048  23298650.3914   23298651.5664   23298650.0984
       231.000         189.000
 127388291.44848  99263593.75848  24241193.0744   24241194.7844   24241192.9574
       215.000         156.000
 135408497.87948  87720891.90148  23864455.8624   23864459.1854   23864455.7194
       222.000         174.000
 09  1 18  0 48 30.0000000  0 10G26G12G15G27G 9G18G22G17G28G 5
 112841986.30148  87928808.83048  21473125.6274   21473128.2714   21473125.4334
       244.000         212.000
 129259098.77348  82929166.88948  22694253.2154   22694253.8354   22694253.5954
       232.000         194.000
  97612659.96348  93854015.95048  20478011.7954   20478013.5074   20478011.3634
       251.000         235.000
 131771637.25048 102679188.61548  25075314.3414   25075317.5284   25075315.1924
       218.000         162.000
 108048796.08748  84193857.95548  20561008.1924   20561010.8154   20561008.4304
       250.000         222.000
 117607006.90648  91641820.02548  22379871.0874   22379872.3884   22379871.8974
       237.000         194.000
 137672101.53348  89484753.99248  24295193.9524   24295194.3344   24295194.6394
       223.000         167.000
 122414388.36148  95387827.34748  23294689.9744   23294691.9464   23294690.0444
       231.000         190.000
 127480234.76048  99335237.89848  24258689.5084   24258690.8594   24258691.8234
       216.000         155.000
 135299322.52148  87635820.22948  23843680.0444   23843683.9204   23843680.7754
       221.000         173.000
 09  1 18  0 49  0.0000000  0 10G26G12G15G27G 9G18G22G17G28G 5
 112916555.16548  87986914.44048  21487315.7324   21487318.2644   21487315.7654
       245.000         212.000
 129162493.07348  82853889.74048  22675869.0034   22675870.1264   22675868.7514
       233.000         194.000
  97640011.43948  93875328.77948  20483216.8674   20483218.3274   20483216.7794
       251.000         235.000
 131842412.32048 102734337.98848  25088782.8584   25088785.7724   25088782.7284
       221.000         162.000
 108002754.26848  84157981.22548  20552246.8424   20552249.3244   20552246.8104
       250.000         222.000
 117582371.55948  91622623.64248  22375183.4224   22375184.5474   22375183.6904
       236.000         193.000
 137601850.23348  89430012.71648  24281825.6264   24281824.9044   24281826.8764
       219.000         166.000
 122394092.80148  95372012.63948  23290827.7664   23290829.6314   23290827.9274
       232.000         191.000
 127572316.35848  99406989.82348  24276212.0744   24276213.6774   24276211.9874
       213.000         154.000
 135190318.18748  87550881.80548  23822937.5324   23822941.4894   23822937.4454
       225.000         176.000
 09  1 18  0 49 30.0000000  0 10G26G12G15G27G 9G18G22G17G28G 5
 112991468.22448  88045288.24048  21501571.1644   21501573.9684   21501571.0704
       244.000         212.000
 129066173.47848  82778835.52948  22657539.9734   22657541.2764   22657539.9974
       233.000         194.000
  97667823.36548  93897000.40848  20488509.1964   20488510.7364   20488508.8824
       251.000         235.000
 131913202.25148 102789498.97348  25102253.3044   25102255.9544   25102253.7484
       220.000         163.000
 107957024.75648  84122347.84748  20543544.8104   20543547.2664   20543544.9874
       250.000         222.000
 117558304.84948  91603870.35948  22370603.6414   22370604.9234   22370603.8464
       237.000         193.000
 137531997.90748  89375582.26348  24268532.8344   24268532.8084   24268531.3094
       217.000         166.000
 122374314.09748  95356600.68548  23287064.1614   23287065.8704   23287064.2054
       233.000         191.000
 127664535.07748  99478848.50348  24293760.2964   24293761.8714   24293761.3704
       212.000         154.000
 135081487.78448  87466078.90448  23802227.9284   23802231.4364   23802229.5304
       224.000         175.000
 09  1 18  0 50  0.0000000  0 10G26G12G15G27G 9G18G22G17G28G 5
 113066723.97248  88103929.08748  21515891.7754   21515894.3874   21515891.6424
       244.000         212.000
 128970141.21948  82704005.21848  22639265.6774   22639266.9554   22639265.7924
       233.000         195.000
  97696095.07348  93919030.30148  20493889.2524   20493890.6794   20493888.8764
       251.000         235.000
 131984006.57148 102844671.15948  25115727.0894   25115730.1054   25115727.2324
       217.000         160.000
 107911607.13348  84086957.49648  20534902.0574   20534904.6274   20534902.1344
       248.000         221.000
 117534806.73048  91585560.13048  22366132.1024   22366133.1524   22366132.4694
       236.000         192.000
 137462545.70448  89321463.65048  24255316.3184   24255317.0474   24255317.6784
       221.000         166.000
 122355052.70948  95341591.80848  23283399.0464   23283400.4844   23283398.7894
       233.000         191.000
 127756888.18348  99550811.96748  24311334.5754   24311336.0554   24311333.3584
       211.000         153.000
 134972832.46748  87381412.43848  23781551.3514   23781554.7484   23781552.8044
       223.000         176.000
 09  1 18  0 50 30.0000000  0 10G26G12G15G27G 9G18G22G17G28G 5
 113142320.98148  88162835.82948  21530277.5494   21530280.0254   21530277.2834
       244.000         211.000
 128874398.00948  82629400.13748  22621046.5974   22621047.8134   22621045.9864
       235.000         195.000
  97724826.52348  93941418.44348  20499356.8054   20499357.9724   20499356.6814
       251.000         235.000
 132054825.18848 102899854.52948  25129202.9474   25129206.2014   25129202.6284
       216.000         162.000
 107866501.67548  84051810.39448  20526318.7594   20526321.1284   20526319.0074
       249.000         222.000
 117511877.71148  91567693.34848  22361768.6224   22361770.3344   22361769.2944
       235.000         193.000
 137393495.17748  89267658.08548  24242176.7124   24242177.4344   24242177.5674
       216.000         168.000
 122336309.65348  95326986.84248  23279832.2264   23279833.7874   23279831.8754
       233.000         192.000
 127849373.46948  99622878.42448  24328933.1304   24328935.1334   24328934.3984
       211.000         150.000
 134864353.95548  87296883.73748  23760908.2994   23760912.1004   23760909.2634
       223.000         177.000
 09  1 18  0 51  0.0000000  0 10G26G12G15G27G 9G18G22G17G28G 5
 113218259.36848  88222008.60148  21544728.0754   21544730.4894   21544727.9434
       244.000         211.000
 128778946.65848  82555022.47948  22602882.9414   22602884.2844   22602883.4714
       235.000         195.000
  97754018.91348  93964165.75648  20504911.6204   20504913.1644   20504911.3594
       251.000         235.000
 132125659.23348 102955049.89748  25142682.2224   25142685.2374   25142682.2604
       214.000         159.000
 107821709.73048  84016907.58348  20517795.2014   20517797.5654   20517795.3704
       249.000         222.000
 117489519.34848  91550271.24048  22357514.2264   22357516.0314   22357514.7094
       237.000         195.000
 137324850.23148  89214168.50848  24229114.2244   24229113.8294   24229113.3544
       216.000         166.000
 122318087.41648  95312787.70248  23276364.2224   23276366.1944   23276364.3654
       234.000         190.000
 127941989.73948  99695046.92848  24346558.6054   24346559.8684   24346559.8994
       213.000         151.000
 134756055.01748  87212494.97748  23740300.0604   23740303.4874   23740300.0984
       227.000         177.000
 09  1 18  0 51 30.0000000  0 10G26G12G15G27G 9G18G22G17G28G 5
 113294535.92648  88281444.86448  21559243.1204   21559245.5294   21559242.8494
       245.000         211.000
 128683787.59848  82480872.57148  22584774.7364   22584776.1394   22584774.7814
       235.000         196.000
  97783670.20948  93987270.65248  20510554.0824   20510555.7824   20510553.7584
       250.000         235.000
 132196506.52848 103010255.56248  25156164.5804   25156168.0494   25156164.7384
       218.000         160.000
 107777229.61648  83982247.75848  20509331.0314   20509333.3014   20509331.4424
       248.000         222.000
 117467730.40548  91533292.84048  22353368.2114   22353369.4924   22353369.1844
       237.000         195.000
 137256609.88948  89160994.20948  24216127.5924   24216129.0224   24216130.1764
       217.000         169.000
 122300385.02448  95298993.65148  23272995.8724   23272997.4674   23272995.6084
       234.000         191.000
 128034732.81448  99767314.26648  24364206.5424   24364208.1114   24364207.1074
       210.000         153.000
 134647935.42948  87128245.96548  23719725.4894   23719728.7294   23719727.2254
       227.000         177.000
 09  1 18  0 52  0.0000000  0 10G26G12G15G27G 9G18G22G17G28G 5
 113371151.62848  88341145.40848  21573822.5924   21573825.1804   21573822.5154
       244.000         211.000
 128588923.82748  82406952.76348  22566722.4394   22566724.2194   22566722.1014
       234.000         195.000
  97813782.49148  94010734.76148  20516284.1764   20516285.8974   20516283.8514
       251.000         235.000
 132267369.08948 103065473.17848  25169648.8144   25169652.2114   25169649.8304
       217.000         158.000
 107733063.70848  83947832.77548  20500926.3664   20500928.8764   20500926.3864
       249.000         222.000
 117446513.13848  91516759.89848  22349330.5494   22349332.1964   22349330.5204
       237.000         195.000
 137188778.51248  89108138.59248  24203220.1954   24203221.5684   24203219.4514
       218.000         171.000
 122283205.47848  95285606.98948  23269726.6964   23269728.5624   23269726.1984
       233.000         191.000
 128127602.72548  99839680.40848  24381879.1124   24381880.7804   24381878.2144
       213.000         153.000
 134539998.91948  87044139.61748  23699185.9694   23699188.8184   23699186.7554
       226.000         175.000
 09  1 18  0 52 30.0000000  0 10G26G12G15G27G 9G18G22G17G28G 5
 113448105.65948  88401109.57848  21588466.4594   21588469.0964   21588466.3554
       244.000         211.000
 128494357.48148  82333264.71948  22548726.7174   22548728.6084   22548726.6644
       235.000         196.000
  97844355.82348  94034558.13348  20522102.1724   20522103.8214   20522101.9524
       251.000         235.000
 132338247.18948 103120702.85048  25183136.2854   25183140.0624   25183136.2164
       216.000         159.000
 107689212.66848  83913663.14348  20492581.7844   20492584.2294   20492582.3244
       248.000         222.000
 117425868.49548  91500673.14948  22345402.0804   22345403.4524   22345402.4304
       238.000         196.000
 137121358.29648  89055603.37648  24190390.9714   24190391.8184   24190390.4224
       219.000         169.000
 122266550.22848  95272628.86648  23266557.3054   23266559.1954   23266556.6274
       233.000         191.000
 128220597.34648  99912143.76148  24399575.7464   24399577.4374   24399576.9824
       215.000         155.000
 134432247.65248  86960177.60148  23678681.4274   23678684.4654   23678682.1924
       225.000         176.000
 09  1 18  0 53  0.0000000  0 10G26G12G15G27G 9G18G22G17G28G 5
 113525395.67348  88461335.55348  21603174.2384   21603176.7954   21603174.3344
       244.000         210.000
 128400089.62948  82259809.24848  22530788.2394   22530789.8384   22530788.2494
       235.000         197.000
  97875389.16348  94058739.94848  20528007.7414   20528009.2914   20528007.6734
       251.000         234.000
 132409139.83448 103175943.83748  25196627.0764   25196629.5124   25196627.5594
       213.000         157.000
 107645675.92048  83879738.40748  20484296.9914   20484299.5614   20484297.0124
       248.000         223.000
 117405795.93048  91485032.18948  22341582.3484   22341583.8884   22341583.2184
       236.000         195.000
 137054350.08148  89003389.23448  24177639.4954   24177640.1194   24177640.1654
       222.000         169.000
 122250419.90748  95260059.78948  23263487.9034   23263489.4184   23263487.9474
       234.000         192.000
 128313713.75348  99984702.01348  24417295.5884   24417297.0514   24417294.7704
       216.000         158.000
 134324682.35748  86876360.51548  23658212.4134   23658215.6314   23658212.1174
       226.000         178.000
 09  1 18  0 53 30.0000000  0 10G26G12G15G27G 9G18G22G17G28G 5
 113603021.14648  88521822.92948  21617945.7864   21617948.4524   21617945.7514
       243.000         210.000
 128306122.49848  82186588.12348  22512907.0884   22512908.7944   22512906.6744
       237.000         199.000
  97906883.10548  94083280.67848  20534000.8294   20534002.3254   20534000.5884
       251.000         234.000
 132480047.40348 103231196.52348  25210120.2214   25210124.3324   25210119.9454
       218.000         155.000
 107602453.75348  83846058.80348  20476071.9514   20476074.7224   20476072.1524
       249.000         223.000
 117386295.89648  91469837.34348  22337871.5784   22337872.9894   22337872.1084
       236.000         194.000
 136987756.28048  88951497.93348  24164967.8264   24164967.9474   24164967.6674
       224.000         171.000
 122234815.65248  95247900.64048  23260518.2664   23260520.2524   23260518.2044
       232.000         192.000
 128406950.16248 100057353.74848  24435037.7614   24435039.6974   24435038.0064
       212.000         158.000
 134217305.22548  86792690.03148  23637779.1944   23637782.5324   23637780.1554
       226.000         178.000
 09  1 18  0 54  0.0000000  0 10G26G12G15G27G 9G18G22G17G28G 5
 113680980.50648  88582570.47348  21632781.1104   21632783.5764   21632781.1374
       243.000         210.000
 128212457.33048  82113602.29248  22495083.2424   22495085.0614   22495083.0694
       236.000         199.000
  97938837.04948  94108179.85048  20540081.3594   20540083.0044   20540081.1454
       250.000         234.000
 132550969.61348 103286460.59948  25223616.2474   25223618.7434   25223616.7434
       217.000         156.000
 107559546.45248  83812624.54448  20467907.0954   20467909.7084   20467907.1844
       248.000         223.000
 117367368.86548  91455089.01748  22334269.6874   22334271.4014   22334270.5524
       237.000         194.000
 136921578.36248  88899930.71648  24152374.6154   24152374.2314   24152375.9354
       221.000         168.000
 122219737.95048  95236151.79648  23257649.2954   23257650.9734   23257648.9824
       233.000         193.000
 128500303.98548 100130096.95848  24452802.7684   24452804.5664   24452802.7154
       217.000         160.000
 134110117.54848  86709167.18848  23617381.8714   23617385.1634   23617382.5844
       224.000         178.000
 09  1 18  0 54 30.0000000  0 10G26G12G15G27G 9G18G22G17G28G 5
 113759272.84648  88643577.48848  21647679.5224   21647682.0364   21647679.2394
       243.000         210.000
 128119095.87548  82040853.13248  22477317.1574   22477319.1904   22477317.0874
       235.000         199.000
  97971250.80848  94133437.31448  20546249.6384   20546251.1634   20546249.3884
       250.000         234.000
 132621906.40748 103341736.00348  25237115.9124   25237118.0034   25237116.0944
       220.000         159.000
 107516954.74748  83779436.20448  20459802.1504   20459805.0014   20459802.2704
       249.000         224.000
 117349015.14948  91440787.40748  22330777.1304   22330778.7394   22330777.3874
       237.000         194.000
 136855818.92948  88848689.61748  24139860.4184   24139860.1034   24139861.0774
       219.000         164.000
 122205188.04848  95224814.21548  23254880.4604   23254882.1204   23254880.1844
       233.000         193.000
 128593773.07048 100202929.99348  24470589.5654   24470591.0794   24470590.7344
       217.000         157.000
 134003121.32748  86625793.51348  23597021.3904   23597024.5074   23597021.5644
       227.000         180.000
 09  1 18  0 55  0.0000000  0 10G26G12G15G27G 9G18G22G17G28G 5
 113837897.33648  88704843.31748  21662641.4904   21662644.0294   21662641.5784
       244.000         210.000
 128026040.76548  81968342.66848  22459609.3214   22459611.1414   22459609.3964
       237.000         198.000
  98004125.63248  94159054.05748  20552505.5534   20552506.8974   20552505.2984
       250.000         233.000
 132692858.92448 103397023.66448  25250617.1734   25250620.2094   25250617.9364
       212.000         152.000
 107474679.64548  83746494.56848  20451757.5014   20451760.0934   20451757.8594
       249.000         224.000
 117331235.73848  91426933.31948  22327393.9134   22327395.3074   22327394.9504
       236.000         195.000
 136790479.91448  88797776.11348  24127426.4564   24127426.4704   24127427.1414
       220.000         165.000
 122191167.79348  95213889.35148  23252212.5394   23252214.3644   23252212.4104
       235.000         194.000
 128687356.42848 100275852.09548  24488398.2364   24488398.7834   24488398.5814
       216.000         155.000
 133896318.89648  86542570.86948  23576697.3924   23576700.9104   23576698.1634
       225.000         178.000
 09  1 18  0 55 30.0000000  0 10G26G12G15G27G 9G18G22G17G28G 5
 113916852.89148  88766367.12648  21677666.0634   21677668.8184   21677666.1834
       243.000         209.000
 127933293.31348  81896071.92048  22441960.3164   22441961.9664   22441959.6944
       239.000         200.000
  98037461.02348  94185029.68048  20558848.9854   20558850.3774   20558848.8054
       251.000         233.000
 132763826.76748 103452323.27548  25264121.4324   25264124.3724   25264122.1554
       216.000         150.000
 107432720.93848  83713799.46948  20443773.1624   20443775.6574   20443773.0554
       249.000         224.000
 117314031.02448  91413527.04148  22324119.9244   22324121.4484   22324120.3744
       236.000         195.000
 136725563.00448  88747191.50448  24115073.2864   24115073.2284   24115074.2184
       220.000         168.000
 122177677.85048  95203377.71248  23249645.5444   23249647.2974   23249645.8674
       234.000         193.000
 128781051.42048 100348861.18148  24506227.5304   24506228.3264   24506228.0404
       215.000         154.000
 133789711.89948  86459500.49748  23556410.9014   23556414.1474   23556411.4534
       225.000         179.000
 09  1 18  0 56  0.0000000  0 10G26G12G15G27G 9G18G22G17G28G 5
 113996138.85948  88828148.38848  21692753.6674   21692756.2894   21692753.5594
       243.000         209.000
 127840856.01248  81824042.86548  22424369.9484   22424371.7444   22424370.2944
       239.000         202.000
  98071257.11748  94211364.29448  20565280.1434   20565281.5444   20565279.9164
       250.000         233.000
 132834810.53048 103507635.29848  25277629.3024   25277632.4754   25277630.4784
       215.000         155.000
 107391079.68548  83681351.74248  20435848.8694   20435851.4734   20435848.9644
       249.000         224.000
 117297401.79948  91400569.20448  22320955.4644   22320957.1934   22320955.5784
       237.000         195.000
 136661071.13248  88696938.08648  24102801.1484   24102801.3474   24102800.4294
       219.000         166.000
 122164719.71548  95193280.48248  23247179.7184   23247181.4724   23247179.4514
       233.000         193.000
 128874856.56248 100421956.09848  24524077.7674   24524078.5234   24524078.2514
       211.000         151.000
 133683302.53948  86376584.14248  23536161.6624   23536165.0794   23536161.9124
       226.000         181.000
 09  1 18  0 56 30.0000000  0 10G26G12G15G27G 9G18G22G17G28G 5
 114075754.09748  88890186.23048  21707903.9014   21707906.3874   21707903.6654
       242.000         208.000
 127748730.50648  81752256.77348  22406839.1004   22406840.9054   22406838.8474
       239.000         202.000
  98105513.96248  94238057.93248  20571799.0644   20571800.3264   20571798.7394
       250.000         233.000
 132905810.24748 103562959.76448  25291140.4924   25291142.6444   25291140.7404
       218.000         151.000
 107349756.05748  83649151.51648  20427985.2874   20427987.9094   20427985.4854
       249.000         224.000
 117281348.41148  91388060.06648  22317900.6564   22317902.4714   22317901.1754
       236.000         195.000
 136597006.06348  88647017.24048  24090609.3644   24090610.1124   24090610.5134
       218.000         169.000
 122152294.67848  95183598.64248  23244815.3164   23244816.9664   23244815.2184
       233.000         193.000
 128968769.76248 100495135.21348  24541948.9474   24541949.1844   24541949.8934
       215.000         152.000
 133577092.58448  86293823.18448  23515950.5414   23515954.2644   23515951.1124
       228.000         181.000
 09  1 18  0 57  0.0000000  0 10G26G12G15G27G 9G18G22G17G28G 5
 114155696.64348  88952479.11348  21723116.6854   21723119.1574   21723116.6864
       243.000         209.000
 127656917.82548  81680714.44648  22389367.6994   22389369.4984   22389367.7694
       239.000         202.000
  98140230.76148  94265109.97548  20578405.3524   20578406.8644   20578405.1534
       250.000         233.000
 132976825.44548 103618296.26448  25304654.4584   25304657.1474   25304655.2234
       210.000         149.000
 107308749.82348  83617198.60048  20420181.9824   20420184.6234   20420182.2784
       249.000         224.000
 117265870.46748  91375999.32548  22314954.9644   22314956.7694   22314955.7814
       236.000         195.000
 136533368.81748  88597429.85048  24078500.0014   24078500.9554   24078500.9194
       223.000         173.000
 122140402.74148  95174332.19648  23242552.2394   23242553.7804   23242552.0474
       232.000         191.000
 129062788.18048 100568396.31248  24559840.3844   24559840.4974   24559841.2904
       214.000         152.000
 133471083.31548  86211218.56048  23495778.2854   23495781.4664   23495779.3544
       226.000         182.000
 09  1 18  0 57 30.0000000  0 10G26G12G15G27G 9G18G22G17G28G 5
 114235965.85948  89015026.55148  21738391.2504   21738393.9054   21738391.2144
       242.000         208.000
 127565420.09948  81609417.53548  22371956.0774   22371958.0164   22371955.8224
       239.000         201.000
  98175407.58548  94292520.48348  20585099.2094   20585100.8434   20585099.0084
       250.000         233.000
 133047856.32348 103673644.98848  25318170.9694   25318173.9494   25318171.2964
       212.000         154.000
 107268062.03348  83585493.83448  20412439.4694   20412441.9674   20412439.5774
       249.000         224.000
 117250968.51948  91364387.41548  22312119.4414   22312121.2984   22312119.3384
       237.000         197.000
 136470161.63748  88548177.47848  24066472.6724   24066472.0804   24066472.0434
       217.000         168.000
 122129045.34148  95165482.26948  23240390.8824   23240392.3534   23240390.8204
       232.000         191.000
 129156910.35248 100641738.26348  24577750.8664   24577751.0714   24577751.1094
       212.000         151.000
 133365276.64348  86128771.81948  23475643.7584   23475646.9264   23475644.1494
       227.000         180.000
 09  1 18  0 58  0.0000000  0 10G26G12G15G27G 9G18G22G17G28G 5
 114316560.99048  89077827.94448  21753727.9824   21753730.5254   21753727.8034
       242.000         208.000
 127474239.59348  81538367.80248  22354605.2244   22354606.9304   22354605.2094
       240.000         202.000
  98211045.09748  94320289.96248  20591880.7594   20591882.4764   20591880.4154
       249.000         232.000
 133118903.46548 103729006.40248  25331690.7454   25331694.1904   25331690.9754
       211.000         150.000
 107227693.39148  83554037.74748  20404757.6714   20404760.1584   20404757.9124
       250.000         224.000
 117236643.44848  91353225.03148  22309393.5674   22309395.6204   22309394.6124
       237.000         197.000
 136407386.90048  88499262.10548  24054526.1934   24054526.6654   24054525.6194
       217.000         168.000
 122118223.70648  95157049.85148  23238332.0434   23238333.2404   23238332.0324
       231.000         192.000
 129251134.84248 100715159.94248  24595681.1674   24595681.5054   24595681.8424
       210.000         151.000
 133259674.94448  86046484.79848  23455548.2724   23455551.3634   23455549.1544
       227.000         180.000
 09  1 18  0 58 30.0000000  0 10G26G12G15G27G 9G18G22G17G28G 5
 114397480.40648  89140882.02748  21769126.3884   21769129.0734   21769126.2844
       242.000         208.000
 127383377.75948  81467566.38348  22337314.9104   22337316.1704   22337314.8754
       242.000         204.000
  98247142.89648  94348418.10948  20598749.8494   20598751.6494   20598749.4704
       249.000         232.000
 133189966.80648 103784380.45848  25345213.8924   25345217.3924   25345215.1234
       215.000         152.000
 107187643.76348  83522830.24948  20397136.4104   20397138.8824   20397136.8134
       249.000         224.000
 117222895.08948  91342512.01548  22306777.6794   22306778.9574   22306778.0614
       239.000         197.000
 136345046.19548  88450684.93948  24042663.3524   24042664.2014   24042663.9894
       222.000         172.000
 122107938.55948  95149035.45448  23236374.7024   23236376.0474   23236374.4654
       231.000         191.000
 129345458.87348 100788659.20448  24613630.6984   24613631.0344   24613630.0124
       207.000         150.000
 133154279.52748  85964358.51748  23435492.1464   23435495.2204   23435492.6194
       226.000         180.000
 09  1 18  0 59  0.0000000  0 10G26G12G15G27G 9G18G22G17G28G 5
 114478723.31048  89204188.18348  21784586.5774   21784588.8774   21784586.5854
       243.000         207.000
 127292836.31748  81397014.61548  22320085.4154   22320086.7184   22320085.7854
       240.000         204.000
  98283700.71848  94376904.72048  20605706.6984   20605708.3294   20605706.2184
       249.000         232.000
 133261046.80848 103839767.49048  25358739.7194   25358742.9084   25358740.4054
       215.000         155.000
 107147913.90748  83491871.91948  20389576.1024   20389578.5544   20389576.2464
       249.000         224.000
 117209723.97248  91332248.80148  22304270.8684   22304272.9904   22304271.6304
       238.000         197.000
 136283142.16748  88402448.05048  24030884.0814   24030883.6714   24030884.2074
       222.000         170.000
 122098191.10048  95141440.03148  23234519.7064   23234521.2444   23234519.4614
       232.000         192.000
 129439881.06948 100862234.91648  24631597.4574   24631598.9974   24631597.1024
       207.000         150.000
 133049092.68348  85882394.75548  23415475.8344   23415478.7434   23415476.3064
       227.000         181.000
 09  1 18  0 59 30.0000000  0 10G26G12G15G27G 9G18G22G17G28G 5
 114560288.38348  89267745.38148  21800107.7724   21800110.3264   21800107.9244
       242.000         207.000
 127202617.29348  81326714.07948  22302917.1254   22302918.6834   22302916.4654
       239.000         203.000
  98320718.69248  94405749.88948  20612751.0944   20612752.5944   20612750.7524
       250.000         232.000
 133332143.23448 103895167.28948  25372268.5304   25372271.4784   25372268.6984
       211.000         154.000
 107108504.07348  83461162.96448  20382076.6284   20382079.0724   20382076.5584
       250.000         224.000
 117197130.24448  91322435.49948  22301874.6924   22301876.1254   22301875.0854
       238.000         197.000
 136221675.86248  88354552.25348  24019186.3334   24019186.8684   24019186.2854
       220.000         167.000
 122088982.07948  95134264.19148  23232767.5174   23232768.9514   23232767.4044
       233.000         192.000
 129534399.18048 100935885.38748  24649584.7194   24649585.7454   24649584.5534
       211.000         153.000
 132944115.92448  85800594.70648  23395499.2084   23395502.4884   23395499.9864
       226.000         182.000
 09  1 18  1  0  0.0000000  0 10G26G12G15G27G 9G18G22G17G28G 5
 114642173.77248  89331552.16148  21815690.1574   21815692.8404   21815690.1604
       243.000         207.000
 127112721.25048  81256665.24448  22285809.8354   22285811.7994   22285809.8414
       239.000         202.000
  98358195.77548  94434952.80948  20619882.8664   20619884.2344   20619882.5584
       250.000         232.000
 133403255.48348 103950579.45148  25385801.0054   25385804.3014   25385801.0174
       205.000         146.000
 107069414.24548  83430703.35148  20374638.1524   20374640.5454   20374638.3914
       250.000         225.000
 117185113.18748  91313071.54748  22299588.1074   22299589.5654   22299588.5314
       239.000         196.000
 136160648.55248  88306998.47948  24007574.3384   24007573.9024   24007574.9974
       220.000         167.000
 122080311.77048  95127508.10748  23231117.6514   23231119.0464   23231118.2264
       231.000         192.000
 129629010.26948 101009608.30248  24667588.0924   24667589.8934   24667589.4754
       205.000         152.000
 132839350.32948  85718959.18248  23375563.1794   23375566.4694   23375563.3064
       226.000         181.000
 09  1 18  1  0 30.0000000  0 10G26G12G15G27G 9G18G22G17G28G 5
 114724379.67848  89395608.71548  21831333.4064   21831335.9174   21831333.5014
       242.000         206.000
 127023151.60348  81186870.73448  22268765.3224   22268767.3044   22268765.0674
       241.000         203.000
  98396133.21348  94464514.44248  20627102.2234   20627103.5084   20627102.1804
       250.000         232.000
 133474385.19048 104006005.16748  25399335.9434   25399339.7654   25399335.8344
       198.000         136.000
 107030645.89948  83400494.25348  20367260.8734   20367263.1104   20367261.3324
       250.000         225.000
 117173674.37448  91304158.17348  22297411.1344   22297412.6534   22297412.0104
       237.000         196.000
 136100063.71448  88259789.53448  23996044.6084   23996045.3584   23996046.1114
       222.000         164.000
 122072182.25348  95121173.44048  23229570.2894   23229571.9424   23229570.3754
       230.000         192.000
 129723713.92948 101083403.34448  24685609.3694   24685611.5324   24685608.0704
       204.000         152.000
 132734799.03148  85637490.65748  23355667.4994   23355670.9964   23355668.5124
       224.000         181.000
 09  1 18  1  1  0.0000000  0 10G26G12G15G27G 9G18G22G17G28G 5
 114806904.82648  89459914.01848  21847037.3254   21847040.0224   21847037.1074
       242.000         206.000
 126933909.73348  81117331.61448  22251783.6494   22251785.5314   22251783.5104
       242.000         205.000
  98434530.51848  94494434.41648  20634408.6434   20634410.2954   20634408.3004
       249.000         231.000
 133545532.41648 104061444.53748  25412875.3884   25412877.4724   25412875.4594
       196.000         130.000
 106992199.59348  83370536.09948  20359944.7034   20359946.9754   20359944.6534
       250.000         225.000
 117162813.90748  91295695.45148  22295344.0564   22295346.0674   22295344.6614
       236.000         195.000
 136039922.85048  88212926.46148  23984600.2054   23984600.1524   23984600.2364
       220.000         167.000
 122064594.21548  95115260.69248  23228126.2044   23228127.9764   23228125.8884
       231.000         192.000
 129818508.05248 101157268.88048  24703648.3854   24703650.0814   24703648.7724
       208.000         153.000
 132630463.64748  85556190.38248  23335812.7354   23335816.8314   23335813.1854
       226.000         181.000
 09  1 18  1  1 30.0000000  0  9G26G12G15G 9G18G22G17G28G 5
 114889746.77248  89524466.17048  21862801.7034   21862804.4344   21862801.6284
       241.000         206.000
 126844996.14448  81048048.31248  22234863.9114   22234865.6204   22234863.9134
       241.000         205.000
  98473386.49548  94524711.79248  20641802.6054   20641804.4144   20641802.3634
       249.000         231.000
 106954074.64848  83340828.34948  20352689.7274   20352691.9634   20352690.0504
       251.000         225.000
 117152530.85348  91287682.66848  22293387.0944   22293389.1124   22293387.4984
       237.000         195.000
 135980226.74548  88166410.00848  23973240.3484   23973240.7514   23973240.1484
       220.000         171.000
 122057546.97148  95109769.32748  23226785.1814   23226787.0624   23226784.9434
       231.000         193.000
 129913389.65748 101231202.57348  24721704.0924   24721705.9424   24721705.3744
       209.000         154.000
 132526344.86248  85475058.87648  23315999.6164   23316003.7254   23316000.2514
       226.000         181.000
 09  1 18  1  2  0.0000000  0  9G26G12G15G 9G18G22G17G28G 5
 114972905.23248  89589264.96848  21878626.0404   21878628.8884   21878625.7064
       242.000         206.000
 126756413.51648  80979022.89148  22218007.4094   22218008.7734   22218007.2844
       241.000         205.000
  98512701.73248  94555347.03148  20649284.0804   20649285.9194   20649283.9344
       249.000         231.000
 106916271.63548  83311371.46348  20345496.0674   20345498.4584   20345496.2124
       250.000         225.000
 117142826.09448  91280120.50848  22291540.6304   22291542.6094   22291541.2674
       237.000         196.000
 135920977.72448  88120241.96148  23961966.3334   23961966.9194   23961965.7894
       224.000         168.000
 122051042.52248  95104700.93148  23225547.7544   23225549.2504   23225547.8344
       231.000         193.000
 130008357.38748 101305203.42048  24739775.7004   24739777.8274   24739776.4504
       204.000         152.000
 132422445.30048  85394098.17148  23296228.5134   23296232.1394   23296228.4094
       227.000         183.000
 09  1 18  1  2 30.0000000  0  9G26G12G15G 9G18G22G17G28G 5
 115056378.18248  89654308.81748  21894510.5904   21894513.1744   21894510.6544
       242.000         205.000
 126668162.84648  80910256.15048  22201213.5994   22201215.3284   22201213.1604
       241.000         205.000
  98552475.17448  94586339.32148  20656852.6324   20656854.5344   20656852.1804
       249.000         232.000
 106878790.69548  83282165.53748  20338363.7004   20338366.2684   20338363.5404
       250.000         226.000
 117133698.81548  91273008.34848  22289803.9044   22289805.5444   22289804.8594
       237.000         196.000
 135862177.02348  88074423.23148  23950776.4014   23950776.9784   23950778.0394
       222.000         169.000
 122045081.01148  95100055.60948  23224413.4304   23224414.9724   23224413.6904
       230.000         192.000
 130103408.76148 101379269.41248  24757862.5404   24757865.6374   24757861.4824
       203.000         151.000
 132318765.87848  85313309.01548  23276498.9634   23276502.9134   23276499.9544
       224.000         182.000
 09  1 18  1  3  0.0000000  0  9G26G12G15G 9G18G22G17G28G 5
 115140165.33348  89719597.49648  21910454.6744   21910457.1044   21910454.5604
       241.000         204.000
 126580246.49348  80841749.92348  22184483.4434   22184485.2854   22184483.2654
       240.000         205.000
  98592707.53448  94617689.20548  20664508.9534   20664510.5164   20664508.7484
       249.000         232.000
 106841632.82048  83253211.35548  20331292.7074   20331295.1824   20331292.9344
       250.000         225.000
 117125150.22648  91266347.10948  22288177.0514   22288178.9124   22288177.7184
       237.000         196.000
 135803827.21948  88028955.86548  23939673.1464   23939672.6804   23939673.8084
       223.000         169.000
 122039663.78248  95095834.40148  23223382.0704   23223383.7094   23223382.0684
       230.000         190.000
 130198542.52548 101453399.58848  24775966.5714   24775968.7654   24775965.6414
       207.000         152.000
 132215309.16048  85232693.38148  23256811.6994   23256815.5144   23256811.4024
       228.000         182.000
 09  1 18  1  3 30.0000000  0  9G26G12G15G 9G18G22G17G28G 5
 115224265.06448  89785129.75748  21926458.3854   21926460.6644   21926458.1694
       241.000         204.000
 126492666.41248  80773505.70648  22167817.7034   22167819.2724   22167817.4454
       240.000         205.000
  98633398.34848  94649396.32748  20672252.2384   20672253.7584   20672252.1624
       249.000         232.000
 106804798.41548  83224509.22148  20324283.3184   20324285.8564   20324283.5524
       250.000         226.000
 117117179.92648  91260136.47448  22286660.4634   22286662.3744   22286660.7164
       238.000         197.000
 135745929.95148  87983841.11548  23928655.9994   23928656.0294   23928655.1344
       223.000         174.000
 122034791.27248  95092037.64448  23222455.0974   23222456.7354   23222454.6454
       232.000         192.000
 130293756.71048 101527592.45248  24794085.5684   24794087.5914   24794085.5774
       204.000         152.000
 132112076.89248  85152252.66448  23237167.5724   23237171.1094   23237168.9894
       226.000         182.000
 09  1 18  1  4  0.0000000  0  9G26G12G15G 9G18G22G17G28G 5
 115308676.67648  89850905.02548  21942521.4414   21942523.9904   21942521.5064
       240.000         205.000
 126405423.73248  80705524.40348  22151216.0204   22151217.4074   22151216.0574
       241.000         207.000
  98674547.54948  94681460.63348  20680082.5944   20680084.2294   20680082.2224
       250.000         231.000
 106768288.35948  83196059.82948  20317335.7264   20317338.2844   20317335.7774
       250.000         226.000
 117109788.14348  91254376.62348  22285253.8804   22285255.6624   22285254.6624
       237.000         195.000
 135688486.87848  87939080.26748  23917724.2954   23917724.7104   23917723.3094
       224.000         171.000
 122030464.65148  95088666.26348  23221631.6844   23221633.5054   23221631.6094
       230.000         190.000
 130389049.54548 101601846.58048  24812218.7074   24812221.3954   24812218.3234
       205.000         152.000
 132009071.01948  85071988.36948  23217565.8434   23217569.8704   23217566.2894
       225.000         183.000
 09  1 18  1  4 30.0000000  0  9G26G12G15G 9G18G22G17G28G 5
 115393398.66848  89916922.15548  21958643.6974   21958646.0594   21958643.5464
       242.000         205.000
 126318520.10148  80637807.31048  22134678.6804   22134680.5074   22134678.5844
       240.000         207.000
  98716154.36548  94713881.52348  20688000.1704   20688001.6444   20687999.9964
       250.000         231.000
 106732102.67448  83167863.19648  20310449.7454   20310452.2624   20310450.1234
       250.000         226.000
 117102974.62448  91249067.38948  22283957.1114   22283959.1294   22283957.3724
       237.000         196.000
 135631499.90148  87894674.85048  23906880.1724   23906879.8684   23906881.9154
       225.000         171.000
 122026684.21948  95085720.47448  23220912.2514   23220913.7884   23220912.2254
       232.000         190.000
 130484418.88048 101676160.32848  24830367.0774   24830369.5864   24830367.7134
       208.000         156.000
 131906293.06848  84991901.66348  23198007.8014   23198011.5554   23198007.5634
       225.000         182.000
 09  1 18  1  5  0.0000000  0  9G26G12G15G 9G18G22G17G28G 5
 115478428.60748  89983179.25048  21974824.4244   21974826.8224   21974824.3004
       241.000         204.000
 126231956.16448  80570354.91348  22118206.1884   22118207.9704   22118205.9764
       241.000         207.000
  98758217.91548  94746658.31148  20696004.5094   20696006.0674   20696004.2374
       249.000         230.000
 106696240.70948  83139918.80548  20303625.4554   20303628.0084   20303625.5274
       250.000         226.000
 117096738.54048  91244208.09448  22282770.6774   22282772.4434   22282771.6574
       237.000         195.000
 135574970.14748  87850625.66948  23896123.4104   23896123.1994   23896125.0194
       222.000         171.000
 122023449.64148  95083200.03448  23220296.9504   23220298.0754   23220297.4364
       232.000         190.000
 130579861.81348 101750531.44048  24848529.2554   24848531.5674   24848527.9714
       207.000         158.000
 131803743.66548  84911993.05848  23178493.3814   23178497.1224   23178494.8254
       227.000         183.000
 09  1 18  1  5 30.0000000  0  9G26G12G15G 9G18G22G17G28G 5
 115563766.57448  90049676.35548  21991063.4084   21991066.1874   21991063.3904
       241.000         204.000
 126145734.93648  80503169.55348  22101798.6784   22101800.5154   22101798.8114
       240.000         206.000
  98800739.22148  94779791.78948  20704095.7344   20704097.6464   20704095.4794
       248.000         230.000
 106660704.22848  83112228.04548  20296863.1904   20296865.6644   20296863.5974
       251.000         226.000
 117091081.05748  91239799.65148  22281694.3084   22281695.6604   22281694.8394
       239.000         195.000
 135518900.21448  87806934.80848  23885452.1824   23885453.4954   23885451.8004
       224.000         174.000
 122020762.72748  95081106.34348  23219785.2754   23219786.9654   23219785.8114
       230.000         190.000
 130675377.78348 101824959.46048  24866705.3444   24866707.6124   24866703.8864
       212.000         158.000
 131701425.93348  84832264.96248  23159022.8864   23159026.6284   23159023.5664
       226.000         183.000
 09  1 18  1  6  0.0000000  0  9G26G12G15G 9G18G22G17G28G 5
 115649411.64948  90116412.77148  22007361.2234   22007363.8344   22007361.0624
       239.000         203.000
 126059858.18348  80436252.62948  22085456.8594   22085458.6374   22085456.8844
       241.000         206.000
  98843717.83948  94813281.61048  20712274.2964   20712276.0814   20712273.9684
       248.000         230.000
 106625494.02448  83084791.52748  20290162.8384   20290165.3724   20290163.2214
       251.000         226.000
 117086002.04148  91235841.96148  22280727.6314   22280729.3974   22280728.0784
       239.000         195.000
 135463291.68748  87763603.48048  23874871.4814   23874871.8374   23874871.2804
       226.000         171.000
 122018624.42048  95079440.14548  23219378.0774   23219380.0004   23219377.3434
       228.000         190.000
 130770965.15048 101899443.11048  24884894.8554   24884896.5314   24884895.7864
       214.000         157.000
 131599341.81448  84752718.90348  23139596.9204   23139600.3474   23139597.2564
       226.000         182.000
 09  1 18  1  6 30.0000000  0  9G26G12G15G 9G18G22G17G28G 5
 115735361.81048  90183386.91948  22023716.9024   22023719.3874   22023716.5434
       240.000         203.000
 125974326.92348  80369604.90348  22069180.9614   22069182.3974   22069180.8604
       240.000         206.000
  98887152.72448  94847126.96448  20720539.8024   20720541.5834   20720539.5364
       249.000         230.000
 106590609.41148  83057608.70748  20283524.5564   20283526.9574   20283524.6314
       251.000         226.000
 117081500.93548  91232334.60348  22279870.7974   22279872.6014   22279871.5184
       236.000         195.000
 135408145.72548  87720632.59548  23864377.3424   23864376.8334   23864378.8104
       226.000         171.000
 122017034.58948  95078201.34648  23219076.0964   23219077.5634   23219074.9974
       229.000         192.000
 130866621.09548 101973980.20848  24903097.7764   24903099.2474   24903099.1934
       214.000         160.000
 131497492.39448  84673355.73548  23120215.5404   23120218.9814   23120216.0774
       226.000         182.000
 09  1 18  1  7  0.0000000  0  9G26G12G15G 9G18G22G17G28G 5
 115821615.33248  90250597.45248  22040130.5564   22040133.2014   22040130.4664
       241.000         204.000
 125889142.28248  80303227.26648  22052971.0084   22052972.3474   22052971.0304
       241.000         207.000
  98931043.43048  94881327.50748  20728892.1074   20728893.6674   20728891.9114
       249.000         230.000
 106556050.42248  83030679.62648  20276948.3264   20276950.6244   20276948.5594
       250.000         226.000
 117077576.72348  91229276.76748  22279124.1764   22279125.7254   22279124.6484
       238.000         194.000
 135353463.72548  87678023.24448  23853971.3824   23853971.6604   23853971.9424
       224.000         172.000
 122015993.33448  95077389.97348  23218877.6434   23218879.8454   23218877.1424
       229.000         192.000
 130962343.35748 102048568.96448  24921313.2564   24921314.2194   24921315.2414
       216.000         160.000
 131395878.84048  84594176.34048  23100879.3924   23100882.4164   23100880.2244
       227.000         182.000
 09  1 18  1  7 30.0000000  0  9G26G12G15G 9G18G22G17G28G 5
 115908171.60948  90318043.89148  22056601.6264   22056604.4864   22056601.7654
       240.000         203.000
 125804306.68348  80237121.61748  22036827.1034   22036828.7064   22036826.9264
       240.000         207.000
  98975389.94548  94915883.22748  20737331.0034   20737332.4014   20737330.8444
       249.000         230.000
 106521818.34348  83004005.28148  20270433.9504   20270436.5774   20270433.8334
       251.000         227.000
 117074230.54248  91226669.34448  22278487.5914   22278489.1624   22278488.0984
       237.000         195.000
 135299247.84148  87635777.08848  23843654.8454   23843655.3764   23843654.9574
       222.000         171.000
 122015502.03748  95077007.15448  23218784.3344   23218786.2024   23218784.0814
       231.000         192.000
 131058130.84648 102123208.55648  24939541.2514   24939541.6914   24939542.1854
       217.000         161.000
 131294503.66948  84515182.70448  23081588.3284   23081591.6454   23081589.1054
       226.000         183.000
 09  1 18  1  8  0.0000000  0  9G26G12G15G 9G18G22G17G28G 5
 115995028.98348  90385724.95748  22073129.8134   22073132.5714   22073129.6384
       240.000         202.000
 125719821.04548  80171288.66248  22020749.9294   22020751.6074   22020749.5814
       241.000         208.000
  99020191.35348  94950793.40748  20745856.3694   20745857.8804   20745856.1244
       249.000         230.000
 106487913.08148  82977585.59648  20263982.1334   20263984.5964   20263982.5524
       251.000         226.000
 117071461.49348  91224511.63048  22277960.9124   22277962.2394   22277961.3614
       238.000         196.000
 135245499.40848  87593895.21148  23833426.6034   23833427.0244   23833427.1034
       224.000         172.000
 122015560.39948  95077052.66548  23218795.4574   23218797.1924   23218795.7034
       230.000         191.000
 131153981.09948 102197897.07648  24957781.0024   24957781.0574   24957782.4204
       217.000         160.000
 131193368.03148  84436375.75048  23062342.6224   23062346.2034   23062343.4404
       227.000         184.000
 09  1 18  1  8 30.0000000  0  9G26G12G15G 9G18G22G17G28G 5
 116082187.54748  90453640.71648  22089715.7634   22089718.2884   22089715.5824
       239.000         201.000
 125635688.34048  80105730.72648  22004740.2144   22004741.7004   22004740.4424
       240.000         208.000
  99065448.79948  94986058.93848  20754468.6124   20754470.2034   20754468.3494
       249.000         229.000
 106454336.50548  82951422.03548  20257592.6454   20257595.0914   20257592.9414
       251.000         227.000
 117069270.51648  91222804.37148  22277543.6974   22277545.4794   22277544.1784
       237.000         196.000
 135192221.40948  87552379.87748  23823288.9544   23823287.9054   23823289.1754
       225.000         174.000
 122016170.53448  95077528.08548  23218911.1464   23218913.2134   23218910.6864
       230.000         191.000
 131249893.82548 102272634.26848  24976032.4864   24976032.8454   24976033.0704
       217.000         161.000
 131092475.18048  84357757.95148  23043143.5994   23043147.0134   23043144.0594
       228.000         184.000
 09  1 18  1  9  0.0000000  0  9G26G12G15G 9G18G22G17G28G 5
 116169644.67248  90521789.11248  22106358.1624   22106360.7994   22106357.9534
       239.000         202.000
 125551908.61548  80040447.84848  21988797.1504   21988799.1994   21988797.0314
       241.000         208.000
  99111160.62148  95021678.53848  20763167.2054   20763168.8254   20763167.0534
       248.000         229.000
 106421087.72748  82925513.90648  20251265.5484   20251267.9994   20251265.8664
       251.000         226.000
 117067656.43748  91221546.63848  22277236.4564   22277238.2004   22277237.1204
       236.000         195.000
 135139414.17048  87511231.39148  23813239.7914   23813239.8064   23813241.0334
       223.000         173.000
 122017331.70548  95078432.90748  23219132.2734   23219133.9514   23219132.1494
       231.000         190.000
 131345866.09848 102347417.84248  24994294.5404   24994296.0274   24994295.6804
       215.000         160.000
 130991825.41248  84279329.57748  23023990.8584   23023994.0954   23023991.5544
       229.000         184.000
 09  1 18  1  9 30.0000000  0  9G26G12G15G 9G18G22G17G28G 5
 116257399.20248  90590169.26648  22123057.4474   22123059.7604   22123057.2314
       240.000         201.000
 125468484.00248  79975441.67248  21972922.1904   21972923.8744   21972922.1534
       241.000         209.000
  99157326.49048  95057651.93948  20771952.3014   20771953.8674   20771952.0494
       248.000         229.000
 106388167.30748  82899861.63548  20245001.0744   20245003.4314   20245001.1084
       251.000         227.000
 117066619.04348  91220738.27048  22277039.3064   22277040.8684   22277039.8674
       236.000         195.000
 135087079.77748  87470451.35848  23803280.1814   23803280.7814   23803279.7404
       226.000         177.000
 122019044.33248  95079767.43648  23219457.9054   23219459.8274   23219458.5374
       230.000         189.000
 131441895.96948 102422246.32148  25012568.7074   25012569.9344   25012568.7844
       214.000         159.000
 130891420.67648  84201092.14748  23004884.0664   23004887.5534   23004884.9224
       228.000         183.000
 09  1 18  1 10  0.0000000  0  9G26G12G15G 9G18G22G17G28G 5
 116345450.14448  90658780.37948  22139812.7594   22139815.4974   22139812.9594
       238.000         200.000
 125385415.96748  79910713.34248  21957115.0644   21957116.4114   21957115.0354
       241.000         209.000
  99203946.31348  95093979.06748  20780823.6424   20780825.4204   20780823.2934
       249.000         229.000
 106355575.58048  82874465.48948  20238799.1234   20238801.4154   20238799.4934
       251.000         227.000
 117066158.04448  91220379.05048  22276951.5154   22276953.2174   22276951.8014
       237.000         195.000
 135035219.77448  87430040.93148  23793411.9874   23793412.2494   23793411.6334
       228.000         178.000
 122021309.01648  95081532.12048  23219889.1044   23219890.7864   23219888.7794
       230.000         191.000
 131537981.86948 102497118.44648  25030853.2154   25030855.0644   25030853.6324
       215.000         160.000
 130791262.81448  84123047.07048  22985824.5504   22985827.9244   22985824.9984
       228.000         183.000
 09  1 18  1 10 30.0000000  0  9G26G12G15G 9G18G22G17G28G 5
 116433796.39048  90727621.59648  22156624.4314   22156627.2384   22156624.4264
       238.000         201.000
 125302706.44248  79846264.37548  21941375.8664   21941377.1844   21941375.7584
       242.000         209.000
  99251019.88248  95130659.76148  20789781.6244   20789783.4024   20789781.4384
       248.000         229.000
 106323313.34048  82849326.07848  20232659.7094   20232662.1134   20232659.7274
       252.000         227.000
 117066273.76548  91220469.20648  22276973.2444   22276975.3184   22276973.9994
       236.000         194.000
 134983835.80148  87390001.51148  23783633.4634   23783634.3274   23783632.6724
       225.000         178.000
 122024126.60348  95083727.65948  23220425.3194   23220426.9924   23220424.8764
       229.000         191.000
 131634122.23448 102572033.02248  25049147.9274   25049150.4364   25049148.9594
       215.000         159.000
 130691353.90448  84045195.97348  22966812.6104   22966816.0634   22966813.0044
       228.000         184.000
 09  1 18  1 11  0.0000000  0  9G26G12G15G 9G18G22G17G28G 5
 116522436.19448  90796691.57148  22173492.2114   22173494.9204   22173492.2844
       238.000         200.000
 125220356.72848  79782095.78748  21925705.1774   21925706.4914   21925704.9714
       241.000         210.000
  99298545.96148  95167693.06648  20798825.4924   20798827.3324   20798825.1174
       250.000         229.000
 106291380.79948  82824443.59248  20226583.1914   20226585.6464   20226583.5784
       252.000         227.000
 117066965.32348  91221008.07248  22277104.7324   22277106.7384   22277105.1134
       235.000         194.000
 134932929.18748  87350333.98948  23773947.1934   23773946.6014   23773946.7624
       229.000         181.000
 122027496.88948  95086353.87048  23221066.5124   23221068.6764   23221065.7994
       228.000         191.000
 131730314.95248 102646988.36648  25067452.7854   25067455.5954   25067453.3894
       215.000         159.000
 130591695.17648  83967539.83348  22947848.1364   22947851.5444   22947849.0454
       229.000         185.000
 09  1 18  1 11 30.0000000  0  9G26G12G15G 9G18G22G17G28G 5
 116611368.01648  90865989.09848  22190415.1184   22190417.9414   22190415.0584
       237.000         199.000
 125138367.75548  79718208.29548  21910102.8724   21910104.5214   21910102.8334
       239.000         209.000
  99346524.23148  95205078.72148  20807955.5574   20807957.1764   20807955.4364
       249.000         229.000
 106259778.22548  82799818.21048  20220569.5104   20220572.0084   20220569.5704
       251.000         228.000
 117068232.01848  91221995.10148  22277345.8844   22277347.7844   22277346.2814
       236.000         194.000
 134882501.11648  87311039.39648  23764350.8074   23764350.9374   23764350.5014
       223.000         178.000
 122031419.99548  95089410.84848  23221812.9074   23221815.1844   23221812.3234
       229.000         191.000
 131826557.86648 102721982.83348  25085767.1754   25085769.4654   25085768.9784
       215.000         158.000
 130492288.00548  83890079.72148  22928931.3904   22928934.8844   22928931.7704
       228.000         184.000
 09  1 18  1 12  0.0000000  0  9G26G12G15G 9G18G22G17G28G 5
 116700591.21648  90935513.66148  22207393.7344   22207396.6494   22207393.5174
       238.000         200.000
 125056741.90948  79654603.76248  21894569.9974   21894571.5944   21894569.6174
       240.000         210.000
  99394954.85648  95242816.87348  20817171.4604   20817173.0684   20817171.0964
       249.000         229.000
 106228506.53848  82775450.66348  20214618.6814   20214621.0254   20214618.8084
       252.000         228.000
 117070074.12048  91223430.49848  22277696.4064   22277698.2784   22277697.2414
       237.000         195.000
 134832553.94648  87272119.55148  23754845.7314   23754846.3274   23754843.8274
       226.000         179.000
 122035897.09748  95092899.51848  23222664.7724   23222667.0784   23222664.4114
       228.000         191.000
 131922849.81548 102797015.49048  25104091.0024   25104093.3774   25104093.1864
       215.000         157.000
 130393134.76448  83812817.47048  22910062.9264   22910066.6424   22910063.1414
       226.000         185.000
 09  1 18  1 12 30.0000000  0  9G26G12G15G 9G18G22G17G28G 5
 116790104.10148  91005263.95348  22224427.6144   22224430.4334   22224427.3544
       238.000         199.000
 124975480.07048  79591282.86648  21879106.3114   21879108.3064   21879106.1274
       240.000         210.000
  99443836.78948  95280906.68548  20826473.4764   20826475.1334   20826473.1164
       250.000         229.000
 106197566.07048  82751341.20948  20208730.9724   20208733.5064   20208731.2334
       252.000         228.000
 117072491.06448  91225313.81448  22278156.5534   22278158.4824   22278156.7304
       236.000         196.000
 134783088.67848  87233575.16948  23745433.2404   23745432.8844   23745433.2244
       227.000         177.000
 122040928.19048  95096819.85948  23223622.0514   23223624.4154   23223620.8794
       228.000         190.000
 132019188.40348 102872084.51348  25122423.2934   25122426.0164   25122424.6454
       213.000         156.000
 130294236.76448  83735754.12348  22891243.2844   22891247.0334   22891243.6024
       229.000         185.000
 09  1 18  1 13  0.0000000  0  9G26G12G15G 9G18G22G17G28G 5
 116879904.50048  91075238.27948  22241516.0964   22241518.6644   22241516.5074
       237.000         198.000
 124894583.18348  79528246.34148  21863712.2964   21863714.0164   21863711.9174
       242.000         210.000
  99493168.93148  95319347.30748  20835861.0894   20835862.8364   20835860.8924
       249.000         228.000
 106166956.20048  82727489.36548  20202906.0724   20202908.5574   20202906.2674
       252.000         228.000
 117075481.57648  91227644.07448  22278725.5064   22278727.6974   22278726.2694
       236.000         197.000
 134734106.25148  87195407.03648  23736111.8514   23736111.8004   23736111.4994
       227.000         175.000
 122046512.65148  95101171.38148  23224685.3074   23224687.0264   23224684.9254
       231.000         192.000
 132115571.66348 102947188.31748  25140764.6614   25140767.1004   25140764.8404
       211.000         155.000
 130195595.00948  83658890.42048  22872472.7474   22872476.0584   22872474.0514
       229.000         186.000
 09  1 18  1 13 30.0000000  0  9G26G12G15G 9G18G22G17G28G 5
 116969990.90748  91145435.47348  22258659.1074   22258661.6104   22258658.5144
       238.000         199.000
 124814052.46748  79465495.14648  21848387.9064   21848389.3564   21848388.1454
       241.000         210.000
  99542950.36848  95358138.03648  20845334.0274   20845335.7934   20845333.8664
       249.000         228.000
 106136677.16648  82703895.31748  20197144.2634   20197146.7194   20197144.6434
       252.000         228.000
 117079045.00848  91230420.76348  22279404.0734   22279405.8544   22279404.6404
       237.000         197.000
 134685607.71848  87157615.94248  23726883.0314   23726882.9964   23726884.1694
       225.000         178.000
 122052650.43848  95105954.07648  23225853.5574   23225854.9184   23225853.3824
       229.000         191.000
 132211997.51848 103022325.36048  25159113.9074   25159116.1134   25159113.9864
       212.000         157.000
 130097210.93748  83582227.52348  22853750.7514   22853754.2944   22853750.9554
       230.000         187.000
 09  1 18  1 14  0.0000000  0  9G26G12G15G 9G18G22G17G28G 5
 117060362.13148  91215854.60648  22275856.4514   22275858.7574   22275856.7134
       237.000         199.000
 124733889.35648  79403030.39148  21833133.1624   21833134.7224   21833132.8954
       240.000         210.000
  99593180.71648  95397278.55648  20854892.5354   20854894.3054   20854892.0604
       249.000         228.000
 106106729.60248  82680559.55348  20191445.3764   20191447.7544   20191445.4494
       252.000         228.000
 117083181.00248  91233643.61048  22280190.7194   22280192.8884   22280190.9214
       237.000         196.000
 134637594.66748  87120203.20848  23717745.7344   23717747.0654   23717746.5344
       221.000         174.000
 122059341.79848  95111168.13848  23227126.6864   23227128.1944   23227126.8064
       227.000         190.000
 132308464.07048 103097494.09348  25177471.3664   25177473.2244   25177471.2404
       212.000         154.000
 129999086.31248  83505766.78048  22835078.2564   22835081.7294   22835079.0354
       229.000         187.000
 09  1 18  1 14 30.0000000  0  9G26G12G15G 9G18G22G17G28G 5
 117151017.76648  91286495.34848  22293107.4014   22293109.7854   22293107.0374
       238.000         198.000
 124654096.58048  79340854.22048  21817948.9904   21817950.6884   21817948.6774
       240.000         210.000
  99643860.34548  95436769.17148  20864536.6134   20864538.3034   20864536.4034
       249.000         227.000
 106077114.85648  82657483.13048  20185809.9574   20185812.1974   20185810.2444
       252.000         228.000
 117087890.20148  91237313.10048  22281087.0764   22281088.8354   22281087.7694
       236.000         196.000
 134590069.66648  87083170.75048  23708702.1254   23708702.7834   23708702.3824
       225.000         177.000
 122066588.39348  95116814.84848  23228505.2834   23228507.1624   23228505.0854
       230.000         191.000
 132404970.63848 103172694.02448  25195834.9804   25195837.8044   25195835.9264
       210.000         153.000
 129901223.80148  83429510.28348  22816455.6804   22816459.0044   22816456.4314
       230.000         186.000
 09  1 18  1 15  0.0000000  0  9G26G12G15G 9G18G22G17G28G 5
 117241956.21148  91357356.46648  22310412.4444   22310414.7764   22310412.0914
       237.000         197.000
 124574675.09148  79278967.35648  21802835.8154   21802837.3634   21802835.9514
       241.000         211.000
  99694988.63448  95476609.39348  20874266.0424   20874267.6034   20874265.7454
       250.000         227.000
 106047833.01648  82634666.10748  20180237.6394   20180240.0844   20180237.5244
       252.000         228.000
 117093171.43548  91241428.33648  22282091.9854   22282093.9144   22282092.5244
       236.000         196.000
 134543033.77148  87046519.37948  23699751.6344   23699752.0704   23699751.7434
       224.000         178.000
 122074389.88348  95122893.94648  23229989.8654   23229991.9684   23229990.0884
       230.000         191.000
 132501515.14348 103247923.49548  25214207.1454   25214208.8424   25214207.9914
       212.000         152.000
 129803624.69748  83353459.05148  22797883.0814   22797886.7294   22797883.7164
       230.000         188.000
 09  1 18  1 15 30.0000000  0  9G26G12G15G 9G18G22G17G28G 5
 117333176.40148  91428437.13348  22327771.1714   22327773.4794   22327771.3044
       237.000         197.000
 124495626.78448  79217371.28648  21787793.5004   21787795.0654   21787793.1254
       241.000         211.000
  99746564.84648  95516798.63948  20884080.8524   20884082.2834   20884080.6344
       249.000         227.000
 106018884.77148  82612109.03648  20174729.0754   20174731.2784   20174729.3294
       252.000         228.000
 117099024.70648  91245989.31748  22283205.9574   22283207.7484   22283206.4804
       235.000         196.000
 134496488.74748  87010250.55448  23690894.1934   23690895.1334   23690894.3604
       228.000         179.000
 122082746.77348  95129405.82048  23231580.1534   23231581.9604   23231579.5234
       230.000         190.000
 132598096.42648 103323181.61348  25232587.0444   25232587.3954   25232586.1144
       211.000         149.000
 129706291.06548  83277614.68248  22779361.2784   22779364.8114   22779361.7434
       232.000         188.000
 09  1 18  1 16  0.0000000  0 10G26G12G15G30G 9G18G22G17G28G 5
 117424675.81748  91499735.36848  22345182.6204   22345185.3994   22345182.4304
       236.000         196.000
 124416951.78548  79156066.10748  21772822.0874   21772823.5684   21772822.1894
       241.000         212.000
  99798587.59948  95557335.84848  20893980.2064   20893981.9014   20893979.9074
       249.000         227.000
 131557400.25958 102512246.67358  25034551.4625   25034554.4725   25034553.1605
       215.000         151.000
 105990269.55848  82589811.47548  20169283.6294   20169286.1084   20169283.8724
       252.000         228.000
 117105448.45148  91250994.81748  22284428.2734   22284430.2614   22284428.7624
       237.000         196.000
 134450434.98948  86974364.49948  23682131.1804   23682131.2754   23682132.4364
       227.000         182.000
 122091658.11648  95136349.74448  23233276.0944   23233278.1214   23233275.7414
       231.000         191.000
 132694711.34048 103398465.99948  25250971.9274   25250971.8434   25250972.7724
       206.000         146.000
 129609223.39848  83201977.55548  22760889.8904   22760893.3384   22760891.6354
       232.000         187.000
 09  1 18  1 16 30.0000000  0 10G26G12G15G30G 9G18G22G17G28G 5
 117516453.02648  91571250.06048  22362647.5104   22362649.9544   22362646.8204
       237.000         196.000
 124338651.61448  79095053.00648  21757922.0874   21757923.5714   21757921.9274
       242.000         211.000
  99851056.04048  95598220.33548  20903964.6214   20903966.4454   20903964.2354
       249.000         227.000
 131445073.59448 102424719.39448  25013176.7924   25013179.9204   25013175.1494
       211.000         153.000
 105961987.69348  82567773.66648  20163901.7674   20163904.1934   20163901.9104
       252.000         228.000
 117112442.07748  91256444.38248  22285759.2394   22285761.0124   22285759.9374
       236.000         196.000
 134404873.73448  86938862.22248  23673461.3404   23673461.4564   23673461.1114
       229.000         183.000
 122101124.13248  95143725.86548  23235077.7934   23235079.0744   23235078.1684
       232.000         191.000
 132791358.28448 103473775.31448  25269362.7314   25269363.2284   25269363.8044
       212.000         148.000
 129512423.24548  83126548.86748  22742469.2444   22742472.6054   22742469.5694
       230.000         188.000
 09  1 18  1 17  0.0000000  0 10G26G12G15G30G 9G18G22G17G28G 5
 117608507.63348  91642980.92448  22380164.8234   22380167.1134   22380165.0964
       237.000         195.000
 124260728.57848  79034333.76748  21743093.6464   21743095.2144   21743093.4444
       241.000         211.000
  99903970.65348  95639452.49348  20914033.9754   20914035.9554   20914033.8974
       249.000         227.000
 131332824.28648 102337252.40148  24991815.2684   24991819.6194   24991814.8764
       211.000         152.000
 105934040.83648  82545996.89548  20158583.6664   20158585.9424   20158583.7854
       253.000         228.000
 117120005.42748  91262337.89348  22287198.4254   22287200.3114   22287198.7654
       237.000         196.000
 134359807.23948  86903745.47648  23664885.3094   23664885.5384   23664885.7784
       226.000         182.000
 122111145.70848  95151534.88848  23236984.7124   23236986.0764   23236984.6784
       230.000         191.000
 132888036.54248 103549109.05048  25287759.9624   25287760.6734   25287760.8694
       208.000         148.000
 129415893.25148  83051330.71148  22724100.2214   22724103.6474   22724100.2844
       232.000         189.000
 09  1 18  1 17 30.0000000  0 10G26G12G15G30G 9G18G22G17G28G 5
 117700838.20248  91714926.82148  22397734.8094   22397737.0434   22397734.7674
       236.000         194.000
 124183184.01448  78973909.44648  21728337.4214   21728338.9384   21728337.4084
       241.000         212.000
  99957330.80648  95681031.82948  20924188.1024   20924189.8284   20924187.7104
       249.000         227.000
 131220653.60648 102249846.67548  24970470.0104   24970474.2414   24970470.3674
       212.000         152.000
 105906429.24548  82524481.37148  20153329.4004   20153331.6244   20153329.4074
       253.000         228.000
 117128137.87348  91268674.84648  22288746.0754   22288747.5374   22288746.9334
       235.000         195.000
 134315236.81048  86869015.25848  23656403.4394   23656403.0694   23656403.7714
       227.000         176.000
 122121722.71148  95159776.71348  23238997.1684   23238998.7164   23238996.6064
       231.000         190.000
 132984744.27748 103624465.72948  25306163.2834   25306163.3294   25306163.5594
       210.000         145.000
 129319634.94548  82976324.26548  22705783.1124   22705786.2074   22705784.5124
       233.000         188.000
 09  1 18  1 18  0.0000000  0 10G26G12G15G30G 9G18G22G17G28G 5
 117793442.92248  91787086.32648  22415356.7714   22415359.2094   22415356.8294
       237.000         195.000
 124106018.77948  78913780.69548  21713653.4784   21713654.9824   21713653.4144
       242.000         213.000
 100011135.31248  95722957.41148  20934426.8574   20934428.5364   20934426.7694
       249.000         226.000
 131108562.67248 102162503.08848  24949140.2284   24949142.9714   24949140.5234
       213.000         154.000
 105879152.79248  82503226.98948  20148138.9794   20148141.2434   20148139.3174
       252.000         229.000
 117136838.74048  91275454.72348  22290401.6014   22290403.4174   22290402.0854
       235.000         195.000
 134271163.38448  86834672.33948  23648016.9464   23648016.1824   23648017.5224
       226.000         181.000
 122132854.94048  95168451.19448  23241115.4394   23241117.1284   23241115.4364
       231.000         191.000
 133081479.52948 103699843.85548  25324571.6684   25324571.9044   25324571.8684
       209.000         146.000
 129223649.61948  82901530.51048  22687517.6484   22687520.6044   22687518.1724
       231.000         188.000
 09  1 18  1 18 30.0000000  0 10G26G12G15G30G 9G18G22G17G28G 5
 117886321.44248  91859459.18248  22433031.4344   22433033.6164   22433031.0154
       238.000         197.000
 124029235.30548  78853949.43748  21699042.0814   21699043.6334   21699041.9814
       243.000         214.000
 100065384.41848  95765229.43148  20944749.9624   20944751.7934   20944749.7814
       249.000         226.000
 130996554.56448 102075224.03648  24927825.9074   24927828.9414   24927825.7704
       214.000         156.000
 105852212.87848  82482234.85048  20143012.4054   20143014.8574   20143012.6954
       252.000         228.000
 117146108.24648  91282677.71148  22292165.7554   22292167.2974   22292165.7274
       237.000         194.000
 134227589.34648  86800718.56348  23639724.7364   23639726.0094   23639724.4624
       226.000         181.000
 122144543.56348  95177559.22848  23243339.9084   23243341.4804   23243339.7804
       232.000         192.000
 133178241.72448 103775242.96248  25342984.5434   25342985.6514   25342986.4494
       205.000         145.000
 129127939.85148  82826951.48748  22669304.5614   22669307.9264   22669305.2174
       234.000         190.000
 09  1 18  1 19  0.0000000  0 10G26G12G15G30G 9G18G22G17G28G 5
 117979470.23848  91932042.65348  22450756.8854   22450759.4954   22450756.8864
       237.000         196.000
 123952832.83848  78794415.05548  21684503.0684   21684504.6454   21684502.7784
       242.000         213.000
 100120075.03648  95807845.48948  20955157.2564   20955158.9334   20955156.8804
       249.000         226.000
 130884628.66048 101988009.02548  24906526.8564   24906530.4394   24906525.7934
       212.000         154.000
 105825607.99648  82461503.77548  20137949.6244   20137952.0114   20137949.5134
       253.000         229.000
 117155943.57948  91290341.58848  22294036.9274   22294038.7304   22294037.1304
       235.000         194.000
 134184514.04148  86767153.34848  23631527.9344   23631527.9484   23631528.2204
       226.000         175.000
 122156786.61148  95187099.26448  23245670.0474   23245671.4954   23245670.1694
       233.000         193.000
 133275026.82948 103850659.91748  25361401.8204   25361403.5404   25361402.3594
       203.000         144.000
 129032505.04248  82752586.73148  22651143.4994   22651147.3134   22651144.7394
       233.000         189.000
 09  1 18  1 19 30.0000000  0 10G26G12G15G30G 9G18G22G17G28G 5
 118072889.87948  92004837.16648  22468533.9664   22468536.5604   22468534.0994
       236.000         194.000
 123876814.95448  78735180.35648  21670037.2734   21670038.9554   21670037.2854
       243.000         214.000
 100175209.37448  95850807.30548  20965649.1324   20965650.7054   20965648.8954
       250.000         226.000
 130772788.90448 101900861.14848  24885243.9414   24885248.5534   24885243.8304
       210.000         157.000
 105799340.54148  82441035.63548  20132951.1144   20132953.4454   20132951.4994
       252.000         228.000
 117166345.86348  91298447.25448  22296016.5394   22296018.5434   22296016.6834
       237.000         195.000
 134141940.45648  86733979.10748  23623426.4914   23623426.5374   23623424.5034
       226.000         180.000
 122169585.71048  95197072.59648  23248105.7334   23248106.9034   23248105.4024
       232.000         193.000
 133371835.38448 103926095.13148  25379823.7234   25379824.8324   25379822.6094
       203.000         141.000
 128937349.12948  82678439.28248  22633036.0354   22633039.7054   22633036.1254
       235.000         191.000
 09  1 18  1 20  0.0000000  0 10G26G12G15G30G 9G18G22G17G28G 5
 118166577.77348  92077840.72348  22486362.1114   22486364.7174   22486361.7294
       235.000         193.000
 123801181.39948  78676245.13348  21655645.0234   21655646.3534   21655644.8574
       243.000         215.000
 100230784.96848  95894112.96048  20976224.7324   20976226.3174   20976224.5614
       248.000         226.000
 130661035.51348 101813780.56948  24863978.7204   24863982.7484   24863979.0104
       214.000         158.000
 105773409.55648  82420829.67848  20128016.5914   20128018.7824   20128016.6914
       252.000         228.000
 117177313.24048  91306993.24248  22298103.9564   22298105.6004   22298104.2384
       235.000         194.000
 134099868.78648  86701196.01748  23615420.7594   23615420.7684   23615420.6084
       227.000         178.000
 122182939.94348  95207478.50448  23250646.5864   23250648.1864   23250646.4324
       232.000         194.000
 133468664.42948 104001546.32248  25398250.0664   25398251.5924   25398250.1884
       204.000         139.000
 128842472.22848  82604509.24148  22614981.9744   22614984.9964   22614982.3354
       234.000         191.000
 09  1 18  1 20 30.0000000  0 10G26G12G15G30G 9G18G22G17G28G 5
 118260532.76348  92151052.39148  22504241.2844   22504243.8574   22504240.9784
       235.000         194.000
 123725933.77948  78617610.63548  21641325.7954   21641327.1444   21641325.7234
       243.000         215.000
 100286801.29948  95937762.03848  20986884.2494   20986886.0494   20986883.8044
       249.000         226.000
 130549370.66348 101726769.01748  24842730.2694   24842733.1124   24842729.7334
       217.000         159.000
 105747815.81248  82400886.50348  20123146.2204   20123148.4964   20123146.4594
       252.000         228.000
 117188845.14748  91315979.13448  22300298.1274   22300300.0714   22300298.4984
       235.000         193.000
 134058300.49448  86668805.10648  23607510.1194   23607510.0164   23607509.1744
       224.000         175.000
 122196849.13548  95218316.84848  23253293.5394   23253294.8624   23253293.6834
       233.000         193.000
 133565512.83348 104077012.61648  25416679.7774   25416681.9174   25416680.6484
       206.000         142.000
 128747876.24848  82530798.09948  22596980.8434   22596983.9154   22596981.5344
       235.000         191.000
 09  1 18  1 21  0.0000000  0 10G26G12G15G30G 9G18G22G17G28G 5
 118354752.91448  92224470.68548  22522170.2314   22522173.4244   22522170.7424
       234.000         193.000
 123651073.36448  78559277.85348  21627080.5244   21627081.7354   21627080.5184
       243.000         215.000
 100343257.29448  95981753.71448  20997627.5044   20997629.2924   20997627.3764
       248.000         225.000
 130437796.13848 101639827.84348  24821498.1174   24821501.1984   24821498.8524
       213.000         159.000
 105722559.49248  82381206.25048  20118340.1884   20118342.4324   20118340.4564
       252.000         228.000
 117200940.53548  91325404.10348  22302599.4604   22302601.4984   22302599.6564
       234.000         193.000
 134017236.29248  86636807.05148  23599695.3844   23599696.3614   23599695.2584
       225.000         179.000
 122211313.20748  95229587.54848  23256046.1224   23256047.2154   23256046.0134
       233.000         193.000
 133662377.94048 104152491.92348  25435111.7244   25435114.8764   25435112.8714
       207.000         143.000
 128653562.40848  82457306.81148  22579033.7794   22579036.7384   22579034.4524
       235.000         192.000
 09  1 18  1 21 30.0000000  0 10G26G12G15G30G 9G18G22G17G28G 5
 118449237.08948  92298094.70248  22540150.1074   22540153.1094   22540149.6444
       234.000         191.000
 123576601.39048  78501247.76448  21612908.6474   21612910.0414   21612908.5544
       243.000         215.000
 100400152.29948  96026087.48348  21008454.1174   21008456.0034   21008453.7664
       249.000         225.000
 130326312.95648 101552957.84448  24800282.7024   24800286.5264   24800282.4344
       212.000         157.000
 105697641.36848  82361789.53548  20113598.3164   20113600.8354   20113598.5514
       252.000         229.000
 117213598.44248  91335267.39448  22305008.6294   22305010.3664   22305008.8774
       235.000         193.000
 133976677.81748  86605203.05848  23591977.7374   23591977.8674   23591977.8474
       223.000         175.000
 122226332.15348  95241290.62648  23258904.1314   23258905.3214   23258903.8694
       234.000         192.000
 133759258.67748 104227983.39448  25453548.6414   25453550.4594   25453548.8724
       209.000         144.000
 128559532.34348  82384036.65748  22561140.2384   22561143.2604   22561140.9594
       236.000         192.000
 09  1 18  1 22  0.0000000  0 10G26G12G15G30G 9G18G22G17G28G 5
 118543983.85948  92371923.35348  22558180.2184   22558182.8384   22558179.9754
       234.000         191.000
 123502519.30348  78443521.48148  21598811.3114   21598812.9544   21598811.2624
       244.000         216.000
 100457485.89248  96070762.99648  21019364.5214   21019366.1584   21019364.1754
       249.000         225.000
 130214923.20448 101466160.65348  24779086.1734   24779089.8174   24779085.6954
       210.000         157.000
 105673061.82748  82342636.65048  20108920.9794   20108923.6544   20108921.0134
       252.000         229.000
 117226818.25248  91345568.53448  22307524.1884   22307525.9274   22307524.6224
       235.000         193.000
 133936626.27248  86573994.03448  23584356.1484   23584355.7054   23584354.7904
       229.000         179.000
 122241906.25348  95253426.30348  23261867.3204   23261868.9824   23261867.4814
       231.000         191.000
 133856153.88648 104303486.14248  25471986.8654   25471989.8634   25471987.5854
       210.000         144.000
 128465788.02448  82310989.15448  22543301.0604   22543304.5094   22543302.3324
       235.000         192.000
 09  1 18  1 22 30.0000000  0 10G26G12G15G30G 9G18G22G17G28G 5
 118638991.32448  92445955.14548  22576259.4014   22576261.9734   22576259.5484
       234.000         192.000
 123428828.11548  78386099.79048  21584788.3714   21584790.0744   21584788.5234
       244.000         216.000
 100515256.67648  96115779.19248  21030357.9814   21030359.6334   21030357.7814
       248.000         225.000
 130103628.12948 101379437.23248  24757908.2094   24757911.2994   24757906.9294
       214.000         158.000
 105648820.68848  82323747.45148  20104308.0824   20104310.6234   20104308.2514
       252.000         229.000
 117240598.89448  91356306.67348  22310146.3024   22310148.0324   22310147.1614
       234.000         192.000
 133897082.76848  86543180.89748  23576831.8374   23576832.2404   23576832.6494
       224.000         181.000
 122258034.39548  95265993.70348  23264936.4704   23264938.2444   23264936.1234
       233.000         195.000
 133953061.24548 104378998.32048  25490428.1774   25490429.1224   25490428.4804
       207.000         140.000
 128372330.25548  82238164.93648  22525516.6114   22525519.7864   22525517.1834
       234.000         192.000
 09  1 18  1 23  0.0000000  0 10G26G12G15G30G 9G18G22G17G28G 5
 118734258.18648  92520189.04248  22594387.9524   22594390.8544   22594388.2414
       235.000         192.000
 123355528.71548  78328983.39048  21570839.9044   21570841.6684   21570839.8454
       243.000         217.000
 100573463.72048  96161135.31348  21041434.3454   21041436.1304   21041434.0574
       249.000         225.000
 129992429.44148 101292788.91448  24736748.2634   24736750.4744   24736748.1754
       214.000         157.000
 105624918.13248  82305122.08048  20099759.6564   20099762.0504   20099759.8174
       252.000         228.000
 117254939.06248  91367480.81648  22312875.3984   22312876.9734   22312875.8354
       236.000         193.000
 133858047.93448  86512764.14848  23569402.9364   23569403.8334   23569402.8114
       227.000         181.000
 122274716.30448  95278992.60548  23268111.3554   23268112.7404   23268111.1404
       233.000         194.000
 134049978.85348 104454518.57548  25508871.0894   25508872.3654   25508871.1444
       207.000         139.000
 128279160.74848  82165565.35048  22507786.7854   22507790.3824   22507788.1084
       235.000         192.000
 09  1 18  1 23 30.0000000  0 10G26G12G15G30G 9G18G22G17G28G 5
 118829783.08948  92594624.01048  22612566.1624   22612568.6464   22612566.4764
       234.000         192.000
 123282623.09548  78272173.83348  21556966.6494   21556968.2154   21556966.6724
       244.000         217.000
 100632106.80048  96206831.21448  21052593.9724   21052595.5004   21052593.8844
       248.000         224.000
 129881329.06248 101206217.17548  24715606.4204   24715608.3674   24715606.8954
       216.000         158.000
 105601355.21648  82286761.36648  20095275.6574   20095278.0264   20095275.8734
       252.000         228.000
 117269838.27248  91379090.58348  22315710.8094   22315712.1324   22315711.5654
       236.000         192.000
 133819523.32048  86482744.94948  23562072.8904   23562072.9874   23562072.7734
       226.000         182.000
 122291952.64848  95292423.52148  23271391.1854   23271392.2444   23271390.5774
       233.000         193.000
 134146905.91448 104530046.14548  25527315.1754   25527317.2934   25527315.3294
       207.000         139.000
 128186281.22348  82093191.69448  22490112.5944   22490115.6044   22490113.6174
       235.000         193.000
 09  1 18  1 24  0.0000000  0 10G26G12G15G30G 9G18G22G17G28G 5
 118925562.49148  92669257.29048  22630792.3084   22630794.7024   22630792.0174
       234.000         191.000
 123210109.89348  78215670.04448  21543167.6994   21543169.1934   21543167.6324
       243.000         216.000
 100691182.65848  96252864.34148  21063835.5654   21063837.2894   21063835.1664
       248.000         224.000
 129770326.81648 101119721.95348  24694483.0744   24694485.5594   24694482.5314
       219.000         159.000
 105578129.91448  82268663.73148  20090856.1474   20090858.5534   20090856.3154
       252.000         228.000
 117285293.48648  91391133.59448  22318651.6244   22318653.2874   22318651.9674
       235.000         193.000
 133781508.03748  86453122.67348  23554838.4914   23554839.2844   23554837.3824
       228.000         183.000
 122309740.61448  95306284.28948  23274776.0594   23274777.2684   23274776.1124
       231.000         192.000
 134243838.78648 104605578.31948  25545760.3304   25545762.5024   25545761.2194
       207.000         139.000
 128093691.09048  82021043.55848  22472493.2844   22472496.4344   22472493.9414
       237.000         194.000
 09  1 18  1 24 30.0000000  0  9G26G12G15G30G 9G18G22G17G 5
 119021595.60348  92744088.29048  22649066.9274   22649069.3194   22649066.8414
       234.000         192.000
 123137991.28548  78159473.73648  21529443.9924   21529445.4074   21529443.7854
       244.000         216.000
 100750691.33848  96299234.74348  21075159.8054   21075161.3584   21075159.5924
       249.000         224.000
 129659424.66348 101033304.72148  24673379.1444   24673381.9094   24673379.8554
       218.000         161.000
 105555243.86748  82250830.44748  20086500.9734   20086503.3704   20086501.0684
       252.000         228.000
 117301304.55848  91403609.74648  22321698.2914   22321700.2544   22321698.8354
       235.000         193.000
 133744003.51148  86423898.35748  23547701.3824   23547702.2014   23547703.0894
       224.000         177.000
 122328081.12448  95320575.60448  23278265.8554   23278267.3254   23278265.5774
       232.000         193.000
 128001392.73848  81949122.78548  22454929.6354   22454932.7154   22454930.4144
       235.000         195.000
 09  1 18  1 25  0.0000000  0  9G26G12G15G30G 9G18G22G17G 5
 119117884.13748  92819118.32048  22667389.9044   22667392.2194   22667389.5834
       235.000         191.000
 123066271.36148  78103588.10148  21515795.8674   21515797.4594   21515796.0124
       244.000         216.000
 100810635.11348  96345944.16948  21086566.6524   21086568.3244   21086566.3724
       248.000         224.000
 129548627.41648 100946969.23248  24652294.7474   24652297.9644   24652294.5824
       219.000         159.000
 105532700.53248  82233264.21548  20082211.1054   20082213.5314   20082211.3634
       252.000         228.000
 117317873.22648  91416520.38148  22324851.4854   22324853.4294   22324851.8494
       235.000         193.000
 133707014.06748  86395075.41048  23540661.8064   23540662.8384   23540660.9904
       226.000         178.000
 122346976.66648  95335299.41748  23281861.8824   23281863.1794   23281862.0334
       233.000         193.000
 127909390.74448  81877432.93048  22437422.2664   22437425.4214   22437422.6484
       237.000         196.000
 09  1 18  1 25 30.0000000  0  9G26G12G15G30G 9G18G22G17G 5
 119214425.20948  92894345.10948  22685760.9724   22685763.7144   22685761.4284
       233.000         191.000
 122994949.97248  78048013.00848  21502223.9804   21502225.3574   21502223.7574
       245.000         217.000
 100871011.24348  96392990.50348  21098055.8704   21098057.6304   21098055.7034
       248.000         224.000
 129437935.69348 100860715.94948  24631230.9384   24631234.1094   24631230.9914
       216.000         159.000
 105510498.51148  82215963.94048  20077986.1264   20077988.5784   20077986.2314
       252.000         228.000
 117334997.29848  91429863.82048  22328110.3004   22328111.8654   22328110.5964
       236.000         193.000
 133670539.55548  86366653.71748  23533722.1874   23533721.9564   23533722.0164
       223.000         176.000
 122366425.47848  95350454.34248  23285562.3904   23285564.2924   23285562.2314
       232.000         192.000
 127817685.17548  81805974.05648  22419971.4684   22419974.3654   22419972.2254
       237.000         197.000
 09  1 18  1 26  0.0000000  0  9G26G12G15G30G 9G18G22G17G 5
 119311217.87448  92969767.95348  22704179.8644   22704182.6044   22704179.5784
       230.000         190.000
 122924028.97248  77992749.90548  21488728.3334   21488729.5104   21488728.2984
       245.000         217.000
 100931819.43248  96440373.49848  21109627.1194   21109628.9824   21109626.9784
       248.000         223.000
 129327351.51748 100774546.47448  24610186.9604   24610190.1994   24610187.0554
       217.000         160.000
 105488638.90248  82198930.47848  20073826.4154   20073828.7894   20073826.5984
       252.000         228.000
 117352676.38348  91443639.72448  22331474.2794   22331476.2474   22331475.2464
       235.000         194.000
 133634581.44748  86338634.41248  23526878.3214   23526878.5244   23526877.4394
       222.000         175.000
 122386427.86948  95366040.61748  23289368.9734   23289370.5154   23289368.4524
       233.000         194.000
 127726278.12048  81734747.80348  22402576.9844   22402580.3784   22402577.5024
       237.000         197.000
 09  1 18  1 26 30.0000000  0  9G26G12G15G30G 9G18G22G17G 5
 119408259.72848  93045384.97348  22722646.4594   22722648.9754   22722646.0154
       234.000         190.000
 122853508.65948  77937799.02448  21475308.5694   21475309.9984   21475308.5214
       244.000         217.000
 100993058.56248  96488092.29948  21121280.4694   21121282.4174   21121280.2734
       247.000         223.000
 129216875.63348 100688461.40148  24589164.1294   24589167.2244   24589164.3334
       215.000         160.000
 105467121.39448  82182163.59048  20069731.6794   20069734.1784   20069731.8814
       253.000         228.000
 117370908.39248  91457846.47148  22334943.9634   22334945.7384   22334944.6784
       236.000         194.000
 133599139.84148  86311017.55248  23520134.6354   23520135.2084   23520134.4474
       225.000         179.000
 122406982.71048  95382057.39248  23293280.7564   23293282.0524   23293280.4734
       232.000         192.000
 127635170.35648  81663754.75748  22385239.9374   22385243.0494   22385240.4044
       236.000         197.000
 09  1 18  1 27  0.0000000  0  9G26G12G15G30G 9G18G22G17G 5
 119505548.62848  93121194.48948  22741159.7904   22741162.6344   22741160.0884
       232.000         190.000
 122783389.37948  77883160.64448  21461965.2104   21461966.8684   21461965.0094
       245.000         217.000
 101054726.80648  96536145.46548  21133015.7184   21133017.6684   21133015.4424
       248.000         223.000
 129106509.24248 100602461.65048  24568161.9164   24568165.2034   24568161.5324
       217.000         160.000
 105445946.04648  82165663.32448  20065702.4164   20065704.6014   20065702.6334
       252.000         228.000
 117389691.74348  91472482.83748  22338518.3164   22338519.9054   22338519.3134
       237.000         193.000
 133564215.50048  86283803.78848  23513488.5944   23513490.0004   23513489.0034
       226.000         180.000
 122428089.00148  95398503.85748  23297296.4184   23297298.4184   23297296.3874
       231.000         191.000
 127544362.52748  81592995.42448  22367959.6554   22367962.8714   22367960.1784
       236.000         197.000
 09  1 18  1 27 30.0000000  0  9G26G12G15G30G 9G18G22G17G 5
 119603082.87848  93197195.19748  22759719.9214   22759722.7374   22759719.7544
       231.000         187.000
 122713672.14148  77828835.53948  21448698.4824   21448700.1724   21448698.4644
       245.000         218.000
 101116822.50348  96584531.71248  21144832.1384   21144834.0244   21144832.0304
       248.000         223.000
 128996253.87348 100516548.39648  24547181.5314   24547184.4114   24547182.1964
       215.000         162.000
 105425112.82548  82149429.64448  20061738.0274   20061740.2354   20061738.1504
       252.000         229.000
 117409024.79648  91487547.54548  22342197.4014   22342198.4794   22342198.0474
       235.000         192.000
 133529808.52948  86256993.14548  23506942.2384   23506942.1784   23506942.3264
       226.000         180.000
 122449746.20048  95415379.60048  23301417.5274   23301419.5934   23301416.9224
       232.000         191.000
 127453856.05748  81522470.92748  22350736.2744   22350739.9354   22350736.9244
       234.000         196.000
 09  1 18  1 28  0.0000000  0  9G26G12G15G30G 9G18G22G17G 5
 119700861.97348  93273386.69748  22778326.6474   22778329.3824   22778326.7174
       231.000         187.000
 122644359.24448  77774825.49348  21435508.8384   21435510.2834   21435508.4974
       245.000         218.000
 101179346.42048  96633251.64048  21156730.0194   21156731.7744   21156729.5954
       247.000         223.000
 128886111.94048 100430723.57448  24526221.6394   24526225.0084   24526220.1594
       216.000         162.000
 105404623.26548  82133463.75048  20057839.0144   20057841.2434   20057839.1994
       252.000         229.000
 117428907.47948  91503040.54148  22345980.8944   22345981.9824   22345981.2954
       237.000         192.000
 133495921.04248  86230587.33848  23500492.9424   23500493.4484   23500492.4764
       225.000         179.000
 122471954.75248  95432684.97048  23305644.4354   23305645.8404   23305644.1654
       234.000         191.000
 127363653.36248  81452183.12848  22333571.3754   22333575.0614   22333571.6084
       237.000         199.000
 09  1 18  1 28 30.0000000  0  9G26G12G15G30G 9G18G22G17G 5
 119798884.14848  93349767.60248  22796979.6574   22796982.4344   22796979.4514
       231.000         188.000
 122575451.44848  77721131.12448  21422396.0154   21422397.6774   21422395.7784
       246.000         219.000
 101242297.03248  96682304.06248  21168709.1604   21168710.7824   21168708.9184
       247.000         222.000
 128776084.63448 100344988.03148  24505283.8574   24505288.2694   24505283.5004
       213.000         160.000
 105384477.36748  82117765.64848  20054005.3044   20054007.6014   20054005.5094
       252.000         229.000
 117449338.66648  91518960.94548  22349868.4424   22349870.2464   22349868.8704
       235.000         191.000
 133462553.94348  86204586.95948  23494143.8794   23494143.7744   23494144.1394
       227.000         180.000
 122494714.06648  95450419.51248  23309975.1004   23309976.3224   23309975.3734
       230.000         187.000
 127273755.60448  81382132.94448  22316464.7854   22316468.2174   22316465.9544
       237.000         199.000
 09  1 18  1 29  0.0000000  0  9G26G12G15G30G 9G18G22G17G 5
 119897147.22148  93426336.22348  22815678.6684   22815681.0674   22815678.6114
       231.000         189.000
 122506949.11648  77667752.69648  21409360.4154   21409361.8824   21409360.2054
       245.000         218.000
 101305672.70048  96731687.69048  21180769.1734   21180770.8574   21180768.8384
       248.000         222.000
 128666173.44648 100259342.98948  24484368.0884   24484372.2754   24484368.1694
       213.000         158.000
 105364675.08948  82102335.30548  20050236.9504   20050239.2964   20050237.1534
       252.000         229.000
 117470316.32248  91535307.15348  22353860.3844   22353862.2284   22353860.5624
       235.000         193.000
 133429707.68748  86178992.47748  23487893.1334   23487893.6244   23487894.5544
       227.000         179.000
 122518023.24748  95468582.53748  23314410.2454   23314412.0264   23314410.1874
       233.000         189.000
 127184163.69248  81312321.09948  22299415.7854   22299419.3864   22299416.2924
       237.000         198.000
 09  1 18  1 29 30.0000000  0  9G26G12G15G30G 9G18G22G17G 5
 119995649.62248  93503091.33348  22834422.8694   22834425.6674   22834422.5864
       231.000         190.000
 122438853.34148  77614691.07548  21396402.2844   21396403.6074   21396402.2174
       246.000         219.000
 101369472.28748  96781401.65448  21192909.8194   21192911.5944   21192909.6474
       247.000         222.000
 128556379.87648 100173789.56248  24463475.7644   24463479.3424   24463476.2234
       212.000         159.000
 105345216.55748  82087172.81348  20046534.2014   20046536.4244   20046534.6064
       251.000         229.000
 117491839.38648  91552078.36048  22357956.1254   22357958.1984   22357956.2754
       235.000         193.000
 133397382.66448  86153804.14548  23481742.3454   23481741.9994   23481743.5894
       230.000         181.000
 122541881.57948  95487173.44548  23318951.3174   23318951.8124   23318951.0044
       233.000         190.000
 127094879.08048  81242748.69548  22282425.8184   22282428.8234   22282426.7554
       238.000         199.000
 09  1 18  1 30  0.0000000  0  9G26G12G15G30G 9G18G22G17G 5
 120094389.66548  93580031.61048  22853212.7054   22853215.3044   22853212.6134
       229.000         188.000
 122371165.18448  77561947.07448  21383521.6934   21383523.1644   21383521.7344
       246.000         219.000
 101433694.99148  96831445.31148  21205130.9364   21205132.6404   21205130.7554
       248.000         222.000
 128446705.18948 100088328.78648  24442605.7464   24442609.0324   24442605.0204
       214.000         161.000
 105326102.31848  82072278.59948  20042896.8604   20042899.2084   20042897.0244
       251.000         229.000
 117513906.25648  91569273.31148  22362155.1934   22362157.3494   22362155.4674
       234.000         194.000
 133365579.53248  86129022.49548  23475690.3324   23475689.9784   23475691.4814
       229.000         179.000
 122566288.30948  95506191.68948  23323595.0574   23323596.2844   23323595.0054
       229.000         187.000
 127005903.01248  81173416.70648  22265494.1504   22265497.3934   22265494.8454
       237.000         198.000
 09  1 18  1 30 30.0000000  0  9G26G12G15G30G 9G18G22G17G 5
 120193367.42748  93657157.12848  22872047.3254   22872049.8994   22872047.0314
       230.000         188.000
 122303886.75048  77509522.33248  21370718.9824   21370720.5354   21370718.9044
       245.000         219.000
 101498340.99648  96881818.81948  21217432.4704   21217434.4084   21217432.2404
       247.000         221.000
 128337152.48648 100002963.08648  24421758.2334   24421761.8764   24421757.6354
       217.000         161.000
 105307334.06348  82057653.99248  20039325.3924   20039327.7654   20039325.6724
       252.000         229.000
 117536517.20048  91586892.21948  22366458.2714   22366459.9684   22366458.4804
       235.000         193.000
 133334301.19648  86104649.72748  23469738.3574   23469737.8454   23469737.7704
       229.000         182.000
 122591244.80448  95525638.32548  23328343.4324   23328345.6394   23328342.3574
       233.000         189.000
 126917238.45848  81104327.45748  22248621.8324   22248624.7974   22248622.4244
       239.000         199.000
 09  1 18  1 31  0.0000000  0  9G26G12G15G30G 9G18G22G17G 5
 120292579.98548  93734465.60848  22890926.9504   22890929.7884   22890927.4574
       228.000         186.000
 122237018.41448  77457417.15148  21357994.0504   21357995.7904   21357993.8284
       245.000         219.000
 101563407.98648  96932520.36148  21229814.4854   21229816.2034   21229814.1414
       247.000         221.000
 128227722.40848  99917692.93248  24400934.1614   24400937.8544   24400935.2774
       218.000         163.000
 105288910.84848  82043298.24348  20035819.4384   20035821.9984   20035819.6104
       251.000         229.000
 117559669.42348  91604932.90548  22370863.9224   22370865.5254   22370864.2064
       236.000         191.000
 133303547.03048  86080685.44448  23463885.5534   23463885.1044   23463884.8144
       226.000         178.000
 122616749.03048  95545511.74048  23333198.3514   23333199.0774   23333198.4974
       234.000         190.000
 126828885.59448  81035481.09448  22231808.7844   22231811.7504   22231809.2324
       238.000         201.000
 09  1 18  1 31 30.0000000  0  9G26G12G15G30G 9G18G22G17G 5
 120392025.05748  93811955.24948  22909850.6834   22909853.5514   22909850.3994
       230.000         187.000
 122170560.31748  77405631.63948  21345347.5044   21345349.2014   21345347.3674
       247.000         219.000
 101628894.12948  96983548.52248  21242276.1334   21242277.8414   21242275.8334
       246.000         222.000
 128118415.74648  99832518.93348  24380134.4864   24380137.8964   24380133.0184
       219.000         168.000
 105270832.41748  82029211.15348  20032379.2734   20032381.6354   20032379.4364
       251.000         229.000
 117583361.06048  91623393.90448  22375372.2864   22375374.0924   22375372.6384
       234.000         192.000
 133273316.67548  86057129.31448  23458133.1774   23458132.5354   23458132.5404
       228.000         179.000
 122642799.65948  95565810.96348  23338154.6134   23338156.4034   23338155.2144
       231.000         185.000
 126740844.92948  80966877.99348  22215055.3144   22215058.2214   22215055.9274
       239.000         201.000
 09  1 18  1 32  0.0000000  0  9G26G12G15G30G 9G18G22G17G 5
 120491702.70948  93889626.15048  22928818.8494   22928821.6304   22928818.8904
       229.000         188.000
 122104514.97548  77354167.74648  21332779.6484   21332781.1144   21332779.3644
       247.000         219.000
 101694800.38948  97034904.04048  21254817.6414   21254819.4324   21254817.3044
       247.000         221.000
 128009236.05448  99747443.87848  24359358.5684   24359361.8234   24359357.1884
       224.000         170.000
 105253100.95148  82015394.42748  20029005.1684   20029007.5764   20029005.3834
       251.000         229.000
 117607592.52448  91642275.54848  22379983.4404   22379985.3874   22379984.0764
       235.000         192.000
 133243613.16348  86033983.72548  23452480.1964   23452480.6364   23452480.2534
       226.000         182.000
 122669397.98748  95586536.94748  23343215.2954   23343217.5244   23343214.6164
       232.000         186.000
 126653119.80048  80898520.75648  22198361.4754   22198364.8604   22198362.3374
       239.000         202.000
 09  1 18  1 32 30.0000000  0  9G26G12G15G30G 9G18G22G17G 5
 120591609.89148  93967475.89648  22947830.7634   22947833.2814   22947830.1904
       232.000         187.000
 122038881.95048  77303025.14048  21320290.0214   21320291.4664   21320289.9254
       247.000         219.000
 101761124.00748  97086584.77748  21267438.7084   21267440.5044   21267438.3714
       246.000         221.000
 127900183.51248  99662467.89348  24338606.7714   24338609.6844   24338607.7334
       225.000         167.000
 105235715.50048  82001847.32648  20025696.7434   20025699.2964   20025696.8734
       251.000         229.000
 117632361.10148  91661575.73748  22384696.8644   22384698.6084   22384697.3424
       235.000         191.000
 133214435.61648  86011247.96048  23446928.6514   23446929.2254   23446928.6124
       229.000         184.000
 122696541.50448  95607687.73948  23348382.1014   23348382.8834   23348381.9934
       233.000         187.000
 126565710.03948  80830409.25448  22181727.9104   22181731.1034   22181728.2504
       239.000         202.000
 09  1 18  1 33  0.0000000  0  9G26G12G15G30G 9G18G22G17G 5
 120691744.50148  94045502.86148  22966885.5484   22966887.9334   22966886.3194
       229.000         187.000
 121973661.74348  77252204.20948  21307879.0944   21307880.4044   21307879.0474
       247.000         220.000
 101827863.21848  97138589.35348  21280138.5944   21280140.4134   21280138.1774
       247.000         221.000
 127791258.98548  99577591.64848  24317878.6804   24317881.2614   24317878.4034
       224.000         163.000
 105218675.63648  81988569.50948  20022454.1104   20022456.4834   20022454.2684
       251.000         229.000
 117657664.72248  91681292.83448  22389511.5764   22389513.6884   22389511.8664
       234.000         191.000
 133185784.07348  85988922.08048  23441475.7414   23441476.9464   23441477.0734
       228.000         183.000
 122724229.20548  95629262.58048  23353650.3654   23353651.5284   23353650.7894
       231.000         183.000
 126478616.44148  80762544.12548  22165154.4314   22165157.8484   22165155.0274
       239.000         202.000
 09  1 18  1 33 30.0000000  0  9G26G12G15G30G 9G18G22G17G 5
 120792106.31148  94123706.85348  22985983.4654   22985986.4154   22985983.5974
       228.000         186.000
 121908856.73748  77201706.81148  21295547.0864   21295548.3814   21295546.9764
       248.000         220.000
 101895018.47148  97190918.11548  21292917.9874   21292919.6324   21292917.8004
       247.000         221.000
 127682465.38848  99492817.42148  24297175.5254   24297178.3774   24297175.8964
       218.000         159.000
 105201983.29048  81975562.49048  20019277.6124   20019280.1074   20019277.6694
       251.000         229.000
 117683503.30948  91701426.77848  22394428.7244   22394430.9204   22394429.1914
       235.000         192.000
 133157660.59948  85967007.68948  23436124.2824   23436125.0454   23436124.5924
       227.000         183.000
 122752461.92348  95651262.09248  23359022.6974   23359023.8324   23359022.5564
       231.000         183.000
 126391841.76348  80694927.51648  22148642.0154   22148645.3444   22148642.5274
       240.000         203.000
 09  1 18  1 34  0.0000000  0  9G26G12G15G30G 9G18G22G17G 5
 120892694.10548  94202086.93348  23005125.0704   23005127.8864   23005124.9944
       229.000         187.000
 121844468.23948  77151533.96548  21283294.6514   21283295.7664   21283294.5114
       248.000         220.000
 101962588.43548  97243570.03748  21305776.1764   21305777.9114   21305776.0484
       247.000         220.000
 127573804.29448  99408146.44448  24276497.7364   24276500.7914   24276496.2054
       216.000         159.000
 105185639.29148  81962826.90248  20016167.5834   20016169.9564   20016167.7474
       251.000         229.000
 117709875.73848  91721976.71248  22399447.2464   22399449.1484   22399448.1244
       234.000         191.000
 133130066.24448  85945505.60948  23430873.0004   23430873.9014   23430873.4244
       229.000         184.000
 122781239.03248  95673685.83848  23364498.3124   23364500.4074   23364498.6714
       228.000         182.000
 126305387.67048  80627560.70448  22132190.4594   22132193.4764   22132191.1154
       240.000         204.000
 09  1 18  1 34 30.0000000  0  9G26G12G15G30G 9G18G22G17G 5
 120993505.41948  94280641.18748  23024308.6924   23024311.7334   23024308.8094
       228.000         187.000
 121780495.89248  77101685.39448  21271120.7114   21271122.4594   21271120.8354
       247.000         221.000
 102030571.79148  97296544.06748  21318712.8934   21318714.7434   21318712.7684
       247.000         220.000
 127465277.03648  99323579.79648  24255845.5714   24255848.8914   24255846.2894
       213.000         159.000
 105169643.24748  81950362.45748  20013123.7814   20013125.8964   20013124.0084
       252.000         229.000
 117736779.61948  91742940.76048  22404566.9444   22404568.6974   22404567.3384
       234.000         190.000
 133103000.83148  85924415.66348  23425722.9784   23425723.6514   23425724.2814
       227.000         183.000
 122810559.21548  95696532.76748  23370077.4424   23370079.7554   23370077.2184
       229.000         185.000
 126219254.71648  80560444.13448  22115799.8644   22115802.9174   22115800.2824
       241.000         204.000
 09  1 18  1 35  0.0000000  0  9G26G12G15G30G 9G18G22G17G 5
 121094539.25148  94359368.84448  23043535.0804   23043537.8724   23043535.0364
       230.000         185.000
 121716941.50848  77052162.50748  21259026.7134   21259028.5454   21259026.4584
       248.000         221.000
 102098967.74348  97349839.60848  21331728.2864   21331730.0784   21331727.9494
       246.000         220.000
 127356885.39648  99239118.85648  24235218.9434   24235222.8654   24235219.2484
       218.000         164.000
 105153995.92948  81938169.74048  20010146.1734   20010148.2874   20010146.4134
       251.000         229.000
 117764214.45848  91764318.52948  22409787.5064   22409789.7584   22409788.2644
       234.000         191.000
 133076465.37948  85903738.68048  23420673.0044   23420673.6364   23420672.8934
       227.000         181.000
 122840422.38848  95719802.76348  23375761.3004   23375762.5124   23375760.6184
       233.000         187.000
 126133444.91748  80493579.36148  22099471.0204   22099473.9454   22099471.9484
       240.000         204.000
 09  1 18  1 35 30.0000000  0  9G26G12G15G30G 9G18G22G17G 5
 121195793.39548  94438268.17748  23062802.8104   23062805.6124   23062802.6204
       228.000         185.000
 121653805.34648  77002965.50748  21247012.4524   21247014.1134   21247012.3154
       248.000         222.000
 102167774.34148  97403455.13248  21344821.7754   21344823.4764   21344821.3274
       246.000         220.000
 127248630.61748  99154764.53848  24214618.8004   24214622.6944   24214619.1814
       221.000         166.000
 105138697.01648  81926248.50748  20007234.8804   20007237.1144   20007235.0354
       251.000         229.000
 117792177.83548  91786108.16248  22415108.8964   22415110.5894   22415109.6314
       233.000         189.000
 133050460.12448  85883474.81948  23415724.8234   23415724.8934   23415724.4554
       229.000         181.000
 122870827.30148  95743494.90148  23381547.2504   23381548.2364   23381547.4614
       232.000         186.000
 126047958.91548  80426966.91748  22083203.3494   22083206.5944   22083204.1444
       241.000         204.000
 09  1 18  1 36  0.0000000  0  9G26G12G15G30G 9G18G22G17G 5
 121297266.07748  94517337.79948  23082112.4254   23082115.3264   23082112.1984
       230.000         185.000
 121591088.40848  76954095.16948  21235077.8804   21235079.3684   21235077.6904
       248.000         222.000
 102236990.52148  97457389.81048  21357992.9694   21357994.8014   21357992.7854
       246.000         219.000
 127140514.32348  99070518.09748  24194045.6334   24194048.4314   24194044.7834
       221.000         166.000
 105123746.80948  81914598.99848  20004389.8334   20004392.2424   20004390.1344
       251.000         229.000
 117820668.26248  91808308.48348  22420530.4044   22420532.0794   22420531.0214
       233.000         189.000
 133024985.55348  85863624.51748  23410876.7724   23410877.1294   23410877.7944
       227.000         181.000
 122901772.68248  95767608.21648  23387435.4624   23387437.3744   23387435.6704
       228.000         184.000
 125962797.97448  80360607.73848  22066997.8504   22067000.9204   22066998.5344
       241.000         206.000
 09  1 18  1 36 30.0000000  0  9G26G12G15G30G 9G18G22G17G 5
 121398955.77148  94596576.52248  23101463.4314   23101466.0564   23101463.1494
       229.000         184.000
 121528791.47348  76905552.11648  21223223.0184   21223224.8084   21223222.8564
       248.000         222.000
 102306614.87748  97511642.56248  21371242.1244   21371243.9214   21371241.9524
       246.000         219.000
 127032538.18848  98986380.86448  24173498.1914   24173500.9464   24173498.2614
       221.000         164.000
 105109145.96148  81903221.71148  20001611.3964   20001613.7954   20001611.6414
       251.000         229.000
 117849684.25048  91830918.32448  22426052.0694   22426053.7244   22426052.6074
       234.000         190.000
 133000042.34148  85844188.23548  23406130.2474   23406131.3174   23406129.5194
       226.000         182.000
 122933257.79948  95792142.09148  23393426.4074   23393428.5284   23393425.9194
       226.000         181.000
 125877963.46248  80294502.94048  22050854.4044   22050857.5014   22050855.2274
       240.000         205.000
 09  1 18  1 37  0.0000000  0  9G26G12G15G30G 9G18G22G17G 5
 121500861.69948  94675983.72848  23120855.6094   23120858.0124   23120855.9314
       231.000         185.000
 121466916.28348  76857337.69048  21211448.6214   21211450.1754   21211448.3274
       249.000         222.000
 102376647.32248  97566213.28748  21384568.7234   21384570.7364   21384568.4734
       245.000         219.000
 126924704.41348  98902354.56448  24152977.8594   24152980.6984   24152977.7104
       221.000         165.000
 105094895.57348  81892117.51448  19998899.6894   19998902.0554   19998899.9164
       251.000         229.000
 117879224.95448  91853937.04648  22431673.4254   22431675.4074   22431674.0104
       233.000         190.000
 132975631.68148  85825166.96348  23401484.3514   23401486.0674   23401484.3724
       227.000         183.000
 122965282.84248  95817096.68248  23399520.4014   23399522.8014   23399519.9174
       230.000         184.000
 125793457.57248  80228654.20448  22034773.3754   22034776.5024   22034774.1044
       241.000         205.000
 09  1 18  1 37 30.0000000  0  9G26G12G15G30G 9G18G22G17G 5
 121602977.78348  94755554.69848  23140287.7184   23140289.9904   23140288.0384
       227.000         184.000
 121405459.10148  76809448.98848  21199753.7104   21199755.0714   21199753.5304
       250.000         222.000
 102447082.15748  97621097.57148  21397971.9454   21397973.9464   21397971.6594
       245.000         218.000
 126817010.03548  98818436.86848  24132484.5684   24132487.1174   24132484.3294
       220.000         166.000
 105080991.50048  81881283.16648  19996253.7784   19996256.2764   19996253.9294
       251.000         229.000
 117909283.96848  91877359.62748  22437393.3174   22437395.8114   22437393.7484
       233.000         190.000
 132951750.30648  85806558.11048  23396941.0854   23396941.6704   23396941.0164
       231.000         187.000
 122997842.60548  95842467.91248  23405717.3734   23405718.8664   23405717.3974
       232.000         186.000
 125709276.98648  80163058.95448  22018754.4774   22018757.4134   22018755.1334
       241.000         205.000
 09  1 18  1 38  0.0000000  0  9G26G12G15G30G 9G18G22G17G 5
 121705306.69148  94835291.48248  23159759.9954   23159762.8224   23159760.0994
       227.000         184.000
 121344425.19748  76761890.11348  21188139.4464   21188140.6234   21188139.5224
       250.000         222.000
 102517922.40348  97676297.74648  21411452.7154   21411454.6144   21411452.5144
       246.000         219.000
 126709461.10348  98734632.50748  24112019.0194   24112021.5844   24112018.7294
       219.000         166.000
 105067438.51848  81870722.40348  19993674.6084   19993677.2074   19993674.7754
       250.000         229.000
 117939864.29748  91901188.44848  22443212.8384   22443214.6924   22443213.3284
       234.000         191.000
 132928402.27948  85788364.82748  23392498.4854   23392497.8444   23392498.6934
       233.000         186.000
 123030940.33348  95868258.34548  23412015.8334   23412017.0674   23412015.6754
       229.000         184.000
 125625427.50348  80097721.70648  22002798.3254   22002800.9914   22002798.8104
       242.000         205.000
 09  1 18  1 38 30.0000000  0  9G26G12G15G30G 9G18G22G17G 5
 121807846.66648  94915192.74648  23179272.4584   23179275.4414   23179272.5864
       228.000         185.000
 121283815.22948  76714661.58148  21176605.7284   21176606.9604   21176605.7234
       249.000         222.000
 102589166.78048  97731812.84648  21425010.2744   21425011.8574   21425010.0704
       245.000         218.000
 126602059.12948  98650942.66648  24091581.2814   24091583.4804   24091580.7484
       219.000         165.000
 105054236.91748  81860435.44448  19991162.4604   19991165.0304   19991162.6924
       251.000         229.000
 117970964.34748  91925422.25448  22449130.5794   22449132.7334   22449131.1974
       232.000         188.000
 132905588.35748  85770587.72948  23388156.8834   23388156.9274   23388157.3584
       230.000         184.000
 123064575.23948  95894467.36648  23418415.5794   23418417.3624   23418415.2624
       227.000         182.000
 125541910.25248  80032643.34548  21986905.4894   21986908.2064   21986905.9944
       241.000         205.000
 09  1 18  1 39  0.0000000  0  9G26G12G15G30G 9G18G22G17G 5
 121910596.51948  94995257.55448  23198825.6124   23198828.2034   23198825.5614
       230.000         185.000
 121223630.31948  76667764.25948  21165152.8314   21165154.2144   21165152.5194
       250.000         223.000
 102660813.93648  97787641.79448  21438644.1584   21438645.8354   21438643.8274
       245.000         219.000
 126494805.75748  98567368.65448  24071171.2514   24071173.7094   24071171.5854
       219.000         164.000
 105041387.63248  81850423.01448  19988717.2434   19988720.0044   19988717.4474
       250.000         229.000
 118002582.98148  91950060.13248  22455147.4784   22455149.3734   22455147.5854
       233.000         188.000
 132883309.08448  85753227.23148  23383917.3644   23383917.4174   23383917.2434
       231.000         183.000
 123098746.54648  95921094.37748  23424918.0334   23424920.2604   23424917.8794
       227.000         183.000
 125458726.79248  79967825.08148  21971075.9814   21971078.9694   21971076.2184
       241.000         206.000
 09  1 18  1 39 30.0000000  0  9G26G12G15G30G 9G18G22G17G 5
 122013553.27148  95075483.59048  23218417.5204   23218420.1714   23218417.9474
       230.000         185.000
 121163870.32548  76621198.04148  21153780.9764   21153782.4264   21153780.9824
       250.000         223.000
 102732861.75148  97843782.93748  21452354.3214   21452356.1404   21452354.1124
       245.000         218.000
 126387701.68348  98483910.96348  24050790.0814   24050792.5184   24050790.4524
       220.000         166.000
 105028889.73448  81840684.39148  19986339.1024   19986341.5734   19986339.1954
       251.000         229.000
 118034717.19048  91975099.77348  22461262.7814   22461264.3404   22461263.1214
       234.000         189.000
 132861563.98448  85736283.00748  23379779.1854   23379778.8564   23379780.2464
       228.000         181.000
 123133452.21448  95948137.75748  23431522.2494   23431524.9084   23431522.0554
       229.000         183.000
 125375877.34048  79903267.09648  21955310.2754   21955313.4884   21955310.9904
       241.000         207.000
 09  1 18  1 40  0.0000000  0  9G26G12G15G30G 9G18G22G17G 5
 122116715.40648  95155869.66348  23238048.3044   23238051.4494   23238048.3554
       231.000         185.000
 121104535.88148  76574963.42348  21142490.0104   21142491.3894   21142489.7014
       249.000         223.000
 102805308.96448  97900235.30948  21466140.6364   21466142.3554   21466140.4794
       245.000         218.000
 126280748.42748  98400570.78548  24030437.5594   24030440.4774   24030437.1174
       219.000         165.000
 105016743.51548  81831219.80648  19984027.8284   19984030.1324   19984028.0474
       251.000         229.000
 118067365.21548  92000539.78348  22467475.5124   22467477.1104   22467476.2694
       232.000         187.000
 132840353.41748  85719755.30648  23375743.0034   23375743.1134   23375742.5604
       229.000         182.000
 123168691.40648  95975596.87348  23438228.3614   23438230.0734   23438228.4834
       229.000         183.000
 125293363.10048  79838970.30848  21939608.6014   21939611.6274   21939608.8344
       242.000         209.000
 09  1 18  1 40 30.0000000  0  9G26G12G15G30G 9G18G22G17G 5
 122220082.03448  95236415.08748  23257718.7534   23257721.4444   23257718.4984
       229.000         183.000
 121045628.52248  76529061.59648  21131280.0944   21131281.6434   21131279.9904
       248.000         223.000
 102878155.19048  97956998.59548  21480002.6944   21480004.4724   21480002.4024
       245.000         217.000
 126173948.46748  98317350.03748  24010114.1104   24010116.8494   24010113.5554
       218.000         166.000
 105004950.26548  81822030.26248  19981783.5854   19981786.0254   19981783.8744
       251.000         229.000
 118100525.90348  92026379.27048  22473785.5324   22473787.4394   22473786.1034
       234.000         188.000
 132819678.53348  85703644.99048  23371809.2614   23371808.5694   23371809.2734
       230.000         184.000
 123204463.90548  96003471.54048  23445036.3694   23445037.0194   23445036.2364
       229.000         181.000
 125211186.09148  79774936.28148  21923971.0314   21923973.7754   21923971.6694
       242.000         209.000
 09  1 18  1 41  0.0000000  0  9G26G12G15G30G 9G18G22G17G 5
 122323650.54048  95317117.82848  23277426.8874   23277429.7414   23277426.5374
       230.000         182.000
 120987147.89748  76483492.29248  21120151.4854   21120153.1654   21120151.3574
       249.000         223.000
 102951397.92648  98014070.85648  21493940.4674   21493942.0144   21493940.4154
       243.000         217.000
 126067302.70948  98234249.49148  23989819.9524   23989823.0784   23989819.6914
       220.000         168.000
 104993509.25748  81813115.18848  19979606.5074   19979608.8324   19979606.7634
       251.000         229.000
 118134196.88648  92052616.40348  22480192.9734   22480194.9054   22480193.4884
       234.000         188.000
 132799539.08448  85687951.91248  23367976.3974   23367976.3914   23367976.8214
       229.000         180.000
 123240767.95148  96031760.40848  23451944.2934   23451945.3524   23451944.3394
       227.000         180.000
 125129346.70548  79711165.34148  21908397.2054   21908400.3384   21908397.7784
       242.000         209.000
 09  1 18  1 41 30.0000000  0  9G26G12G15G30G 9G18G22G17G 5
 122427419.36148  95397976.64548  23297173.4804   23297176.2604   23297173.5734
       228.000         181.000
 120929094.97548  76438256.25348  21109104.5984   21109106.0774   21109104.4354
       249.000         224.000
 103025035.89448  98071451.08248  21507952.9024   21507955.0744   21507952.4994
       243.000         217.000
 125960812.29948  98151269.96948  23969555.3994   23969558.4774   23969555.4594
       219.000         168.000
 104982421.06248  81804475.03648  19977496.4034   19977498.9064   19977496.5324
       251.000         229.000
 118168376.47248  92079249.82548  22486697.0664   22486699.1944   22486697.9034
       233.000         188.000
 132779935.21848  85672676.14348  23364245.5394   23364245.2154   23364246.4454
       229.000         179.000
 123277602.25448  96060462.48848  23458953.1034   23458954.9394   23458952.9144
       227.000         180.000
 125047846.21648  79647658.47548  21892888.3414   21892891.1874   21892888.7644
       243.000         209.000
 09  1 18  1 42  0.0000000  0  9G26G12G15G30G 9G18G22G17G 5
 122531387.24248  95478990.58148  23316957.6954   23316960.7094   23316956.8964
       227.000         180.000
 120871471.03348  76393354.49248  21098139.0934   21098140.6654   21098138.9544
       249.000         224.000
 103099068.53548  98129138.84548  21522040.9774   21522042.9854   21522040.7434
       243.000         216.000
 125854479.45548  98068413.22748  23949320.4914   23949324.0754   23949320.2504
       220.000         167.000
 104971686.49548  81796110.43948  19975453.6804   19975456.1834   19975453.8444
       253.000         229.000
 118203063.28448  92106278.50048  22493297.9434   22493299.8944   22493298.3984
       233.000         188.000
 132760867.75148  85657818.39848  23360616.6964   23360616.6674   23360615.8514
       228.000         180.000
 123314966.65048  96089577.59748  23466063.4654   23466065.1834   23466063.2204
       232.000         181.000
 124966686.33048  79584417.01948  21877443.8954   21877447.0004   21877444.5554
       242.000         209.000
 09  1 18  1 42 30.0000000  0  9G26G12G15G30G 9G18G22G17G 5
 122635552.42548  95560158.24448  23336779.7704   23336782.6124   23336779.8234
       227.000         177.000
 120814276.75548  76348787.52048  21087255.4374   21087256.9864   21087255.1654
       249.000         224.000
 103173494.03348  98187132.72948  21536203.8084   21536205.6094   21536203.6154
       244.000         216.000
 125748305.55648  97985680.32248  23929116.1794   23929119.5134   23929116.2504
       216.000         166.000
 104961305.82148  81788021.60048  19973478.3064   19973480.9474   19973478.6434
       252.000         229.000
 118238255.30448  92133700.83448  22499995.0584   22499996.7804   22499995.5724
       233.000         188.000
 132742336.92648  85643378.77148  23357091.3684   23357090.9334   23357091.1684
       229.000         183.000
 123352859.87348  96119104.78648  23473274.4074   23473275.9614   23473274.7144
       231.000         181.000
 124885868.18848  79521441.86748  21862064.4284   21862068.0294   21862064.9844
       242.000         209.000
 09  1 18  1 43  0.0000000  0  9G26G12G15G30G 9G18G22G17G 5
 122739912.51748  95641477.78448  23356638.9874   23356641.5274   23356639.4234
       226.000         178.000
 120757511.99848  76304555.24648  21076453.5224   21076454.9494   21076453.4994
       249.000         224.000
 103248310.19748  98245431.03348  21550440.9744   21550442.5904   21550440.6824
       243.000         215.000
 125642291.36448  97903071.88648  23908942.4544   23908946.1594   23908941.2284
       219.000         168.000
 104951278.82348  81780208.35448  19971570.1984   19971572.8764   19971570.3884
       252.000         229.000
 118273950.13448  92161514.97648  22506787.3874   22506789.1484   22506787.9284
       233.000         188.000
 132724342.36048  85629357.01348  23353667.0514   23353667.0694   23353666.7744
       231.000         183.000
 123391280.01248  96149042.57148  23480585.8504   23480587.1944   23480585.8054
       229.000         181.000
 124805392.15148  79458733.28148  21846750.2494   21846753.7634   21846750.7484
       242.000         209.000
 09  1 18  1 43 30.0000000  0  9G26G12G15G30G 9G18G22G17G 5
 122844465.64048  95722947.75248  23376534.9884   23376537.5164   23376534.6654
       225.000         181.000
 120701177.18948  76260657.99048  21065733.5074   21065734.5964   21065733.2664
       250.000         224.000
 103323515.88948  98304032.86848  21564752.0074   21564753.8744   21564751.7264
       244.000         216.000
 125536438.26448  97820588.98448  23888799.4734   23888802.8494   23888799.6274
       222.000         169.000
 104941605.62448  81772670.79248  19969729.4124   19969732.1884   19969729.5274
       252.000         229.000
 118310145.53348  92189719.15548  22513675.2204   22513676.8514   22513676.0294
       231.000         187.000
 132706884.02448  85615753.10348  23350345.1414   23350344.8214   23350345.7354
       231.000         183.000
 123430225.69948  96179389.87048  23487996.9924   23487998.5194   23487996.8194
       230.000         181.000
 124725259.31348  79396292.12448  21831501.4464   21831504.7544   21831501.9194
       242.000         209.000
 09  1 18  1 44  0.0000000  0  9G26G12G15G30G 9G18G22G17G 5
 122949210.95748  95804567.45348  23396466.9534   23396470.3614   23396466.2334
       226.000         182.000
 120645273.55948  76217096.73148  21055095.1824   21055096.3444   21055095.0714
       250.000         224.000
 103399110.29848  98362937.59148  21579137.2634   21579139.0574   21579137.1404
       243.000         215.000
 125430748.68048  97738233.45948  23868687.6914   23868690.5014   23868687.6274
       221.000         168.000
 104932287.18848  81765409.66948  19967956.2304   19967958.7314   19967956.4364
       252.000         229.000
 118346840.45348  92218312.57448  22520658.0224   22520659.4234   22520658.4374
       233.000         188.000
 132689963.04848  85602567.95648  23347124.5814   23347124.9044   23347125.4024
       228.000         182.000
 123469696.38348  96210146.26548  23495507.8794   23495509.1674   23495507.6324
       231.000         181.000
 124645471.58648  79334119.89248  21816318.7014   21816321.9164   21816319.1964
       243.000         210.000
 09  1 18  1 44 30.0000000  0  9G26G12G15G30G 9G18G22G17G 5
 123054146.78148  95886335.60548  23416435.7754   23416438.7434   23416434.9334
       229.000         183.000
 120589802.21148  76173872.30648  21044539.3984   21044540.6004   21044539.1244
       250.000         225.000
 103475092.07748  98422144.16648  21593596.0044   21593597.8274   21593595.7414
       243.000         216.000
 125325223.95448  97656006.42248  23848607.2604   23848609.7954   23848607.0694
       219.000         166.000
 104923324.14448  81758425.48048  19966250.6424   19966253.1454   19966250.8794
       252.000         229.000
 118384033.62648  92247294.24648  22527735.6374   22527737.0314   22527736.3594
       233.000         186.000
 132673579.72148  85589801.71248  23344006.7224   23344006.9094   23344006.0154
       229.000         182.000
 123509691.38148  96241311.19748  23503118.6334   23503119.6044   23503118.4844
       231.000         180.000
 124566030.37448  79272217.66848  21801201.4554   21801204.6084   21801202.1714
       242.000         209.000
 09  1 18  1 45  0.0000000  0  9G26G12G15G30G 9G18G22G17G 5
 123159270.37748  95968250.08848  23436440.3194   23436443.2054   23436440.6094
       229.000         186.000
 120534762.61048  76130984.31148  21034065.6394   21034066.9304   21034065.6534
       249.000         225.000
 103551458.79648  98481650.69848  21608128.2994   21608130.2704   21608127.9534
       243.000         216.000
 125219864.64048  97573908.26048  23828557.7194   23828560.1264   23828557.3584
       218.000         164.000
 104914715.53248  81751717.47348  19964612.3494   19964615.0584   19964612.4794
       252.000         229.000
 118421721.69948  92276661.56648  22534907.0534   22534908.7414   22534907.3334
       232.000         186.000
 132657732.97548  85577453.61348  23340991.4854   23340991.7054   23340992.7214
       229.000         182.000
 123550208.38048  96272882.89348  23510828.8044   23510829.5064   23510828.4354
       230.000         180.000
 124486935.58048  79210585.37848  21786150.3684   21786153.2384   21786150.8324
       242.000         209.000
 09  1 18  1 45 30.0000000  0  9G26G12G15G30G 9G18G22G17G 5
 123264581.04448  96050310.35048  23456480.1494   23456482.8564   23456479.9914
       228.000         185.000
 120480156.17948  76088433.84748  21023674.2314   21023675.6224   21023674.0274
       249.000         225.000
 103628209.71848  98541456.59648  21622733.4474   21622735.6474   21622733.1884
       243.000         215.000
 125114673.29548  97491941.01648  23808540.2404   23808542.9124   23808539.8484
       217.000         167.000
 104906463.07948  81745286.98848  19963041.9604   19963044.7034   19963042.0814
       252.000         229.000
 118459903.53648  92306413.63148  22542172.7484   22542174.9444   22542173.2714
       232.000         187.000
 132642423.69748  85565524.28448  23338078.0514   23338078.2654   23338078.7984
       229.000         181.000
 123591247.27548  96304861.26248  23518638.4724   23518639.7044   23518638.8124
       231.000         181.000
 124408189.47748  79149224.80348  21771165.5754   21771168.4804   21771165.9644
       243.000         211.000
 09  1 18  1 46  0.0000000  0  9G26G12G15G30G 9G18G22G17G 5
 123370076.64348  96132514.69848  23476555.2014   23476558.0114   23476555.1404
       230.000         186.000
 120425983.52248  76046221.39148  21013365.5264   21013366.9884   21013365.3744
       250.000         225.000
 103705343.39148  98601560.75248  21637411.4294   21637413.4434   21637411.1654
       242.000         214.000
 125009651.25848  97410105.67948  23788555.3844   23788558.2574   23788554.6014
       223.000         170.000
 104898566.49848  81739133.81748  19961539.3724   19961541.9564   19961539.6454
       252.000         229.000
 118498577.05748  92336548.81448  22549532.4714   22549534.1614   22549533.0054
       233.000         186.000
 132627651.99048  85554013.84348  23335267.0044   23335267.6334   23335266.9034
       227.000         180.000
 123632806.36148  96337244.97348  23526546.7944   23526547.7454   23526546.7444
       230.000         181.000
 124329792.70148  79088136.43048  21756247.0654   21756249.9814   21756247.9484
       242.000         210.000
 09  1 18  1 46 30.0000000  0  9G26G12G15G30G 9G18G22G17G 5
 123475755.77748  96214862.05848  23496665.4274   23496668.2894   23496665.1204
       230.000         187.000
 120372245.35148  76004347.49448  21003139.6364   21003141.0054   21003139.6724
       250.000         226.000
 103782858.62648  98661962.22648  21652162.0994   21652163.9534   21652161.7634
       243.000         214.000
 124904800.17648  97328403.55948  23768603.3354   23768605.8084   23768603.8294
       223.000         173.000
 104891026.22948  81733258.28248  19960104.3474   19960106.9544   19960104.3924
       252.000         228.000
 118537740.36948  92367065.67148  22556984.9404   22556986.6324   22556985.7334
       232.000         187.000
 132613418.74048  85542922.98348  23332558.9284   23332558.7204   23332558.5024
       231.000         182.000
 123674884.84448  96370033.40748  23534553.7544   23534555.3074   23534553.9584
       230.000         182.000
 124251746.69448  79027321.37348  21741395.4014   21741398.2324   21741396.0364
       242.000         211.000
 09  1 18  1 47  0.0000000  0  9G26G12G15G30G 9G18G22G17G 5
 123581616.12848  96297350.63448  23516810.0164   23516812.5194   23516810.0664
       232.000         185.000
 120318941.44748  75962811.99948  20992996.3654   20992997.6364   20992996.3074
       250.000         226.000
 103860753.19948  98722659.29248  21666984.9924   21666986.7504   21666984.9214
       242.000         214.000
 124800120.65448  97246835.12048  23748683.0864   23748686.4544   23748682.7944
       222.000         171.000
 104883842.60048  81727660.65448  19958737.4164   19958740.0814   19958737.6404
       252.000         228.000
 118577391.05548  92397962.30748  22564530.4694   22564532.2314   22564531.2874
       232.000         187.000
 132599722.86648  85532250.89548  23329952.4494   23329952.9484   23329952.4034
       229.000         182.000
 123717480.68048  96403224.99748  23542659.5064   23542661.5114   23542659.4254
       229.000         183.000
 124174052.08248  78966780.14048  21726610.6204   21726613.5904   21726611.0864
       242.000         211.000
 09  1 18  1 47 30.0000000  0  9G26G12G15G30G 9G18G22G17G 5
 123687656.76848  96379979.70548  23536988.7484   23536991.2534   23536988.9364
       231.000         184.000
 120266073.01348  75921615.82848  20982935.5234   20982937.0954   20982935.4284
       251.000         226.000
 103939026.71548  98783651.63648  21681879.9354   21681881.7864   21681879.8374
       242.000         214.000
 124695615.10848  97165402.25548  23728796.2544   23728799.3554   23728795.8854
       223.000         170.000
 104877016.68748  81722341.76048  19957438.4164   19957441.1374   19957438.5124
       252.000         228.000
 118617528.08448  92429237.89148  22572167.8924   22572170.2064   22572168.2794
       230.000         186.000
 132586565.59348  85521998.44048  23327449.1024   23327448.2864   23327448.9464
       229.000         180.000
 123760593.45048  96436819.36648  23550863.7174   23550865.2734   23550863.1514
       230.000         182.000
 124096710.70948  78906514.15548  21711892.6454   21711895.9104   21711893.4294
       242.000         210.000
 09  1 18  1 48  0.0000000  0  9G26G12G15G30G 9G18G22G17G 5
 123793874.96748  96462747.11848  23557201.7144   23557204.0164   23557201.5084
       232.000         185.000
 120213639.95448  75880758.90748  20972957.9994   20972959.3994   20972958.0354
       250.000         227.000
 104017676.46248  98844937.14248  21696846.5984   21696848.4574   21696846.3124
       242.000         214.000
 124591284.36248  97084105.57148  23708942.9534   23708945.4604   23708942.5024
       224.000         169.000
 104870547.50748  81717300.84248  19956207.5144   19956209.9954   19956207.6124
       252.000         228.000
 118658148.50948  92460890.14148  22579897.1864   22579899.9884   22579897.5694
       229.000         185.000
 132573945.54148  85512164.63348  23325047.0464   23325047.0324   23325047.3124
       229.000         182.000
 123804221.14348  96470814.98848  23559165.7554   23559167.2454   23559166.3024
       231.000         183.000
 124019722.74748  78846523.54848  21697242.4714   21697245.4634   21697242.9844
       242.000         209.000
 09  1 18  1 48 30.0000000  0  9G26G12G15G30G 9G18G22G17G 5
 123900269.58748  96545652.01348  23577448.1284   23577450.6514   23577448.3724
       230.000         184.000
 120161643.13148  75840241.90848  20963063.3874   20963064.7894   20963063.1964
       251.000         227.000
 104096701.19848  98906514.85048  21711884.4914   21711886.3334   21711884.4044
       243.000         214.000
 124487130.15548  97002946.46648  23689122.7304   23689125.3044   23689123.7724
       220.000         167.000
 104864435.78148  81712538.45548  19955044.4204   19955047.1124   19955044.6624
       253.000         228.000
 118699250.15448  92492917.38048  22587718.9014   22587721.3684   22587719.5614
       231.000         186.000
 132561863.44248  85502749.99848  23322748.0604   23322748.9604   23322748.3284
       228.000         183.000
 123848362.67848  96505210.97648  23567565.5314   23567566.9684   23567565.3754
       227.000         181.000
 123943089.64048  78786809.46348  21682659.3964   21682662.7464   21682660.2184
       241.000         209.000
 09  1 18  1 49  0.0000000  0  9G26G12G15G30G 9G18G22G17G 5
 124006839.47548  96628693.47648  23597727.3624   23597730.1074   23597726.6694
       230.000         181.000
 120110083.98148  75800065.95348  20953252.2234   20953253.4224   20953252.1104
       251.000         227.000
 104176100.32548  98968384.29448  21726993.5224   21726995.5934   21726993.4474
       241.000         213.000
 124383154.83948  96921926.76348  23669336.3134   23669339.4124   23669336.0214
       220.000         167.000
 104858682.88848  81708055.68348  19953949.7864   19953952.3324   19953950.0154
       252.000         228.000
 118740832.20448  92525318.96048  22595631.7444   22595634.3264   22595632.2464
       231.000         186.000
 132550320.24248  85493755.27148  23320551.0464   23320551.9244   23320550.5504
       228.000         182.000
 123893017.74448  96540007.13648  23576062.9004   23576064.2214   23576062.3434
       228.000         181.000
 123866813.40948  78727373.46048  21668144.5764   21668148.0264   21668144.8774
       243.000         210.000
 09  1 18  1 49 30.0000000  0  9G26G12G15G30G 9G18G22G17G 5
 124113582.33848  96711869.73148  23618040.0834   23618042.3204   23618040.2094
       228.000         178.000
 120058962.30248  75760230.89048  20943523.8154   20943525.2754   20943523.8564
       250.000         227.000
 104255871.79048  99030543.85748  21742173.2324   21742175.7054   21742172.7444
       241.000         212.000
 124279359.35548  96841047.19248  23649585.0024   23649587.8954   23649584.7764
       224.000         172.000
 104853288.43448  81703852.21148  19952923.2684   19952925.7454   19952923.4294
       252.000         228.000
 118782891.83648  92558092.67448  22603635.8084   22603638.1654   22603636.5674
       231.000         186.000
 132539315.04948  85485179.77748  23318456.7014   23318458.1064   23318456.5534
       230.000         184.000
 123938184.03848  96575201.64648  23584657.5274   23584659.4694   23584657.4494
       229.000         181.000
 123790894.31248  78668215.73148  21653697.9364   21653701.1864   21653698.7664
       242.000         211.000
 09  1 18  1 50  0.0000000  0  9G26G12G15G30G 9G18G22G17G 5
 124220495.35748  96795178.58248  23638384.4754   23638387.3704   23638384.5684
       224.000         174.000
 120008277.05548  75720735.90048  20933878.5364   20933880.1254   20933878.2644
       250.000         227.000
 104336012.88648  99092991.46148  21757423.9964   21757425.7084   21757423.6724
       241.000         213.000
 124175744.10848  96760308.05448  23629868.3254   23629871.0964   23629868.3694
       225.000         175.000
 104848251.61748  81699927.41948  19951964.8054   19951967.2814   19951965.0144
       253.000         228.000
 118825425.72048  92591235.94348  22611729.5314   22611732.0064   22611730.0074
       230.000         185.000
 132528846.61648  85477022.54748  23316465.5144   23316465.5854   23316465.9594
       229.000         183.000
 123983858.96048  96610792.50548  23593349.3014   23593350.4044   23593349.4414
       226.000         180.000
 123715332.36248  78609336.29448  21639318.9424   21639322.0984   21639319.5594
       243.000         211.000
 09  1 18  1 50 30.0000000  0  9G26G12G15G30G 9G18G22G17G 5
 124327578.07948  96878619.65248  23658761.5194   23658764.9254   23658761.2334
       224.000         174.000
 119958030.60348  75681582.82548  20924317.0554   20924318.5254   20924316.9414
       249.000         227.000
 104416522.95348  99155726.57548  21772744.4914   21772746.4084   21772744.3674
       242.000         213.000
 124072311.68648  96679711.40348  23610185.0644   23610188.8534   23610185.1604
       223.000         174.000
 104843574.26948  81696282.73548  19951074.6234   19951077.1824   19951074.8334
       252.000         228.000
 118868433.19148  92624748.24148  22619913.8764   22619916.2974   22619914.5504
       230.000         185.000
 132518916.54148  85469284.83348  23314575.2684   23314575.9504   23314575.0404
       231.000         184.000
 124030043.13348  96646780.15748  23602138.2464   23602139.2624   23602137.9444
       228.000         182.000
 123640130.02248  78550737.08348  21625008.6904   21625011.3594   21625009.3484
       243.000         210.000
 09  1 18  1 51  0.0000000  0  9G26G12G15G30G 9G18G22G17G 5
 124434827.87948  96962190.91048  23679170.9634   23679174.0704   23679170.9774
       224.000         171.000
 119908222.45148  75642771.28848  20914838.9034   20914840.3764   20914838.7274
       251.000         227.000
 104497400.13948  99218747.75148  21788134.8074   21788136.8184   21788134.8584
       241.000         212.000
 123969062.75248  96599257.70048  23590537.4844   23590540.9064   23590537.1874
       220.000         173.000
 104839255.82248  81692917.70948  19950252.9564   19950255.3134   19950253.2024
       252.000         228.000
 118911911.12948  92658627.13848  22628187.2014   22628189.5684   22628187.4734
       229.000         183.000
 132509523.77348  85461965.76448  23312788.6424   23312788.9054   23312788.5034
       230.000         184.000
 124076733.79448  96683162.48848  23611023.1244   23611025.2134   23611023.3134
       225.000         182.000
 123565287.30048  78492418.08848  21610766.5354   21610769.1814   21610767.4224
       243.000         211.000
 09  1 18  1 51 30.0000000  0  9G26G12G15G30G 9G18G22G17G 5
 124542243.14348  97045891.12948  23699611.0114   23699613.9454   23699611.1414
       219.000         167.000
 119858853.03148  75604301.61848  20905444.2194   20905445.5734   20905443.9914
       250.000         227.000
 104578643.06048  99282053.91748  21803594.7974   21803596.9054   21803594.3934
       240.000         212.000
 123865998.72048  96518948.09348  23570925.3564   23570928.5554   23570924.2654
       223.000         174.000
 104835297.01648  81689832.92448  19949499.6544   19949501.9394   19949499.8334
       252.000         228.000
 118955857.85848  92692871.32848  22636550.0664   22636552.4984   22636550.5994
       231.000         183.000
 132500668.25148  85455065.36048  23311102.6794   23311103.5874   23311103.2684
       229.000         184.000
 124123929.88148  96719938.66448  23620004.4714   23620006.3524   23620003.9934
       228.000         183.000
 123490805.52948  78434380.35648  21596593.0084   21596595.7504   21596593.5064
       242.000         210.000
 09  1 18  1 52  0.0000000  0  9G26G12G15G30G 9G18G22G17G 5
 124649822.15648  97129718.91648  23720083.0584   23720085.9894   23720082.4714
       219.000         166.000
 119809922.54148  75566173.98048  20896132.9894   20896134.3324   20896132.8564
       250.000         227.000
 104660249.81448  99345643.59148  21819124.2564   21819126.1894   21819123.7824
       240.000         212.000
 123763121.11848  96438783.75548  23551348.7974   23551351.3144   23551348.8504
       222.000         173.000
 104831697.54948  81687028.14248  19948814.5584   19948817.0924   19948814.7224
       252.000         229.000
 119000270.55048  92727478.62148  22645001.4424   22645003.6554   22645002.3564
       229.000         181.000
 132492349.59748  85448583.28048  23309520.1484   23309521.0644   23309520.6134
       229.000         185.000
 124171630.03248  96757107.62448  23629081.1404   23629083.3144   23629081.6184
       228.000         183.000
 123416685.56348  78376624.55048  21582488.2284   21582491.1804   21582488.8624
       244.000         209.000
 09  1 18  1 52 30.0000000  0  9G26G12G15G30G 9G18G22G17G 5
 124757563.66448  97213673.36048  23740585.2654   23740588.3334   23740585.2294
       221.000         163.000
 119761431.83648  75528389.01748  20886905.7294   20886906.8854   20886905.6794
       250.000         227.000
 104742219.56748  99409516.12248  21834722.7094   21834724.3814   21834722.3594
       241.000         212.000
 123660432.02548  96358766.30348  23531807.0384   23531810.2614   23531806.9484
       225.000         173.000
 104828458.59848  81684504.28048  19948198.3724   19948200.8254   19948198.5584
       252.000         229.000
 119045148.35448  92762448.32748  22653541.1924   22653543.3344   22653541.7544
       229.000         181.000
 132484568.77148  85442520.30348  23308039.2064   23308040.1694   23308038.7054
       230.000         185.000
 124219833.04148  96794668.40148  23638253.9764   23638255.8844   23638254.0374
       227.000         182.000
 123342929.12948  78319152.01148  21568452.8174   21568456.0794   21568453.3104
       242.000         210.000
 09  1 18  1 53  0.0000000  0  9G26G12G15G30G 9G18G22G17G 5
 124865465.56748  97297752.76848  23761118.8084   23761121.4624   23761118.9264
       219.000         160.000
 119713381.51248  75490947.21048  20877761.9844   20877763.2264   20877762.0774
       250.000         227.000
 104824549.56248  99473669.35848  21850389.5614   21850391.1324   21850389.4934
       241.000         212.000
 123557932.63548  96278896.65948  23512302.6054   23512305.0864   23512302.4584
       225.000         174.000
 104825579.84748  81682261.10148  19947650.5204   19947653.0344   19947650.7504
       253.000         229.000
 119090488.18448  92797778.05448  22662169.2604   22662171.7234   22662170.0474
       228.000         183.000
 132477324.98248  85436875.78448  23306661.3004   23306661.8484   23306661.5054
       230.000         185.000
 124268536.95248  96832619.50848  23647521.8234   23647523.5054   23647521.4434
       227.000         182.000
 123269536.63648  78261963.06048  21554486.4604   21554489.8174   21554486.8554
       242.000         209.000
 09  1 18  1 53 30.0000000  0  9G26G12G15G30G 9G18G22G17G 5
 124973526.13448  97381955.80448  23781681.1444   23781684.4354   23781680.9994
       212.000         156.000
 119665771.75548  75453848.70248  20868702.0964   20868703.4674   20868701.8724
       250.000         227.000
 104907239.12848  99538102.77348  21866125.0554   21866126.7484   21866124.6364
       241.000         212.000
 123455624.25648  96199175.86248  23492833.6184   23492836.4124   23492834.0154
       224.000         173.000
 104823062.05948  81680299.18848  19947171.3734   19947173.8674   19947171.5144
       252.000         229.000
 119136287.98548  92833466.20748  22670884.9514   22670886.9284   22670885.4184
       229.000         183.000
 132470618.11048  85431649.63548  23305384.8664   23305385.1014   23305385.8544
       231.000         183.000
 124317740.46648  96870959.92348  23656885.1914   23656886.8924   23656885.4874
       226.000         181.000
 123196509.30148  78205058.66048  21540589.8534   21540593.1964   21540590.4964
       243.000         209.000
 09  1 18  1 54  0.0000000  0  9G26G12G15G30G 9G18G22G17G 5
 125081743.56148  97466281.05348  23802274.5734   23802277.4744   23802274.4234
       213.000         153.000
 119618602.99848  75417093.83648  20859725.9544   20859727.4464   20859725.7624
       250.000         227.000
 104990286.42548  99602814.93648  21881928.3554   21881930.2234   21881928.2814
       241.000         211.000
 123353508.23148  96119604.95048  23473401.4274   23473404.3484   23473400.9924
       224.000         175.000
 104820905.50048  81678618.75048  19946760.9564   19946763.4744   19946761.0554
       252.000         228.000
 119182545.57148  92869511.05648  22679687.4074   22679689.6614   22679687.7374
       230.000         182.000
 132464447.71248  85426841.50348  23304210.8434   23304210.7984   23304211.1224
       230.000         183.000
 124367442.22248  96909688.55348  23666343.1654   23666343.7864   23666342.4534
       226.000         179.000
 123123848.06748  78148439.52048  21526763.0334   21526766.2924   21526763.4964
       244.000         210.000
 09  1 18  1 54 30.0000000  0  9G26G12G15G30G 9G18G22G17G 5
 125190116.15948  97550727.21648  23822897.4484   23822900.3704   23822897.9264
       210.000         151.000
 119571875.55848  75380682.85548  20850834.1624   20850835.4364   20850834.0034
       250.000         227.000
 105073689.48248  99667804.32248  21897799.2644   21897801.2094   21897799.1634
       241.000         211.000
 123251586.32448  96040185.31048  23454006.5214   23454009.2714   23454006.6624
       225.000         176.000
 104819110.54548  81677220.09048  19946419.3414   19946421.7494   19946419.6284
       253.000         228.000
 119229258.67848  92905910.87248  22688576.8314   22688578.4544   22688577.7754
       229.000         181.000
 132458813.68848  85422451.34248  23303138.4194   23303138.7824   23303138.4364
       229.000         182.000
 124417640.62348  96948804.17348  23675895.1624   23675896.1964   23675894.8324
       225.000         179.000
 123051554.01348  78092106.49548  21513006.0954   21513009.2704   21513006.8954
       244.000         210.000
 09  1 18  1 55  0.0000000  0  9G26G12G15G30G 9G18G22G17G 5
 125298642.46348  97635293.15648  23843549.3144   23843552.3484   23843549.1074
       206.000         148.000
 119525589.71148  75344615.97048  20842026.2224   20842027.5854   20842026.0204
       250.000         227.000
 105157447.34748  99733070.18448  21913737.7484   21913739.6134   21913737.3224
       240.000         210.000
 123149860.23748  95960918.27948  23434648.6074   23434651.5474   23434648.5794
       225.000         176.000
 104817677.71348  81676103.59948  19946146.7524   19946149.1514   19946146.9784
       253.000         228.000
 119276425.38648  92942664.13748  22697551.9414   22697553.7154   22697552.3304
       228.000         179.000
 132453716.04348  85418479.12848  23302168.3294   23302168.8094   23302168.4514
       229.000         181.000
 124468334.51848  96988305.91748  23685542.2694   23685544.5004   23685541.5334
       226.000         182.000
 122979628.23648  78036060.45148  21499318.9244   21499322.2044   21499319.5714
       243.000         210.000
 09  1 18  1 55 30.0000000  0  9G26G12G15G30G 9G18G22G17G 5
 125407320.10448  97719977.05248  23864230.4754   23864232.6144   23864229.8504
       210.000         146.000
 119479745.88448  75308893.51748  20833302.4194   20833303.8064   20833302.4994
       250.000         227.000
 105241557.81948  99798610.79748  21929743.4914   21929745.4364   21929743.3314
       240.000         210.000
 123048330.59448  95881804.29548  23415327.9324   23415330.6214   23415327.7844
       225.000         175.000
 104816606.98348  81675269.26348  19945943.0394   19945945.5154   19945943.2364
       253.000         229.000
 119324042.70948  92979768.54848  22706612.9074   22706614.7454   22706613.3734
       228.000         181.000
 132449154.30848  85414924.53348  23301299.7884   23301300.5884   23301300.2254
       229.000         182.000
 124519521.87848  97028192.19648  23695283.4074   23695285.7414   23695283.1374
       228.000         181.000
 122908071.28548  77980301.80048  21485701.7874   21485705.3514   21485702.1554
       243.000         210.000
 09  1 18  1 56  0.0000000  0  9G26G12G15G30G 9G18G22G17G 5
 125516147.43448  97804777.53048  23884938.4994   23884942.0724   23884938.7564
       206.000         142.000
 119434344.21348  75273515.60248  20824662.8574   20824663.9134   20824662.7044
       251.000         228.000
 105326019.12048  99864424.80548  21945815.8664   21945817.8794   21945815.3474
       240.000         210.000
 122946999.15048  95802844.73248  23396045.8244   23396047.8424   23396045.2634
       227.000         176.000
 104815898.39148  81674717.11048  19945808.2054   19945810.6434   19945808.3204
       253.000         229.000
 119372108.34548  93017222.28548  22715759.8774   22715761.9184   22715760.2974
       229.000         183.000
 132445127.95448  85411787.13148  23300534.0094   23300534.6934   23300534.0134
       228.000         183.000
 124571201.37548  97068461.91748  23705117.6014   23705117.8704   23705118.0434
       226.000         176.000
 122836884.00448  77924831.19848  21472155.4164   21472158.8874   21472156.1404
       243.000         211.000
 09  1 18  1 56 30.0000000  0  9G26G12G15G30G 9G18G22G17G 5
 125625121.91748  97889692.76148  23905676.5194   23905679.0124   23905675.6074
       208.000         140.000
 119389384.25748  75238481.88348  20816107.2954   20816108.2774   20816107.2384
       251.000         228.000
 105410829.12548  99930510.51248  21961954.3704   21961956.7414   21961954.2894
       237.000         208.000
 122845866.56848  95724040.14048  23376800.7714   23376802.7354   23376800.9954
       224.000         173.000
 104815551.93048  81674447.14048  19945742.3524   19945744.7254   19945742.5134
       252.000         229.000
 119420619.60948  93055023.25748  22724991.3604   22724993.6114   22724992.0944
       230.000         183.000
 132441636.12148  85409066.21148  23299869.1774   23299870.2984   23299869.8444
       227.000         183.000
 124623370.56848  97109113.20848  23715044.7034   23715045.6154   23715045.1164
       226.000         179.000
 122766066.95748  77869649.09248  21458679.6484   21458682.6274   21458680.1524
       244.000         211.000
 09  1 18  1 57  0.0000000  0  9G26G12G15G30G 9G18G22G17G 5
 125734243.34048  97974722.39548  23926441.8974   23926443.2044   23926442.2624
       207.000         137.000
 119344867.43248  75203793.45748  20807636.1414   20807637.3204   20807636.1714
       251.000         229.000
 105495986.97848  99996867.26248  21978159.2974   21978162.0584   21978158.8774
       238.000         210.000
 122744935.41648  95645392.50748  23357593.9244   23357596.1984   23357593.6384
       226.000         174.000
 104815569.18448  81674460.57548  19945745.6004   19945748.0284   19945745.7354
       253.000         229.000
 119469575.66248  93093170.80848  22734307.5694   22734309.3974   22734307.9744
       230.000         184.000
 132438679.41048  85406762.26448  23299307.3534   23299307.6734   23299306.8334
       230.000         185.000
 124676028.80248  97150145.62348  23725065.2064   23725068.5064   23725065.4914
       225.000         180.000
 122695622.12848  77814757.02948  21445274.4974   21445277.6924   21445275.2454
       244.000         211.000
 09  1 18  1 57 30.0000000  0  9G26G12G15G30G 9G18G22G17G 5
 125843508.48948  98059864.09148  23947232.5164   23947235.3834   23947232.5654
       195.000         133.000
 119300793.12548  75169449.85148  20799249.0564   20799250.2664   20799248.9014
       251.000         229.000
 105581490.48948 100063493.37648  21994430.4244   21994432.7164   21994429.8524
       238.000         209.000
 122644206.40948  95566902.36948  23338425.6754   23338428.0944   23338425.0694
       224.000         175.000
 104815949.33148  81674756.79448  19945817.8864   19945820.4174   19945818.1104
       253.000         229.000
 119518972.60048  93131661.92048  22743707.5274   22743709.4424   22743707.9814
       230.000         183.000
 132436256.89448  85404874.58448  23298846.2234   23298847.0194   23298846.8874
       229.000         184.000
 124729173.77848  97191557.33048  23735177.9524   23735181.5574   23735178.1124
       224.000         177.000
 122625549.52048  77760155.01648  21431940.1794   21431943.4204   21431940.6544
       244.000         211.000
 09  1 18  1 58  0.0000000  0  9G26G12G15G30G 9G18G22G17G 5
 135952943.83458  88145145.30658  23968052.8225   23968055.8305   23968051.9755
       198.000         132.000
 119257162.36848  75135451.86848  20790946.2344   20790947.5074   20790946.1894
       251.000         229.000
 105667338.59548 100130387.99248  22010766.9634   22010769.0804   22010766.7014
       240.000         209.000
 122543681.92348  95488571.61948  23319296.3744   23319299.4384   23319296.0274
       225.000         177.000
 104816693.65648  81675336.78948  19945959.6164   19945961.9454   19945959.7754
       253.000         229.000
 119568809.34348  93170495.74348  22753191.2074   22753193.2044   22753191.6884
       230.000         183.000
 132434368.97648  85403403.46848  23298486.8224   23298487.1914   23298486.3104
       230.000         182.000
 124782804.81048  97233347.74748  23745383.5794   23745384.8314   23745383.1344
       223.000         172.000
 122555850.93748  77705844.44148  21418676.9584   21418679.9954   21418677.5844
       245.000         212.000
 09  1 18  1 58 30.0000000  0  9G26G12G15G30G 9G18G22G17G 5
 136062492.69448  88230508.05048  23988899.9604   23988901.6434   23988900.4794
       201.000         131.000
 119213975.16648  75101799.50048  20782728.1054   20782729.2484   20782728.0624
       250.000         229.000
 105753529.04048 100197549.37148  22027168.4324   22027170.6154   22027168.5124
       238.000         209.000
 122443362.57648  95410400.72548  23300206.3774   23300209.5924   23300206.5854
       226.000         178.000
 104817801.76548  81676200.24448  19946170.5084   19946172.9474   19946170.7424
       252.000         229.000
 119619082.68948  93209669.77048  22762757.7884   22762759.9914   22762758.5714
       228.000         182.000
 132433014.28048  85402347.87548  23298228.5714   23298229.6844   23298229.8064
       227.000         183.000
 124836919.56948  97275515.05848  23755681.4374   23755681.3474   23755681.2934
       225.000         174.000
 122486526.52548  77651825.42048  21405484.9734   21405488.0074   21405485.6594
       244.000         211.000
 09  1 18  1 59  0.0000000  0  9G26G12G15G30G 9G18G22G17G 5
 136172179.57148  88315978.32248  24009773.9494   24009773.4504   24009776.8094
       195.000         130.000
 119171230.57848  75068492.03248  20774593.9184   20774595.2224   20774593.8364
       250.000         229.000
 105840058.86048 100264975.19548  22043634.6364   22043636.4794   22043633.8584
       239.000         208.000
 122343248.78548  95332389.99748  23281155.1604   23281158.5984   23281155.4984
       223.000         178.000
 104819272.82748  81677346.52248  19946450.3284   19946452.8924   19946450.3914
       253.000         229.000
 119669789.33948  93249181.42448  22772406.4954   22772409.2614   22772406.8394
       228.000         181.000
 132432191.51048  85401706.73648  23298072.2864   23298072.8164   23298071.8084
       228.000         184.000
 124891515.37148  97318057.22248  23766070.8794   23766071.9904   23766071.2834
       222.000         174.000
 122417576.28748  77598097.96848  21392363.8184   21392367.0924   21392364.3904
       244.000         211.000
 09  1 18  1 59 30.0000000  0  9G26G12G15G30G 9G18G22G17G 5
 136282003.44348  88401555.43648  24030673.3624   24030671.1464   24030670.2994
       192.000         126.000
 119128929.64248  75035530.27448  20766544.1564   20766545.8304   20766544.0794
       251.000         229.000
 105926927.23248 100332664.83048  22060165.1844   22060166.9774   22060165.1164
       239.000         208.000
 122243342.58648  95254541.04448  23262143.4364   23262146.8194   23262142.4484
       225.000         178.000
 104821108.29448  81678776.75048  19946799.6984   19946802.0204   19946799.8694
       253.000         229.000
 119720927.75248  93289029.53048  22782137.7984   22782140.4354   22782138.0674
       226.000         180.000
 132431901.13848  85401480.44748  23298017.2924   23298017.9524   23298017.4834
       230.000         184.000
 124946591.17048  97360973.42048  23776551.3594   23776553.0994   23776550.9154
       223.000         175.000
 122349001.98148  77544663.45348  21379314.6564   21379317.8564   21379315.3034
       242.000         211.000
 09  1 18  2  0  0.0000000  0  9G26G12G15G30G 9G18G22G17G 5
 136391963.09748  88487238.31248  24051595.9384   24051597.0634   24051597.0534
       190.000         124.000
 119087073.01048  75002914.72348  20758579.3024   20758580.6104   20758579.1904
       251.000         229.000
 106014133.46748 100400617.73048  22076760.0354   22076762.0284   22076759.9424
       239.000         208.000
 122143646.05248  95176855.44348  23243171.9774   23243175.1214   23243172.1084
       226.000         178.000
 104823308.96948  81680491.56348  19947218.5284   19947220.8364   19947218.7134
       253.000         229.000
 119772496.14048  93329212.68948  22791950.8454   22791953.3684   22791951.5014
       226.000         178.000
 132432143.03748  85401668.93948  23298063.2064   23298063.6594   23298063.6804
       230.000         184.000
 125002146.10548  97404263.02048  23787122.3894   23787125.7364   23787123.2404
       223.000         175.000
 122280805.06048  77491523.01348  21366337.1924   21366340.3544   21366337.7244
       243.000         211.000
 09  1 18  2  0 30.0000000  0  9G26G12G15G30G 9G18G22G17G 5
 116502019.87458 108572980.87258  24072550.0385   24072553.8785   24072550.8565
       190.000         122.000
 119045660.28248  74970645.07048  20750698.8164   20750700.0324   20750698.8374
       250.000         230.000
 106101674.36048 100468831.39948  22093418.2564   22093420.2764   22093417.8984
       238.000         207.000
 122044160.11448  95099333.93848  23224240.3314   23224242.9564   23224240.5184
       223.000         174.000
 104825874.42348  81682490.61648  19947706.5734   19947709.1174   19947706.8464
       253.000         229.000
 119824491.40148  93369728.45748  22801845.4044   22801847.7794   22801845.6994
       229.000         180.000
 132432916.26748  85402271.44948  23298210.1704   23298211.0924   23298210.4094
       230.000         183.000
 125058177.73948  97447924.06348  23797784.9504   23797788.7234   23797784.7784
       220.000         175.000
 122212985.60348  77438676.69348  21353431.6354   21353434.5074   21353432.1124
       244.000         212.000
 09  1 18  2  1  0.0000000  0  9G26G12G15G30G 9G18G22G17G 5
 136612077.24158  88658715.18358  24093511.7345   24093522.8965   24093519.9035
       184.000         122.000
 119004690.31748  74938720.42348  20742902.5294   20742903.7334   20742902.3644
       251.000         230.000
 106189547.91948 100537304.29348  22110139.9004   22110142.0074   22110139.5254
       237.000         207.000
 121944885.12748  95021976.82748  23205348.5434   23205351.2524   23205347.2844
       225.000         175.000
 104828804.10148  81684773.48248  19948264.1274   19948266.5884   19948264.2154
       252.000         229.000
 119876910.01348  93410574.13248  22811820.9574   22811822.4444   22811821.3334
       230.000         181.000
 132434219.25948  85403286.75248  23298458.6784   23298459.3094   23298459.1814
       230.000         184.000
 125114683.62548  97491954.63048  23808537.4424   23808541.1584   23808537.3644
       219.000         171.000
 122145543.43448  77386124.36348  21340597.9484   21340600.5014   21340598.9914
       243.000         212.000
 09  1 18  2  1 30.0000000  0  9G26G12G15G30G 9G18G22G17G 5
 116722474.25258 108744742.25758  24114520.0225   24114524.8625   24114516.1545
       195.000         129.000
 118964165.86048  74907142.92748  20735190.9194   20735192.2534   20735190.7604
       251.000         230.000
 106277754.08748 100606036.37048  22126925.2954   22126926.8424   22126925.0104
       239.000         206.000
 121845824.32748  94944786.59848  23186497.9514   23186500.7244   23186498.4434
       223.000         177.000
 104832100.22748  81687341.89648  19948891.2934   19948893.8094   19948891.4474
       253.000         229.000
 119929751.57648  93451749.36348  22821876.4794   22821877.9764   22821877.2084
       230.000         181.000
 132436053.49848  85404716.02048  23298807.3524   23298808.2394   23298807.6134
       229.000         184.000
 125171663.74648  97536354.72148  23819381.2734   23819382.3504   23819380.7704
       220.000         168.000
 122078481.64348  77333868.43048  21327836.4834   21327839.1734   21327836.6724
       244.000         212.000
 09  1 18  2  2  0.0000000  0  9G26G12G15G30G 9G18G22G17G 5
 116832957.08948 108830832.80748  24135546.0964   24135547.9124   24135542.2344
       200.000         133.000
 118924086.85748  74875912.54348  20727564.1344   20727565.4264   20727564.0914
       251.000         230.000
 106366290.63748 100675025.87748  22143772.7554   22143775.0384   22143772.4974
       237.000         206.000
 121746979.08848  94867764.33548  23167688.7674   23167691.4674   23167687.9254
       227.000         178.000
 104835762.99848  81690196.00248  19949588.2574   19949590.7864   19949588.4974
       253.000         229.000
 119983013.39448  93493252.06148  22832011.6904   22832013.4854   22832012.1254
       229.000         181.000
 132438418.02148  85406558.49148  23299257.2704   23299258.0854   23299257.0984
       229.000         183.000
 125229116.37048  97581122.97348  23830314.0604   23830314.5424   23830313.8704
       220.000         167.000
 122011800.76048  77281909.31348  21315147.4404   21315150.3834   21315148.2594
       243.000         212.000
 09  1 18  2  2 30.0000000  0  9G26G12G15G30G 9G18G22G17G 5
 116943565.73448 108917021.35448  24156593.2634   24156596.0674   24156592.7584
       197.000         137.000
 118884451.74448  74845028.04248  20720021.7804   20720022.9764   20720021.5794
       251.000         230.000
 106455155.00548 100744270.82248  22160683.2734   22160685.2664   22160682.6514
       238.000         205.000
 121648349.65948  94790910.25948  23148920.4124   23148923.0014   23148920.3424
       228.000         181.000
 104839791.41948  81693335.02648  19950355.0014   19950357.3324   19950355.1404
       253.000         229.000
 120036691.95948  93535079.49548  22842226.2664   22842228.1744   22842226.6274
       229.000         181.000
 132441311.38148  85408813.03648  23299807.4624   23299808.0864   23299807.6844
       228.000         183.000
 125287038.30848  97626256.92648  23841336.6034   23841336.8094   23841336.7454
       219.000         168.000
 121945500.44948  77230246.75148  21302530.6734   21302534.0064   21302531.3044
       243.000         213.000
 09  1 18  2  3  0.0000000  0  9G26G12G15G30G 9G18G22G17G 5
 117054298.30648 109003306.39848  24177664.7394   24177667.4804   24177664.3074
       203.000         135.000
 118845261.05748  74814489.84448  20712564.0884   20712565.1664   20712564.0964
       251.000         230.000
 106544345.22348 100813769.69948  22177655.7474   22177657.3164   22177655.5724
       237.000         205.000
 121549936.91748  94714225.03048  23130193.1134   23130195.7234   23130192.9354
       229.000         180.000
 104844185.87448  81696759.27948  19951191.3604   19951193.5624   19951191.5634
       253.000         229.000
 120090784.53048  93577229.53648  22852520.2554   22852521.7104   22852521.0174
       229.000         180.000
 132444732.53148  85411478.87948  23300458.9354   23300459.4924   23300459.2954
       230.000         183.000
 125345427.74848  97671755.17448  23852447.3234   23852448.8004   23852446.5314
       220.000         170.000
 121879581.35348  77178881.24148  21289986.7524   21289990.2414   21289987.3864
       244.000         214.000
 09  1 18  2  3 30.0000000  0  9G26G12G15G30G 9G18G22G17G 5
 117165152.62848 109089686.35948  24198759.6414   24198762.6504   24198760.3854
       197.000         138.000
 118806514.41848  74784297.67248  20705190.6604   20705192.0854   20705190.5684
       250.000         230.000
 106633859.30648 100883520.92748  22194689.7274   22194691.3544   22194689.1494
       237.000         205.000
 121451742.20448  94637709.69048  23111507.1254   23111509.7674   23111506.4304
       226.000         179.000
 104848946.38948  81700468.77948  19952097.1054   19952099.4834   19952097.3214
       253.000         229.000
 120145288.44748  93619700.12248  22862891.5684   22862893.3654   22862892.3564
       226.000         179.000
 132448680.81948  85414555.44748  23301210.5914   23301210.2244   23301211.2334
       229.000         183.000
 125404282.62148  97717616.13448  23863647.2854   23863649.2314   23863646.8464
       217.000         170.000
 121814044.05048  77127813.23148  21277515.6814   21277518.7914   21277516.2094
       245.000         214.000
 09  1 18  2  4  0.0000000  0  9G26G12G15G30G 9G18G22G17G 5
 117276128.07948 109176160.74148  24219877.0634   24219881.3174   24219876.5674
       202.000         133.000
 118768213.00548  74754452.42848  20697902.1634   20697903.5314   20697902.1604
       250.000         230.000
 106723696.29248 100953523.75748  22211785.0934   22211787.0704   22211784.8364
       236.000         206.000
 121353768.22848  94561366.35848  23092863.2874   23092866.2094   23092863.1604
       228.000         179.000
 104854074.28248  81704464.53848  19953072.8444   19953075.2764   19953072.9854
       253.000         229.000
 120200202.16548  93662490.03048  22873340.9704   22873343.0434   22873341.4004
       225.000         177.000
 132453156.55048  85418043.00048  23302061.7344   23302062.0294   23302061.3464
       228.000         180.000
 125463602.18648  97763839.19148  23874935.3654   23874937.9674   23874934.8964
       216.000         170.000
 121748890.37348  77077044.14848  21265117.4304   21265120.3184   21265117.9724
       245.000         214.000
 09  1 18  2  4 30.0000000  0  9G26G12G15G30G 9G18G22G17G 5
 117387221.26048 109262726.87148  24241017.6834   24241018.1614   24241021.4644
       192.000         129.000
 118730355.47548  74724953.05648  20690698.2574   20690699.5374   20690698.0664
       250.000         231.000
 106813852.96948 101023775.70948  22228941.4574   22228943.4804   22228940.9214
       238.000         206.000
 121256014.34048  94485194.52148  23074261.1454   23074264.0394   23074260.9084
       225.000         178.000
 104859568.43548  81708745.69748  19954118.3364   19954120.7714   19954118.5254
       253.000         229.000
 120255521.95748  93705596.35948  22883867.8374   22883869.8114   22883868.0804
       229.000         178.000
 132458157.55748  85421939.86248  23303013.5064   23303013.3684   23303013.6954
       229.000         180.000
 125523383.06748  97810421.70948  23886311.1684   23886314.0494   23886311.6614
       217.000         169.000
 121684119.65948  77026573.46348  21252791.8354   21252794.7144   21252792.4984
       245.000         213.000
 09  1 18  2  5  0.0000000  0  9G26G12G15G30G 9G18G22G17G 5
 117498431.44148 109349384.14548  24262181.3364   24262181.0604   24262180.8524
       192.000         127.000
 118692943.11848  74695800.58548  20683578.7654   20683580.1194   20683578.6164
       250.000         231.000
 106904328.51848 101094276.12548  22246158.2504   22246160.6274   22246158.6054
       236.000         205.000
 121158483.24348  94409196.27948  23055701.5684   23055704.3314   23055701.3154
       231.000         182.000
 104865429.97748  81713313.13748  19955233.7154   19955236.2274   19955233.8014
       251.000         229.000
 120311246.04648  93749017.69848  22894471.8834   22894474.2314   22894472.3694
       226.000         178.000
 132463684.31948  85426246.42148  23304065.3594   23304065.1574   23304065.6724
       229.000         182.000
 125583624.75148  97857363.26648  23897774.7174   23897776.5084   23897775.0984
       218.000         168.000
 121619733.85848  76976402.72348  21240539.5844   21240542.4824   21240540.3314
       245.000         214.000
 09  1 18  2  5 30.0000000  0  9G26G12G15G30G 9G18G22G17G 5
 117609756.75348 109436131.16448  24283362.3644   24283366.5104   24283366.1314
       192.000         126.000
 118655975.46448  74666994.63048  20676544.0584   20676545.4264   20676543.7924
       251.000         231.000
 106995120.96148 101165023.46948  22263435.2404   22263437.8144   22263434.7054
       236.000         205.000
 121061176.18448  94333372.59848  23037184.5914   23037187.5234   23037184.5754
       227.000         180.000
 104871659.07148  81718166.98148  19956419.2104   19956421.6204   19956419.5844
       251.000         229.000
 120367371.70048  93792751.95848  22905152.3554   22905154.3054   22905153.2524
       227.000         179.000
 132469735.85548  85430961.86948  23305217.2434   23305216.7374   23305216.5024
       230.000         184.000
 125644325.03948  97904662.21248  23909325.4544   23909326.9784   23909325.6164
       218.000         166.000
 121555733.34748  76926532.20948  21228360.6204   21228363.7144   21228361.1364
       245.000         214.000
 09  1 18  2  6  0.0000000  0  9G26G12G15G30G 9G18G22G17G 5
 117721195.27448 109522966.36848  24304571.2994   24304574.6794   24304572.0754
       188.000         123.000
 118619452.83548  74638535.44548  20669594.3794   20669595.3114   20669594.2914
       251.000         231.000
 107086228.53448 101236016.37948  22280772.9034   22280774.7204   22280772.4774
       238.000         204.000
 120964094.27148  94257724.37748  23018710.5834   23018713.4684   23018709.8394
       229.000         180.000
 104878256.10548  81723307.52848  19957674.5304   19957677.0664   19957674.7734
       251.000         229.000
 120423896.46648  93836797.20748  22915908.9124   22915910.4094   22915909.4424
       229.000         178.000
 132476311.76948  85436085.94248  23306468.2814   23306468.7444   23306468.9604
       227.000         182.000
 125705482.35848  97952317.22248  23920963.6614   23920965.0154   23920964.0194
       217.000         166.000
 121492119.01848  76876962.61448  21216255.1394   21216258.1744   21216255.8774
       245.000         214.000
 09  1 18  2  6 30.0000000  0  9G26G12G15G30G 9G18G22G17G 5
 117832745.07648 109609888.30148  24325798.4934   24325800.4324   24325800.1704
       196.000         125.000
 118583374.75148  74610422.66348  20662728.5794   20662729.8914   20662728.5454
       250.000         231.000
 107177648.94648 101307253.06848  22298169.5044   22298171.1654   22298169.8164
       236.000         204.000
 120867238.54848  94182252.42348  23000279.3984   23000282.1064   23000279.7904
       229.000         180.000
 104885220.98548  81728734.71148  19958999.9904   19959002.4254   19959000.2414
       251.000         229.000
 120480817.31948  93881151.10748  22926740.5664   22926741.5914   22926741.1884
       230.000         177.000
 132483410.53148  85441617.44848  23307818.5804   23307819.2674   23307818.5604
       228.000         179.000
 125767094.35748  98000326.59348  23932688.2284   23932689.1714   23932688.1794
       217.000         167.000
 121428891.26948  76827694.24548  21204223.3784   21204226.1344   21204224.0374
       245.000         214.000
 09  1 18  2  7  0.0000000  0  9G26G12G15G30G 9G18G22G17G 5
 117944404.18748 109696895.37248  24347046.1224   24347051.5104   24347046.7484
       199.000         128.000
 118547741.06348  74582656.16248  20655947.6704   20655948.9924   20655947.4564
       250.000         231.000
 107269380.35048 101378732.07148  22315625.2084   22315627.5974   22315624.5194
       237.000         203.000
 120770610.34348  94106957.72748  22981892.0984   22981894.0834   22981891.7794
       229.000         182.000
 104892554.36848  81734449.03548  19960395.3444   19960397.8314   19960395.5094
       251.000         229.000
 120538131.89248  93925811.79848  22937646.8774   22937648.6524   22937647.7254
       227.000         176.000
 132491031.49448  85447555.84948  23309269.4264   23309269.5504   23309269.2214
       228.000         180.000
 125829159.10648  98048688.70848  23944498.4204   23944500.6524   23944498.8654
       216.000         166.000
 121366050.79448  76778727.64548  21192265.1714   21192268.0984   21192265.8164
       246.000         214.000
 09  1 18  2  7 30.0000000  0  9G26G12G15G30G 9G18G22G17G 5
 118056171.09548 109783986.47548  24368313.8424   24368318.3354   24368315.6694
       197.000         127.000
 118512552.58948  74555236.57648  20649251.5954   20649252.8524   20649251.3804
       250.000         231.000
 107361421.09048 101450452.12248  22333140.0544   22333142.1284   22333140.0384
       237.000         203.000
 120674211.21448  94031841.54048  22963547.9944   22963550.2974   22963547.5064
       229.000         182.000
 104900256.58448  81740450.76348  19961861.0334   19961863.5304   19961861.1524
       251.000         229.000
 120595837.67248  93970777.32248  22948628.2384   22948629.8294   22948628.5334
       228.000         178.000
 132499174.01048  85453900.66848  23310818.3394   23310819.1874   23310818.4964
       227.000         179.000
 125891674.85148  98097402.27748  23956394.8474   23956396.2194   23956394.6584
       219.000         167.000
 121303598.58748  76730063.59048  21180380.8534   21180383.7404   21180381.3814
       245.000         214.000
 09  1 18  2  8  0.0000000  0  9G26G12G15G30G 9G18G22G17G 5
 118168043.71948 109871159.90848  24389603.2754   24389607.3254   24389606.1214
       201.000         131.000
 118477808.55848  74528163.31548  20642639.8974   20642641.2694   20642639.9304
       250.000         232.000
 107453769.17148 101522411.66348  22350713.5594   22350715.5994   22350713.4914
       236.000         204.000
 120578042.44848  93956904.86048  22945247.6814   22945249.7844   22945248.0694
       228.000         180.000
 104908327.51748  81746739.79748  19963397.0104   19963399.4204   19963397.1964
       251.000         229.000
 120653931.56648  94016045.25748  22959683.0864   22959685.2384   22959683.5054
       228.000         179.000
 132507837.15648  85460651.15948  23312467.4544   23312467.5764   23312467.2404
       225.000         180.000
 125954639.21348  98146465.41148  23968377.2734   23968377.8444   23968377.4354
       218.000         167.000
 121241535.10448  76681702.44848  21168570.6354   21168573.7484   21168571.2294
       246.000         215.000
 09  1 18  2  8 30.0000000  0  9G26G12G15G30G 9G18G22G17G 5
 118280019.98548 109958414.16848  24410911.4384   24410912.6034   24410912.6464
       205.000         133.000
 118443508.85448  74501436.28348  20636112.9704   20636114.2854   20636112.7824
       252.000         232.000
 107546422.54148 101594609.08248  22368344.6814   22368346.9314   22368344.0424
       236.000         204.000
 120482105.03848  93882148.45648  22926991.1124   22926993.7334   22926991.0454
       228.000         181.000
 104916767.21748  81753316.18948  19965002.8974   19965005.4594   19965003.1174
       251.000         229.000
 120712411.27448  94061613.84548  22970811.8304   22970813.8514   22970812.6804
       227.000         178.000
 132517020.01948  85467806.64348  23314214.9254   23314215.6084   23314215.2894
       226.000         182.000
 126018050.52348  98195876.82748  23980443.6964   23980444.8074   23980443.4864
       214.000         165.000
 121179860.88448  76633644.61048  21156834.5834   21156837.4964   21156835.1054
       246.000         215.000
 09  1 18  2  9  0.0000000  0  9G26G12G15G30G 9G18G22G17G 5
 118392098.75148 110045748.27948  24432240.2724   24432242.3084   24432240.6704
       203.000         136.000
 118409653.79548  74475055.72248  20629670.6814   20629671.8564   20629670.6404
       251.000         232.000
 107639379.81648 101667043.30448  22386033.7994   22386036.1314   22386033.4324
       236.000         203.000
 120386400.70548  93807573.65948  22908779.0544   22908781.6434   22908778.8104
       228.000         180.000
 104925576.27048  81760180.37348  19966679.2054   19966681.7894   19966679.3494
       251.000         229.000
 120771274.26548  94107481.10248  22982013.0404   22982014.9244   22982013.5654
       227.000         177.000
 132526721.78648  85475366.43148  23316060.8094   23316061.6144   23316061.0424
       227.000         183.000
 126081907.05348  98245635.14748  23992594.6564   23992596.1054   23992594.6144
       216.000         166.000
 121118576.91648  76585890.87748  21145172.4474   21145175.5554   21145173.1544
       246.000         215.000
 09  1 18  2  9 30.0000000  0  9G26G12G15G30G 9G18G22G17G 5
 118504277.82348 110133160.46248  24453587.0034   24453590.2834   24453587.0714
       207.000         142.000
 118376243.50748  74449021.73148  20623312.8344   20623314.0194   20623312.6854
       251.000         232.000
 107732638.76648 101739712.61048  22403780.6904   22403782.6044   22403780.3764
       237.000         203.000
 120290930.84948  93733181.57948  22890611.9524   22890614.5764   22890611.9974
       230.000         184.000
 104934754.99648  81767332.62448  19968425.8294   19968428.3714   19968426.0884
       250.000         229.000
 120830517.63248  94153644.74348  22993286.6044   22993288.3864   22993287.2424
       227.000         176.000
 132536941.45448  85483329.79248  23318005.7774   23318006.6014   23318005.8724
       226.000         182.000
 126146206.88048  98295738.92748  24004830.5624   24004832.4224   24004830.3264
       217.000         167.000
 121057683.86548  76538441.74448  21133585.0724   21133587.9004   21133585.5574
       246.000         215.000
 09  1 18  2 10  0.0000000  0  9G26G12G15G30G 9G18G22G17G 5
 118616554.77248 110220649.01448  24474954.1344   24474954.2314   24474953.2014
       205.000         145.000
 118343277.15248  74423333.67548  20617039.5894   20617040.8194   20617039.4114
       250.000         233.000
 107826196.77448 101812614.95648  22421584.1144   22421585.8954   22421584.2154
       236.000         201.000
 120195695.85348  93658972.51348  22872489.4384   22872491.9414   22872489.2234
       227.000         182.000
 104944303.09748  81774772.70248  19970242.7784   19970245.4304   19970242.8364
       251.000         229.000
 120890138.22248  94200102.31948  23004631.4594   23004633.9634   23004632.0134
       226.000         176.000
 132547677.71248  85491695.68848  23320048.7734   23320049.3764   23320048.6284
       228.000         182.000
 126210947.24848  98346185.97748  24017150.3784   24017151.5214   24017150.4574
       219.000         167.000
 120997181.71548  76491297.21548  21122071.5844   21122074.5944   21122072.1904
       245.000         215.000
 09  1 18  2 10 30.0000000  0  9G26G12G15G30G 9G18G22G17G 5
 118728928.29548 110308212.78848  24496336.4934   24496338.8404   24496336.0254
       209.000         147.000
 118310754.76348  74397991.55848  20610850.6954   20610852.0154   20610850.6304
       251.000         233.000
 107920052.59348 101885749.34848  22439444.0074   22439446.2604   22439443.5724
       235.000         202.000
 120100697.43448  93584947.79648  22854411.5514   22854414.3504   22854411.3154
       230.000         184.000
 104954221.29248  81782501.15448  19972130.3414   19972132.9084   19972130.6284
       252.000         229.000
 120950133.76248  94246852.09048  23016048.1664   23016050.5474   23016049.1374
       225.000         174.000
 132558929.83448  85500463.55748  23322190.0814   23322189.9564   23322190.4454
       228.000         180.000
 126276126.61948  98396975.11348  24029553.5694   24029554.4814   24029553.3914
       217.000         166.000
 120937071.55448  76444458.12848  21110633.0044   21110635.9794   21110633.5114
       246.000         215.000
 09  1 18  2 11  0.0000000  0 10G26G12G15G30G14G 9G18G22G17G 5
 118841395.98548 110395849.93848  24517738.6594   24517739.6144   24517739.2634
       214.000         150.000
 118278676.07448  74372995.17848  20604746.2994   20604747.6644   20604746.0464
       251.000         233.000
 108014203.65348 101959113.79548  22457360.8974   22457362.6624   22457360.3504
       237.000         202.000
 120005936.64248  93511108.22848  22836379.4444   22836382.0114   22836379.7394
       231.000         183.000
 138856517.81158  90407667.12358  24520587.4305   24520589.9035   24520587.8855
       209.000         152.000
 104964509.21348  81790517.71348  19974088.0864   19974090.6684   19974088.2844
       251.000         229.000
 121010501.21848  94293891.63348  23027535.9444   23027538.1914   23027536.2394
       227.000         175.000
 132570696.44848  85509632.32648  23324429.0264   23324429.0764   23324429.4844
       229.000         178.000
 126341742.62748  98448104.45048  24042040.5474   24042040.9194   24042039.3844
       221.000         167.000
 120877353.66448  76397924.72248  21099268.9424   21099272.0894   21099269.5124
       246.000         215.000
 09  1 18  2 11 30.0000000  0 10G26G12G15G30G14G 9G18G22G17G 5
 118953955.95348 110483558.97248  24539157.8654   24539159.9904   24539158.3864
       216.000         152.000
 118247040.90148  74348344.39548  20598726.5284   20598727.6704   20598726.4094
       251.000         233.000
 108108647.87748 102032706.70148  22475333.0444   22475334.7074   22475332.8364
       236.000         201.000
 119911414.20948  93437454.41148  22818392.4344   22818394.9804   22818392.3034
       230.000         184.000
 138752408.94948  90326543.31148  24500776.2004   24500778.6684   24500776.8514
       210.000         155.000
 104975167.04648  81798822.51348  19976116.2344   19976118.5764   19976116.4824
       251.000         229.000
 121071237.51748  94341218.60948  23039094.0884   23039095.6024   23039094.6664
       229.000         175.000
 132582976.40148  85519201.08348  23326765.8974   23326766.3514   23326765.8204
       229.000         181.000
 126407792.84048  98499572.13848  24054609.3584   24054609.9824   24054610.4504
       219.000         165.000
 120818028.27948  76351697.16148  21087979.8694   21087982.7424   21087980.5384
       247.000         216.000
 09  1 18  2 12  0.0000000  0 10G26G12G15G30G14G 9G18G22G17G 5
 119066606.38348 110571338.52348  24560594.4354   24560597.1034   24560594.8854
       215.000         153.000
 118215849.11348  74324039.11248  20592790.8364   20592792.1554   20592790.5584
       251.000         234.000
 108203383.27348 102106526.48848  22493360.1014   22493362.2524   22493359.7954
       234.000         200.000
 119817131.82748  93363987.63248  22800451.4854   22800453.5104   22800451.2904
       230.000         185.000
 138648408.42548  90245503.92848  24480986.3014   24480987.6264   24480987.5044
       208.000         154.000
 104986195.09748  81807415.79048  19978214.7834   19978217.0694   19978214.9534
       251.000         229.000
 121132340.17748  94388831.04948  23050721.3344   23050723.3344   23050722.2584
       227.000         176.000
 132595768.63548  85529169.03548  23329200.3374   23329200.4064   23329200.4454
       229.000         180.000
 126474275.31448  98551376.65948  24067260.4564   24067261.4284   24067260.5124
       219.000         165.000
 120759096.23848  76305776.09448  21076765.8774   21076768.5144   21076766.4804
       247.000         217.000
 09  1 18  2 12 30.0000000  0 10G26G12G15G30G14G 9G18G22G17G 5
 119179346.69748 110659188.12548  24582048.3274   24582050.5954   24582049.3554
       221.000         160.000
 118185101.74448  74300080.12748  20586939.6674   20586941.1304   20586939.4864
       251.000         234.000
 108298409.47648 102180572.86748  22511443.0454   22511445.3824   22511442.8194
       235.000         201.000
 119723092.05048  93290709.89348  22782556.2374   22782558.4404   22782556.4624
       229.000         184.000
 138544519.84948  90164551.83548  24461216.8324   24461218.4834   24461215.8494
       213.000         155.000
 104997594.96548  81816298.80748  19980384.0884   19980386.3474   19980384.3574
       251.000         228.000
 121193807.88548  94436727.95048  23062418.5484   23062420.1184   23062418.8124
       228.000         176.000
 132609073.43448  85539536.40248  23331732.1524   23331732.6704   23331732.4884
       228.000         181.000
 126541189.53648  98603517.58748  24079993.6834   24079994.5104   24079992.8634
       219.000         167.000
 120700559.44148  76260163.00148  21065626.6114   21065629.5104   21065627.5664
       247.000         217.000
 09  1 18  2 13  0.0000000  0 10G26G12G15G30G14G 9G18G22G17G 5
 119292174.34448 110747105.78048  24603519.5184   24603521.2164   24603520.3014
       222.000         161.000
 118154797.74148  74276466.62648  20581173.0604   20581174.3774   20581172.8044
       252.000         234.000
 108393723.28648 102254843.35548  22529580.8184   22529583.1624   22529580.5024
       235.000         201.000
 119629295.09548  93217621.38648  22764706.8424   22764709.5514   22764706.4994
       230.000         185.000
 138440745.00548  90083688.24648  24441468.2894   24441472.2164   24441468.7804
       210.000         157.000
 105009366.08548  81825471.09048  19982623.9934   19982626.3814   19982624.1364
       250.000         228.000
 121255636.77448  94484906.26548  23074184.5444   23074186.2214   23074184.9754
       228.000         177.000
 132622888.99248  85550301.75448  23334361.4044   23334361.6474   23334360.8914
       233.000         182.000
 126608532.52448  98655992.67448  24092809.0264   24092809.8064   24092808.7644
       221.000         168.000
 120642417.66048  76214857.73048  21054562.3054   21054565.4544   21054562.8214
       247.000         216.000
 09  1 18  2 13 30.0000000  0 10G26G12G15G30G14G 9G18G22G17G 5
 119405087.01648 110835089.68748  24625005.2984   24625008.0434   24625005.8244
       218.000         162.000
 118124936.49648  74253198.12248  20575490.8434   20575492.0074   20575490.7954
       252.000         234.000
 108489323.04248 102329336.66248  22547772.9464   22547775.2184   22547772.6984
       235.000         201.000
 119535741.86248  93144722.76648  22746904.3184   22746906.6934   22746904.2764
       229.000         185.000
 138337085.66248  90002914.76848  24421742.9134   24421745.2894   24421743.2774
       208.000         157.000
 105021508.33148  81834932.57748  19984934.5604   19984937.0094   19984934.5614
       251.000         228.000
 121317823.93748  94533363.79748  23086018.1954   23086020.2054   23086018.8434
       229.000         178.000
 132637214.08048  85561464.16048  23337087.3164   23337087.3724   23337088.1694
       230.000         180.000
 126676302.13648  98708800.18948  24105704.9814   24105706.8454   24105704.6164
       220.000         168.000
 120584671.15148  76169860.45848  21043573.5644   21043576.6134   21043574.0074
       247.000         216.000
 09  1 18  2 14  0.0000000  0 10G26G12G15G30G14G 9G18G22G17G 5
 119518083.29048 110923138.68648  24646507.4144   24646510.7684   24646508.0384
       216.000         161.000
 118095518.39648  74230274.93448  20569892.7144   20569893.9404   20569892.5244
       252.000         234.000
 108585206.59348 102404051.11948  22566018.9704   22566021.0834   22566018.6094
       235.000         200.000
 119442433.60948  93072015.05748  22729148.2654   22729151.0754   22729147.6504
       230.000         187.000
 138233544.59948  89922233.50248  24402039.4804   24402042.0094   24402039.9444
       209.000         157.000
 105034022.14148  81844683.59548  19987315.8454   19987318.3384   19987316.0174
       251.000         228.000
 121380366.74248  94582098.43448  23097919.4514   23097921.6234   23097919.9414
       227.000         176.000
 132652047.47548  85573022.62348  23339910.1034   23339910.7154   23339910.4114
       230.000         181.000
 126744496.22948  98761938.45848  24118681.5094   24118683.8434   24118681.3084
       221.000         169.000
 120527320.74748  76125171.84048  21032660.1384   21032662.9444   21032660.8014
       247.000         216.000
 09  1 18  2 14 30.0000000  0 10G26G12G15G30G14G 9G18G22G17G 5
 119631161.37848 111011251.47148  24668025.4644   24668028.6154   24668025.3594
       217.000         163.000
 118066543.18148  74207696.85748  20564378.8654   20564380.0594   20564378.8014
       252.000         235.000
 108681372.04848 102478985.22948  22584318.5804   22584320.7414   22584318.5744
       234.000         199.000
 119349371.89748  92999499.46948  22711438.5844   22711442.0844   22711438.4614
       231.000         186.000
 138130124.27148  89841646.21748  24382359.2854   24382361.7224   24382358.4164
       211.000         153.000
 105046908.00848  81854724.51648  19989767.9984   19989770.5234   19989768.3084
       250.000         228.000
 121443262.82848  94631108.35748  23109887.8364   23109890.3364   23109888.4084
       224.000         173.000
 132667388.45348  85584976.62448  23342829.4524   23342829.6424   23342829.6624
       231.000         182.000
 126813112.96848  98815406.05448  24131739.2294   24131740.8724   24131738.5714
       220.000         167.000
 120470367.02948  76080792.32748  21021821.8914   21021825.0254   21021822.4144
       247.000         216.000
 09  1 18  2 15  0.0000000  0 10G26G12G15G30G14G 9G18G22G17G 5
 119744319.21748 111099426.42948  24689559.0424   24689561.4454   24689558.9094
       216.000         161.000
 118038010.60848  74185463.69148  20558949.4844   20558950.5624   20558949.4034
       252.000         234.000
 108777817.20648 102554137.29248  22602671.7034   22602673.5834   22602671.5784
       235.000         199.000
 119256558.09948  92927177.03748  22693777.3924   22693780.2544   22693777.1804
       229.000         186.000
 138026826.98848  89761154.80048  24362702.7064   24362703.8394   24362702.0884
       212.000         154.000
 105060165.58048  81865055.07848  19992290.8464   19992293.4224   19992290.9094
       251.000         228.000
 121506509.14048  94680391.18848  23121922.9994   23121925.5724   23121923.3284
       226.000         174.000
 132683235.53248  85597324.99448  23345845.2004   23345845.2984   23345845.4044
       230.000         183.000
 126882150.03648  98869201.15648  24144876.6104   24144877.4724   24144876.4494
       220.000         167.000
 120413810.40948  76036722.24548  21011059.5164   21011062.8354   21011060.0304
       247.000         217.000
 09  1 18  2 15 30.0000000  0 10G26G12G15G30G14G 9G18G22G17G 5
 119857554.34448 111187661.57048  24711106.4744   24711109.8984   24711106.4644
       212.000         156.000
 118009919.78348  74163574.74948  20553603.7264   20553604.9574   20553603.6064
       252.000         234.000
 108874539.81748 102629505.56648  22621077.4264   22621079.2174   22621077.0584
       235.000         199.000
 119163992.86748  92855048.29948  22676162.6984   22676165.5714   22676162.9284
       230.000         187.000
 137923654.94948  89680760.94848  24343069.6494   24343070.6474   24343070.1114
       208.000         151.000
 105073794.95248  81875675.36948  19994884.5154   19994886.9044   19994884.7334
       251.000         228.000
 121570102.36448  94729944.33648  23134024.5834   23134026.9754   23134025.3114
       225.000         173.000
 132699587.19648  85610066.53048  23348956.5494   23348957.2814   23348956.2344
       228.000         180.000
 126951604.67248  98923321.62948  24158093.6964   24158094.2554   24158094.4554
       221.000         171.000
 120357650.95248  75992961.63948  21000373.0144   21000376.0434   21000373.7454
       247.000         218.000
 09  1 18  2 16  0.0000000  0 10G26G12G15G30G14G 9G18G22G17G 5
 119970865.44548 111275955.92648  24732668.9964   24732672.8344   24732668.7684
       212.000         158.000
 117982270.63948  74142029.97248  20548342.3234   20548343.4334   20548342.2714
       252.000         235.000
 108971537.82248 102705088.41348  22639535.5154   22639537.5744   22639535.2974
       234.000         200.000
 119071677.50448  92783114.26148  22658595.2884   22658598.4814   22658594.5154
       230.000         185.000
 137820610.56848  89600466.68348  24323460.1444   24323462.6494   24323459.7194
       206.000         154.000
 105087796.72748  81886585.83348  19997548.8804   19997551.2444   19997549.0264
       250.000         227.000
 121634039.62548  94779765.57948  23146191.2534   23146193.8284   23146191.7864
       225.000         172.000
 132716442.26048  85623200.31348  23352163.7604   23352164.3824   23352164.5574
       228.000         180.000
 127021475.07848  98977766.08848  24171389.1884   24171391.0024   24171388.9074
       217.000         170.000
 120301889.33448  75949511.04548  20989761.8964   20989764.9534   20989762.3344
       248.000         218.000
