     2.11           OBSERVATION DATA    G (GPS)             RINEX VERSION / TYPE
teqc  2008Oct2      gpsops              20090117 00:05:45UTCPGM / RUN BY / DATE
    30.0000                                                 INTERVAL
     1     1                                                WAVELENGTH FACT L1/2
     7    L1    L2    P1    P2    C1    S1    S2            # / TYPES OF OBSERV
Linux 2.4.20-8|Pentium IV|gcc -static|Linux|486/DX+         COMMENT
     2.10           OBSERVATION DATA    GPS                 COMMENT
soc2rnx ver 1.20    gpsops              17-Jan-2009 00:05:42COMMENT
S1, if present, is the SNR for the C/A data stream on L1.   COMMENT
 SNR is mapped to RINEX snr flag value [1,4-9]              COMMENT
    SNR:   >316  >100  >31.6  >10  >3.2    >0 bad=0         COMMENT
L1 & L2:      9     8     7     6     5     4     1         COMMENT
                                                            COMMENT
This data is provided as a public service by NASA/JPL.      COMMENT
No warranty is expressed or implied regarding suitability   COMMENT
for use.  For further information, contact:                 COMMENT
Dave Stowers, NASA/JPL m/s 238-600                          COMMENT
4800 Oak Grove Drive, Pasadena CA 91109 USA                 COMMENT
                                                            COMMENT
Forced Modulo Decimation to 30 seconds                      COMMENT
  2009     1    16     0     0    0.0000000     GPS         TIME OF FIRST OBS
DSN                 JPL                                     OBSERVER / AGENCY
451-U               AOAD/M_T        NONE                    ANT # / TYPE
  4849202.3940  -360328.9929  4114913.1862                  APPROX POSITION XYZ
        0.0254        0.0000        0.0000                  ANTENNA: DELTA H/E/N
LP03574             ASHTECH Z-XII3      CC00                REC # / TYPE / VERS
MADR                                                        MARKER NAME
13407S012                                                   MARKER NUMBER
                                                            END OF HEADER
 09  1 16  0  0  0.0000000  0 10G 8G 9G28G18G26G10G15G17G27G12
 129278353.50048 100736359.95848  24600868.0724   24600871.2154   24600867.8784
       215.000         162.000
 115176499.33048  89747909.08048  21917368.3264   21917371.4374   21917369.0344
       238.000         200.000
 118455510.11048  92302987.34348  22541340.1004   22541343.2534   22541340.1314
       238.000         200.000
 123729669.95348  96412726.91548  23544974.4124   23544976.3304   23544975.4364
       222.000         172.000
 106793738.16448  83215888.23548  20322181.4944   20322183.9384   20322181.3654
       251.000         226.000
 122431953.92048  95401508.69048  23298037.7304   23298041.8004   23298038.6914
       227.000         180.000
 107366233.19248  83661992.96348  20431120.4524   20431122.0034   20431120.2234
       253.000         238.000
 127594454.53648  99424243.66348  24280422.0994   24280425.2724   24280422.5624
       212.000         166.000
 124421695.84148  96951958.75648  23676671.1594   23676674.2554   23676671.6844
       228.000         183.000
 131515870.30348 102479875.57548  25026656.5144   25026660.4634   25026656.6374
       209.000         154.000
 09  1 16  0  0 30.0000000  0 10G 8G 9G28G18G26G10G15G17G27G12
 129369034.73748 100807020.68848  24618123.6104   24618127.2504   24618124.3054
       214.000         158.000
 115098304.07848  89686977.73448  21902488.6524   21902491.4384   21902488.5264
       239.000         201.000
 118517866.09548  92351576.43648  22553205.9444   22553209.2024   22553205.9814
       238.000         200.000
 123650190.20648  96350794.67248  23529850.0684   23529852.0464   23529850.3144
       223.000         176.000
 106825208.64248  83240410.68348  20328170.1244   20328172.6194   20328170.0734
       251.000         226.000
 122538652.05548  95484650.09048  23318341.6354   23318345.2804   23318342.7484
       227.000         180.000
 107345430.01548  83645782.69248  20427161.6664   20427163.2784   20427161.4314
       252.000         238.000
 127528676.18548  99372987.82548  24267905.6844   24267909.0074   24267904.7334
       213.000         166.000
 124491333.52248  97006221.86348  23689922.9054   23689925.7684   23689923.4904
       228.000         183.000
 131400657.44248 102390099.36248  25004732.2264   25004736.0494   25004732.8824
       211.000         156.000
 09  1 16  0  1  0.0000000  0 10G 8G 9G28G18G26G10G15G17G27G12
 129459721.16748 100877685.39648  24635381.5394   24635384.3584   24635381.7964
       215.000         162.000
 115020360.92448  89626242.83648  21887656.6054   21887659.4234   21887657.0574
       238.000         201.000
 118580607.45448  92400465.80748  22565145.4084   22565148.7704   22565146.0284
       237.000         200.000
 123571080.80548  96289150.98348  23514796.3504   23514798.7094   23514795.6384
       224.000         177.000
 106857074.98048  83265241.58948  20334234.0164   20334236.5664   20334234.0454
       251.000         226.000
 122645501.69248  95567909.54648  23338674.9784   23338678.0014   23338675.5764
       228.000         180.000
 107324992.22148  83629857.13048  20423272.4364   20423274.0774   20423272.1944
       252.000         238.000
 127463156.58648  99321933.54848  24255438.5194   24255439.5984   24255438.4544
       213.000         164.000
 124560995.36948  97060503.80948  23703178.8014   23703182.3854   23703179.1674
       226.000         182.000
 131285483.99948 102300353.87148  24982816.0804   24982818.2664   24982816.8804
       213.000         158.000
 09  1 16  0  1 30.0000000  0 10G 8G 9G28G18G26G10G15G17G27G12
 129550411.69148 100948353.36148  24652639.4724   24652642.3004   24652640.1034
       216.000         164.000
 114942670.24148  89565704.67148  21872872.4654   21872875.2654   21872872.4464
       238.000         200.000
 118643731.54248  92449653.41448  22577157.7304   22577160.8914   22577157.9054
       238.000         200.000
 123492343.74248  96227797.42448  23499813.4424   23499815.1554   23499813.0104
       222.000         176.000
 106889336.64248  83290380.54248  20340373.1034   20340375.7344   20340373.2084
       251.000         226.000
 122752500.14648  95651284.95848  23359035.8924   23359039.3684   23359036.8684
       227.000         179.000
 107304920.73148  83614217.00848  20419452.8684   20419454.4944   20419452.6114
       252.000         238.000
 127397897.61948  99271082.42148  24243020.1924   24243022.1884   24243019.8904
       216.000         168.000
 124630680.48448  97114803.88248  23716439.2344   23716442.9494   23716439.0904
       227.000         182.000
 131170351.15148 102210639.98848  24960907.8824   24960908.7074   24960907.1104
       213.000         156.000
 09  1 16  0  2  0.0000000  0 10G 8G 9G28G18G26G10G15G17G27G12
 129641105.94548 101019024.20148  24669897.8374   24669901.4624   24669898.2864
       217.000         165.000
 114865232.75948  89505363.77848  21858136.4754   21858138.9844   21858136.5774
       237.000         200.000
 118707236.77248  92499138.01448  22589242.2924   22589245.2954   22589242.3914
       237.000         198.000
 123413981.70648  96166736.11048  23484901.4864   23484903.3914   23484900.2604
       225.000         177.000
 106921993.98048  83315827.81048  20346587.6114   20346590.1354   20346587.5034
       251.000         226.000
 122859644.52448  95734774.09048  23379424.3714   23379427.8174   23379425.2784
       225.000         178.000
 107285217.17848  83598863.58748  20415703.5294   20415705.0204   20415703.3684
       252.000         238.000
 127332902.88148  99220437.17648  24230651.5704   24230653.5364   24230651.4104
       216.000         166.000
 124700388.95748  97169122.15548  23729704.2414   23729708.3024   23729704.8404
       223.000         182.000
 131055261.47048 102120959.75748  24939006.0194   24939007.3134   24939005.8514
       211.000         153.000
 09  1 16  0  2 30.0000000  0 10G 8G 9G28G18G26G10G15G17G27G12
 129731802.78748 101089697.06548  24687156.6624   24687160.0794   24687156.7454
       214.000         163.000
 114788048.61048  89445220.32248  21843448.7504   21843451.9544   21843448.7404
       239.000         202.000
 118771120.30548  92548917.39748  22601399.0534   22601401.6554   22601399.6984
       236.000         196.000
 123335996.36148  96105968.31548  23470061.6694   23470063.3364   23470062.3124
       226.000         178.000
 106955046.73148  83341583.19748  20352877.2404   20352879.8094   20352877.1734
       251.000         225.000
 122966932.33548  95818374.98848  23399840.5094   23399844.9554   23399841.1894
       225.000         178.000
 107265882.61148  83583797.69048  20412024.2944   20412025.8494   20412024.0944
       252.000         238.000
 127268174.95448  99169999.86048  24218334.2524   24218336.4984   24218334.0134
       214.000         165.000
 124770119.81348  97223457.89248  23742973.5344   23742977.8584   23742973.4094
       224.000         181.000
 130940216.98648 102031314.73048  24917114.1144   24917114.9304   24917114.2494
       212.000         153.000
 09  1 16  0  3  0.0000000  0 10G 8G 9G28G18G26G10G15G17G27G12
 129822502.01648 101160371.76848  24704416.4084   24704419.4554   24704416.8484
       216.000         160.000
 114711118.83848  89385275.06848  21828809.6654   21828812.7314   21828810.1244
       238.000         202.000
 118835380.87648  92598990.55948  22613627.2824   22613629.2504   22613627.7224
       238.000         195.000
 123258390.72548  96045496.40548  23455293.5324   23455295.1634   23455294.1674
       225.000         175.000
 106988495.20248  83367646.93448  20359242.5594   20359244.8884   20359242.4914
       251.000         226.000
 123074360.96248  95902085.59448  23420282.9334   23420287.7454   23420283.1864
       224.000         177.000
 107246918.25748  83569020.26648  20408415.5294   20408417.0554   20408415.2434
       252.000         238.000
 127203716.77948  99119772.69648  24206068.5524   24206070.0934   24206069.1154
       217.000         167.000
 124839872.93248  97277810.95848  23756247.6504   23756251.4134   23756248.0624
       227.000         181.000
 130825220.23648 101941706.89748  24895231.6504   24895231.5764   24895231.1734
       207.000         152.000
 09  1 16  0  3 30.0000000  0 10G 8G 9G28G18G26G10G15G17G27G12
 129913202.06048 101231047.12348  24721676.1234   24721679.2084   24721677.2224
       215.000         159.000
 114634443.51348  89325528.07848  21814218.7704   21814221.9914   21814218.3684
       238.000         202.000
 118900015.68248  92649355.33448  22625926.9564   22625928.2664   22625927.9044
       236.000         192.000
 123181166.70548  95985321.85948  23440598.2024   23440599.2894   23440600.0954
       225.000         175.000
 107022338.80748  83394018.56748  20365682.7434   20365685.2494   20365682.6224
       251.000         226.000
 123181927.04148  95985903.30948  23440753.1134   23440756.3524   23440753.7484
       227.000         177.000
 107228324.98748  83554532.00348  20404877.2744   20404878.8784   20404876.9334
       252.000         238.000
 127139530.83348  99069757.67648  24193855.2484   24193856.6154   24193854.6484
       218.000         167.000
 124909647.30148  97332180.59448  23769525.2594   23769528.9404   23769525.8314
       225.000         181.000
 130710273.21248 101852137.84348  24873356.9764   24873358.4744   24873356.6424
       207.000         150.000
 09  1 16  0  4  0.0000000  0 10G 8G 9G28G18G26G10G15G17G27G12
 130003901.95048 101301722.39548  24738935.5274   24738939.1084   24738935.8454
       219.000         159.000
 114558023.57448  89265980.08248  21799676.6494   21799679.5704   21799676.9244
       240.000         203.000
 118965022.32548  92700009.84648  22638297.1294   22638297.4874   22638297.9444
       235.000         189.000
 123104326.91748  95925446.70448  23425976.0574   23425977.7324   23425976.6014
       225.000         176.000
 107056577.81448  83420698.30748  20372198.0374   20372200.8594   20372197.9564
       251.000         226.000
 123289628.42948  96069826.46548  23461247.9064   23461251.2554   23461249.4204
       225.000         176.000
 107210104.13348  83540333.92948  20401410.0294   20401411.5754   20401409.9804
       252.000         239.000
 127075620.00048  99019957.02348  24181692.8174   24181694.6784   24181693.0784
       218.000         168.000
 124979442.61648  97386566.51748  23782806.7944   23782810.5224   23782806.7354
       224.000         179.000
 130595378.22748 101762609.27248  24851492.9754   24851494.5564   24851491.8884
       208.000         149.000
 09  1 16  0  4 30.0000000  0 10G 8G 9G28G18G26G10G15G17G27G12
 130094601.75448 101372397.56648  24756195.6984   24756198.8454   24756196.8064
       218.000         160.000
 114481860.28448  89206632.09148  21785183.1254   21785186.0644   21785183.4834
       238.000         203.000
 119030399.62548  92750953.19048  22650738.0594   22650737.5944   22650738.3744
       236.000         189.000
 123027874.39148  95865873.32648  23411427.4454   23411429.5804   23411429.1634
       226.000         176.000
 107091212.83048  83447686.62748  20378789.1484   20378791.7294   20378789.1104
       252.000         226.000
 123397463.33148  96153853.66048  23481767.4034   23481771.3064   23481768.1264
       222.000         174.000
 107192257.66348  83526427.58548  20398013.9194   20398015.5084   20398013.6304
       253.000         239.000
 127011987.82548  98970373.51348  24169584.4434   24169585.6144   24169584.4104
       221.000         170.000
 125049259.46348  97440969.24648  23796092.4424   23796096.0914   23796092.3964
       224.000         179.000
 130480537.88248 101673123.32148  24829639.3374   24829641.4034   24829638.4994
       207.000         150.000
 09  1 16  0  5  0.0000000  0 10G 8G 9G28G18G26G10G15G17G27G12
 130185301.37448 101443072.58848  24773454.9064   24773458.0584   24773454.9744
       217.000         162.000
 114405954.48848  89147484.75248  21770738.6174   21770741.6284   21770738.6194
       238.000         202.000
 119096145.67548  92802183.86348  22663249.0894   22663248.9034   22663249.3504
       235.000         189.000
 122951811.62848  95806603.64748  23396952.7754   23396955.3094   23396954.2004
       224.000         177.000
 107126243.89748  83474983.55548  20385455.2344   20385457.7474   20385455.2334
       251.000         225.000
 123505428.97348  96237982.72248  23502312.5294   23502316.5854   23502313.6124
       223.000         173.000
 107174786.93248  83512814.02248  20394689.4164   20394690.9104   20394689.3084
       253.000         239.000
 126948637.13148  98921009.33848  24157529.0314   24157530.5184   24157529.8564
       218.000         170.000
 125119097.56448  97495388.54148  23809382.2804   23809385.6764   23809382.2324
       226.000         180.000
 130365754.86948 101583682.02348  24807796.5074   24807799.4924   24807795.2484
       208.000         151.000
 09  1 16  0  5 30.0000000  0 10G 8G 9G28G18G26G10G15G17G27G12
 130275999.22648 101513746.22748  24790714.0054   24790717.6924   24790714.7614
       218.000         162.000
 114330306.28748  89088538.10448  21756343.2544   21756346.0644   21756343.5204
       239.000         203.000
 119162258.05948  92853699.99648  22675829.7034   22675830.2344   22675829.7304
       235.000         190.000
 122876140.39648  95747639.05348  23382553.6984   23382555.5914   23382554.1144
       228.000         178.000
 107161670.72648  83502588.86648  20392196.6624   20392199.1124   20392196.5014
       251.000         225.000
 123613522.44148  96322211.39348  23522881.9044   23522885.7624   23522882.8054
       221.000         173.000
 107157693.09648  83499494.14548  20391436.4474   20391438.0954   20391436.2404
       252.000         239.000
 126885570.50648  98871866.49448  24145528.2844   24145529.5584   24145527.7764
       217.000         173.000
 125188956.22548  97549823.83948  23822676.2874   23822679.3214   23822676.4134
       227.000         179.000
 130251030.89348 101494286.75748  24785965.1254   24785968.9634   24785965.9254
       212.000         155.000
 09  1 16  0  6  0.0000000  0 10G 8G 9G28G18G26G10G15G17G27G12
 130366694.99648 101584418.24548  24807972.7524   24807975.8974   24807973.1974
       217.000         158.000
 114254916.58048  89029792.89048  21741997.0144   21742000.1074   21741996.8264
       239.000         203.000
 119228734.71948  92905499.98948  22688479.7874   22688481.3474   22688480.2354
       235.000         191.000
 122800863.70548  95688981.88348  23368228.7864   23368230.8154   23368229.7844
       227.000         177.000
 107197493.45448  83530502.66848  20399013.5054   20399016.0114   20399013.3464
       251.000         225.000
 123721741.03648  96406537.58348  23543475.9714   23543478.9664   23543476.5704
       224.000         171.000
 107140977.48748  83486468.99148  20388255.7044   20388257.1444   20388255.3884
       253.000         239.000
 126822791.00648  98822947.41848  24133580.9464   24133583.0294   24133581.4634
       216.000         172.000
 125258835.33648  97604275.06948  23835973.8844   23835977.0324   23835974.0334
       227.000         179.000
 130136368.57348 101404939.47648  24764146.9014   24764149.9604   24764146.9094
       212.000         157.000
 09  1 16  0  6 30.0000000  0 10G 8G 9G28G18G26G10G15G17G27G12
 130457387.85848 101655088.00148  24825230.8364   24825234.1074   24825231.4484
       218.000         158.000
 114179785.54848  88971249.26048  21727700.1194   21727703.0404   21727700.3044
       238.000         202.000
 119295573.42948  92957582.10948  22701198.7334   22701200.9204   22701198.5014
       235.000         192.000
 122725983.32948  95630633.55648  23353979.7184   23353980.9374   23353980.0074
       227.000         176.000
 107233711.64048  83558724.63348  20405905.5484   20405908.1744   20405905.5714
       251.000         225.000
 123830082.04648  96490959.14248  23564092.6924   23564095.5814   23564093.6024
       226.000         174.000
 107124641.12048  83473739.35748  20385146.9204   20385148.4184   20385146.7154
       253.000         239.000
 126760301.05248  98774253.94048  24121689.7254   24121691.6804   24121689.4284
       218.000         172.000
 125328734.22948  97658741.72648  23849275.0014   23849277.8604   23849275.2214
       225.000         177.000
 130021770.17048 101315642.02948  24742339.7944   24742341.7294   24742338.3894
       209.000         156.000
 09  1 16  0  7  0.0000000  0 10G 8G 9G28G18G26G10G15G17G27G12
 130548077.32048 101725755.10748  24842489.1264   24842491.8744   24842489.8184
       220.000         164.000
 114104914.35748  88912908.09248  21713452.5044   21713455.5694   21713452.7934
       239.000         203.000
 119362772.04548  93009944.67048  22713986.1874   22713988.8854   22713986.3224
       235.000         193.000
 122651502.17848  95572596.29248  23339806.6334   23339807.4984   23339806.4014
       227.000         177.000
 107270325.65748  83587255.02848  20412873.0414   20412875.6154   20412872.8434
       251.000         225.000
 123938543.35348  96575474.45048  23584732.3664   23584735.7244   23584733.2944
       224.000         175.000
 107108685.38448  83461306.31448  20382110.6654   20382112.1554   20382110.4474
       253.000         239.000
 126698103.86548  98725788.61248  24109853.6684   24109855.0784   24109853.8474
       215.000         167.000
 125398652.68348  97713223.64948  23862579.8304   23862582.8984   23862580.1834
       222.000         175.000
 129907238.58448 101226396.66148  24720544.9874   24720546.8604   24720544.5784
       214.000         156.000
 09  1 16  0  7 30.0000000  0 10G 8G 9G28G18G26G10G15G17G27G12
 130638758.83748 101796415.98848  24859745.1414   24859747.9324   24859745.6814
       218.000         163.000
 114030299.44748  88854766.62548  21699254.0144   21699256.9404   21699253.9234
       240.000         203.000
 119430324.70648  93062583.11648  22726841.1784   22726843.9664   22726841.6524
       235.000         194.000
 122577418.54448  95514868.80648  23325708.7694   23325710.5064   23325709.7934
       227.000         178.000
 107307331.54448  83616090.77348  20419915.0994   20419917.5934   20419915.0344
       251.000         225.000
 124047118.26948  96660078.27648  23605393.6154   23605396.5884   23605394.5844
       225.000         172.000
 107093107.44248  83449167.66148  20379146.2244   20379147.8784   20379146.1014
       253.000         239.000
 126636198.34848  98677550.56448  24098073.6274   24098075.5274   24098073.2464
       217.000         171.000
 125468586.55548  97767717.55048  23875887.8824   23875891.1504   23875888.1584
       225.000         175.000
 129792771.03648 101137201.15748  24698762.3504   24698763.8954   24698764.2954
       212.000         153.000
 09  1 16  0  8  0.0000000  0 10G 8G 9G28G18G26G10G15G17G27G12
 130729437.02748 101867074.34248  24877000.6904   24877003.3994   24877000.8654
       216.000         163.000
 113955946.85148  88796829.54848  21685104.9724   21685108.0374   21685104.9764
       239.000         204.000
 119498234.85548  93115500.11148  22739764.0094   22739766.8884   22739764.5614
       235.000         194.000
 122503740.14448  95457457.07048  23311688.0004   23311689.5804   23311687.2524
       227.000         177.000
 107344734.67748  83645236.06448  20427032.5614   20427035.1394   20427032.6214
       251.000         225.000
 124155809.55648  96744772.79248  23626076.3294   23626079.8924   23626076.7014
       222.000         173.000
 107077914.09748  83437328.68648  20376255.1524   20376256.7174   20376254.9734
       252.000         239.000
 126574592.63048  98629546.13148  24086350.1724   24086352.0214   24086350.2164
       217.000         168.000
 125538540.78248  97822227.31748  23889199.7844   23889203.0064   23889200.7854
       225.000         177.000
 129678375.73948 101048062.02548  24676992.8254   24676994.2174   24676993.5634
       214.000         156.000
 09  1 16  0  8 30.0000000  0 10G 8G 9G28G18G26G10G15G17G27G12
 130820110.49048 101937728.96548  24894254.9324   24894258.4534   24894255.6994
       217.000         165.000
 113881856.55648  88739096.87148  21671006.0584   21671008.9154   21671006.1134
       240.000         204.000
 119566499.32748  93168693.21548  22752754.3504   22752757.1754   22752755.4244
       236.000         194.000
 122430468.83448  95400362.54748  23297744.8404   23297746.9364   23297745.2834
       227.000         179.000
 107382534.13648  83674690.18148  20434225.5584   20434228.2964   20434225.5394
       251.000         225.000
 124264613.90648  96829555.39548  23646780.9354   23646784.6014   23646780.8454
       224.000         173.000
 107063106.07248  83425789.96248  20373437.2584   20373438.7644   20373436.9164
       253.000         239.000
 126513288.98748  98581777.06448  24074684.0944   24074686.0764   24074684.0074
       215.000         169.000
 125608514.61848  97876752.39148  23902515.4364   23902518.6644   23902515.8824
       225.000         177.000
 129564054.43348 100958980.48148  24655238.8534   24655239.3084   24655239.2884
       213.000         159.000
 09  1 16  0  9  0.0000000  0 10G 8G 9G28G18G26G10G15G17G27G12
 130910777.69148 102008378.73148  24911508.5384   24911511.9664   24911509.1654
       220.000         165.000
 113808028.62148  88681568.63048  21656957.2184   21656959.9434   21656957.2234
       240.000         204.000
 119635115.46148  93222160.34448  22765811.5774   22765814.5634   22765812.4104
       236.000         194.000
 122357606.21248  95343586.46748  23283879.8324   23283881.6954   23283880.5284
       228.000         180.000
 107420729.45248  83704452.75948  20441493.9914   20441496.5844   20441493.8794
       251.000         225.000
 124373528.20448  96914423.66848  23667506.8904   23667510.6104   23667507.9804
       224.000         173.000
 107048683.88248  83414551.89548  20370692.8204   20370694.3094   20370692.5404
       253.000         239.000
 126452289.30048  98534244.83648  24063077.1654   24063078.6714   24063076.9424
       217.000         168.000
 125678507.12548  97931291.99748  23915834.2234   23915837.9974   23915833.7974
       224.000         176.000
 129449808.60248 100869957.78548  24633497.8584   24633499.2754   24633495.9024
       212.000         159.000
 09  1 16  0  9 30.0000000  0 10G 8G 9G28G18G26G10G15G17G27G12
 131001438.64448 102079023.62948  24928760.9004   24928764.3514   24928761.8554
       218.000         165.000
 113734463.80348  88624245.41148  21642958.0584   21642960.7984   21642958.5314
       238.000         202.000
 119704081.28248  93275899.94148  22778935.5354   22778938.2774   22778936.2574
       236.000         194.000
 122285154.70748  95287130.75348  23270092.6544   23270094.7404   23270092.3594
       230.000         181.000
 107459320.60348  83734523.78048  20448837.6014   20448840.1104   20448837.6004
       251.000         225.000
 124482550.07348  96999375.76348  23688253.2774   23688256.4854   23688254.0654
       222.000         171.000
 107034648.65848  83403615.36048  20368021.9364   20368023.5354   20368021.6604
       254.000         240.000
 126391596.90648  98486952.08748  24051526.4694   24051529.2054   24051526.2144
       217.000         168.000
 125748518.15648  97985846.03448  23929157.2814   23929160.5294   23929157.7384
       224.000         174.000
 129335640.90548 100780995.93248  24611772.4044   24611773.9544   24611770.4334
       210.000         158.000
 09  1 16  0 10  0.0000000  0 10G 8G 9G28G18G26G10G15G17G27G12
 131092092.08148 102149662.63748  24946011.5024   24946014.5644   24946012.5284
       222.000         171.000
 113661162.27148  88567127.35848  21629008.9594   21629012.0254   21629008.8204
       239.000         203.000
 119773394.11148  93329909.93248  22792125.5314   22792128.0614   22792126.2914
       235.000         193.000
 122213116.20148  95230996.86748  23256384.5074   23256386.0134   23256385.8134
       228.000         180.000
 107498306.93348  83764902.73048  20456256.4424   20456259.1504   20456256.1604
       251.000         225.000
 124591676.01748  97084408.95848  23709019.0124   23709022.2734   23709019.8474
       222.000         170.000
 107021001.47848  83392981.19548  20365425.0754   20365426.5614   20365424.9524
       254.000         240.000
 126331213.83348  98439900.32648  24040037.0654   24040038.6564   24040036.5254
       219.000         172.000
 125818546.73848  98040413.76648  23942483.2084   23942486.6234   23942483.3304
       224.000         174.000
 129221553.05248 100692096.29448  24590061.7194   24590063.4954   24590060.1794
       214.000         159.000
 09  1 16  0 10 30.0000000  0 10G 8G 9G28G18G26G10G15G17G27G12
 131182736.72848 102220294.81348  24963260.2784   24963264.1664   24963260.7544
       222.000         170.000
 113588123.43148  88510213.98448  21615110.5574   21615113.0654   21615110.6224
       239.000         204.000
 119843051.28848  93384188.25748  22805380.7314   22805383.1184   22805381.1764
       235.000         193.000
 122141492.40548  95175186.13048  23242754.4954   23242756.3454   23242755.6784
       226.000         179.000
 107537687.72248  83795589.05648  20463750.4594   20463753.1734   20463750.4594
       251.000         225.000
 124700902.74748  97169520.69748  23729803.8154   23729807.7844   23729804.5544
       222.000         170.000
 107007742.68848  83382649.67148  20362901.8534   20362903.4524   20362901.6754
       253.000         240.000
 126271142.07048  98393091.14748  24028606.3814   24028607.2264   24028606.3644
       218.000         172.000
 125888591.85248  98094994.37448  23955812.8644   23955815.7204   23955813.2874
       226.000         175.000
 129107546.62648 100603260.11248  24568368.0854   24568369.2324   24568366.8574
       214.000         162.000
 09  1 16  0 11  0.0000000  0 10G 8G 9G28G18G26G10G15G17G27G12
 131273372.60448 102290920.17648  24980507.7204   24980511.6184   24980508.5304
       218.000         160.000
 113515349.11948  88453506.74548  21601261.9664   21601264.5954   21601261.9144
       237.000         204.000
 119913051.23748  93438733.66948  22818701.0654   22818703.2574   22818701.6604
       233.000         192.000
 122070286.36948  95119700.91048  23229204.3034   23229205.9184   23229205.0194
       228.000         179.000
 107577463.77548  83826583.38348  20471319.4964   20471322.1264   20471319.4494
       251.000         225.000
 124810228.52948  97254709.61348  23750607.9424   23750611.8984   23750607.8604
       222.000         168.000
 106994874.48848  83372622.49948  20360453.2544   20360454.7414   20360452.9804
       253.000         240.000
 126211385.48048  98346527.57748  24017234.5994   24017237.1034   24017234.7624
       220.000         173.000
 125958654.27648  98149588.46548  23969145.0694   23969148.1824   23969145.5444
       223.000         174.000
 128993624.82248 100514489.88048  24546689.8054   24546691.5884   24546688.9024
       219.000         166.000
 09  1 16  0 11 30.0000000  0 10G 8G 9G28G18G26G10G15G17G27G12
 131363998.95848 102361538.07948  24997753.8494   24997756.9404   24997754.0874
       209.000         147.000
 113442839.77148  88397005.96448  21587463.6194   21587466.6994   21587463.3434
       240.000         205.000
 119983391.44048  93493544.21648  22832086.2044   22832088.1654   22832086.0914
       233.000         191.000
 121999500.15048  95064542.82948  23215734.1724   23215735.9524   23215736.1314
       228.000         179.000
 107617634.55548  83857885.28548  20478963.7564   20478966.2994   20478963.4284
       251.000         225.000
 124919650.52548  97339973.51348  23771430.1984   23771433.8114   23771431.6134
       220.000         168.000
 106982397.50148  83362900.17148  20358078.9294   20358080.6364   20358078.7754
       253.000         240.000
 126151946.14348  98300211.24248  24005923.7294   24005925.8584   24005923.2334
       219.000         171.000
 126028733.17748  98204195.38948  23982480.1244   23982483.8424   23982480.1984
       224.000         173.000
 128879790.01948 100425787.43548  24525027.7654   24525029.6494   24525028.1704
       217.000         168.000
 09  1 16  0 12  0.0000000  0  9G 9G28G18G26G10G15G17G27G12
 113370596.07148  88340712.18948  21573716.2944   21573719.1564   21573716.5784
       241.000         205.000
 120054070.24548  93548618.61248  22845536.1594   22845537.7884   22845536.7324
       234.000         191.000
 121929136.14248  95009713.72848  23202344.0794   23202345.9984   23202345.1594
       228.000         177.000
 107658200.29448  83889494.94548  20486683.2184   20486685.7514   20486683.3114
       251.000         224.000
 125029166.66748  97425310.73648  23792270.4904   23792274.6824   23792270.5934
       223.000         171.000
 106970313.24548  83353483.86748  20355779.4764   20355781.1284   20355779.1474
       254.000         241.000
 126092827.32848  98254144.61748  23994673.7494   23994675.1354   23994673.2944
       216.000         170.000
 126098828.72748  98258815.30948  23995818.6944   23995822.5634   23995819.1194
       221.000         172.000
 128766043.89948 100337154.11048  24503382.2824   24503384.4744   24503381.7684
       218.000         168.000
 09  1 16  0 12 30.0000000  0 10G 8G 9G28G18G26G10G15G17G27G12
 141545245.88258  92502778.94658  25032238.4295   25032243.0585   25032239.4255
       184.000         126.000
 113298618.97148  88284626.13548  21560019.7784   21560022.1764   21560019.6944
       239.000         205.000
 120125085.44548  93603955.12648  22859049.7924   22859051.5174   22859050.1744
       232.000         190.000
 121859196.82448  94955215.56548  23189034.7754   23189036.9484   23189035.4724
       227.000         179.000
 107699160.89448  83921412.28948  20494477.7854   20494480.3264   20494477.7044
       251.000         224.000
 125138774.25948  97510719.25248  23813128.6394   23813132.2314   23813130.4364
       223.000         169.000
 106958623.15948  83344374.70548  20353554.9134   20353556.4374   20353554.6914
       253.000         240.000
 126034032.00848  98208330.07548  23983486.3124   23983487.5234   23983485.9904
       219.000         172.000
 126168940.79748  98313448.10148  24009160.6754   24009163.9364   24009160.9824
       224.000         171.000
 128652389.21348 100248592.02048  24481754.7234   24481757.2054   24481753.1814
       216.000         169.000
 09  1 16  0 13  0.0000000  0  9G 9G28G18G26G10G15G17G27G12
 113226908.32548  88228747.72848  21546373.4534   21546376.1364   21546373.5344
       239.000         205.000
 120196434.20548  93659551.55348  22872627.4984   22872628.8114   22872627.9594
       233.000         191.000
 121789683.81648  94901049.55348  23175807.5054   23175809.1324   23175807.7984
       226.000         180.000
 107740515.52748  83953636.67148  20502347.3074   20502349.8084   20502347.3244
       251.000         225.000
 125248469.96148  97596196.41748  23834002.7344   23834005.9404   23834003.7934
       220.000         167.000
 106947327.64348  83335573.00448  20351405.4294   20351406.8874   20351405.1424
       254.000         240.000
 125975562.00448  98162769.00148  23972358.7994   23972360.3684   23972359.0954
       217.000         169.000
 126239068.34448  98368092.92248  24022505.9314   24022508.9244   24022506.2374
       221.000         170.000
 128538827.68848 100160102.54448  24460144.4264   24460147.3284   24460143.4004
       218.000         168.000
 09  1 16  0 13 30.0000000  0  9G 9G28G18G26G10G15G17G27G12
 113155465.21948  88173077.79348  21532777.9504   21532781.1674   21532777.7824
       239.000         206.000
 120268115.03148  93715406.73348  22886267.5724   22886269.5874   22886267.8734
       232.000         190.000
 121720600.13548  94847218.12448  23162661.0314   23162663.4384   23162661.2264
       228.000         180.000
 107782264.72348  83986168.51048  20510291.8414   20510294.4274   20510291.8694
       250.000         224.000
 125358251.92648  97681740.80848  23854893.6314   23854896.8624   23854893.6714
       222.000         170.000
 106936428.51548  83327080.17648  20349331.4074   20349332.7744   20349331.1964
       254.000         240.000
 125917420.81748  98117464.20048  23961294.7204   23961296.1904   23961295.1554
       217.000         170.000
 126309211.94548  98422750.26648  24035853.4714   24035856.5064   24035853.5444
       223.000         170.000
 128425362.25048 100071687.90748  24438552.3314   24438555.0644   24438551.6684
       217.000         165.000
 09  1 16  0 14  0.0000000  0  9G 9G28G18G26G10G15G17G27G12
 113084289.94648  88117616.54248  21519234.0194   21519236.9504   21519233.8744
       240.000         206.000
 120340125.59448  93771518.86148  22899970.4694   22899972.4224   22899970.4414
       228.000         189.000
 121651947.77648  94793722.77248  23149597.2194   23149599.4254   23149598.2684
       228.000         181.000
 107824408.26748  84019007.63448  20518311.7294   20518314.0114   20518311.3324
       252.000         225.000
 125468117.54948  97767350.36748  23875800.4914   23875804.5074   23875802.3724
       222.000         168.000
 106925926.95648  83318897.14148  20347332.9584   20347334.4274   20347332.7194
       254.000         240.000
 125859611.24648  98072417.75448  23950293.6444   23950295.8974   23950293.6394
       215.000         169.000
 126379371.17348  98477419.81448  24049204.5404   24049207.0474   24049204.6594
       222.000         169.000
 128311995.13248  99983349.91848  24416978.6774   24416981.2374   24416978.1824
       217.000         165.000
 09  1 16  0 14 30.0000000  0  9G 9G28G18G26G10G15G17G27G12
 113013382.22648  88062363.79548  21505740.7584   21505743.7554   21505740.9924
       239.000         206.000
 120412462.76248  93827885.47748  22913735.6534   22913737.9324   22913735.3624
       232.000         190.000
 121583728.16648  94740564.63748  23136614.9914   23136617.3774   23136616.2504
       228.000         179.000
 107866945.05548  84052153.17148  20526405.8934   20526408.4084   20526406.1524
       250.000         224.000
 125578063.50248  97853022.51148  23896722.3054   23896726.9684   23896723.7054
       222.000         170.000
 106915823.19348  83311024.07548  20345410.1354   20345411.6894   20345409.8544
       254.000         240.000
 125802134.76848  98027630.91648  23939356.4334   23939357.9654   23939356.3184
       220.000         170.000
 126449545.09148  98532100.78848  24062558.0044   24062561.6174   24062558.3294
       225.000         171.000
 128198727.84848  99895089.70048  24395424.9414   24395426.4264   24395424.6514
       218.000         166.000
 09  1 16  0 15  0.0000000  0  9G 9G28G18G26G10G15G17G27G12
 112942743.72648  88007320.81948  21492298.5044   21492301.6674   21492298.4484
       242.000         207.000
 120485125.32848  93884505.64848  22927563.1294   22927564.8524   22927563.8804
       232.000         188.000
 121515944.35148  94687746.07448  23123716.6684   23123718.5714   23123717.7114
       227.000         179.000
 107909875.73848  84085605.65248  20534575.6484   20534577.9274   20534575.2064
       252.000         225.000
 125688087.44848  97938755.44148  23917659.4504   23917663.1814   23917659.5854
       222.000         167.000
 106906119.27048  83303462.57248  20343563.6264   20343565.0724   20343563.1964
       254.000         240.000
 125744994.95148  97983106.38248  23928483.3854   23928484.9594   23928482.9344
       221.000         173.000
 126519734.13948  98586793.56048  24075914.5474   24075918.2634   24075915.0784
       223.000         171.000
 128085563.24148  99806909.48348  24373890.7894   24373891.5434   24373891.0314
       216.000         164.000
 09  1 16  0 15 30.0000000  0  9G 9G28G18G26G10G15G17G27G12
 112872374.28048  87952487.49248  21478907.8814   21478910.7334   21478908.0404
       241.000         206.000
 120558110.33248  93941377.07348  22941451.9144   22941453.3824   22941452.2764
       234.000         188.000
 121448597.91548  94635268.35148  23110900.5674   23110902.8094   23110902.1334
       227.000         178.000
 107953199.51148  84119364.42148  20542819.4754   20542822.3294   20542819.5314
       250.000         224.000
 125798186.55148  98024546.93448  23938610.4754   23938614.0144   23938610.9504
       219.000         165.000
 106896815.47248  83296212.85648  20341793.3294   20341794.6824   20341793.3394
       254.000         240.000
 125688193.99448  97938845.92648  23917673.9374   23917676.1984   23917674.7794
       217.000         170.000
 126589937.43648  98641497.42048  24089274.2094   24089277.0134   24089274.1314
       223.000         169.000
 127972503.03548  99718810.66548  24352376.4394   24352377.2654   24352377.4274
       215.000         162.000
 09  1 16  0 16  0.0000000  0  9G 9G28G18G26G10G15G17G27G12
 112802274.87748  87897864.60048  21465568.4444   21465571.1694   21465568.6004
       241.000         207.000
 120631415.83948  93998498.24248  22955401.3444   22955402.8874   22955402.3284
       232.000         188.000
 121381691.07148  94583133.15948  23098168.6874   23098170.7904   23098169.4754
       229.000         181.000
 107996916.61148  84153429.69848  20551139.0484   20551141.4004   20551138.8124
       252.000         225.000
 125908358.61448  98110395.29248  23959576.4914   23959578.7594   23959576.3814
       224.000         166.000
 106887913.49148  83289276.23748  20340099.3434   20340100.7584   20340098.9664
       253.000         240.000
 125631734.95448  97894851.85548  23906930.4864   23906931.9694   23906930.8664
       215.000         171.000
 126660155.13648  98696212.49948  24102635.8764   24102639.2884   24102636.3214
       223.000         167.000
 127859550.10748  99630795.40548  24330882.5514   24330883.3504   24330882.4144
       219.000         165.000
 09  1 16  0 16 30.0000000  0  9G 9G28G18G26G10G15G17G27G12
 112732445.99048  87843452.49648  21452280.4764   21452283.3154   21452280.4174
       240.000         208.000
 120705039.83948  94055867.57348  22969411.4734   22969413.1854   22969412.3104
       230.000         187.000
 121315226.45948  94531342.54048  23085521.4874   23085523.1244   23085522.4964
       227.000         179.000
 108041026.81248  84187801.26948  20559532.5684   20559535.3094   20559532.4844
       251.000         225.000
 126018601.08948  98196298.50348  23980554.5784   23980557.0344   23980556.2584
       222.000         167.000
 106879414.46348  83282653.62548  20338481.8164   20338483.3524   20338481.8174
       254.000         240.000
 125575620.59648  97851126.38448  23896252.9064   23896253.9154   23896252.8194
       216.000         171.000
 126730386.99748  98750938.63048  24116000.4204   24116003.7794   24116001.0614
       221.000         166.000
 127746706.48848  99542865.30748  24309409.1264   24309410.2254   24309408.8814
       219.000         164.000
 09  1 16  0 17  0.0000000  0  9G 9G28G18G26G10G15G17G27G12
 112662888.56648  87789251.91248  21439044.0384   21439047.1354   21439044.0724
       240.000         207.000
 120778980.39348  94113483.59648  22983481.9484   22983483.5404   22983481.9264
       232.000         187.000
 121249206.67648  94479898.57148  23072957.5774   23072960.3804   23072957.9404
       228.000         180.000
 108085530.24548  84222479.27148  20568001.5844   20568004.1334   20568001.5124
       251.000         225.000
 126128910.95448  98282254.24248  24001545.5554   24001548.5724   24001546.9154
       219.000         166.000
 106871319.67548  83276345.98748  20336941.4824   20336942.9274   20336940.9434
       254.000         240.000
 125519853.64548  97807671.58148  23885639.9344   23885642.1364   23885639.8714
       220.000         174.000
 126800633.24048  98805675.97048  24129367.9394   24129371.4034   24129367.9944
       223.000         167.000
 127633974.95648  99455022.54948  24287956.7324   24287957.9214   24287957.3394
       220.000         165.000
 09  1 16  0 17 30.0000000  0  9G 9G28G18G26G10G15G17G27G12
 112593602.96748  87735263.15148  21425859.3104   21425862.4404   21425859.4174
       241.000         208.000
 120853234.88648  94171344.24048  22997612.2034   22997613.9484   22997612.7754
       230.000         186.000
 121183633.35648  94428802.45948  23060479.9014   23060481.4974   23060479.8144
       227.000         180.000
 108130426.22948  84257463.15048  20576544.9364   20576547.5594   20576544.8014
       252.000         225.000
 126239286.24448  98368260.93148  24022549.0944   24022553.9434   24022549.7834
       222.000         167.000
 106863630.28948  83270354.24848  20335478.2114   20335479.8094   20335478.0864
       253.000         241.000
 125464436.47148  97764489.36448  23875094.4884   23875096.6654   23875094.5624
       219.000         172.000
 126870893.29248  98860424.04248  24142738.1434   24142742.1554   24142738.6074
       221.000         167.000
 127521357.52548  99367268.71648  24266525.9644   24266527.9914   24266528.0384
       219.000         167.000
 09  1 16  0 18  0.0000000  0  9G 9G28G18G26G10G15G17G27G12
 112524590.44848  87681487.16448  21412726.8674   21412729.6114   21412727.2064
       241.000         208.000
 120927801.88948  94229448.38548  23011801.6824   23011803.8314   23011801.4704
       231.000         186.000
 121118509.39248  94378056.52248  23048087.4944   23048088.8694   23048087.2764
       227.000         180.000
 108175715.56448  84292753.53948  20585163.5044   20585165.6534   20585163.5714
       251.000         225.000
 126349724.68748  98454316.85548  24043565.0074   24043569.6274   24043565.1284
       221.000         164.000
 106856347.95748  83264679.69948  20334092.4754   20334094.0524   20334092.1284
       254.000         241.000
 125409372.45448  97721582.36548  23864616.2244   23864618.8394   23864616.2214
       219.000         174.000
 126941167.47448  98915183.15048  24156110.8814   24156114.0884   24156111.3134
       220.000         164.000
 127408856.94948  99279605.97448  24245117.4054   24245120.0794   24245117.5954
       218.000         166.000
 09  1 16  0 18 30.0000000  0  9G 9G28G18G26G10G15G17G27G12
 112455851.21448  87627924.12648  21399646.0964   21399648.9834   21399646.5964
       241.000         208.000
 121002678.53648  94287793.82448  23026050.4294   23026052.1564   23026050.5094
       232.000         187.000
 121053836.64748  94327662.18348  23035780.3554   23035781.9234   23035781.0434
       227.000         181.000
 108221397.11948  84328349.55048  20593856.2114   20593858.7684   20593856.2014
       252.000         225.000
 126460223.32548  98540419.67348  24064591.8624   24064595.6104   24064592.3844
       219.000         163.000
 106849473.07248  83259322.64048  20332784.3374   20332785.7134   20332784.0704
       254.000         240.000
 125354663.74748  97678952.16448  23854205.7694   23854207.8384   23854205.3954
       219.000         174.000
 127011455.14248  98969952.78748  24169485.8234   24169489.7984   24169486.4524
       216.000         164.000
 127296474.85248  99192035.53348  24223732.5214   24223734.5554   24223732.1184
       220.000         170.000
 09  1 16  0 19  0.0000000  0  9G 9G28G18G26G10G15G17G27G12
 112387385.55848  87574574.27648  21386617.2894   21386620.5194   21386617.4964
       241.000         208.000
 121077862.63348  94346378.83148  23040357.4554   23040359.1414   23040357.7884
       232.000         186.000
 120989616.84248  94277620.79148  23023559.6194   23023561.6054   23023560.3844
       230.000         181.000
 108267470.65448  84364250.99748  20602623.5604   20602626.0484   20602623.4764
       251.000         224.000
 126570779.17248  98626567.06648  24085630.2124   24085633.3644   24085630.7274
       223.000         165.000
 106843006.56448  83254283.79748  20331553.7584   20331555.2164   20331553.5244
       254.000         240.000
 125300312.94848  97636600.91148  23843863.5634   23843865.4304   23843863.8944
       219.000         174.000
 127081756.08448  99024732.73148  24182863.5584   24182867.2024   24182863.0904
       219.000         162.000
 127184213.82748  99104559.42348  24202370.5414   24202372.0384   24202369.9344
       220.000         168.000
 09  1 16  0 19 30.0000000  0  9G 9G28G18G26G10G15G17G27G12
 112319193.21948  87521437.39148  21373640.8214   21373643.8914   21373640.8644
       241.000         209.000
 121153351.63948  94405201.43448  23054722.3644   23054723.9514   23054723.1374
       230.000         185.000
 120925851.55348  94227933.55248  23011425.6164   23011427.5524   23011426.5954
       229.000         182.000
 108313935.64148  84400457.47448  20611465.7834   20611467.9894   20611465.6734
       252.000         225.000
 126681389.45848  98712756.91248  24106679.0694   24106681.5794   24106680.5134
       221.000         161.000
 106836949.11848  83249563.70248  20330401.0934   20330402.4824   20330400.9074
       254.000         240.000
 125246321.89448  97594529.98848  23833587.9714   23833590.3324   23833587.3224
       217.000         172.000
 127152069.66448  99079522.53448  24196244.2284   24196247.6004   24196245.1254
       220.000         164.000
 127072075.64348  99017179.02448  24181030.5254   24181032.3214   24181030.5504
       222.000         166.000
 09  1 16  0 20  0.0000000  0 10G 5G 9G28G18G26G10G15G17G27G12
 143643994.88158  94138161.93558  25431619.6545   25431622.0175   25431618.8875
       199.000         143.000
 112251275.36448  87468514.40448  21360716.3424   21360719.5674   21360716.9974
       241.000         208.000
 121229143.21948  94464259.80348  23069144.9464   23069146.8484   23069144.9204
       229.000         186.000
 120862543.30748  94178602.47948  22999378.2024   22999380.3724   22999378.6314
       230.000         182.000
 108360791.67848  84436968.66548  20620382.1694   20620384.6374   20620382.2024
       251.000         224.000
 126792052.04248  98798987.48248  24127736.6264   24127739.7594   24127738.1044
       220.000         161.000
 106831301.93748  83245163.29648  20329326.4524   20329327.8164   20329326.0554
       255.000         240.000
 125192693.66248  97552741.73348  23823383.8714   23823385.2434   23823382.8064
       219.000         171.000
 127222395.83948  99134322.11548  24209627.4754   24209630.6954   24209628.2784
       222.000         164.000
 126960062.25748  98929895.85148  24159715.2944   24159716.5624   24159716.3634
       222.000         170.000
 09  1 16  0 20 30.0000000  0 10G 5G 9G28G18G26G10G15G17G27G12
 143527576.41148  94047446.30748  25409466.0314   25409468.8524   25409464.2434
       200.000         142.000
 112183632.40348  87415805.61948  21347844.5214   21347847.3774   21347844.7324
       242.000         209.000
 121305235.34948  94523552.36048  23083624.7144   23083626.4894   23083625.0084
       230.000         185.000
 120799693.93148  94129628.92648  22987418.8874   22987420.4594   22987419.5664
       229.000         183.000
 108408038.41448  84473784.29548  20629372.8914   20629375.3074   20629372.8264
       252.000         224.000
 126902763.85548  98885256.39448  24148804.8574   24148808.1384   24148805.8984
       218.000         164.000
 106826066.21748  83241083.51148  20328330.2684   20328331.5454   20328330.1704
       255.000         240.000
 125139430.69248  97511238.10048  23813248.7814   23813250.2184   23813248.7704
       218.000         171.000
 127292734.39648  99189131.39448  24223011.9954   24223014.8934   24223011.9634
       218.000         164.000
 126848176.24248  98842711.93748  24138424.3984   24138425.9844   24138424.6464
       222.000         171.000
 09  1 16  0 21  0.0000000  0 10G 5G 9G28G18G26G10G15G17G27G12
 143411187.35048  93956753.54648  25387318.0274   25387320.2144   25387316.9524
       199.000         141.000
 112116265.10948  87363311.64748  21335024.8804   21335027.7654   21335025.2444
       241.000         209.000
 121381625.91048  94583077.47348  23098161.6254   23098163.3374   23098162.4464
       230.000         186.000
 120737306.21948  94081015.11648  22975547.1194   22975548.7754   22975548.3124
       231.000         183.000
 108455676.21148  84510904.65348  20638438.0184   20638440.4864   20638438.0044
       251.000         224.000
 127013523.10048  98971562.28748  24169881.7244   24169885.6234   24169882.1954
       218.000         161.000
 106821243.33648  83237325.41748  20327412.5454   20327413.8284   20327412.3634
       254.000         241.000
 125086536.04948  97470021.51748  23803182.1474   23803184.1754   23803182.3514
       216.000         172.000
 127363085.64348  99243950.52948  24236399.1014   24236402.6784   24236398.7594
       214.000         160.000
 126736420.20548  98755629.31048  24117157.8984   24117159.6754   24117157.8624
       220.000         169.000
 09  1 16  0 21 30.0000000  0 10G 5G 9G28G18G26G10G15G17G27G12
 143294829.58148  93866085.21248  25365175.3344   25365179.1034   25365173.9314
       198.000         141.000
 112049174.22248  87311033.05448  21322257.6524   21322261.0004   21322257.4804
       241.000         209.000
 121458312.74648  94642833.43148  23112754.5014   23112756.4354   23112754.4254
       230.000         186.000
 120675381.81448  94032762.36248  22963763.1474   22963765.5414   22963764.2434
       231.000         185.000
 108503704.51248  84548329.29548  20647577.3364   20647579.8784   20647577.2154
       250.000         224.000
 127124326.91548  99057902.87248  24190965.8334   24190970.6894   24190966.3924
       217.000         163.000
 106816834.32048  83233889.81648  20326573.4824   20326574.9354   20326573.3064
       254.000         241.000
 125034011.99048  97429093.67648  23793187.6424   23793189.6264   23793187.4434
       218.000         173.000
 127433449.30548  99298779.35848  24249788.8274   24249791.8964   24249789.3934
       215.000         159.000
 126624796.34148  98668649.69648  24095916.3614   24095918.2514   24095915.9444
       223.000         172.000
 09  1 16  0 22  0.0000000  0 10G 5G 9G28G18G26G10G15G17G27G12
 143178505.52148  93775443.08848  25343038.4494   25343043.1454   25343039.1424
       205.000         142.000
 111982360.61248  87258970.51048  21309543.8124   21309546.6224   21309543.7384
       242.000         209.000
 121535293.96848  94702818.78848  23127403.6394   23127405.3324   23127404.3084
       231.000         186.000
 120613923.42048  93984872.70148  22952067.7464   22952069.5364   22952069.5024
       229.000         182.000
 108552123.58048  84586058.43548  20656791.1484   20656793.8204   20656790.8654
       251.000         224.000
 127235172.88748  99144276.33348  24212059.9064   24212063.9424   24212060.3304
       220.000         165.000
 106812840.41548  83230777.67648  20325813.4724   20325814.8554   20325813.1514
       255.000         241.000
 124981861.69548  97388457.09648  23783263.2724   23783266.2624   23783263.4264
       217.000         174.000
 127503825.62348  99353618.02848  24263181.3054   24263184.7384   24263181.2344
       215.000         159.000
 126513307.31548  98581775.17348  24074700.4424   24074702.1674   24074700.6534
       221.000         170.000
 09  1 16  0 22 30.0000000  0 10G 5G 9G28G18G26G10G15G17G27G12
 143062216.20348  93684828.03648  25320909.5214   25320915.1154   25320912.4054
       199.000         142.000
 111915824.31148  87207124.05448  21296882.0744   21296884.7764   21296881.6984
       242.000         208.000
 121612566.33148  94763031.00948  23142108.3534   23142109.8394   23142109.6914
       229.000         184.000
 120552931.99848  93937346.92448  22940461.6104   22940463.3784   22940462.7964
       231.000         185.000
 108600932.21448  84624091.13748  20666079.3344   20666081.8844   20666079.1794
       250.000         224.000
 127346057.90648  99230680.26148  24233160.8994   24233164.4264   24233162.0804
       221.000         161.000
 106809262.03748  83227989.32548  20325132.5914   20325133.8784   20325132.3984
       255.000         241.000
 124930086.71648  97348112.92448  23773411.2774   23773412.7064   23773411.2874
       218.000         174.000
 127574213.48348  99408465.70048  24276575.6014   24276579.0764   24276574.8084
       213.000         159.000
 126401954.75648  98495006.97548  24053510.5644   24053512.1634   24053510.7604
       222.000         169.000
 09  1 16  0 23  0.0000000  0 10G 5G 9G28G18G26G10G15G17G27G12
 142945964.05848  93594241.99848  25298787.0134   25298792.9044   25298785.6264
       197.000         142.000
 111849565.88548  87155494.13648  21284273.6164   21284276.4824   21284273.2374
       243.000         210.000
 121690128.39248  94823468.97348  23156867.5704   23156869.1814   23156867.8664
       229.000         183.000
 120492410.29348  93890187.15248  22928944.3084   22928946.5484   22928945.2374
       229.000         185.000
 108650130.53548  84662427.49148  20675441.4124   20675443.9704   20675441.2974
       250.000         224.000
 127456980.10948  99317113.14648  24254268.0204   24254271.1114   24254268.6344
       219.000         157.000
 106806100.59248  83225525.85848  20324531.0044   20324532.3484   20324530.7234
       254.000         241.000
 124878689.98748  97308063.54848  23763630.7774   23763632.8094   23763630.4254
       219.000         175.000
 127644612.98648  99463322.45148  24289972.4964   24289976.0484   24289973.6724
       213.000         159.000
 126290741.27648  98408347.10948  24032347.2944   24032348.8754   24032346.9634
       224.000         171.000
 09  1 16  0 23 30.0000000  0 10G 5G 9G28G18G26G10G15G17G27G12
 142829751.74848  93503686.94648  25276673.2864   25276678.4594   25276672.5944
       198.000         142.000
 111783586.39848  87104081.56248  21271718.4854   21271720.8124   21271719.2174
       244.000         209.000
 121767978.50648  94884131.39748  23171682.1264   23171683.6964   23171682.4574
       228.000         184.000
 120432360.87348  93843395.40548  22917517.5604   22917519.5224   22917517.6784
       231.000         185.000
 108699718.76148  84701067.65948  20684877.7064   20684880.3554   20684877.5454
       251.000         224.000
 127567937.36148  99403573.32148  24275382.8284   24275385.8544   24275383.9744
       221.000         160.000
 106803357.55048  83223388.41848  20324008.9054   20324010.4034   20324008.7124
       254.000         241.000
 124827674.70748  97268311.38148  23753922.7264   23753924.8664   23753922.0944
       220.000         178.000
 127715024.86448  99518188.83348  24303371.1654   24303374.5274   24303371.4584
       210.000         159.000
 126179669.54048  98321797.71048  24011210.7504   24011213.0424   24011210.4694
       220.000         168.000
 09  1 16  0 24  0.0000000  0 10G 5G 9G28G18G26G10G15G17G27G12
 142713580.28048  93413163.75448  25254567.1264   25254571.0904   25254568.4634
       204.000         147.000
 111717885.49048  87052886.07248  21259215.8554   21259218.2764   21259216.4144
       243.000         209.000
 121846113.19648  94945015.57048  23186550.5684   23186552.1164   23186550.7694
       229.000         181.000
 120372784.91748  93796972.58948  22906180.8124   22906182.5644   22906181.4344
       230.000         185.000
 108749695.52948  84740010.58848  20694387.9864   20694390.6854   20694387.8024
       250.000         224.000
 127678925.71348  99490057.75648  24296503.5234   24296506.7674   24296505.1154
       221.000         160.000
 106801033.14048  83221577.19248  20323566.4084   20323568.0884   20323566.0744
       254.000         241.000
 124777042.48448  97228857.69948  23744288.0534   23744289.8094   23744288.0944
       222.000         177.000
 127785448.08648  99573064.03248  24316771.6144   24316775.6384   24316771.8854
       214.000         158.000
 126068740.86148  98235359.78648  23990101.9924   23990103.8924   23990101.4154
       222.000         170.000
 09  1 16  0 24 30.0000000  0 10G 5G 9G28G18G26G10G15G17G27G12
 142597451.47048  93322673.80448  25232469.4574   25232472.8564   25232471.4174
       207.000         147.000
 111652463.78748  87001908.13548  21246766.2594   21246769.1024   21246766.7894
       244.000         210.000
 121924530.46948  95006119.93248  23201472.9334   23201474.1814   23201473.9964
       229.000         182.000
 120313684.06548  93750919.96448  22894934.3114   22894935.9704   22894934.4924
       232.000         187.000
 108800060.56348  84779256.07048  20703972.0794   20703974.7274   20703971.9784
       251.000         223.000
 127789943.16448  99576564.84048  24317628.7824   24317632.9244   24317630.1994
       216.000         161.000
 106799128.01948  83220092.68248  20323203.9074   20323205.5644   20323203.6914
       254.000         241.000
 124726795.76248  97189704.43048  23734726.0134   23734728.5784   23734726.0364
       221.000         177.000
 127855882.40348  99627947.89448  24330175.5094   24330178.5034   24330177.1404
       213.000         155.000
 125957957.60848  98149035.18348  23969021.1354   23969022.6264   23969020.3074
       223.000         171.000
 09  1 16  0 25  0.0000000  0 10G 5G 9G28G18G26G10G15G17G27G12
 142481367.40448  93232218.72448  25210378.7654   25210382.5804   25210381.4404
       205.000         147.000
 111587321.89448  86951148.23048  21234370.2614   21234373.0404   21234370.7284
       242.000         209.000
 122003227.98848  95067442.66748  23216448.6334   23216450.1904   23216449.5624
       228.000         181.000
 120255060.52348  93705239.29048  22883778.3194   22883780.2454   22883779.3024
       231.000         186.000
 108850813.43148  84818803.75348  20713630.2144   20713632.6184   20713630.1734
       251.000         223.000
 127900986.92248  99663092.41848  24338759.4104   24338764.0184   24338759.2194
       218.000         161.000
 106797643.43648  83218935.86048  20322921.5184   20322923.1194   20322921.2974
       254.000         241.000
 124676937.00148  97150853.44148  23725238.6494   23725240.8334   23725238.1004
       223.000         178.000
 127926327.77248  99682840.39148  24343580.8814   24343583.3944   24343581.9644
       208.000         154.000
 125847322.07148  98062825.67248  23947968.3094   23947968.7894   23947968.5184
       225.000         174.000
 09  1 16  0 25 30.0000000  0 10G 5G 9G28G18G26G10G15G17G27G12
 142365330.81548  93141800.63248  25188297.3444   25188300.5504   25188297.8144
       201.000         146.000
 111522460.81248  86900607.12848  21222027.4084   21222030.2714   21222027.5894
       243.000         210.000
 122082204.07348  95128982.45648  23231477.0144   23231478.9034   23231477.1594
       228.000         180.000
 120196916.80048  93659932.49848  22872714.3594   22872715.8434   22872714.3784
       233.000         188.000
 108901954.43248  84858653.88448  20723361.8934   20723364.4154   20723361.8764
       251.000         223.000
 128012055.03648  99749638.99548  24359895.6304   24359900.1834   24359896.5894
       217.000         160.000
 106796581.04948  83218108.02248  20322719.3364   20322720.8844   20322719.0714
       254.000         241.000
 124627469.29148  97112307.17348  23715825.2114   23715827.0914   23715825.2754
       222.000         177.000
 127996784.69348  99737741.85248  24356988.3534   24356991.1154   24356987.5994
       211.000         155.000
 125736837.16248  97976733.54248  23926943.4094   23926944.0004   23926943.2114
       224.000         172.000
 09  1 16  0 26  0.0000000  0 10G 5G 9G28G18G26G10G15G17G27G12
 142249343.51748  93051420.95648  25166224.7204   25166229.4504   25166224.1064
       198.000         145.000
 111457881.14248  86850285.31748  21209738.5504   21209741.2894   21209739.1494
       244.000         210.000
 122161456.48848  95190737.60048  23246558.2824   23246559.9234   23246559.8684
       227.000         181.000
 120139254.83148  93615001.10148  22861741.1894   22861742.9154   22861741.6644
       230.000         186.000
 108953483.21348  84898806.17948  20733167.4754   20733170.1644   20733167.4894
       251.000         223.000
 128123144.83648  99836202.47748  24381035.3754   24381039.4304   24381036.0114
       215.000         155.000
 106795941.75048  83217609.86348  20322597.7134   20322599.1284   20322597.3764
       255.000         241.000
 124578394.83848  97074067.33948  23706486.2844   23706488.1034   23706486.1384
       221.000         176.000
 128067252.87948  99792652.12948  24370397.6234   24370401.1844   24370397.6394
       210.000         154.000
 125626504.96648  97890760.41448  23905946.9704   23905948.5264   23905946.8034
       221.000         172.000
 09  1 16  0 26 30.0000000  0 10G 5G 9G28G18G26G10G15G17G27G12
 142133407.24648  92961081.03148  25144162.9174   25144168.5854   25144163.2974
       203.000         146.000
 111393583.00748  86800182.88648  21197503.0224   21197505.7604   21197503.3194
       244.000         211.000
 122240982.21748  95252705.70648  23261691.4544   23261693.4224   23261691.8354
       228.000         182.000
 120082076.19848  93570446.32448  22850860.6674   22850862.5714   22850861.0634
       232.000         186.000
 109005398.92748  84939259.97048  20743046.8944   20743049.2264   20743046.6954
       250.000         223.000
 128234253.78048  99922780.88948  24402179.1794   24402182.2624   24402180.2004
       212.000         153.000
 106795726.01648  83217441.76448  20322556.6244   20322558.0534   20322556.5844
       254.000         241.000
 124529715.94548  97036135.73548  23697223.6564   23697224.9384   23697222.8804
       224.000         177.000
 128137731.94048  99847570.82248  24383809.6874   24383813.0734   24383810.6614
       208.000         154.000
 125516327.46548  97804907.82848  23884980.7584   23884983.3804   23884981.2184
       222.000         175.000
 09  1 16  0 27  0.0000000  0 10G 5G 9G28G18G26G10G15G17G27G12
 142017523.85448  92870782.25748  25122111.7004   25122116.2384   25122113.2224
       203.000         147.000
 111329566.93248  86750300.24048  21185321.1964   21185323.7934   21185321.3554
       245.000         210.000
 122320779.61848  95314885.49648  23276876.4584   23276878.8354   23276877.5174
       229.000         181.000
 120025382.56448  93526269.46048  22840071.9574   22840073.8634   22840072.5634
       232.000         186.000
 109057701.15348  84980014.94848  20752999.6044   20753001.9294   20752999.6434
       250.000         223.000
 128345378.92248 100009371.88148  24423325.3954   24423328.8684   24423325.7884
       210.000         157.000
 106795934.63848  83217604.32148  20322596.4454   20322597.8584   20322596.1254
       255.000         241.000
 124481434.74148  96998514.01448  23688035.7334   23688037.8424   23688035.8054
       223.000         176.000
 128208221.51348  99902497.78048  24397222.8744   24397226.6754   24397223.3424
       201.000         154.000
 125406306.72448  97719177.39748  23864044.7384   23864047.5544   23864044.5554
       222.000         175.000
 09  1 16  0 27 30.0000000  0 10G 5G 9G28G18G26G10G15G17G27G12
 141901695.76448  92780526.62048  25100069.6724   25100073.9844   25100068.6664
       202.000         147.000
 111265833.69448  86700637.99948  21173192.9414   21173195.8674   21173193.3024
       243.000         210.000
 122400846.56148  95377275.31148  23292112.8814   23292114.9474   23292114.2004
       228.000         182.000
 119969176.48748  93482472.51748  22829376.1644   22829378.4604   22829376.7534
       232.000         184.000
 109110389.87548  85021071.09848  20763025.8694   20763028.4744   20763025.7334
       250.000         223.000
 128456518.45148 100095974.09748  24444474.4974   24444478.7914   24444474.1744
       217.000         162.000
 106796569.21248  83218098.79048  20322717.3264   20322718.5804   20322717.1854
       255.000         241.000
 124433554.16248  96961204.49348  23678924.8964   23678926.2684   23678925.1804
       222.000         177.000
 128278721.96548  99957433.19248  24410638.6424   24410643.0434   24410639.3984
       204.000         156.000
 125296445.45948  97633571.23348  23843139.3454   23843142.0594   23843139.5294
       225.000         176.000
 09  1 16  0 28  0.0000000  0 10G 5G 9G28G18G26G10G15G17G27G12
 141785924.50948  92690315.28848  25078040.0894   25078043.9914   25078040.3394
       206.000         148.000
 111202383.46748  86651196.27548  21161118.5924   21161121.5134   21161118.9124
       244.000         211.000
 122481180.27348  95439873.00148  23307400.0494   23307401.7514   23307399.6914
       229.000         182.000
 119913459.17748  93439056.42748  22818773.6554   22818775.3664   22818774.3654
       231.000         184.000
 109163464.03748  85062427.58248  20773125.4484   20773128.3744   20773125.3184
       250.000         223.000
 128567669.18548 100182585.04548  24465626.1784   24465629.7344   24465626.7974
       216.000         159.000
 106797630.04848  83218925.41648  20322919.0454   20322920.3774   20322918.8714
       255.000         241.000
 124386076.61348  96924208.97848  23669889.6124   23669891.7334   23669889.5024
       221.000         176.000
 128349232.85148 100012376.73648  24424057.1644   24424060.7374   24424057.4364
       208.000         155.000
 125186745.25448  97548090.57848  23822263.8194   23822266.3444   23822264.6594
       221.000         175.000
 09  1 16  0 28 30.0000000  0 10G 5G 9G28G18G26G10G15G17G27G12
 141670212.23348  92600149.87848  25056020.6984   25056024.8904   25056022.8064
       205.000         148.000
 111139217.02448  86601975.67548  21149098.9014   21149101.4704   21149098.6974
       244.000         211.000
 122561778.82548  95502677.06748  23322737.5504   23322738.9144   23322737.4024
       228.000         181.000
 119858232.79848  93396022.86648  22808264.3044   22808266.2984   22808264.6524
       230.000         185.000
 109216923.76848  85104084.50548  20783298.6554   20783301.2354   20783298.7184
       250.000         223.000
 128678828.94648 100269203.04348  24486779.1884   24486782.1324   24486780.9884
       211.000         155.000
 106799118.10548  83220084.93248  20323202.1134   20323203.6204   20323201.9564
       254.000         241.000
 124339004.16948  96887529.16348  23660932.3424   23660933.9834   23660931.7114
       225.000         176.000
 128419754.39348 100067328.55648  24437476.5894   24437480.3624   24437476.8414
       207.000         154.000
 125077208.96448  97462737.62548  23801419.7964   23801422.4084   23801418.9844
       222.000         177.000
 09  1 16  0 29  0.0000000  0 10G 5G 9G28G18G26G10G15G17G27G12
 141554560.95848  92510031.98748  25034012.9234   25034016.9474   25034012.5664
       209.000         152.000
 111076334.77548  86552976.54048  21137132.6584   21137135.2664   21137132.9604
       245.000         212.000
 122642640.11048  95565685.84748  23338125.0414   23338126.0804   23338125.3574
       228.000         181.000
 119803499.38048  93353373.46048  22797848.7834   22797851.0994   22797849.8594
       232.000         185.000
 109270768.31448  85146041.29648  20793544.9944   20793547.4644   20793544.9294
       250.000         223.000
 128789995.26348 100355826.12448  24507932.7764   24507936.7644   24507933.2874
       211.000         155.000
 106801034.43848  83221578.17548  20323566.7934   20323568.2434   20323566.5214
       254.000         241.000
 124292339.31648  96851166.92948  23652052.6164   23652053.1224   23652052.9364
       223.000         176.000
 128490286.45748 100122288.60248  24450897.5504   24450901.3884   24450897.4624
       207.000         153.000
 124967838.27948  97377513.73148  23780607.1774   23780609.1054   23780607.2374
       223.000         176.000
 09  1 16  0 29 30.0000000  0 10G 5G 9G28G18G26G10G15G17G27G12
 141438972.41448  92419962.95948  25012018.2974   25012021.4894   25012017.5414
       212.000         155.000
 111013736.97348  86504199.02748  21125220.7864   21125223.3744   21125221.0904
       245.000         212.000
 122723761.23048  95628897.10448  23353561.7434   23353563.2264   23353562.5994
       228.000         182.000
 119749260.30848  93311109.22648  22787528.0434   22787529.3274   22787527.7074
       234.000         188.000
 109324997.13548  85188297.52248  20803864.3344   20803866.9864   20803864.1294
       250.000         222.000
 128901165.33848 100442452.14448  24529087.7404   24529092.8094   24529088.1144
       211.000         156.000
 106803379.79148  83223405.72048  20324013.0534   20324014.5244   20324012.8814
       254.000         241.000
 124246084.14648  96815123.91848  23643249.9674   23643252.3424   23643249.5264
       222.000         178.000
 128560828.60448 100177256.50048  24464320.9374   24464325.3134   24464321.6334
       198.000         152.000
 124858635.69148  97292420.81348  23759826.3154   23759828.7484   23759826.2524
       222.000         176.000
 09  1 16  0 30  0.0000000  0 10G 5G 9G28G18G26G10G15G17G27G12
 141323449.18948  92329944.85048  24990034.4914   24990038.5034   24990037.2464
       214.000         156.000
 110951424.87548  86455644.16648  21113362.7124   21113366.0504   21113362.7884
       244.000         212.000
 122805140.90848  95692309.84748  23369047.7364   23369049.0524   23369048.1954
       229.000         182.000
 119695518.36448  93269232.38948  22777301.4484   22777303.0834   22777301.6224
       233.000         187.000
 109379610.35148  85230853.27648  20814256.8784   20814259.3714   20814256.8154
       251.000         222.000
 129012336.97948 100529079.38648  24550242.8014   24550247.5994   24550243.1374
       209.000         151.000
 106806155.59548  83225568.67848  20324541.3524   20324542.7964   20324541.1364
       255.000         241.000
 124200241.56648  96779402.46448  23634526.7944   23634528.4194   23634526.8854
       224.000         178.000
 128631381.26548 100232232.61848  24477747.1324   24477751.3874   24477746.9934
       204.000         154.000
 124749603.59948  97207460.76348  23739077.8894   23739080.8124   23739077.7074
       223.000         177.000
 09  1 16  0 30 30.0000000  0 10G 5G 9G28G18G26G10G15G17G27G12
 141207992.89548  92239978.89848  24968064.1134   24968068.0024   24968065.3144
       212.000         156.000
 110889398.64848  86407312.04048  21101559.7254   21101562.5284   21101559.4664
       243.000         212.000
 122886776.37448  95755921.89148  23384582.4064   23384583.8464   23384582.1464
       228.000         182.000
 119642274.51648  93227743.67048  22767169.0804   22767171.0394   22767169.5614
       233.000         187.000
 109434607.00348  85273707.80848  20824722.4364   20824724.9384   20824722.4954
       249.000         222.000
 129123507.27848 100615705.60548  24571397.1564   24571401.6924   24571397.4654
       212.000         151.000
 106809362.32648  83228067.42848  20325151.6144   20325153.0814   20325151.2464
       254.000         241.000
 124154813.46148  96744003.95848  23625882.1274   23625883.6334   23625882.0184
       225.000         179.000
 128701943.95348 100287216.49648  24491175.6534   24491179.5304   24491175.8334
       210.000         157.000
 124640744.15448  97122635.23048  23718363.3014   23718365.4244   23718363.7254
       225.000         178.000
 09  1 16  0 31  0.0000000  0 10G 5G 9G28G18G26G10G15G17G27G12
 141092605.22848  92150066.42848  24946105.9284   24946110.1234   24946105.2614
       212.000         156.000
 110827658.17348  86359202.59148  21089810.9504   21089813.8184   21089811.1764
       244.000         213.000
 122968665.04648  95819731.24948  23400164.9534   23400166.8244   23400165.2064
       227.000         180.000
 119589530.42448  93186644.37048  22757132.3644   22757134.3864   22757132.9794
       232.000         187.000
 109489986.33448  85316860.52548  20835260.7234   20835263.2884   20835260.6194
       249.000         222.000
 129234673.79748 100702328.88248  24592552.4774   24592556.4954   24592553.1174
       213.000         156.000
 106813000.64348  83230902.47948  20325843.8984   20325845.4234   20325843.6674
       254.000         241.000
 124109802.14048  96708930.19548  23617316.8144   23617318.4274   23617316.2464
       224.000         179.000
 128772516.24548 100342207.86948  24504605.3704   24504608.5204   24504605.3254
       208.000         154.000
 124532059.22948  97037945.68848  23697681.3954   23697683.1684   23697681.2024
       226.000         179.000
 09  1 16  0 31 30.0000000  0 10G 5G 9G28G18G26G10G15G17G27G12
 140977288.26948  92060209.07548  24924163.0684   24924166.2144   24924164.0544
       211.000         157.000
 110766204.20248  86311316.38748  21078116.8664   21078119.4664   21078117.0934
       244.000         213.000
 123050804.89048  95883736.31848  23415795.5204   23415797.4094   23415796.2464
       227.000         180.000
 119537287.94848  93145935.95748  22747190.6954   22747192.8724   22747191.1804
       233.000         187.000
 109545748.24348  85360311.35848  20845871.9534   20845874.4724   20845871.7394
       250.000         221.000
 129345833.88148 100788947.11048  24613705.5754   24613710.1984   24613706.9874
       208.000         156.000
 106817071.24548  83234074.37348  20326618.5594   20326620.0494   20326618.3714
       254.000         241.000
 124065210.02048  96674183.08548  23608830.9754   23608832.5654   23608831.3364
       225.000         176.000
 128843098.44948 100397206.98048  24518036.2934   24518039.1204   24518036.5634
       205.000         152.000
 124423550.77648  96953393.64548  23677033.5374   23677035.1054   23677033.4514
       228.000         180.000
 09  1 16  0 32  0.0000000  0 10G 5G 9G28G18G26G10G15G17G27G12
 140862044.06248  91970408.43248  24902231.9164   24902235.6234   24902233.0714
       214.000         157.000
 110705037.47348  86263654.02248  21066476.9054   21066479.7544   21066477.3414
       245.000         213.000
 123133193.70048  95947935.39748  23431473.8624   23431475.8134   23431474.4324
       228.000         180.000
 119485548.69448  93105619.65548  22737345.3074   22737346.7514   22737345.8334
       233.000         187.000
 109601892.00248  85404059.74948  20856555.6064   20856558.0834   20856555.3604
       250.000         221.000
 129456985.28048 100875558.51748  24634856.4524   24634862.1904   24634857.6194
       207.000         151.000
 106821574.83348  83237583.65748  20327475.6344   20327477.1054   20327475.2884
       255.000         241.000
 124021039.32248  96639764.37948  23600425.4474   23600426.9794   23600425.4464
       224.000         179.000
 128913690.37148 100452213.66548  24531469.4694   24531472.7404   24531468.7204
       206.000         153.000
 124315221.45848  96868981.18148  23656419.1944   23656420.8454   23656419.0924
       228.000         180.000
 09  1 16  0 32 30.0000000  0 10G 5G 9G28G18G26G10G15G17G27G12
 140746872.77148  91880664.57148  24880315.3064   24880319.3084   24880315.7654
       212.000         155.000
 110644156.79548  86216214.54548  21054892.0584   21054894.7704   21054892.4334
       245.000         214.000
 123215826.98848  96012324.96948  23447198.4864   23447200.6844   23447199.3584
       228.000         181.000
 119434312.96748  93065695.71748  22727595.4424   22727597.1214   22727595.9254
       236.000         188.000
 109658415.15648  85448103.77448  20867311.5524   20867314.1734   20867311.5884
       249.000         221.000
 129568123.64148 100962159.80048  24656005.7734   24656010.2724   24656005.7464
       213.000         151.000
 106826510.95148  83241429.97948  20328414.9654   20328416.3724   20328414.8054
       254.000         241.000
 123977290.06148  96605674.03748  23592100.0774   23592102.5894   23592100.4004
       224.000         179.000
 128984289.93548 100507226.28948  24544904.5184   24544907.4454   24544904.9184
       207.000         157.000
 124207071.34248  96784708.36748  23635838.1554   23635840.8724   23635837.9654
       224.000         179.000
 09  1 16  0 33  0.0000000  0 10G 5G 9G28G18G26G10G15G17G27G12
 140631778.56448  91790980.76648  24858413.3734   24858416.5984   24858413.8244
       212.000         154.000
 110583564.60948  86168999.86148  21043361.4734   21043364.4964   21043361.5274
       245.000         214.000
 123298705.14248  96076905.35748  23462969.2874   23462971.8124   23462969.6274
       228.000         180.000
 119383584.28148  93026166.88848  22717941.5874   22717943.8444   22717943.0544
       231.000         185.000
 109715319.59948  85492444.89548  20878140.0174   20878142.7474   20878139.8284
       248.000         221.000
 129679248.27348 101048750.51148  24677152.9204   24677154.7914   24677153.3324
       214.000         151.000
 106831882.43948  83245615.55548  20329436.9314   20329438.5104   20329436.6394
       254.000         241.000
 123933967.21648  96571915.98948  23583856.0714   23583858.1064   23583856.0144
       226.000         179.000
 129054899.29148 100562246.55748  24558341.3664   24558344.2684   24558342.0954
       211.000         159.000
 124099105.14148  96700578.85048  23615292.3734   23615295.4384   23615291.4874
       222.000         178.000
 09  1 16  0 33 30.0000000  0 10G 5G 9G28G18G26G10G15G17G27G12
 140516762.98948  91701358.23048  24836526.9094   24836529.5254   24836527.5684
       211.000         154.000
 110523260.89148  86122009.96248  21031886.0694   21031889.0514   21031886.1744
       245.000         214.000
 123381825.46048  96141674.42348  23478786.5694   23478789.0554   23478787.7984
       226.000         178.000
 119333364.29548  92987034.41148  22708384.9714   22708387.1424   22708385.2004
       234.000         187.000
 109772604.31948  85537082.32648  20889041.1664   20889043.6664   20889041.0664
       248.000         221.000
 129790356.88248 101135328.66348  24698296.1484   24698298.6974   24698295.2634
       211.000         150.000
 106837689.72048  83250140.70648  20330542.1054   20330543.6064   20330541.8144
       254.000         241.000
 123891072.36448  96538491.43848  23575693.3524   23575695.3574   23575693.8274
       227.000         180.000
 129125518.25148 100617274.31448  24571780.1224   24571782.9864   24571780.7694
       212.000         159.000
 123991324.43648  96616593.89248  23594781.9044   23594785.2234   23594782.2074
       224.000         179.000
 09  1 16  0 34  0.0000000  0 10G 5G 9G28G18G26G10G15G17G27G12
 140401829.24848  91611799.46548  24814656.1634   24814658.5434   24814657.2294
       214.000         155.000
 110463247.40548  86075246.20748  21020465.9664   21020468.7714   21020466.0894
       245.000         214.000
 123465186.65248  96206631.19648  23494649.7564   23494651.9314   23494650.3354
       227.000         179.000
 119283656.01848  92948300.70248  22698926.1864   22698928.2824   22698926.6704
       232.000         187.000
 109830269.91948  85582016.55548  20900014.3344   20900017.2884   20900014.0874
       248.000         221.000
 129901447.71848 101221892.88248  24719435.3644   24719439.7024   24719435.9954
       213.000         155.000
 106843934.40248  83255006.68248  20331730.5104   20331731.9204   20331730.3284
       254.000         241.000
 123848609.03748  96505403.13848  23567612.8494   23567614.8814   23567613.0664
       225.000         179.000
 129196147.97148 100672310.43748  24585220.3164   24585222.6944   24585220.1454
       209.000         157.000
 123883732.49048  96532756.00748  23574308.4604   23574310.9544   23574308.5284
       224.000         180.000
 09  1 16  0 34 30.0000000  0 10G 5G 9G28G18G26G10G15G17G27G12
 140286978.70948  91522305.55448  24792801.5694   24792804.2894   24792803.2574
       208.000         155.000
 110403524.14048  86028708.60648  21009100.8774   21009103.6354   21009101.1234
       245.000         214.000
 123548786.11848  96271773.63748  23510558.1484   23510560.3514   23510559.2164
       228.000         178.000
 119234460.23848  92909966.32448  22689564.3964   22689566.1354   22689564.9324
       233.000         187.000
 109888315.42448  85627246.81748  20911060.1144   20911062.9314   20911059.7814
       250.000         221.000
 130012518.00248 101308441.12748  24740571.7044   24740575.5364   24740572.3034
       215.000         156.000
 106850617.08148  83260213.96048  20333002.0764   20333003.5594   20333001.7874
       254.000         240.000
 123806578.73448  96472652.26248  23559615.0024   23559616.6734   23559614.8814
       226.000         180.000
 129266787.56348 100727354.28048  24598661.8794   24598664.9724   24598661.5434
       211.000         156.000
 123776331.24948  96449066.73348  23553870.7654   23553872.5124   23553870.3144
       227.000         180.000
 09  1 16  0 35  0.0000000  0 10G 5G 9G28G18G26G10G15G17G27G12
 140172213.31448  91432878.01448  24770961.0924   24770965.1874   24770961.6504
       208.000         153.000
 110344091.73248  85982397.64348  20997791.3404   20997794.1544   20997791.4504
       246.000         214.000
 123632621.80048  96337100.15048  23526512.0124   23526513.9284   23526512.4594
       226.000         179.000
 119185778.58648  92872032.57948  22680300.5644   22680302.3674   22680301.0824
       232.000         186.000
 109946740.13548  85672772.56848  20922178.1244   20922180.7084   20922178.0984
       250.000         221.000
 130123565.15548 101394971.37448  24761703.1264   24761706.5284   24761703.2954
       214.000         155.000
 106857738.28848  83265762.94848  20334357.1054   20334358.7164   20334356.8394
       253.000         240.000
 123764983.88048  96440240.68548  23551699.6124   23551701.4214   23551699.3684
       225.000         181.000
 129337437.15048 100782405.92248  24612105.1164   24612109.3094   24612105.1184
       210.000         157.000
 123669122.67748  96365527.60048  23533470.0824   23533471.4694   23533470.0664
       227.000         181.000
 09  1 16  0 35 30.0000000  0 10G 5G 9G28G18G26G10G15G17G27G12
 120057541.38658 111343523.59458  24749138.4055   24749142.7815   24749137.9955
       206.000         153.000
 120284952.87358  75936315.87358  20986537.1205   20986539.8145   20986537.8995
       245.000         214.000
 133716665.33858  86402581.88058  23542509.5255   23542512.1835   23542510.2295
       228.000         179.000
 129137607.16958  82834495.08158  22671135.6635   22671136.8695   22671136.0485
       233.000         187.000
 120005541.75158  75718592.57458  20933367.8845   20933370.6905   20933367.9665
       248.000         221.000
 140234586.90258  91481480.79358  24782829.7115   24782833.2485   24782829.5385
       211.000         153.000
 116865307.19658  73271662.55958  20335796.1395   20335797.5365   20335796.0845
       254.000         241.000
 133723809.91658  86408152.35258  23543867.3875   23543869.9495   23543867.2065
       225.000         180.000
 139408125.97858  90837493.53658  24625552.8365   24625555.2785   24625554.4155
       214.000         160.000
 133562195.46158  86282227.68958  23513106.6695   23513107.4125   23513106.9335
       227.000         181.000
 09  1 16  0 36  0.0000000  0 10G 5G 9G28G18G26G10G15G17G27G12
 119942952.13648 111254233.26348  24727332.3644   24727336.9764   24727331.9694
       211.000         153.000
 120226103.11848  75890458.93348  20975338.3164   20975341.1054   20975338.9484
       245.000         214.000
 133800965.91448  86468270.63948  23558551.7684   23558553.7374   23558553.2114
       228.000         180.000
 129089958.57948  82797366.31048  22662067.7774   22662069.8294   22662067.3234
       232.000         188.000
 120064723.15348  75764707.94748  20944629.7464   20944632.5344   20944629.5554
       248.000         220.000
 140345580.41148  91567969.22148  24803951.8134   24803954.9684   24803951.6994
       214.000         150.000
 116873307.91748  73277896.87948  20337318.5834   20337320.0324   20337318.3434
       254.000         241.000
 133683092.06648  86376424.14848  23536119.4874   23536120.9494   23536118.9894
       224.000         178.000
 139478795.28648  90892560.48448  24638999.4474   24639003.6014   24638999.7874
       212.000         158.000
 133455378.83748  86198993.99748  23492779.3794   23492781.2954   23492778.5394
       224.000         181.000
 09  1 16  0 36 30.0000000  0 10G 5G 9G28G18G26G10G15G17G27G12
 119828453.70248 111165013.67148  24705544.7064   24705548.1094   24705545.9284
       211.000         155.000
 120167545.47548  75844829.61648  20964195.3574   20964198.0104   20964195.7474
       246.000         215.000
 133885495.53148  86534137.86748  23574637.0974   23574639.1244   23574637.8324
       228.000         179.000
 129042828.80748  82760641.81848  22653099.2864   22653101.1304   22653099.6674
       231.000         186.000
 120124281.78848  75811117.26248  20955963.3824   20955966.2604   20955963.2374
       248.000         220.000
 140456542.87748  91654433.52048  24825067.1534   24825069.4014   24825069.4184
       211.000         147.000
 116881749.15748  73284474.45848  20338924.9184   20338926.3854   20338924.7054
       254.000         241.000
 133642815.67548  86345039.96148  23528455.2044   23528457.0144   23528453.8904
       225.000         180.000
 139549474.14948  90947634.91648  24652449.3814   24652452.9354   24652449.2654
       211.000         160.000
 133348761.05448  86115915.20548  23472490.5234   23472492.9624   23472489.8324
       226.000         181.000
 09  1 16  0 37  0.0000000  0 10G 5G 9G28G18G26G10G15G17G27G12
 119714048.03048 111075866.39948  24683774.3294   24683776.8854   24683774.8474
       214.000         154.000
 120109279.99448  75799427.95848  20953107.7694   20953110.4824   20953108.0304
       246.000         215.000
 133970251.76648  86600181.66948  23590765.1634   23590767.8734   23590765.9234
       225.000         179.000
 128996219.28148  82724322.71148  22644230.2294   22644231.8044   22644230.7584
       232.000         188.000
 120184216.93948  75857819.97948  20967368.7204   20967371.5234   20967368.5484
       248.000         220.000
 140567471.90348  91740871.71648  24846175.6474   24846179.6654   24846176.4384
       210.000         151.000
 116890631.37448  73291395.66648  20340615.2164   20340616.5914   20340614.9904
       254.000         241.000
 133602982.88748  86314001.43348  23520875.0134   23520876.7324   23520874.6904
       225.000         179.000
 139620162.46648  91002716.72848  24665901.4834   24665904.7024   24665901.3174
       210.000         161.000
 133242344.36748  86032993.14448  23452239.6264   23452242.8004   23452240.6034
       225.000         180.000
 09  1 16  0 37 30.0000000  0 10G 5G 9G28G18G26G10G15G17G27G12
 119599736.63448 110986792.55648  24662022.4964   24662023.7394   24662023.4144
       213.000         153.000
 120051306.63648  75754253.92048  20942075.8394   20942078.3384   20942076.2394
       246.000         215.000
 134055232.04748  86666400.05848  23606937.0154   23606938.7444   23606937.4134
       228.000         179.000
 128950131.24548  82688409.96448  22635459.7034   22635461.8954   22635460.0924
       232.000         188.000
 120244527.46048  75904815.18948  20978845.5414   20978848.0494   20978845.4964
       249.000         220.000
 140678364.74048  91827281.67948  24867277.8564   24867281.3034   24867277.6304
       215.000         160.000
 116899955.38948  73298661.12948  20342389.3954   20342390.8834   20342389.2204
       254.000         240.000
 133563595.38648  86283309.86548  23513379.8574   23513381.4534   23513379.2094
       223.000         179.000
 139690859.74548  91057805.50948  24679354.6224   24679358.4174   24679354.6614
       215.000         162.000
 133136130.41548  85950229.04348  23432027.9264   23432031.0654   23432027.5244
       224.000         182.000
 09  1 16  0 38  0.0000000  0 10G 5G 9G28G18G26G10G15G17G27G12
 119485521.86248 110897794.02748  24640287.3584   24640288.9254   24640287.5744
       209.000         152.000
 119993626.66748  75709308.50048  20931099.7344   20931102.2914   20931100.1664
       246.000         215.000
 134140434.26748  86732791.40648  23623150.3614   23623152.1924   23623152.1554
       228.000         178.000
 128904566.48048  82652904.94348  22626788.9454   22626790.8914   22626789.4704
       233.000         189.000
 120305213.30748  75952102.86048  20990393.5324   20990396.2674   20990393.5634
       249.000         219.000
 140789219.75648  91913662.17948  24888373.8094   24888376.7234   24888374.3164
       215.000         158.000
 116909722.08648  73306271.53648  20344247.9384   20344249.5144   20344247.6984
       254.000         240.000
 133524655.51148  86252967.12348  23505970.0394   23505971.6864   23505969.7434
       225.000         180.000
 139761566.31248  91112901.52748  24692810.5264   24692813.1724   24692810.8814
       217.000         163.000
 133030121.72648  85867624.89748  23411855.3914   23411857.7134   23411855.2844
       226.000         181.000
 09  1 16  0 38 30.0000000  0 10G 5G 9G28G18G26G10G15G17G27G12
 119371405.40548 110808872.13748  24618571.2944   24618574.4614   24618571.8504
       211.000         156.000
 119936240.06148  75664591.67648  20920179.2004   20920182.2664   20920179.5644
       246.000         216.000
 134225856.10148  86799353.87748  23639405.7764   23639407.3524   23639406.4904
       228.000         178.000
 128859526.10348  82617808.55948  22618218.0304   22618219.9334   22618218.7014
       234.000         189.000
 120366273.54648  75999682.26048  21002013.0214   21002015.6584   21002012.9374
       248.000         219.000
 140900033.60648  92000010.59448  24909460.1874   24909464.4504   24909461.2274
       203.000         143.000
 116919931.72848  73314227.09848  20346190.6924   20346192.4334   20346190.5424
       254.000         240.000
 133486165.10948  86222974.59948  23498644.7384   23498646.9194   23498643.9364
       224.000         181.000
 139832281.92248  91168004.60348  24706266.3874   24706269.8004   24706267.1654
       210.000         160.000
 132924320.35548  85785182.28048  23391722.4604   23391724.1754   23391722.4794
       227.000         183.000
 09  1 16  0 39  0.0000000  0 10G 5G 9G28G18G26G10G15G17G27G12
 119257390.01548 110720028.99248  24596875.3194   24596878.6844   24596875.6864
       214.000         160.000
 119879148.03548  75620104.39448  20909314.9954   20909317.9434   20909315.3984
       246.000         216.000
 134311496.18348  86866086.39948  23655702.4784   23655703.9674   23655703.2504
       226.000         178.000
 128815012.97048  82583123.00848  22609747.7194   22609749.5914   22609748.0294
       236.000         190.000
 120427708.39548  76047553.57448  21013703.6324   21013706.2804   21013703.5214
       248.000         219.000
 141010804.92748  92086325.93348  24930538.8974   24930541.7754   24930538.3784
       208.000         141.000
 116930585.74948  73322528.92248  20348218.1894   20348219.8414   20348217.9594
       254.000         240.000
 133448127.12448  86193334.61248  23491406.9804   23491408.9404   23491406.4614
       227.000         183.000
 139903007.48148  91223115.41548  24719724.9464   24719728.2894   24719724.4314
       212.000         161.000
 132818729.08648  85702903.37348  23371629.2524   23371630.1814   23371629.0344
       226.000         182.000
 09  1 16  0 39 30.0000000  0 10G 5G 9G28G18G26G10G15G17G27G12
 119143477.94348 110631266.36448  24575198.0094   24575202.4254   24575198.8174
       210.000         161.000
 119822351.44648  75575847.31848  20898506.9684   20898509.8024   20898507.0424
       246.000         216.000
 134397352.38248  86932987.33948  23672040.2094   23672041.9834   23672039.7214
       226.000         179.000
 128771028.33648  82548849.25848  22601377.6454   22601379.3694   22601378.6834
       234.000         190.000
 120489517.47348  76095716.49448  21025465.5734   21025468.0494   21025465.5064
       248.000         219.000
 141121531.45248  92172606.38348  24951610.1934   24951613.7824   24951610.3914
       216.000         154.000
 116941684.96748  73331177.66148  20350330.2804   20350331.9264   20350330.0324
       253.000         240.000
 133410544.00548  86164049.07448  23484254.8664   23484257.1444   23484254.4924
       223.000         181.000
 139973743.11848  91278234.08848  24733185.0404   24733189.5714   24733184.8494
       214.000         164.000
 132713350.07848  85620789.89148  23351575.8414   23351577.1054   23351575.8554
       227.000         183.000
 09  1 16  0 40  0.0000000  0 10G 5G 9G28G18G26G10G15G17G27G12
 119029670.94448 110542585.56548  24553541.1114   24553545.7124   24553540.9114
       212.000         160.000
 119765850.73148  75531820.79748  20887755.1714   20887757.9634   20887755.7184
       246.000         216.000
 134483422.41048  87000054.86548  23688419.1704   23688421.0284   23688419.4394
       227.000         179.000
 128727573.30548  82514988.18848  22593108.4844   22593110.1604   22593108.7834
       235.000         189.000
 120551699.72948  76144170.20048  21037298.3784   21037301.1864   21037298.3234
       248.000         219.000
 141232210.52448  92258849.78448  24972672.5164   24972675.5164   24972673.1134
       215.000         156.000
 116953229.84948  73340173.66748  20352527.1734   20352528.8664   20352526.8634
       253.000         240.000
 133373417.28748  86135119.17248  23477190.0194   23477192.0844   23477189.5684
       228.000         183.000
 140044488.52048  91333360.36348  24746648.2374   24746651.8894   24746648.8124
       216.000         165.000
 132608185.68548  85538843.62048  23331564.1684   23331565.5204   23331564.0654
       227.000         185.000
 09  1 16  0 40 30.0000000  0 10G 5G 9G28G18G26G10G15G17G27G12
 118915969.58948 110453987.11448  24531904.1354   24531908.4224   24531904.4704
       215.000         160.000
 119709644.66648  75488023.87348  20877059.5664   20877062.4254   20877059.7954
       246.000         217.000
 134569702.58248  87067286.16048  23704837.5824   23704839.3434   23704838.0304
       227.000         177.000
 128684648.36548  82481540.19548  22584940.0214   22584941.9214   22584940.9304
       234.000         191.000
 120614253.20848  76192913.17048  21049201.8014   21049204.8464   21049201.5304
       247.000         219.000
 141342838.26848  92345053.10748  24993722.8404   24993726.4284   24993725.2334
       203.000         147.000
 116965220.03448  73349516.66348  20354808.8754   20354810.4584   20354808.7224
       254.000         240.000
 133336747.64848  86106545.42248  23470212.0134   23470214.2204   23470212.6544
       226.000         182.000
 140115242.29548  91388493.17648  24760112.0964   24760115.6514   24760112.0164
       215.000         165.000
 132503236.55048  85457065.09248  23311592.8934   23311594.7234   23311592.6404
       229.000         185.000
 09  1 16  0 41  0.0000000  0 10G 5G 9G28G18G26G10G15G17G27G12
 118802376.38148 110365472.89048  24510288.9504   24510292.2934   24510290.6934
       217.000         161.000
 119653734.18948  75444457.27748  20866420.2334   20866422.7904   20866420.4354
       246.000         216.000
 134656191.14248  87134679.83748  23721295.8834   23721297.4074   23721296.7394
       226.000         175.000
 128642255.34848  82448506.66448  22576873.0924   22576874.3594   22576873.7194
       235.000         191.000
 120677177.94448  76241945.43248  21061176.0294   21061178.7784   21061175.8544
       248.000         218.000
 141453413.11148  92431215.25848  25014764.2674   25014768.7194   25014763.2584
       212.000         147.000
 116977656.05448  73359207.06348  20357175.4304   20357176.8424   20357175.2224
       254.000         240.000
 133300537.63148  86078329.82748  23463321.2654   23463323.7284   23463320.8524
       225.000         179.000
 140186004.96648  91443632.89348  24773577.6024   24773581.3344   24773577.8174
       215.000         164.000
 132398505.25248  85375456.31748  23291662.9794   23291665.1464   23291663.2314
       226.000         184.000
 09  1 16  0 41 30.0000000  0 10G 5G 9G28G18G26G10G15G17G27G12
 118688893.26748 110277044.50448  24488694.5594   24488697.5864   24488695.6644
       219.000         162.000
 119598119.90648  75401121.47648  20855837.0074   20855839.6884   20855837.1884
       246.000         216.000
 134742885.91348  87202234.20948  23737793.0974   23737794.9954   23737793.2834
       226.000         177.000
 128600395.77248  82415888.80648  22568907.2014   22568909.1144   22568907.9164
       234.000         191.000
 120740472.99148  76291266.25248  21073220.7354   21073223.3464   21073220.4914
       248.000         218.000
 141563932.38348  92517334.26748  25035795.9694   25035798.7634   25035796.3784
       212.000         148.000
 116990539.33848  73369245.97948  20359627.0804   20359628.4894   20359626.8844
       253.000         240.000
 133264789.31548  86050473.99848  23456518.6724   23456520.6864   23456518.4934
       227.000         182.000
 140256776.67948  91498779.68248  24787044.4644   24787048.0084   24787044.2754
       214.000         162.000
 132293994.06248  85294019.03948  23271774.6644   23271777.3324   23271774.3334
       228.000         185.000
 09  1 16  0 42  0.0000000  0 10G 5G 9G28G18G26G10G15G17G27G12
 118575522.75648 110188703.84748  24467120.9104   24467124.0334   24467122.3574
       216.000         163.000
 119542802.94248  75358017.36348  20845310.5744   20845313.3734   20845310.4424
       246.000         217.000
 134829785.42548  87269948.10648  23754329.5704   23754331.7154   23754329.5554
       228.000         176.000
 128559071.39148  82383687.98448  22561043.6854   22561045.0994   22561044.6224
       234.000         192.000
 120804138.29248  76340875.58048  21085335.7884   21085338.5044   21085335.7184
       248.000         218.000
 141674394.50048  92603408.64048  25056816.2434   25056820.1784   25056815.6704
       204.000         147.000
 117003870.63948  73379634.00448  20362163.7704   20362165.4164   20362163.4824
       253.000         240.000
 133229505.19848  86022979.88748  23449804.4804   23449806.5234   23449804.8374
       226.000         180.000
 140327557.88148  91553933.87548  24800513.9654   24800517.0974   24800514.0594
       214.000         163.000
 132189705.55348  85212755.28048  23251929.7924   23251931.7114   23251929.9134
       228.000         185.000
 09  1 16  0 42 30.0000000  0 10G 5G 9G28G18G26G10G15G17G27G12
 118462266.57748 110100452.29648  24445567.7054   24445572.0524   24445567.8304
       217.000         162.000
 119487783.73548  75315145.26448  20834840.8004   20834843.6514   20834840.6934
       247.000         217.000
 134916887.31148  87337819.68148  23770904.4504   23770906.8144   23770905.3684
       229.000         176.000
 128518283.52148  82351905.23548  22553281.9094   22553283.6064   22553282.1244
       235.000         193.000
 120868172.87648  76390772.66248  21097521.0584   21097523.9434   21097520.9074
       247.000         218.000
 141784796.46448  92689436.03048  25077825.1864   25077828.9054   25077824.2174
       207.000         148.000
 117017650.12748  73390371.25448  20364785.9694   20364787.6354   20364785.6004
       253.000         240.000
 133194686.89948  85995848.74448  23443178.8104   23443180.8924   23443178.2564
       226.000         181.000
 140398348.06348  91609095.04748  24813985.3044   24813988.3844   24813986.2534
       216.000         165.000
 132085641.38048  85131666.33648  23232127.2704   23232129.1724   23232126.7044
       227.000         185.000
 09  1 16  0 43  0.0000000  0 10G 5G 9G28G18G26G10G15G17G27G12
 118349126.83848 110012291.41848  24424038.0224   24424042.5194   24424037.7064
       214.000         160.000
 119433062.81148  75272505.59548  20824427.7914   20824430.5884   20824428.3344
       246.000         217.000
 135004189.05948  87405847.02248  23787517.7704   23787519.5394   23787519.3034
       225.000         173.000
 128478033.21948  82320541.36748  22545622.7414   22545624.4554   22545623.5354
       235.000         192.000
 120932576.23148  76440957.09748  21109776.7724   21109779.4594   21109776.6994
       247.000         217.000
 141895135.93948  92775414.81548  25098822.5514   25098825.6704   25098822.6634
       211.000         151.000
 117031878.71448  73401458.46348  20367493.7604   20367495.2414   20367493.5834
       253.000         240.000
 133160336.48748  85969082.18348  23436642.2844   23436643.9224   23436642.0544
       228.000         182.000
 140469147.66048  91664263.56348  24827458.0314   24827461.1554   24827458.7174
       217.000         167.000
 131981803.96848  85050754.08248  23212367.3874   23212368.9784   23212366.8134
       230.000         183.000
 09  1 16  0 43 30.0000000  0 10G 5G 9G28G18G26G10G15G17G27G12
 118236105.30248 109924222.67948  24402530.7734   24402534.6434   24402531.4774
       218.000         161.000
 119378640.20448  75230098.38448  20814071.6154   20814074.1594   20814071.4094
       247.000         217.000
 135091688.35148  87474028.28748  23804167.8044   23804169.8174   23804167.9204
       225.000         169.000
 128438322.01548  82289597.58648  22538065.5954   22538067.7454   22538066.3434
       234.000         193.000
 120997347.53348  76491428.24548  21122102.1844   21122105.0284   21122102.0084
       248.000         218.000
 142005410.64548  92861343.13448  25119806.2784   25119809.5524   25119806.8374
       211.000         147.000
 117046556.68748  73412895.83848  20370286.7594   20370288.3744   20370286.4844
       253.000         239.000
 133126455.71548  85942681.60948  23430194.9134   23430196.6834   23430194.8604
       227.000         183.000
 140539956.65948  91719439.41648  24840932.2864   24840936.6654   24840932.7904
       218.000         167.000
 131878195.35648  84970020.10348  23192651.0164   23192652.4044   23192651.2144
       228.000         183.000
 09  1 16  0 44  0.0000000  0 10G 5G 9G28G18G26G10G15G17G27G12
 118123204.14648 109836247.72048  24381047.6464   24381050.4134   24381048.4984
       216.000         163.000
 119324516.58448  75187924.15048  20803771.9704   20803774.7144   20803772.5104
       247.000         217.000
 135179383.35248  87542362.06548  23820856.1644   23820857.4804   23820856.8124
       226.000         169.000
 128399151.53248  82259075.11948  22530611.6414   22530613.7834   22530612.0584
       234.000         192.000
 121062486.20848  76542185.65048  21134497.9064   21134500.5234   21134497.7964
       248.000         218.000
 142115618.42348  92947219.32748  25140778.5934   25140781.4394   25140779.4554
       202.000         144.000
 117061685.10148  73424684.21048  20373165.5084   20373167.1814   20373165.2344
       253.000         239.000
 133093046.87748  85916648.74648  23423837.4044   23423839.5474   23423837.3664
       229.000         186.000
 140610775.16348  91774622.66448  24854408.4014   24854412.7134   24854408.1594
       213.000         166.000
 131774817.71748  84889466.09848  23172978.9004   23172980.7804   23172978.6004
       228.000         186.000
 09  1 16  0 44 30.0000000  0 10G 5G 9G28G18G26G10G15G17G27G12
 118010425.50448 109748368.29548  24359585.9444   24359589.5204   24359585.7104
       220.000         162.000
 119270692.58148  75145983.37448  20793529.7384   20793532.5584   20793529.5424
       247.000         218.000
 135267272.06248  87610846.78948  23837580.5894   23837581.7094   23837581.3884
       227.000         170.000
 128360523.18248  82228975.10748  22523260.7344   22523262.7164   22523261.6094
       235.000         192.000
 121127991.70648  76593228.89648  21146963.1714   21146965.7464   21146963.2504
       247.000         217.000
 142225756.69248  93033041.29348  25161738.1554   25161741.2264   25161737.8304
       206.000         146.000
 117077264.29048  73436823.83248  20376130.1274   20376131.7694   20376129.8654
       253.000         239.000
 133060111.72748  85890985.00648  23417570.1504   23417572.1644   23417569.8514
       230.000         185.000
 140681603.29048  91829813.40848  24867886.6744   24867890.6124   24867885.6954
       216.000         166.000
 131671673.34548  84809093.87048  23153350.9874   23153353.5094   23153350.8764
       227.000         187.000
 09  1 16  0 45  0.0000000  0 10G 5G 9G28G18G26G10G15G17G27G12
 117897770.11748 109660584.87448  24338148.6774   24338151.7264   24338149.9924
       217.000         162.000
 119217167.59848  75104275.60648  20783344.2794   20783346.8324   20783344.3434
       247.000         218.000
 135355351.29448  87679479.94148  23854341.9894   23854343.1184   23854343.2594
       226.000         172.000
 128322436.91748  82199297.50148  22516013.2304   22516015.2604   22516013.9814
       235.000         193.000
 121193862.05948  76644556.44448  21159497.7644   21159500.3834   21159497.6734
       247.000         217.000
 142335822.41448  93118806.74248  25182682.7824   25182686.0054   25182683.3304
       211.000         150.000
 117093293.57148  73449314.17448  20379180.4244   20379182.0864   20379180.2514
       253.000         239.000
 133027651.05148  85865690.96348  23411393.4254   23411395.0934   23411392.7734
       230.000         187.000
 140752440.04648  91885010.87348  24881366.8024   24881370.5124   24881367.0254
       221.000         166.000
 131568763.19848  84728904.15248  23133767.6234   23133770.3434   23133767.6014
       228.000         186.000
 09  1 16  0 45 30.0000000  0 10G 5G 9G28G18G26G10G15G17G27G12
 117785240.87448 109572899.72548  24316734.5434   24316738.0774   24316735.4144
       221.000         164.000
 119163943.30848  75062802.13848  20773216.3294   20773218.9074   20773216.4694
       247.000         219.000
 135443619.32548  87748260.21948  23871138.8304   23871140.1434   23871139.3664
       225.000         173.000
 128284894.73848  82170043.84648  22508869.5184   22508871.5104   22508869.4884
       236.000         194.000
 121260097.33648  76696168.34648  21172101.8964   21172104.5924   21172101.6964
       247.000         216.000
 142445813.62048  93204514.16248  25203611.8294   25203616.0584   25203611.5494
       207.000         148.000
 117109774.32348  73462156.31548  20382316.5904   20382318.2854   20382316.3394
       253.000         239.000
 132995667.74148  85840768.91448  23405307.1154   23405309.2104   23405306.8774
       229.000         187.000
 140823286.42248  91940215.82848  24894848.7434   24894851.9774   24894850.3324
       221.000         167.000
 131466090.37048  84648899.35148  23114230.1614   23114231.9214   23114229.9794
       227.000         186.000
 09  1 16  0 46  0.0000000  0 10G 5G 9G28G18G26G10G15G17G27G12
 117672839.87548 109485314.50548  24295345.7484   24295348.6934   24295346.4094
       219.000         166.000
 119111019.97848  75021563.19348  20763144.9404   20763148.0294   20763145.1704
       248.000         219.000
 135532074.18448  87817186.07248  23887970.8354   23887972.3704   23887971.3494
       225.000         172.000
 128247898.26448  82141215.42048  22501829.3814   22501831.0404   22501829.6924
       235.000         193.000
 121326697.03948  76748064.21948  21184775.4564   21184777.9554   21184775.3574
       248.000         217.000
 142555728.61248  93290162.16948  25224528.1124   25224531.9404   25224528.2204
       203.000         143.000
 117126707.45348  73475350.95448  20385538.9094   20385540.4754   20385538.5874
       253.000         238.000
 132964163.55148  85816220.20048  23399311.7704   23399313.6264   23399311.3574
       228.000         185.000
 140894142.36548  91995428.28148  24908331.7944   24908334.5414   24908333.4584
       219.000         164.000
 131363656.58948  84569080.83148  23094736.9284   23094739.1264   23094736.6014
       226.000         185.000
 09  1 16  0 46 30.0000000  0 10G 5G 9G28G18G26G10G15G17G27G12
 117560568.74148 109397830.50048  24273981.1954   24273984.8004   24273982.6404
       218.000         167.000
 119058397.87848  74980558.96048  20753131.3844   20753134.1984   20753131.8094
       248.000         218.000
 135620713.60848  87886255.73748  23904838.3234   23904839.6924   23904838.7274
       222.000         168.000
 128211448.46948  82112812.98348  22494892.8314   22494894.8874   22494893.3464
       235.000         194.000
 121393659.89048  76800243.06548  21197518.1074   21197520.7384   21197518.0314
       247.000         216.000
 142665564.26548  93375748.35148  25245428.8874   25245434.0694   25245429.3024
       203.000         140.000
 117144093.34848  73488898.39748  20388847.2674   20388848.7714   20388846.9354
       252.000         238.000
 132933140.01048  85792046.02348  23393408.0604   23393410.0264   23393407.7594
       229.000         186.000
 140965007.73548  92050648.03248  24921816.7494   24921820.7424   24921818.3274
       218.000         165.000
 131261464.13748  84489450.35448  23075290.9314   23075292.2774   23075290.6354
       229.000         186.000
 09  1 16  0 47  0.0000000  0 10G 5G 9G28G18G26G10G15G17G27G12
 117448429.63248 109310449.39148  24252641.4764   24252645.0324   24252642.5914
       216.000         166.000
 119006077.41148  74939789.78348  20743174.9154   20743177.9324   20743175.1174
       248.000         218.000
 135709535.47348  87955467.57748  23921740.7174   23921741.5624   23921741.9034
       222.000         165.000
 128175546.84248  82084837.69148  22488061.0504   22488062.8244   22488061.8244
       235.000         193.000
 121460985.68848  76852704.72648  21210329.6244   21210332.5054   21210329.4184
       247.000         216.000
 142775318.95048  93461271.45248  25266314.9554   25266319.2214   25266315.2804
       207.000         143.000
 117161932.38048  73502798.93648  20392242.0214   20392243.4774   20392241.6844
       252.000         238.000
 132902599.22048  85768248.00448  23387596.4894   23387598.5854   23387596.6384
       228.000         186.000
 141035882.84348  92105875.40548  24935303.3054   24935306.8034   24935304.3984
       218.000         165.000
 131159515.12648  84410009.59248  23055890.6724   23055892.7124   23055891.1434
       231.000         188.000
 09  1 16  0 47 30.0000000  0 10G 5G 9G28G18G26G10G15G17G27G12
 117336424.47148 109223172.65048  24231327.7474   24231331.4104   24231327.8254
       217.000         165.000
 118954059.15448  74899256.08348  20733276.3694   20733278.9534   20733276.5964
       248.000         219.000
 135798537.71448  88024819.98148  23938676.8194   23938678.1774   23938678.6624
       223.000         163.000
 128140194.28448  82057290.23548  22481334.2064   22481335.7504   22481334.1704
       237.000         194.000
 121528673.24848  76905448.28548  21223210.3344   21223212.7144   21223210.3354
       247.000         216.000
 142884989.84448  93546729.27048  25287185.0544   25287189.6574   25287186.5464
       208.000         148.000
 117180225.07248  73517052.97948  20395723.0634   20395724.5244   20395722.8874
       252.000         238.000
 132872542.87748  85744827.48948  23381876.9904   23381878.6584   23381876.6754
       230.000         185.000
 141106767.57148  92161110.25348  24948792.7594   24948796.8574   24948793.9454
       219.000         166.000
 131057811.69648  84330760.16848  23036537.3884   23036539.3154   23036537.4114
       230.000         188.000
 09  1 16  0 48  0.0000000  0 10G 5G 9G28G18G26G10G15G17G27G12
 117224555.20948 109136001.78448  24210039.6154   24210043.4014   24210040.0544
       216.000         163.000
 118902343.71848  74858958.35048  20723435.2604   20723438.0534   20723435.0944
       247.000         219.000
 135887718.03448  88094311.15148  23955647.4414   23955648.3904   23955647.7994
       220.000         163.000
 128105391.89948  82030171.49248  22474711.5024   22474712.9114   22474712.5594
       235.000         193.000
 121596722.04248  76958473.31148  21236159.5944   21236162.2014   21236159.4154
       247.000         216.000
 142994574.79148  93632120.09348  25308038.8514   25308043.0864   25308040.0504
       204.000         145.000
 117198971.66448  73531660.71048  20399290.2104   20399291.7934   20399289.9474
       252.000         237.000
 132842972.70848  85721785.80848  23376250.0314   23376251.7004   23376250.2854
       231.000         186.000
 141177662.08648  92216352.71448  24962283.6424   24962287.0004   24962284.0394
       218.000         166.000
 130956356.33848  84251704.04848  23017231.1934   23017233.1834   23017230.7624
       231.000         190.000
 09  1 16  0 48 30.0000000  0 10G 5G 9G28G18G26G10G15G17G27G12
 117112824.01948 109048938.52448  24188777.7354   24188781.9654   24188777.6664
       217.000         164.000
 118850931.65448  74818897.00948  20713651.7364   20713654.6374   20713651.6374
       248.000         220.000
 135977074.61748  88163939.65048  23972651.4814   23972652.5614   23972650.8104
       219.000         164.000
 128071141.24048  82003482.65548  22468193.6404   22468195.3994   22468193.5294
       236.000         194.000
 121665131.53748  77011779.41148  21249177.3554   21249180.0744   21249177.3384
       247.000         216.000
 143104071.71948  93717442.32548  25328874.4604   25328879.6604   25328875.0824
       206.000         145.000
 117218173.08248  73546622.84748  20402944.2604   20402945.7384   20402944.0564
       251.000         237.000
 132813890.34848  85699124.22248  23370715.8864   23370717.4614   23370715.4434
       230.000         186.000
 141248566.62648  92271602.99548  24975776.3744   24975779.8404   24975776.9624
       218.000         164.000
 130855150.37848  84172842.27448  22997972.2894   22997974.5114   22997972.1384
       230.000         189.000
 09  1 16  0 49  0.0000000  0 10G 5G 9G28G18G26G10G15G17G27G12
 117001232.94548 108961984.43548  24167542.5444   24167546.3834   24167543.3254
       220.000         167.000
 118799823.77148  74779072.68948  20703926.5314   20703929.1814   20703926.9844
       248.000         220.000
 136066605.29748  88233703.82848  23989688.6854   23989690.0164   23989689.1554
       222.000         165.000
 128037443.42448  81977224.61548  22461781.3424   22461782.8014   22461782.4964
       237.000         193.000
 121733900.74048  77065365.80348  21262263.8144   21262266.2284   21262263.7584
       246.000         215.000
 143213478.51748  93802694.34748  25349694.8594   25349698.5154   25349695.8844
       211.000         142.000
 117237829.75448  73561939.73248  20406684.6314   20406686.3404   20406684.1754
       251.000         237.000
 132785298.09448  85676844.56148  23365274.7344   23365276.3614   23365274.5054
       231.000         186.000
 141319481.31948  92326861.17148  24989271.2084   24989274.3604   24989272.0874
       216.000         164.000
 130754196.24048  84094176.71948  22978760.9464   22978763.6504   22978760.9274
       233.000         190.000
 09  1 16  0 49 30.0000000  0 10G 5G 9G28G18G26G10G15G17G27G12
 116889783.01948 108875140.33348  24146335.2334   24146338.2374   24146336.0824
       220.000         168.000
 118749019.48248  74739484.93548  20694258.6194   20694261.2774   20694258.9984
       248.000         220.000
 136156307.02248  88303601.26348  24006758.4644   24006759.9714   24006759.9604
       220.000         165.000
 128004298.64148  81951397.51748  22455474.0894   22455475.7244   22455474.7524
       235.000         193.000
 121803028.09648  77119231.27648  21275418.1514   21275420.7554   21275417.8444
       247.000         215.000
 143322791.47148  93887873.27248  25370497.9644   25370499.1814   25370497.9784
       207.000         139.000
 117257941.24148  73577611.01448  20410511.7594   20410513.4814   20410511.4004
       252.000         237.000
 132757196.49748  85654947.20948  23359927.5774   23359928.8374   23359927.3044
       232.000         188.000
 141390405.41048  92382126.71148  25002767.3174   25002770.9114   25002767.2324
       218.000         164.000
 130653495.22148  84015708.39748  22959598.5134   22959600.8774   22959598.4244
       230.000         191.000
 09  1 16  0 50  0.0000000  0 10G 5G 9G28G18G26G10G15G17G27G12
 116778476.30448 108788407.83548  24125154.2684   24125156.9004   24125155.3224
       223.000         170.000
 118698519.44248  74700134.25848  20684648.6764   20684651.6794   20684648.7814
       247.000         220.000
 136246177.75048  88373630.39848  24023860.1954   24023861.9434   24023861.0064
       219.000         165.000
 127971708.19848  81926002.36648  22449272.0704   22449273.9494   22449272.4044
       235.000         192.000
 121872512.83248  77173375.22148  21288641.0174   21288643.3504   21288641.0924
       246.000         215.000
 143432008.79248  93972977.63348  25391280.9604   25391283.0754   25391280.6364
       206.000         139.000
 117278508.19448  73593637.20548  20414425.6744   20414427.2584   20414425.5554
       252.000         237.000
 132729587.68148  85633433.86348  23354673.5054   23354675.1294   23354673.5094
       230.000         187.000
 141461338.99348  92437399.62948  25016265.8614   25016269.0654   25016266.4944
       218.000         162.000
 130553049.75648  83937439.21748  22940484.2264   22940486.6594   22940483.9624
       232.000         190.000
 09  1 16  0 50 30.0000000  0 10G 5G 9G28G18G26G10G15G17G27G12
 116667315.33548 108701788.88748  24104001.1094   24104004.0054   24104001.6984
       222.000         170.000
 118648324.58048  74661021.37948  20675097.0174   20675099.6374   20675097.2574
       248.000         220.000
 136336215.91048  88443789.99248  24040993.6354   24040996.1554   24040994.2984
       221.000         163.000
 127939673.96448  81901040.61748  22443176.2274   22443177.9544   22443177.2144
       235.000         193.000
 121942354.79148  77227797.52448  21301931.3414   21301933.8854   21301931.4224
       247.000         215.000
 143541129.02148  94058006.32948  25412044.9524   25412047.9074   25412046.8994
       207.000         139.000
 117299531.50948  73610019.00748  20418426.1524   20418427.8044   20418425.9684
       252.000         237.000
 132702473.71548  85612306.09448  23349513.6904   23349515.3904   23349513.5544
       229.000         188.000
 141532282.67748  92492680.41948  25029765.6274   25029769.6654   25029765.8084
       217.000         164.000
 130452862.05048  83859370.87048  22921419.2944   22921421.4544   22921419.2884
       231.000         191.000
 09  1 16  0 51  0.0000000  0 10G 5G 9G28G18G26G10G15G17G27G12
 116556301.88648 108615284.91348  24082875.7934   24082879.0484   24082876.8414
       220.000         170.000
 118598435.18848  74622146.53848  20665603.2504   20665606.2794   20665603.3594
       249.000         221.000
 136426419.12948  88514078.20148  24058158.9534   24058161.3364   24058160.9054
       218.000         161.000
 127908196.11148  81876512.42648  22437186.2144   22437187.7964   22437186.3604
       237.000         192.000
 122012552.83048  77282497.29248  21315289.5914   21315292.2814   21315289.5054
       246.000         215.000
 143650149.50448  94142957.34648  25432790.3144   25432795.9894   25432791.5904
       207.000         142.000
 117321010.93148  73626756.21748  20422513.5324   20422515.1364   20422513.3604
       251.000         236.000
 132675855.94448  85591564.97548  23344448.1854   23344450.2594   23344448.1834
       228.000         187.000
 141603236.54548  92547969.15048  25043267.5424   25043271.3724   25043268.1794
       220.000         167.000
 130352934.19048  83781505.02248  22902403.6184   22902405.4934   22902403.7714
       232.000         191.000
 09  1 16  0 51 30.0000000  0 10G 5G 9G28G18G26G10G15G17G27G12
 116445437.58748 108528897.14748  24061778.2254   24061782.1524   24061778.7224
       218.000         169.000
 118548851.63748  74583510.00948  20656167.9734   20656170.5164   20656168.5914
       248.000         220.000
 136516785.11648  88584493.26248  24075354.8854   24075357.4384   24075354.7544
       216.000         162.000
 127877275.76248  81852418.65048  22431302.2094   22431303.4334   22431303.2554
       235.000         191.000
 122083105.97348  77337473.76048  21328715.5534   21328718.1184   21328715.6594
       246.000         215.000
 143759067.72348  94227828.59348  25453516.6154   25453521.6524   25453518.6284
       205.000         139.000
 117342947.01848  73643849.26548  20426687.8674   20426689.4944   20426687.6414
       251.000         236.000
 132649735.83848  85571211.64948  23339477.9114   23339479.8114   23339477.6874
       230.000         188.000
 141674200.48148  92603265.71148  25056771.8634   25056775.5754   25056772.5214
       219.000         162.000
 130253267.76548  83703842.89948  22883437.7604   22883439.8694   22883438.0994
       231.000         192.000
 09  1 16  0 52  0.0000000  0 10G 5G 9G28G18G26G10G15G17G27G12
 116334725.53948 108442628.01248  24040710.1704   24040714.6104   24040710.0134
       222.000         171.000
 118499575.44348  74545112.97448  20646790.9954   20646793.6714   20646791.3064
       250.000         221.000
 136607312.96548  88655034.41648  24092581.7374   24092584.6804   24092582.5424
       214.000         158.000
 127846915.15648  81828761.03648  22425524.6464   22425526.1794   22425525.0584
       235.000         191.000
 122154014.20648  77392726.93048  21342208.7004   21342211.1924   21342208.5754
       247.000         214.000
 143867882.20548  94312619.07848  25474224.2074   25474226.9424   25474224.3734
       201.000         140.000
 117365341.01248  73661299.12648  20430949.2034   20430950.8994   20430948.8624
       251.000         236.000
 132624116.04348  85551248.17048  23334602.9484   23334604.7064   23334602.8284
       232.000         189.000
 141745175.58448  92658570.98748  25070277.8474   25070281.6774   25070278.5714
       218.000         163.000
 130153866.00548  83626386.99248  22864522.2874   22864524.6404   22864521.8144
       229.000         192.000
 09  1 16  0 52 30.0000000  0 10G 5G 9G28G18G26G10G15G17G27G12
 116224165.71048 108356477.48848  24019671.9814   24019675.7694   24019672.5984
       220.000         171.000
 118450604.97148  74506954.17348  20637472.2034   20637474.7834   20637472.6094
       248.000         220.000
 136697998.78848  88725698.68048  24109838.5994   24109841.1664   24109840.9484
       215.000         156.000
 127817113.21148  81805538.74348  22419853.6154   22419855.4484   22419854.4524
       235.000         193.000
 122225275.09848  77448254.88748  21355769.5774   21355771.8824   21355769.7094
       246.000         214.000
 143976588.89348  94397325.49248  25494910.1344   25494912.7814   25494911.0234
       206.000         139.000
 117388191.48648  73679104.68248  20435297.6654   20435299.2504   20435297.4644
       251.000         236.000
 132598996.31548  85531674.36048  23329822.8414   23329824.7274   23329823.1294
       233.000         190.000
 141816159.78448  92713883.29248  25083786.3834   25083788.7494   25083787.0554
       217.000         160.000
 130054728.95748  83549137.35348  22845656.9414   22845659.3284   22845656.5724
       231.000         192.000
 09  1 16  0 53  0.0000000  0 11G 5G 9G28G18G26G10G15G17G22G27G12
 116113759.24448 108270446.51148  23998662.0364   23998666.0594   23998661.8344
       221.000         172.000
 118401940.08048  74469033.48248  20628211.6314   20628214.2814   20628211.5494
       248.000         221.000
 136788839.39148  88796483.56348  24127125.0404   24127127.5884   24127127.0114
       212.000         158.000
 127787869.93248  81782751.77148  22414288.6124   22414290.6344   22414289.0184
       236.000         193.000
 122296886.87848  77504056.27248  21369396.5354   21369399.1464   21369396.7464
       245.000         214.000
 144085185.14648  94481945.94448  25515574.4354   25515577.8974   25515575.7244
       197.000         135.000
 117411498.13648  73697265.71048  20439732.6544   20439734.4424   20439732.3684
       251.000         236.000
 132574377.20448  85512490.65248  23325137.7844   23325139.7074   23325137.3724
       233.000         190.000
 138205406.26458  89900316.71258  24396677.3665   24396676.9955   24396679.2565
       224.000         160.000
 141887152.66448  92769202.43648  25097295.0814   25097298.4344   25097296.1704
       213.000         162.000
 129955858.14648  83472095.18548  22826842.3724   22826844.9554   22826842.8274
       231.000         193.000
 09  1 16  0 53 30.0000000  0 11G 5G 9G28G18G26G10G15G17G22G27G12
 116003510.30748 108184538.25548  23977682.4544   23977686.3594   23977683.4774
       222.000         172.000
 118353583.38148  74431352.94648  20619009.5954   20619012.4294   20619009.8894
       249.000         221.000
 136879834.79848  88867389.07848  24144440.6424   24144443.1494   24144440.5554
       213.000         156.000
 127759188.75448  81760402.79448  22408830.6384   22408832.3414   22408831.6974
       235.000         192.000
 122368850.82948  77560132.06948  21383090.8684   21383093.5654   21383090.7224
       246.000         213.000
 144193670.38648  94566479.77348  25536218.3144   25536223.5264   25536219.0584
       198.000         135.000
 117435263.18248  73715783.92348  20444255.1414   20444256.6984   20444254.9024
       251.000         236.000
 132550262.60548  85493700.05948  23320548.9204   23320550.8254   23320548.6454
       234.000         191.000
 138132270.97448  89843328.13348  24382759.6034   24382759.9214   24382760.7084
       221.000         168.000
 141958156.46148  92824530.08548  25110806.9714   25110810.2014   25110806.5194
       218.000         163.000
 129857257.29348  83395263.36748  22808079.1684   22808081.5844   22808078.6194
       233.000         193.000
 09  1 16  0 54  0.0000000  0 11G 5G 9G28G18G26G10G15G17G22G27G12
 115893420.58148 108098754.04148  23956733.3514   23956737.0114   23956734.7064
       222.000         172.000
 118305535.05248  74393912.70048  20609866.2184   20609869.0434   20609866.3894
       249.000         221.000
 136970982.80248  88938413.47348  24161785.7454   24161788.1004   24161786.4934
       213.000         156.000
 127731070.17248  81738492.20848  22403480.2284   22403482.1274   22403480.5894
       237.000         193.000
 122441165.76148  77616481.36848  21396851.9014   21396854.3634   21396851.6424
       245.000         213.000
 144302042.50548  94650925.51048  25556839.5284   25556845.1734   25556842.1194
       197.000         135.000
 117459486.98948  73734659.61148  20448864.7594   20448866.3204   20448864.4574
       251.000         236.000
 132526653.84948  85475303.63148  23316056.7294   23316058.4164   23316056.7234
       234.000         190.000
 138059517.90548  89786637.48848  24368914.5474   24368915.8734   24368913.2384
       213.000         165.000
 142029170.82648  92879865.94748  25124320.0884   25124323.7274   25124320.2994
       212.000         158.000
 129758928.40348  83318643.45848  22789367.5154   22789370.1434   22789367.4204
       229.000         192.000
 09  1 16  0 54 30.0000000  0 11G 5G 9G28G18G26G10G15G17G22G27G12
 115783492.64748 108013095.92648  23935814.7114   23935818.4344   23935816.0274
       222.000         172.000
 118257796.23848  74356713.62848  20600782.1694   20600784.6974   20600782.2004
       249.000         222.000
 137062281.90648  89009555.63048  24179159.4554   24179162.1244   24179158.2524
       213.000         157.000
 127703515.91548  81717021.36648  22398236.6854   22398238.6214   22398237.4774
       236.000         194.000
 122513831.55348  77673104.05948  21410679.7254   21410682.2664   21410679.6244
       245.000         213.000
 144410299.70748  94735281.67048  25577442.2534   25577444.4014   25577442.1074
       200.000         137.000
 117484170.20748  73753893.28948  20453561.7614   20453563.4554   20453561.5664
       251.000         236.000
 132503553.10048  85457303.06048  23311660.4434   23311662.3034   23311660.4694
       230.000         189.000
 137987149.84148  89730246.78948  24355143.8174   24355145.2744   24355142.8924
       224.000         168.000
 142100196.71248  92935210.74048  25137836.1654   25137839.6364   25137835.1304
       212.000         161.000
 129660874.01648  83242237.46248  22770708.5154   22770711.2784   22770707.8944
       230.000         194.000
 09  1 16  0 55  0.0000000  0 10G 5G 9G28G18G26G15G17G22G27G12
 115673727.76948 107927564.85848  23914927.1304   23914930.8284   23914927.5764
       223.000         172.000
 118210366.80448  74319755.63648  20591756.3944   20591759.1984   20591756.7454
       248.000         222.000
 137153729.42348  89080813.41448  24196561.5414   24196563.6414   24196562.1114
       214.000         155.000
 127676526.04448  81695990.30548  22393101.0004   22393102.4824   22393101.3974
       237.000         193.000
 122586846.59948  77729998.89748  21424574.1034   21424576.7024   21424574.1584
       246.000         213.000
 117509312.63548  73773484.78148  20458346.2074   20458348.0164   20458345.9904
       251.000         236.000
 132480961.16048  85439698.97048  23307361.0204   23307362.8864   23307360.3634
       231.000         190.000
 137915168.45448  89674157.36348  24341446.1754   24341446.8934   24341446.4194
       218.000         166.000
 142171233.61748  92990564.15648  25151354.2704   25151357.8394   25151353.9024
       217.000         160.000
 129563095.59148  83166046.50948  22752101.8444   22752104.5504   22752102.2054
       232.000         195.000
 09  1 16  0 55 30.0000000  0 10G 5G 9G28G18G26G15G17G22G27G12
 115564126.86448 107842161.55848  23894070.8394   23894074.5364   23894072.3224
       222.000         173.000
 118163246.17048  74283038.26748  20582789.5504   20582792.3224   20582789.7014
       249.000         222.000
 137245322.33848  89152184.49948  24213991.0814   24213993.3794   24213992.9814
       213.000         155.000
 127650100.19248  81675398.73348  22388072.0254   22388073.4744   22388072.8114
       235.000         193.000
 122660208.89048  77787164.31348  21438534.5924   21438537.1384   21438534.5584
       247.000         213.000
 117534913.57348  73793433.55548  20463217.9044   20463219.6614   20463217.5364
       251.000         236.000
 132458878.43848  85422491.65748  23303158.9404   23303161.2954   23303158.2924
       230.000         190.000
 137843574.80048  89618370.13748  24327822.3814   24327823.0964   24327822.4394
       218.000         169.000
 142242280.38148  93045925.26048  25164873.9474   25164877.4584   25164874.5264
       217.000         162.000
 129465594.12248  83090071.36348  22733548.1174   22733550.4994   22733547.8934
       233.000         194.000
 09  1 16  0 56  0.0000000  0 10G 5G 9G28G18G26G15G17G22G27G12
 115454692.95248 107756888.37348  23873246.1174   23873249.9264   23873245.8314
       223.000         175.000
 118116436.05148  74246562.85948  20573881.6274   20573884.7244   20573882.0024
       248.000         222.000
 137337059.39848  89223667.91348  24231447.8084   24231450.3874   24231447.7134
       212.000         155.000
 127624240.69048  81655248.46548  22383150.8524   22383152.8374   22383150.9634
       235.000         192.000
 122733918.68348  77844600.51648  21452560.9394   21452563.5064   21452560.9234
       246.000         213.000
 117560974.30448  73813740.61748  20468177.1734   20468178.8194   20468176.9104
       251.000         235.000
 132437307.73248  85405683.31348  23299054.3304   23299055.9914   23299053.3604
       232.000         191.000
 137772372.49748  89562887.88848  24314272.9394   24314273.9034   24314272.6954
       220.000         171.000
 142313338.56848  93101295.26248  25178396.4244   25178399.6644   25178396.7794
       217.000         160.000
 129368372.64648  83014314.37548  22715048.0164   22715049.3344   22715047.7574
       233.000         195.000
 09  1 16  0 56 30.0000000  0 10G 5G 9G28G18G26G15G17G22G27G12
 115345427.47748 107671746.43148  23852453.5614   23852457.3834   23852454.5564
       222.000         173.000
 118069936.13448  74210329.16648  20565033.1054   20565036.0434   20565033.2884
       249.000         222.000
 137428938.07248  89295261.66748  24248932.1784   24248933.9354   24248933.4784
       215.000         154.000
 127598947.92848  81635539.81248  22378337.7684   22378339.6604   22378338.2924
       236.000         193.000
 122807974.55548  77902306.38448  21466653.1944   21466655.9174   21466652.9284
       245.000         212.000
 117587494.30448  73834405.54548  20473223.7434   20473225.3794   20473223.5584
       250.000         235.000
 132416249.52548  85389274.32548  23295047.0704   23295048.9564   23295046.6764
       230.000         191.000
 137701562.74248  89507711.48548  24300798.8904   24300799.6324   24300798.2894
       218.000         168.000
 142384407.61148  93156673.74348  25191920.0134   25191923.3114   25191919.8684
       217.000         160.000
 129271432.58048  82938776.65948  22696601.1024   22696602.1414   22696601.3324
       233.000         194.000
 09  1 16  0 57  0.0000000  0 10G 5G 9G28G18G26G15G17G22G27G12
 115236332.02748 107586737.01348  23831693.0624   23831697.5854   23831692.7804
       220.000         175.000
 118023746.72648  74174337.42448  20556243.6934   20556246.4864   20556243.7204
       249.000         222.000
 137520956.12148  89366964.05148  24266442.5434   24266444.2374   24266443.7654
       211.000         156.000
 127574221.64048  81616272.57948  22373632.8894   22373634.3274   22373633.0914
       236.000         193.000
 122882375.36748  77960281.03748  21480811.2194   21480813.8744   21480811.1224
       245.000         212.000
 117614473.83448  73855428.54748  20478357.6774   20478359.3904   20478357.3544
       251.000         235.000
 132395705.03748  85373265.64548  23291137.3734   23291139.6374   23291137.0794
       231.000         191.000
 137631147.98448  89452842.83348  24287399.3124   24287399.2584   24287400.6164
       224.000         170.000
 142455487.40848  93212060.56848  25205445.7864   25205449.7734   25205445.6184
       215.000         160.000
 129174775.44148  82863459.43248  22678207.0984   22678208.7254   22678207.2644
       232.000         194.000
 09  1 16  0 57 30.0000000  0 10G 5G 9G28G18G26G15G17G22G27G12
 115127408.83248 107501861.78648  23810966.1044   23810970.2444   23810966.7804
       223.000         175.000
 117977868.72748  74138588.34148  20547513.4044   20547516.1604   20547513.5694
       249.000         222.000
 137613111.92448  89438773.75348  24283978.9364   24283981.4364   24283979.3214
       211.000         154.000
 127550063.24348  81597447.85448  22369035.7214   22369037.1984   22369035.9074
       236.000         193.000
 122957120.29248  78018523.83648  21495034.7464   21495037.6494   21495034.8024
       245.000         212.000
 117641913.29648  73876809.93948  20483579.3864   20483580.9544   20483579.1614
       251.000         235.000
 132375676.29248  85357658.85248  23287326.1894   23287328.1484   23287325.8694
       233.000         192.000
 137561130.07648  89398283.42848  24274075.0524   24274075.1624   24274074.2064
       220.000         165.000
 142526578.27548  93267456.07148  25218974.5544   25218977.0134   25218974.6044
       216.000         155.000
 129078403.89948  82788364.74448  22659868.1464   22659869.8344   22659867.8994
       232.000         195.000
 09  1 16  0 58  0.0000000  0 10G 5G 9G28G18G26G15G17G22G27G12
 115018659.80448 107417122.28248  23790271.9284   23790275.6444   23790272.8104
       222.000         175.000
 117932302.37448  74103082.09448  20538842.4214   20538845.2644   20538842.5254
       248.000         222.000
 137705403.28648  89510689.06948  24301541.2584   24301543.3594   24301541.3884
       208.000         155.000
 127526473.74548  81579066.42848  22364546.7974   22364548.0354   22364547.2484
       235.000         192.000
 123032208.43948  78077034.07448  21509323.5684   21509326.2594   21509323.3994
       245.000         211.000
 117669812.85748  73898549.84948  20488888.3424   20488890.1004   20488888.0864
       251.000         235.000
 132356164.45148  85342454.82048  23283613.2904   23283615.0194   23283613.0504
       233.000         193.000
 137491512.18548  89344035.72148  24260826.5314   24260827.2854   24260826.0214
       221.000         166.000
 142597680.44348  93322860.34148  25232505.0344   25232507.7934   25232504.7214
       214.000         157.000
 128982319.24648  82713493.60148  22641583.6184   22641585.5274   22641583.3464
       233.000         195.000
 09  1 16  0 58 30.0000000  0 10G 5G 9G28G18G26G15G17G22G27G12
 114910086.90348 107332520.03448  23769610.5854   23769614.4504   23769611.4524
       225.000         175.000
 117887048.50848  74067819.34848  20530230.8214   20530233.5494   20530231.0754
       248.000         222.000
 137797828.13148  89582708.45148  24319128.5534   24319130.8894   24319128.4124
       209.000         149.000
 127503453.61448  81561128.65748  22360165.8264   22360167.8514   22360166.3324
       235.000         193.000
 123107638.80648  78135810.98148  21523677.4234   21523680.0914   21523677.4154
       244.000         211.000
 117698172.80648  73920648.50048  20494285.3854   20494286.7904   20494285.1404
       251.000         235.000
 132337171.05548  85327654.78548  23279999.1124   23280000.8884   23279998.9274
       233.000         193.000
 137422295.32448  89290100.49548  24247655.5654   24247656.4984   24247657.8694
       219.000         169.000
 142668794.10248  93378273.52848  25246036.7374   25246040.7264   25246037.1884
       216.000         160.000
 128886524.04648  82638848.00148  22623354.8494   22623356.3584   22623354.2514
       233.000         196.000
 09  1 16  0 59  0.0000000  0 10G 5G 9G28G18G26G15G17G22G27G12
 114801691.31748 107248055.94848  23748984.1964   23748987.8854   23748985.0474
       225.000         177.000
 117842106.54248  74032799.64348  20521678.7364   20521681.3934   20521678.8904
       248.000         223.000
 137890383.70648  89654829.63448  24336741.1844   24336744.1744   24336742.8844
       210.000         150.000
 127481002.93148  81543634.61648  22355893.8804   22355895.8614   22355894.5244
       236.000         195.000
 123183409.87048  78194853.36648  21538096.2384   21538098.7414   21538095.9574
       244.000         210.000
 117726992.60748  73943105.48648  20499769.5024   20499770.9214   20499769.2834
       251.000         235.000
 132318696.64548  85313259.15148  23276483.1684   23276485.3214   23276482.9024
       231.000         192.000
 137353481.03948  89236478.98248  24234560.8774   24234561.3844   24234559.4084
       216.000         163.000
 142739918.60948  93433695.22448  25259571.6074   25259575.1414   25259571.6454
       212.000         157.000
 128791019.40448  82564428.82448  22605180.8894   22605182.7754   22605180.8664
       234.000         196.000
 09  1 16  0 59 30.0000000  0 10G 5G 9G28G18G26G15G17G22G27G12
 114693475.52048 107163731.95948  23728391.3564   23728394.8124   23728392.4844
       225.000         177.000
 117797477.65348  73998023.89048  20513186.2364   20513188.7944   20513186.3814
       249.000         223.000
 137983068.82348  89727051.78648  24354379.4074   24354381.6034   24354380.8374
       207.000         150.000
 127459122.87248  81526585.21248  22351730.4324   22351731.8614   22351731.2244
       235.000         194.000
 123259521.23848  78254160.92248  21552579.5914   21552582.2234   21552579.4264
       244.000         210.000
 117756272.89148  73965921.28448  20505341.1964   20505342.9364   20505340.9284
       251.000         235.000
 132300742.96648  85299269.28948  23273066.4974   23273068.6944   23273065.8684
       232.000         191.000
 137285072.29448  89183173.50348  24221542.4694   24221543.7544   24221544.1404
       215.000         165.000
 142811054.41848  93489125.72048  25273107.6994   25273111.2894   25273107.9364
       213.000         154.000
 128695807.85848  82490238.02948  22587062.7984   22587064.5014   22587062.9934
       236.000         196.000
 09  1 16  1  0  0.0000000  0 10G 5G 9G28G18G26G15G17G22G27G12
 114585440.95648 107079549.18848  23707833.2744   23707836.4324   23707834.6314
       224.000         176.000
 117753162.01048  73963492.22748  20504753.1424   20504755.9424   20504753.5944
       248.000         223.000
 138075880.66148  89799372.69948  24372040.2714   24372043.2274   24372039.8184
       206.000         152.000
 127437813.61648  81509980.59848  22347675.3504   22347677.2074   22347675.6574
       235.000         194.000
 123335971.32248  78313732.41248  21567127.7424   21567130.4354   21567127.6384
       244.000         210.000
 117786013.46148  73989095.74748  20511000.5794   20511002.4704   20511000.3784
       251.000         235.000
 132283310.99948  85285685.94248  23269749.6964   23269751.5614   23269749.3874
       233.000         192.000
 137217071.22548  89130185.69948  24208601.4574   24208604.1324   24208602.8364
       218.000         170.000
 142882201.45248  93544564.96648  25286646.7014   25286650.8734   25286647.3954
       218.000         157.000
 128600890.56048  82416276.51348  22569000.5594   22569002.4114   22569000.3574
       234.000         196.000
 09  1 16  1  0 30.0000000  0 10G 5G 9G28G18G26G15G17G22G27G12
 114477589.95348 106995509.46348  23687309.6284   23687312.8584   23687310.1984
       226.000         175.000
 117709160.29848  73929205.18948  20496379.9954   20496382.5554   20496380.0894
       249.000         223.000
 138168817.77848  89871791.20148  24389726.5324   24389728.6694   24389726.2974
       211.000         151.000
 127417076.55548  81493821.84348  22343729.3124   22343731.0004   22343729.3934
       237.000         196.000
 123412759.72148  78373567.52648  21581739.9844   21581742.9014   21581739.8034
       244.000         210.000
 117816214.82848  74012629.27748  20516747.6434   20516749.5544   20516747.3104
       250.000         235.000
 132266402.13548  85272510.20248  23266531.7394   23266533.8834   23266531.4144
       231.000         191.000
 137149479.53448  89077516.86648  24195740.6414   24195741.9284   24195739.6204
       218.000         170.000
 142953360.49748  93600013.57548  25300188.7414   25300192.1404   25300189.6514
       217.000         155.000
 128506270.18448  82342546.36748  22550994.6464   22550996.5514   22550994.6834
       234.000         196.000
 09  1 16  1  1  0.0000000  0 10G 5G 9G28G18G26G15G17G22G27G12
 114369924.43548 106911614.25548  23666821.5794   23666824.7974   23666821.8454
       223.000         176.000
 117665473.12948  73895163.24748  20488066.3274   20488069.1664   20488066.6204
       249.000         223.000
 138261878.01648  89944305.68148  24407434.9294   24407437.4844   24407434.9854
       211.000         154.000
 127396911.80648  81478109.05348  22339892.0694   22339893.8834   22339893.0914
       236.000         195.000
 123489885.27248  78433665.34948  21596416.4964   21596419.3174   21596416.5864
       243.000         210.000
 117846876.95448  74036521.83948  20522582.5784   20522584.4014   20522582.3664
       251.000         235.000
 132250017.65248  85259743.09448  23263413.9804   23263415.9684   23263413.5234
       233.000         191.000
 137082299.70548  89025169.01548  24182956.4404   24182957.4014   24182957.3094
       221.000         170.000
 143024531.54148  93655471.48648  25313731.5904   25313734.7154   25313732.4684
       209.000         152.000
 128411948.34548  82269048.84348  22533045.7404   22533047.4804   22533045.4354
       234.000         197.000
 09  1 16  1  1 30.0000000  0 10G 5G 9G28G18G26G15G17G22G27G12
 114262446.46048 106827865.19048  23646369.0834   23646372.6134   23646369.1854
       226.000         178.000
 117622101.07148  73861366.84748  20479812.9374   20479815.7724   20479813.2264
       248.000         223.000
 138355059.62648  90016914.72548  24425167.7874   24425169.5334   24425166.7884
       213.000         156.000
 127377320.39148  81462843.00848  22336164.0804   22336165.5294   22336164.6494
       236.000         195.000
 123567347.32948  78494025.39448  21611156.9704   21611159.7844   21611156.8404
       244.000         210.000
 117878000.49848  74060773.94748  20528505.3454   20528506.9624   20528505.3354
       251.000         234.000
 132234159.61548  85247386.18748  23260396.1844   23260398.2934   23260396.4924
       234.000         192.000
 137015534.34148  88973144.06948  24170251.7634   24170251.8584   24170251.5164
       221.000         170.000
 143095715.09148  93710939.17848  25327277.1484   25327279.9054   25327277.4614
       213.000         151.000
 128317927.28348  82195785.70448  22515154.2094   22515156.0414   22515153.9234
       234.000         198.000
 09  1 16  1  2  0.0000000  0 10G 5G 9G28G18G26G15G17G22G27G12
 114155156.80148 106744262.86348  23625952.5894   23625956.1574   23625953.7774
       223.000         178.000
 117579043.45648  73827815.46348  20471619.4214   20471622.1544   20471619.5524
       248.000         223.000
 138448359.41048  90089615.81848  24442922.1134   24442924.3054   24442922.1204
       212.000         157.000
 127358301.48448  81448023.08948  22332544.6794   22332546.3694   22332545.4874
       236.000         194.000
 123645143.68348  78554645.92048  21625961.3324   21625963.8604   21625961.3274
       243.000         210.000
 117909584.23248  74085384.64748  20534515.4664   20534517.1714   20534515.2274
       251.000         234.000
 132218827.57448  85235439.14848  23257478.5554   23257480.7494   23257478.3244
       233.000         193.000
 136949184.00048  88921442.49648  24157625.9354   24157626.3414   24157626.6004
       224.000         170.000
 143166910.08248  93766415.72148  25340825.3284   25340828.6494   25340825.1694
       215.000         156.000
 128224207.56048  82122757.36548  22497319.9274   22497321.9484   22497319.2674
       236.000         199.000
 09  1 16  1  2 30.0000000  0 10G 5G 9G28G18G26G15G17G22G27G12
 114048057.63348 106660808.98048  23605572.0524   23605575.7924   23605572.3484
       225.000         178.000
 117536301.14148  73794509.77548  20463485.7174   20463488.6434   20463485.7214
       248.000         223.000
 138541775.82548  90162407.81248  24460699.0204   24460700.4794   24460699.0054
       216.000         157.000
 127339856.05248  81433650.01448  22329034.5544   22329036.2914   22329034.6854
       236.000         194.000
 123723273.55948  78615526.35248  21640828.8814   21640831.4484   21640828.7294
       244.000         209.000
 117941628.33648  74110354.06548  20540613.2304   20540615.0394   20540612.9954
       251.000         234.000
 132204022.94748  85223903.08548  23254661.6904   23254663.3674   23254661.4634
       233.000         193.000
 136883250.62448  88870065.88548  24145078.8134   24145079.0954   24145080.0814
       219.000         165.000
 143238116.64048  93821901.36748  25354375.4324   25354378.3954   25354375.3244
       216.000         150.000
 128130791.71048  82049965.81648  22479543.5964   22479545.7644   22479543.7734
       236.000         198.000
 09  1 16  1  3  0.0000000  0 10G 5G 9G28G18G26G15G17G22G27G12
 113941150.89548 106577505.02748  23585228.7534   23585232.2684   23585229.7224
       225.000         180.000
 117493874.46748  73761450.03948  20455412.3504   20455415.1114   20455412.6964
       249.000         223.000
 138635306.76448  90235289.04948  24478497.4544   24478498.7984   24478498.5504
       213.000         155.000
 127321984.79448  81419724.34548  22325633.7554   22325635.2804   22325634.7504
       234.000         194.000
 123801735.93148  78676665.86048  21655759.8864   21655762.3974   21655759.7354
       244.000         210.000
 117974132.95848  74135682.33648  20546798.7374   20546800.3864   20546798.5934
       250.000         234.000
 132189747.09948  85212779.05048  23251944.7724   23251946.7944   23251944.7444
       233.000         194.000
 136817736.53948  88819015.96748  24132611.6014   24132611.7764   24132612.1164
       217.000         166.000
 143309335.18048  93877396.36948  25367928.4834   25367929.6564   25367927.8224
       210.000         144.000
 128037681.39148  81977412.33648  22461825.1764   22461827.1084   22461825.0794
       236.000         199.000
 09  1 16  1  3 30.0000000  0 10G 5G 9G28G18G26G15G17G22G27G12
 113834438.72148 106494352.71048  23564921.8434   23564925.5704   23564922.6214
       225.000         180.000
 117451764.41548  73728637.01848  20447399.0224   20447401.6974   20447399.0594
       249.000         224.000
 138728950.74648  90308258.39748  24496317.2564   24496318.4114   24496317.3234
       215.000         153.000
 127304688.35048  81406246.59548  22322342.3644   22322344.2054   22322342.6004
       235.000         195.000
 123880530.07448  78738063.89548  21670753.8924   21670756.6594   21670753.9134
       243.000         209.000
 118007098.76348  74161369.97448  20553071.8534   20553073.4174   20553071.6674
       251.000         233.000
 132176001.34548  85202068.08848  23249329.1304   23249331.2754   23249329.1864
       234.000         194.000
 136752644.48248  88768294.92648  24120224.5654   24120225.0734   24120225.7344
       221.000         167.000
 143380565.97148  93932900.82348  25381482.3504   25381485.3394   25381482.5144
       212.000         152.000
 127944878.93248  81905098.74348  22444165.6664   22444167.5664   22444165.1814
       237.000         200.000
 09  1 16  1  4  0.0000000  0 10G 5G 9G28G18G26G15G17G22G27G12
 113727922.92748 106411353.40448  23544652.7394   23544656.1624   23544652.9794
       225.000         180.000
 117409971.15148  73696070.84048  20439446.0474   20439448.6944   20439446.0504
       248.000         223.000
 138822705.62948  90381314.15148  24514157.7674   24514159.3814   24514157.4614
       212.000         152.000
 127287967.01948  81393216.98348  22319160.3544   22319162.4124   22319160.5204
       237.000         196.000
 123959655.05848  78799719.72248  21685810.6504   21685813.6304   21685810.5234
       242.000         208.000
 118040525.49248  74187416.76848  20559432.6574   20559434.3864   20559432.4294
       250.000         233.000
 132162786.82148  85191771.07248  23246814.5724   23246816.4734   23246814.4934
       234.000         194.000
 136687975.84948  88717903.80048  24107918.8364   24107919.5464   24107919.2354
       219.000         167.000
 143451809.27848  93988415.04448  25395039.3084   25395044.0554   25395039.5284
       213.000         154.000
 127852386.22448  81833026.52048  22426564.7644   22426566.8714   22426564.7424
       239.000         202.000
 09  1 16  1  4 30.0000000  0 10G 5G 9G28G18G26G15G17G22G27G12
 113621605.84548 106328508.94948  23524421.0634   23524424.8114   23524421.4874
       224.000         181.000
 117368495.80948  73663752.39648  20431553.3654   20431556.1744   20431553.4994
       248.000         224.000
 138916569.87748  90454455.11048  24532020.4144   24532020.3674   24532020.1894
       213.000         150.000
 127271821.58548  81380636.11548  22316088.0144   22316089.9964   22316088.4204
       236.000         195.000
 124039110.12148  78861632.76148  21700930.3494   21700933.2054   21700930.1154
       242.000         208.000
 118074413.38348  74213822.91248  20565881.4044   20565882.9734   20565881.1404
       250.000         233.000
 132150105.03648  85181889.16748  23244401.3644   23244403.4234   23244400.8694
       232.000         194.000
 136623733.45948  88667844.79348  24095693.5014   24095695.0424   24095693.5624
       219.000         167.000
 143523065.62648  94043939.43248  25408599.9774   25408602.7514   25408600.3264
       209.000         147.000
 127760205.19548  81761197.17448  22409023.3514   22409025.5394   22409023.2704
       239.000         202.000
 09  1 16  1  5  0.0000000  0 10G 5G 9G28G18G26G15G17G22G27G12
 113515488.38048 106245820.02948  23504227.7254   23504231.6174   23504228.5034
       226.000         182.000
 117327337.75648  73631681.19048  20423721.2324   20423724.1194   20423721.5134
       249.000         224.000
 139010540.54948  90527679.02848  24549901.9604   24549902.4334   24549903.1784
       213.000         152.000
 127256251.74248  81368503.75448  22313125.0874   22313126.9144   22313125.9214
       235.000         195.000
 124118893.18748  78923801.38848  21716112.7544   21716115.4314   21716112.4254
       244.000         208.000
 118108761.83348  74240587.93948  20572417.7224   20572419.2304   20572417.5154
       250.000         233.000
 132137955.91948  85172422.34048  23242089.5364   23242091.3924   23242089.5114
       233.000         193.000
 136559918.24248  88618118.70748  24083550.0664   24083551.3544   24083551.5854
       221.000         172.000
 143594334.39148  94099473.54248  25422162.0394   25422165.0524   25422162.5334
       201.000         140.000
 127668336.83648  81689611.46048  22391541.4634   22391543.4044   22391541.3304
       239.000         202.000
 09  1 16  1  5 30.0000000  0 10G 5G 9G28G18G26G15G17G22G27G12
 113409572.64348 106163288.30148  23484072.8424   23484076.4714   23484073.3664
       226.000         182.000
 117286497.98248  73599857.99448  20415949.6864   20415952.5224   20415949.9174
       249.000         224.000
 139104615.91248  90600984.48848  24567803.5544   24567804.5824   24567803.6754
       210.000         149.000
 127241257.97948  81356820.30648  22310271.8714   22310274.0924   22310271.9184
       236.000         197.000
 124199003.47048  78986224.98648  21731357.3094   21731359.9674   21731357.3934
       243.000         208.000
 118143570.91148  74267711.89148  20579041.6144   20579043.2924   20579041.4964
       250.000         233.000
 132126341.05748  85163371.80248  23239878.8434   23239880.8494   23239878.6184
       232.000         192.000
 136496532.32948  88568727.12348  24071489.0474   24071489.3434   24071488.8504
       219.000         170.000
 143665616.01748  94155017.68448  25435726.0564   25435730.7944   25435726.4054
       194.000         130.000
 127576783.02948  81618270.84648  22374119.0984   22374121.2434   22374119.1984
       238.000         202.000
 09  1 16  1  6  0.0000000  0  9G 5G 9G28G18G26G15G17G22G12
 113303861.02048 106080915.61748  23463956.4964   23463959.9194   23463957.0654
       226.000         180.000
 117245977.43048  73568283.54848  20408238.9974   20408241.7504   20408239.1914
       249.000         224.000
 139198794.44148  90674370.34548  24585724.5954   24585725.7584   24585725.4914
       210.000         148.000
 127226841.48148  81345586.66848  22307528.7544   22307530.9054   22307529.7524
       236.000         197.000
 124279440.41848  79048903.11948  21746663.8034   21746666.5404   21746663.7404
       242.000         207.000
 118178841.04548  74295195.10648  20585753.2164   20585755.0574   20585752.8434
       250.000         233.000
 132115262.04148  85154738.79348  23237771.0274   23237772.6294   23237771.1284
       235.000         193.000
 136433578.26848  88519672.04948  24059508.4064   24059508.8844   24059507.5214
       219.000         168.000
 127485546.73348  81547177.65548  22356757.5254   22356759.6774   22356757.5984
       239.000         202.000
 09  1 16  1  6 30.0000000  0  9G 5G 9G28G18G26G15G17G22G12
 113198354.56148 105998702.82048  23443879.2944   23443882.6574   23443880.1174
       225.000         180.000
 117205775.73348  73536957.55748  20400588.9464   20400591.7224   20400589.3124
       249.000         224.000
 139293073.52348  90747834.57148  24603665.8584   24603666.7824   24603665.6804
       211.000         149.000
 127213001.26748  81334802.07248  22304895.2844   22304896.8834   22304895.7094
       237.000         196.000
 124360202.23048  79111834.40348  21762032.3494   21762035.0474   21762032.1684
       244.000         207.000
 118214571.48648  74323037.00148  20592552.4014   20592554.5014   20592552.2214
       249.000         233.000
 132104718.90248  85146523.37348  23235764.7744   23235766.4874   23235764.8134
       236.000         194.000
 136371057.42148  88470954.52048  24047610.8404   24047612.6714   24047611.4994
       221.000         171.000
 127394628.45548  81476332.25048  22339456.5474   22339458.2424   22339456.5984
       241.000         204.000
 09  1 16  1  7  0.0000000  0  9G 5G 9G28G18G26G15G17G22G12
 113093055.28448 105916651.44748  23423841.4954   23423844.6264   23423841.4284
       226.000         181.000
 117165892.90548  73505880.03448  20392999.3974   20393002.1484   20392999.6894
       249.000         225.000
 139387451.29648  90821375.67048  24621624.7834   24621626.6314   24621624.5354
       206.000         148.000
 127199738.10148  81324467.13848  22302370.8864   22302373.2784   22302371.7204
       236.000         196.000
 124441287.83848  79175017.98348  21777462.4904   21777465.0214   21777462.4544
       244.000         207.000
 118250762.25248  74351237.58848  20599439.3134   20599441.3564   20599439.0204
       250.000         233.000
 132094712.71448  85138726.35148  23233860.5724   23233862.2964   23233860.7774
       232.000         193.000
 136308971.49548  88422575.88248  24035797.1654   24035797.4684   24035797.8414
       220.000         172.000
 127304030.24048  81405736.24848  22322216.3164   22322217.9244   22322216.5744
       241.000         204.000
 09  1 16  1  7 30.0000000  0  9G 5G 9G28G18G26G15G17G22G12
 112987965.49748 105834763.32148  23403843.5374   23403846.7174   23403844.1874
       227.000         181.000
 117126330.72048  73475052.36948  20385470.9534   20385473.7764   20385470.8604
       249.000         224.000
 139481926.37148  90894992.58048  24639602.6574   24639605.1024   24639602.1194
       209.000         151.000
 127187052.80348  81314582.48348  22299957.1714   22299958.9014   22299957.3744
       237.000         195.000
 124522696.72748  79238453.48748  21792954.0944   21792956.5054   21792954.0944
       243.000         206.000
 118287413.93048  74379797.33648  20606413.9064   20606415.7924   20606413.6204
       249.000         233.000
 132085245.33148  85131349.18748  23232058.9354   23232060.6364   23232058.7414
       235.000         194.000
 136247323.07848  88374538.20248  24024065.1044   24024065.8594   24024064.8824
       219.000         167.000
 127213754.44948  81335391.48248  22305037.1774   22305039.1364   22305036.7744
       238.000         203.000
 09  1 16  1  8  0.0000000  0  9G 5G 9G28G18G26G15G17G22G12
 112883085.89948 105753038.97748  23383885.5914   23383889.0134   23383886.4894
       227.000         181.000
 117087088.03848  73444473.66448  20378003.3514   20378006.0624   20378003.4834
       250.000         225.000
 139576495.56748  90968682.85448  24657599.3204   24657600.5324   24657600.7644
       207.000         152.000
 127174944.31948  81305147.29948  22297653.2304   22297654.9084   22297653.8464
       237.000         195.000
 124604426.55748  79302139.06948  21808506.6154   21808509.3424   21808506.6494
       243.000         207.000
 118324525.01648  74408715.05948  20613476.0304   20613477.7604   20613475.6404
       249.000         232.000
 132076316.02448  85124391.29648  23230360.1124   23230361.6164   23230360.5524
       234.000         194.000
 136186113.20148  88326842.19248  24012417.7564   24012417.8544   24012418.0224
       222.000         170.000
 127123801.75348  81265298.49048  22287919.3154   22287921.3304   22287919.3324
       237.000         202.000
 09  1 16  1  8 30.0000000  0  9G 5G 9G28G18G26G15G17G22G12
 112778418.77448 105671480.19148  23363967.9614   23363971.4224   23363969.0634
       227.000         181.000
 117048165.91748  73414144.74548  20370596.8474   20370599.4904   20370597.2874
       252.000         225.000
 139671157.65148  91042445.49148  24675612.6754   24675615.0624   24675612.3014
       207.000         153.000
 127163413.47248  81296162.22048  22295458.7114   22295460.5434   22295459.5144
       237.000         195.000
 124686476.68748  79366074.24448  21824120.4674   21824122.8854   21824120.6144
       243.000         205.000
 118362095.93848  74437991.10348  20620625.6394   20620627.2814   20620625.3174
       250.000         232.000
 132067926.32248  85117853.87548  23228763.3084   23228765.0244   23228763.6064
       234.000         193.000
 136125343.97748  88279489.57648  24000853.7824   24000854.2004   24000855.0524
       219.000         165.000
 127034174.24748  81195458.89248  22270863.6344   22270865.6904   22270863.2674
       239.000         203.000
 09  1 16  1  9  0.0000000  0  9G 5G 9G28G18G26G15G17G22G12
 112673967.09848 105590089.29948  23344091.0904   23344095.0934   23344091.2614
       226.000         181.000
 117009565.86348  73384066.77448  20363251.4584   20363253.9434   20363251.5324
       251.000         225.000
 139765911.33448  91116279.51748  24693643.5244   24693645.5014   24693642.5634
       206.000         153.000
 127152461.38648  81287628.10748  22293374.3894   22293376.4664   22293374.9284
       235.000         194.000
 124768847.01448  79430258.91148  21839794.7564   21839797.4414   21839794.6244
       242.000         205.000
 118400127.78248  74467626.30048  20627862.8984   20627864.5184   20627862.7114
       250.000         232.000
 132060078.18848  85111738.46048  23227269.7304   23227271.5924   23227269.0694
       233.000         193.000
 136065018.29348  88232482.53648  23989373.4204   23989374.6744   23989374.7454
       219.000         165.000
 126944874.67348  81125874.82048  22253870.9404   22253872.8924   22253870.8584
       240.000         205.000
 09  1 16  1  9 30.0000000  0  9G 5G 9G28G18G26G15G17G22G12
 112569731.23148 105508866.57748  23324255.5024   23324259.8184   23324256.3504
       228.000         182.000
 116971286.90848  73354239.02248  20355967.1614   20355969.7574   20355967.2784
       252.000         225.000
 139860753.68848  91190182.62948  24711692.0544   24711694.0834   24711692.2164
       209.000         155.000
 127142087.12348  81279544.25748  22291400.0754   22291402.0544   22291400.8584
       235.000         193.000
 124851535.15548  79494691.22148  21855529.9154   21855532.6024   21855530.0184
       242.000         206.000
 118438619.22348  74497619.62348  20635187.4054   20635189.1494   20635187.1414
       250.000         232.000
 132052771.14548  85106044.66448  23225879.3154   23225881.2824   23225878.5264
       233.000         194.000
 136005136.63548  88185821.49548  23977978.2454   23977979.0224   23977977.2184
       221.000         171.000
 126855903.47048  81056546.62048  22236940.3394   22236942.1884   22236940.3724
       241.000         205.000
 09  1 16  1 10  0.0000000  0  9G 5G 9G28G18G26G15G17G22G12
 112465713.95048 105427814.16648  23304461.8794   23304465.7174   23304462.3084
       226.000         181.000
 116933330.36748  73324662.49648  20348744.3884   20348746.7864   20348744.6854
       251.000         225.000
 139955683.32748  91264153.76448  24729756.9494   24729758.9854   24729757.9084
       208.000         154.000
 127132291.34948  81271911.18348  22289536.0674   22289538.3214   22289536.5434
       235.000         195.000
 124934540.75648  79559370.91348  21871325.2044   21871328.0544   21871324.9694
       241.000         205.000
 118477570.32948  74527971.12848  20642599.5764   20642601.3394   20642599.3784
       249.000         231.000
 132046007.02948  85100773.92948  23224592.4084   23224594.0654   23224592.2894
       233.000         194.000
 135945701.86148  88139508.72648  23966668.6014   23966669.8234   23966668.3114
       219.000         168.000
 126767263.59348  80987476.58748  22220072.8854   22220074.4734   22220072.6454
       240.000         205.000
 09  1 16  1 10 30.0000000  0  9G 5G 9G28G18G26G15G17G22G12
 112361915.75248 105346932.47648  23284710.1324   23284713.7634   23284710.3944
       228.000         183.000
 116895695.51648  73295336.64548  20341582.4964   20341585.4634   20341582.4334
       252.000         226.000
 140050697.60248  91338190.84348  24747836.6414   24747839.5014   24747836.0544
       203.000         152.000
 127123073.05448  81264728.08948  22287782.2224   22287784.0454   22287782.9944
       236.000         195.000
 125017861.45548  79624296.12948  21887180.8344   21887183.5044   21887180.6454
       242.000         206.000
 118516980.08748  74558680.02348  20650098.7454   20650100.8014   20650098.5484
       248.000         231.000
 132039785.30048  85095925.81848  23223408.5054   23223410.1164   23223408.2904
       234.000         195.000
 135886714.91648  88093544.90648  23955443.8294   23955444.7684   23955444.8214
       219.000         167.000
 126678955.11348  80918664.79148  22203268.2534   22203270.0134   22203267.9094
       241.000         205.000
 09  1 16  1 11  0.0000000  0  9G 5G 9G28G18G26G15G17G22G12
 112258338.85048 105266223.23948  23264999.5264   23265003.7954   23264999.6734
       226.000         182.000
 116858383.40648  73266262.27548  20334482.3904   20334485.0644   20334482.4774
       252.000         226.000
 140145794.85548  91412292.58048  24765932.6734   24765935.7424   24765932.4934
       203.000         152.000
 127114432.90848  81257995.50048  22286137.9344   22286139.9074   22286138.6554
       236.000         195.000
 125101496.30548  79689466.14148  21903095.9864   21903098.5844   21903095.9504
       242.000         204.000
 118556848.92648  74589746.64148  20657685.6224   20657687.6194   20657685.2804
       250.000         232.000
 132034106.95048  85091501.13948  23222327.9004   23222329.6114   23222328.2284
       234.000         192.000
 135828177.29948  88047931.18048  23944304.7554   23944304.8394   23944305.6574
       221.000         169.000
 126590980.30248  80850113.01348  22186526.9654   22186528.7504   22186526.9614
       239.000         205.000
 09  1 16  1 11 30.0000000  0  9G 5G 9G28G18G26G15G17G22G12
 112154985.56848 105185688.21348  23245332.6394   23245336.0784   23245333.5124
       229.000         182.000
 116821394.71148  73237439.91348  20327443.5554   20327446.2974   20327443.7684
       251.000         225.000
 140240973.30648  91486457.58848  24784045.2194   24784047.7134   24784045.0204
       206.000         154.000
 127106371.67548  81251714.01648  22284603.8154   22284605.9984   22284604.3574
       236.000         195.000
 125185444.92348  79754880.64748  21919070.8354   21919073.0664   21919070.5384
       241.000         204.000
 118597176.70148  74621170.86848  20665360.0234   20665361.8074   20665359.9414
       250.000         232.000
 132028973.42448  85087500.99248  23221350.5924   23221352.2874   23221350.6474
       232.000         192.000
 135770091.55948  88002669.61448  23933251.5184   23933251.5404   23933251.8944
       222.000         174.000
 126503341.49548  80781823.05148  22169849.8114   22169851.6374   22169849.5924
       240.000         205.000
 09  1 16  1 12  0.0000000  0  9G 5G 9G28G18G26G15G17G22G12
 112051857.64848 105105328.81148  23225707.8224   23225711.9474   23225709.1024
       227.000         184.000
 116784729.85548  73208869.90148  20320466.4564   20320469.2684   20320466.5434
       252.000         226.000
 140336231.13648  91560684.43948  24802171.8704   24802174.6434   24802171.8384
       204.000         154.000
 127098888.83048  81245883.22448  22283180.0714   22283182.1024   22283180.7844
       235.000         195.000
 125269705.69448  79820538.38448  21935105.1654   21935107.7684   21935105.1524
       241.000         204.000
 118637963.43848  74652952.73848  20673121.4414   20673123.3184   20673121.2444
       249.000         232.000
 132024385.29148  85083925.83548  23220477.9654   23220479.4304   23220477.8454
       232.000         192.000
 135712459.65948  87957761.63148  23922284.0824   23922284.9464   23922282.5554
       221.000         171.000
 126416040.14148  80713796.03048  22153237.0854   22153238.4794   22153236.9624
       241.000         206.000
 09  1 16  1 12 30.0000000  0  9G 5G 9G28G18G26G15G17G22G12
 111948956.54848 105025146.15448  23206126.0214   23206130.1734   23206125.8464
       226.000         183.000
 116748388.97248  73180552.32648  20313551.1134   20313553.7764   20313551.3754
       252.000         226.000
 140431566.70848  91634971.86148  24820313.9744   24820316.4684   24820314.4714
       210.000         156.000
 127091984.11348  81240502.91448  22281866.1684   22281868.3314   22281866.4794
       236.000         195.000
 125354277.43948  79886438.43348  21951198.6244   21951201.2404   21951198.4944
       241.000         205.000
 118679208.57848  74685091.79948  20680970.2594   20680972.0204   20680970.0464
       249.000         231.000
 132020343.20648  85080776.15648  23219708.4004   23219710.2284   23219708.0604
       231.000         191.000
 135655283.00748  87913208.41048  23911404.0054   23911403.8694   23911404.7004
       220.000         170.000
 126329077.51248  80646032.95948  22136688.4694   22136690.3514   22136688.5894
       240.000         207.000
 09  1 16  1 13  0.0000000  0  9G 5G 9G28G18G26G15G17G22G12
 111846283.79948 104945141.42948  23186588.2674   23186592.1324   23186589.2544
       227.000         183.000
 116712372.34248  73152487.43248  20306697.1684   20306700.0264   20306697.5174
       252.000         226.000
 140526977.49448  91709317.91748  24838470.0614   24838472.6594   24838470.6304
       205.000         158.000
 127085657.83848  81235573.33748  22280662.4814   22280664.3504   22280663.3634
       235.000         195.000
 125439158.72748  79952579.70348  21967351.3034   21967353.7014   21967351.1154
       241.000         204.000
 118720911.43548  74717587.53348  20688906.0114   20688907.6404   20688905.7744
       249.000         231.000
 132016847.26448  85078052.06748  23219043.3654   23219044.5694   23219043.4644
       234.000         191.000
 135598563.28848  87869011.24448  23900610.6524   23900610.6954   23900612.7734
       224.000         172.000
 126242455.27548  80578535.13048  22120204.9154   22120206.6404   22120204.5074
       241.000         206.000
 09  1 16  1 13 30.0000000  0  9G 5G 9G28G18G26G15G17G22G12
 111743840.89648 104865315.82648  23167093.7824   23167097.9594   23167094.7674
       227.000         183.000
 116676680.46548  73124675.58548  20299905.4874   20299908.0824   20299905.5984
       252.000         226.000
 140622461.33648  91783720.88248  24856639.7774   24856642.3554   24856638.4974
       209.000         159.000
 127079909.31248  81231093.95348  22279568.6264   22279570.3254   22279568.9424
       237.000         195.000
 125524347.78348  80018960.78248  21983561.9874   21983564.6974   21983561.9764
       240.000         204.000
 118763071.55648  74750439.57448  20696928.6044   20696930.5514   20696928.4304
       248.000         230.000
 132013898.30348  85075754.18248  23218482.1744   23218483.5624   23218482.5144
       233.000         191.000
 135542301.95348  87825171.24148  23889903.7094   23889904.7694   23889904.1604
       220.000         171.000
 126156174.69248  80511303.53748  22103786.0264   22103787.9874   22103786.1524
       240.000         206.000
 09  1 16  1 14  0.0000000  0  9G 5G 9G28G18G26G15G17G22G12
 111641630.97748 104785671.75048  23147643.9154   23147647.7814   23147644.3384
       226.000         182.000
 116641314.49248  73097117.69448  20293175.4274   20293178.2144   20293175.8144
       253.000         226.000
 140718017.67648  91858180.35148  24874823.3784   24874825.7994   24874823.8904
       212.000         159.000
 127074739.66948  81227065.63848  22278584.8714   22278586.8924   22278584.9684
       236.000         194.000
 125609844.79148  80085581.82248  21999831.5344   21999834.2914   21999831.3854
       240.000         203.000
 118805689.73148  74783648.53148  20705038.3734   20705040.4454   20705038.0354
       248.000         230.000
 132011497.83748  85073883.68448  23218024.9184   23218026.8834   23218024.7804
       231.000         191.000
 135486501.84848  87781690.65548  23879285.8894   23879286.9854   23879285.1434
       222.000         173.000
 126070238.86248  80444340.57048  22087433.0654   22087434.9244   22087433.0064
       240.000         206.000
 09  1 16  1 14 30.0000000  0  9G 5G 9G28G18G26G15G17G22G12
 111539654.52948 104706209.59548  23128238.5804   23128241.9074   23128238.8654
       226.000         182.000
 116606273.81448  73069813.27348  20286507.4084   20286510.0824   20286507.7964
       252.000         227.000
 140813643.47448  91932693.94448  24893020.6984   24893022.4454   24893022.0634
       216.000         160.000
 127070147.72648  81223487.49548  22277710.5504   22277712.6684   22277711.5884
       235.000         194.000
 125695647.69248  80152441.22748  22016159.2164   22016161.8374   22016158.7324
       240.000         202.000
 118848764.78648  74817213.50648  20713235.3134   20713237.2954   20713234.8714
       249.000         230.000
 132009645.59548  85072440.38748  23217672.6584   23217674.2654   23217672.2704
       233.000         192.000
 135431163.25948  87738569.66248  23868755.2514   23868755.3464   23868756.4424
       223.000         169.000
 125984648.06248  80377646.44448  22071145.6074   22071147.3394   22071145.4314
       240.000         206.000
 09  1 16  1 15  0.0000000  0  9G 5G 9G28G18G26G15G17G22G12
 111437913.22548 104626930.68048  23108877.7184   23108881.2254   23108878.3524
       226.000         181.000
 116571558.96348  73042762.74348  20279901.4524   20279904.0584   20279901.5904
       252.000         226.000
 140909336.78348  92007260.13748  24911230.6594   24911232.0254   24911232.6264
       219.000         162.000
 127066133.20148  81220359.28648  22276946.7674   22276948.5974   22276947.3524
       236.000         194.000
 125781754.62448  80219537.54148  22032545.0414   22032547.4614   22032544.8684
       240.000         203.000
 118892296.10648  74851134.01248  20721519.2134   20721521.1544   20721519.0494
       249.000         230.000
 132008342.00048  85071424.60448  23217424.7474   23217426.5944   23217424.3164
       230.000         192.000
 135376288.11448  87695809.82848  23858312.6104   23858313.4774   23858314.3324
       222.000         172.000
 125899403.81148  80311222.35348  22054924.4824   22054925.9034   22054924.4514
       241.000         207.000
 09  1 16  1 15 30.0000000  0  9G 5G 9G28G18G26G15G17G22G12
 111336408.86748 104547836.40648  23089562.3144   23089565.6194   23089563.2584
       227.000         183.000
 116537170.38248  73015966.45048  20273357.4604   20273360.1484   20273357.4254
       252.000         227.000
 141005095.87248  92081877.59948  24929452.8624   24929454.1864   24929454.3194
       216.000         161.000
 127062696.26648  81217681.14648  22276292.9584   22276294.8024   22276293.3414
       236.000         194.000
 125868164.69548  80286870.06248  22048988.2294   22048990.9964   22048988.3344
       240.000         203.000
 118936283.50348  74885409.90648  20729889.9214   20729891.5844   20729889.6224
       249.000         230.000
 132007587.69748  85070836.83648  23217280.8934   23217283.2904   23217280.7074
       233.000         192.000
 135321878.28148  87653412.55548  23847959.1104   23847959.8564   23847958.5344
       222.000         175.000
 125814507.66148  80245069.52648  22038768.9834   22038770.6594   22038768.9124
       239.000         207.000
 09  1 16  1 16  0.0000000  0  9G 5G 9G28G18G26G15G17G22G12
 111235143.65248 104468928.47148  23070292.0804   23070295.6134   23070292.8804
       226.000         184.000
 116503108.85948  72989425.00448  20266875.8654   20266878.5934   20266876.0874
       252.000         227.000
 141100919.22248  92156545.13548  24947688.1094   24947688.4254   24947689.0494
       218.000         162.000
 127059836.98348  81215453.12448  22275749.0074   22275750.8054   22275749.6064
       236.000         195.000
 125954877.08948  80354438.15548  22065488.9584   22065491.8734   22065488.7394
       241.000         202.000
 118980727.34948  74920041.47348  20738347.2254   20738348.9214   20738346.9644
       249.000         230.000
 132007383.50448  85070677.73748  23217242.3654   23217244.2234   23217242.6104
       232.000         193.000
 135267935.52548  87611379.26848  23837693.6514   23837694.9554   23837694.5464
       224.000         173.000
 125729962.01348  80179189.81548  22022680.2684   22022682.1794   22022679.8504
       241.000         207.000
 09  1 16  1 16 30.0000000  0  9G 5G 9G28G18G26G15G17G22G12
 111134120.05048 104390208.80548  23051067.9264   23051071.3714   23051068.3464
       229.000         184.000
 116469375.41248  72963139.20248  20260456.5034   20260459.1344   20260456.8674
       253.000         227.000
 141196805.88748  92231262.01748  24965934.4484   24965934.9134   24965935.8124
       219.000         161.000
 127057556.02448  81213675.74148  22275314.7774   22275316.7324   22275315.1914
       235.000         195.000
 126041890.99548  80422241.20048  22082047.1784   22082049.7524   22082047.1494
       239.000         201.000
 119025627.59848  74955028.67448  20746891.5744   20746893.1904   20746891.1714
       249.000         230.000
 132007730.64448  85070948.25048  23217308.1904   23217310.0094   23217307.9704
       231.000         192.000
 135214462.41148  87569711.92248  23827518.8334   23827518.7614   23827519.2874
       227.000         175.000
 125645768.99148  80113584.86448  22006659.1904   22006660.8274   22006659.2754
       240.000         208.000
 09  1 16  1 17  0.0000000  0  9G 5G 9G28G18G26G15G17G22G12
 111033339.52248 104311678.54648  23031890.2694   23031893.7834   23031891.1784
       228.000         185.000
 116435970.69948  72937109.56048  20254099.8364   20254102.5144   20254100.1594
       252.000         226.000
 141292753.67648  92306026.50448  24984192.5684   24984193.6664   24984193.3394
       217.000         162.000
 127055852.79848  81212348.53848  22274990.5884   22274992.7614   22274991.4994
       234.000         195.000
 126129205.10248  80490278.15648  22098662.3664   22098665.0194   22098662.0634
       239.000         201.000
 119070983.71648  74990371.09548  20755522.4774   20755524.3004   20755522.1114
       249.000         230.000
 132008629.37148  85071648.55948  23217479.1014   23217480.9964   23217478.8524
       231.000         191.000
 135161460.27448  87528411.53948  23817433.1914   23817432.9374   23817434.1664
       222.000         175.000
 125561930.02348  80048255.82448  21990704.9104   21990707.0644   21990705.0434
       239.000         208.000
 09  1 16  1 17 30.0000000  0  9G 5G 9G28G18G26G15G17G22G12
 110932802.63248 104233338.13748  23012758.7644   23012762.3694   23012759.1504
       227.000         184.000
 116402893.71148  72911335.28948  20247805.4444   20247807.9404   20247805.6384
       252.000         227.000
 141388759.48648  92380836.21048  25002461.5764   25002462.9564   25002462.0014
       215.000         162.000
 127054726.06748  81211470.56948  22274776.4674   22274778.3794   22274776.9834
       236.000         196.000
 126216817.03048  80558547.17948  22115334.4394   22115337.0034   22115334.2324
       239.000         200.000
 119116793.83748  75026067.29048  20764239.9104   20764241.6304   20764239.7474
       249.000         230.000
 132010079.00248  85072778.15148  23217755.0654   23217756.7064   23217755.2384
       233.000         191.000
 135108929.76548  87487478.70648  23807436.2324   23807436.8894   23807436.4524
       224.000         178.000
 125478445.41848  79983202.90248  21974818.3714   21974820.3294   21974818.1494
       242.000         209.000
 09  1 16  1 18  0.0000000  0  9G 5G 9G28G18G26G15G17G22G12
 110832511.39248 104155189.14548  22993673.6324   22993677.2784   22993674.2814
       227.000         184.000
 116370145.21048  72885816.97848  20241573.6504   20241576.2394   20241573.7004
       253.000         227.000
 141484821.78548  92455689.94848  25020741.5854   25020743.3094   25020741.4224
       216.000         160.000
 127054175.70348  81211041.71248  22274671.6544   22274673.5854   22274671.5824
       238.000         196.000
 126304725.68948  80627047.44148  22132062.8444   22132065.4324   22132062.9124
       240.000         199.000
 119163058.31148  75062117.53148  20773043.5344   20773045.4164   20773043.1834
       248.000         229.000
 132012080.35348  85074337.64248  23218135.7324   23218137.5414   23218136.0954
       231.000         190.000
 135056872.50148  87446914.59348  23797529.9824   23797530.6124   23797529.8574
       224.000         178.000
 125395317.00948  79918427.51548  21958999.8314   21959001.4824   21958999.7984
       242.000         209.000
 09  1 16  1 18 30.0000000  0  9G 5G 9G28G18G26G15G17G22G12
 110732468.01348 104077233.28148  22974636.1174   22974639.7034   22974636.5024
       228.000         184.000
 116337726.16148  72860555.37948  20235404.4184   20235406.9914   20235404.7294
       253.000         227.000
 141580939.36548  92530586.74748  25039032.0294   25039034.4834   25039032.9194
       217.000         161.000
 127054202.00848  81211062.20248  22274676.5514   22274678.8364   22274677.3544
       236.000         195.000
 126392930.25248  80695778.25848  22148847.4864   22148850.3334   22148847.5904
       238.000         200.000
 119209777.11748  75098521.79048  20781933.8604   20781935.8124   20781933.6094
       249.000         229.000
 132014634.26948  85076327.70048  23218621.7934   23218623.6634   23218621.5874
       231.000         191.000
 135005290.67748  87406720.98448  23787714.6784   23787715.3004   23787714.0534
       221.000         177.000
 125312547.01148  79853931.41948  21943249.1654   21943250.8074   21943249.0974
       241.000         209.000
 09  1 16  1 19  0.0000000  0  9G 5G 9G28G18G26G15G17G22G12
 110632674.14948 103999471.84448  22955646.0104   22955649.4814   22955646.2864
       229.000         185.000
 116305636.79248  72835550.68048  20229298.1004   20229300.7184   20229298.1244
       253.000         227.000
 141677110.41948  92605525.22548  25057332.5894   25057335.3684   25057333.2394
       215.000         160.000
 127054804.57848  81211531.72248  22274790.9644   22274793.2544   22274791.4084
       235.000         194.000
 126481429.38548  80764738.61648  22165688.4494   22165691.2604   22165688.2244
       239.000         200.000
 119256949.56748  75135279.54148  20790910.6024   20790912.6324   20790910.2454
       248.000         229.000
 132017741.57048  85078748.98448  23219213.2014   23219215.1804   23219212.6364
       232.000         192.000
 134954185.69648  87366898.92048  23777989.3424   23777989.8864   23777988.1414
       229.000         181.000
 125230136.75648  79789715.65548  21927567.0304   21927568.6594   21927566.8714
       242.000         209.000
 09  1 16  1 19 30.0000000  0  9G 5G 9G28G18G26G15G17G22G12
 110533130.51448 103921905.38748  22936703.3054   22936707.1394   22936704.2774
       227.000         185.000
 116273876.86848  72810802.69548  20223254.3864   20223257.0524   20223254.7664
       253.000         228.000
 141773332.18548  92680503.20448  25075643.2994   25075645.5664   25075643.9894
       215.000         159.000
 127055982.11148  81212449.27648  22275015.2244   22275017.2254   22275015.7084
       235.000         195.000
 126570220.75648  80833926.70048  22182584.8144   22182587.5774   22182585.1734
       238.000         199.000
 119304574.37248  75172389.77448  20799973.3214   20799975.2344   20799973.0604
       249.000         229.000
 132021401.27148  85081600.69248  23219909.4944   23219911.7474   23219909.1604
       230.000         191.000
 134903558.39348  87327449.06848  23768356.1514   23768355.8814   23768356.5464
       226.000         180.000
 125148086.83348  79725780.66448  21911953.1584   21911955.0524   21911953.0804
       241.000         209.000
 09  1 16  1 20  0.0000000  0  9G 5G 9G28G18G26G15G17G22G12
 110433839.44648 103844535.74748  22917808.5394   22917812.5844   22917808.7784
       226.000         185.000
 116242446.96248  72786311.85748  20217273.4894   20217276.1264   20217273.4404
       252.000         228.000
 141869603.35448  92755519.66848  25093962.7374   25093965.4834   25093964.7974
       216.000         159.000
 127057734.96448  81213815.13148  22275348.6624   22275350.7454   22275349.5834
       236.000         195.000
 126659303.84548  80903342.09348  22199536.6554   22199539.5604   22199536.2964
       238.000         199.000
 119352651.67248  75209852.60048  20809122.0674   20809123.9194   20809122.0104
       248.000         229.000
 132025614.26248  85084883.55848  23220710.9664   23220713.1184   23220710.5304
       228.000         191.000
 134853410.66348  87288372.95748  23758812.1384   23758813.4974   23758810.9074
       223.000         178.000
 125066399.29648  79662128.04648  21896408.5464   21896410.2504   21896408.3144
       240.000         209.000
 09  1 16  1 20 30.0000000  0  9G 5G 9G28G18G26G15G17G22G12
 110334803.73548 103767365.08648  22898962.5764   22898966.5064   22898962.9084
       228.000         185.000
 116211348.98648  72762079.67048  20211355.7624   20211358.4214   20211356.0054
       252.000         228.000
 141965923.59448  92830574.37348  25112292.0934   25112294.5394   25112293.2944
       214.000         158.000
 127060063.46748  81215629.54548  22275791.7284   22275794.0934   22275791.7654
       235.000         195.000
 126748678.31648  80972984.52648  22216544.1784   22216547.0364   22216543.8964
       238.000         200.000
 119401182.27648  75247668.65148  20818357.1104   20818358.9144   20818356.6184
       249.000         229.000
 132030382.02448  85088598.70448  23221618.0414   23221620.4714   23221617.6124
       228.000         190.000
 134803745.53748  87249672.86148  23749361.9244   23749362.0074   23749360.9224
       227.000         179.000
 124985076.69748  79598759.81548  21880933.1494   21880935.3944   21880932.9564
       241.000         210.000
 09  1 16  1 21  0.0000000  0 10G30G 5G 9G28G18G26G15G17G22G12
 142288825.14358  93082200.66958  25173726.9625   25173728.6005   25173727.2965
       208.000         141.000
 110236023.09848 103690393.18248  22880165.4704   22880169.2434   22880166.2684
       230.000         186.000
 116180581.43048  72738104.95448  20205500.9374   20205503.6544   20205501.1274
       252.000         228.000
 142062288.96548  92905664.24548  25130629.6994   25130632.5504   25130629.9194
       213.000         156.000
 127062965.67648  81217891.00048  22276343.9494   22276346.4884   22276344.3074
       236.000         197.000
 126838340.84748  81042851.42648  22233606.4394   22233609.1514   22233606.4844
       238.000         198.000
 119450163.06348  75285835.50448  20827677.9404   20827679.7764   20827677.7804
       248.000         229.000
 132035702.86848  85092744.81448  23222630.8064   23222632.9964   23222629.6254
       229.000         191.000
 134754561.73248  87211347.81048  23740002.2684   23740002.6804   23740002.6524
       224.000         176.000
 124904118.72448  79535675.71048  21865527.5244   21865529.4804   21865527.1984
       242.000         210.000
 09  1 16  1 21 30.0000000  0 10G30G 5G 9G28G18G26G15G17G22G12
 142176043.90748  92994319.16948  25152264.9404   25152267.2254   25152268.3714
       209.000         146.000
 110137499.82948 103613621.81748  22861416.9614   22861420.9774   22861417.8374
       229.000         187.000
 116150145.04348  72714388.28548  20199709.1704   20199711.7784   20199709.5094
       252.000         228.000
 142158698.16748  92980788.27948  25148975.5274   25148977.6414   25148975.9314
       214.000         156.000
 127066441.59748  81220599.50948  22277005.9114   22277007.9534   22277006.2714
       236.000         197.000
 126928290.74948  81112942.25648  22250723.3844   22250725.9304   22250723.5084
       236.000         198.000
 119499594.72948  75324353.68148  20837084.4004   20837086.4234   20837084.1784
       248.000         228.000
 132041577.82348  85097322.70848  23223748.9864   23223751.0054   23223749.2634
       232.000         191.000
 134705862.15248  87173400.08148  23730734.9274   23730735.0424   23730735.0164
       226.000         176.000
 124823527.48748  79472877.34348  21850191.7034   21850193.2594   21850191.5744
       242.000         210.000
 09  1 16  1 22  0.0000000  0 10G30G 5G 9G28G18G26G15G17G22G12
 142063327.42848  92906488.18448  25130816.0174   25130818.0394   25130814.6584
       210.000         146.000
 110039234.60648 103537051.51448  22842717.9214   22842721.7084   22842718.2054
       229.000         187.000
 116120039.49248  72690929.42348  20193980.2284   20193982.8834   20193980.4634
       252.000         228.000
 142255148.47248  93055944.33548  25167329.7684   25167332.1524   25167329.9394
       214.000         157.000
 127070489.80648  81223753.94448  22277776.0214   22277778.4554   22277776.1384
       237.000         196.000
 127018525.72548  81183255.22748  22267894.7604   22267897.2134   22267894.4944
       238.000         199.000
 119549475.79148  75363222.04148  20846576.3604   20846578.3124   20846576.0704
       248.000         228.000
 132048006.21648  85102331.82948  23224972.5794   23224974.1974   23224972.7084
       231.000         191.000
 134657647.10148  87135829.90148  23721559.8354   23721560.8134   23721561.0764
       221.000         177.000
 124743303.28448  79410364.99048  21834925.3114   21834927.0564   21834925.0504
       240.000         209.000
 09  1 16  1 22 30.0000000  0 10G30G 5G 9G28G18G26G15G17G22G12
 141950678.50648  92818709.82448  25109379.4834   25109382.0954   25109378.7734
       208.000         146.000
 109941230.15448 103460684.42348  22824068.4024   22824071.8124   22824068.7524
       230.000         186.000
 116090266.29248  72667729.52848  20188314.6934   20188317.1524   20188314.7944
       252.000         228.000
 142351639.44948  93131132.11048  25185691.0834   25185693.8234   25185691.6114
       211.000         153.000
 127075110.75248  81227354.67448  22278655.4784   22278657.6094   22278656.0384
       237.000         197.000
 127109045.52348  81253790.13348  22285119.8834   22285122.4014   22285119.7064
       236.000         197.000
 119599806.44448  75402440.73148  20856154.0094   20856155.8874   20856153.6244
       249.000         228.000
 132054989.05948  85107773.02448  23226300.8124   23226302.8684   23226300.9314
       231.000         191.000
 134609918.71248  87098638.96548  23712476.8284   23712478.1944   23712477.1144
       223.000         175.000
 124663448.90248  79348140.81648  21819729.4614   21819731.2374   21819729.6054
       240.000         209.000
 09  1 16  1 23  0.0000000  0 10G30G 5G 9G28G18G26G15G17G22G12
 141838099.21348  92730985.73448  25087955.9424   25087958.3204   25087956.1194
       207.000         144.000
 109843488.62848 103384522.21548  22805468.7104   22805472.3954   22805469.7804
       230.000         187.000
 116060826.32348  72644789.29448  20182712.2124   20182714.9034   20182712.3414
       252.000         228.000
 142448169.73748  93206350.47748  25204060.2394   25204062.5954   25204060.9964
       210.000         152.000
 127080304.34548  81231401.62148  22279643.8854   22279645.8934   22279644.1904
       236.000         196.000
 127199849.19448  81324546.23248  22302399.1864   22302401.7774   22302398.9564
       237.000         197.000
 119650586.39548  75442009.52148  20865817.1014   20865819.0944   20865816.9264
       248.000         228.000
 132062527.13048  85113646.85648  23227735.4324   23227737.6004   23227735.4674
       231.000         192.000
 134562679.32548  87061829.05548  23703488.2774   23703488.2924   23703488.4574
       226.000         177.000
 124583966.03348  79286206.13648  21804604.3824   21804606.2044   21804604.2064
       241.000         210.000
 09  1 16  1 23 30.0000000  0 10G30G 5G 9G28G18G26G15G17G22G12
 141725590.64348  92643316.72648  25066545.8174   25066548.2054   25066545.5024
       207.000         145.000
 109746010.89448 103308565.55148  22786919.4864   22786923.1054   22786919.7714
       231.000         188.000
 116031718.99848  72622108.26248  20177173.4534   20177175.9244   20177173.6114
       252.000         228.000
 142544736.81448  93281597.53548  25222436.3944   25222438.3914   25222436.5114
       210.000         152.000
 127086069.44548  81235893.90148  22280741.1914   22280742.9144   22280741.6854
       237.000         196.000
 127290934.64448  81395521.91348  22319732.3094   22319734.6814   22319732.0234
       237.000         197.000
 119701814.63748  75481927.62748  20875565.5924   20875567.3684   20875565.3354
       248.000         228.000
 132070619.83848  85119952.86648  23229275.3184   23229277.4684   23229275.2534
       230.000         191.000
 134515929.71248  87025400.79248  23694591.4224   23694592.5234   23694591.1674
       225.000         179.000
 124504855.42448  79224561.52248  21789550.3554   21789552.0894   21789550.2744
       242.000         211.000
 09  1 16  1 24  0.0000000  0 10G30G 5G 9G28G18G26G15G17G22G12
 141613154.73748  92555704.36848  25045149.7294   25045152.9974   25045149.3344
       214.000         150.000
 109648798.93648 103232815.99548  22768420.8864   22768424.3584   22768421.9484
       232.000         188.000
 116002945.08248  72599687.03648  20171697.7924   20171700.4804   20171697.8904
       253.000         228.000
 142641339.22848  93356872.13348  25240820.0384   25240820.6054   25240820.4544
       209.000         148.000
 127092406.04748  81240831.50148  22281946.8094   22281948.8254   22281947.3844
       236.000         196.000
 127382300.83948  81466716.35148  22337118.6144   22337121.3284   22337118.7574
       237.000         197.000
 119753490.83148  75522194.79048  20885399.3774   20885401.0944   20885399.2454
       248.000         227.000
 132079267.87448  85126691.60048  23230921.1344   23230923.0754   23230920.7124
       230.000         192.000
 134469671.46548  86989355.41448  23685789.4684   23685789.5624   23685790.9074
       229.000         180.000
 124426118.70748  79163208.24748  21774567.0934   21774568.8074   21774567.0574
       242.000         211.000
 09  1 16  1 24 30.0000000  0 10G30G 5G 9G28G18G26G15G17G22G12
 141500792.68548  92468149.50648  25023768.7014   25023772.0494   25023769.1664
       212.000         154.000
 109551853.62548 103157274.21148  22749972.4284   22749975.9494   22749973.3684
       231.000         188.000
 115974504.29348  72577525.39148  20166285.6364   20166288.3744   20166285.9054
       252.000         228.000
 142737974.46248  93432172.31948  25259208.7294   25259208.7364   25259210.5434
       209.000         148.000
 127099312.31448  81246212.99448  22283260.9354   22283262.9794   22283261.4214
       236.000         196.000
 127473945.46648  81538127.73648  22354558.0714   22354560.6834   22354557.6884
       236.000         196.000
 119805613.69248  75562810.00448  20895317.8624   20895319.7404   20895317.5324
       248.000         227.000
 132088470.32448  85133862.34548  23232672.7624   23232674.4594   23232672.5014
       232.000         192.000
 134423905.12048  86953693.32348  23677080.5444   23677081.1944   23677080.5614
       229.000         183.000
 124347756.69448  79102146.95748  21759655.5294   21759657.0184   21759655.2894
       241.000         211.000
 09  1 16  1 25  0.0000000  0 10G30G 5G 9G28G18G26G15G17G22G12
 141388506.66748  92380653.93748  25002400.7724   25002404.2764   25002399.1904
       212.000         152.000
 109455177.21748 103081941.96648  22731575.5404   22731579.1184   22731575.6494
       231.000         189.000
 115946397.87848  72555624.29248  20160937.1664   20160939.8124   20160937.3334
       252.000         228.000
 142834641.45748  93507497.27248  25277603.9194   25277604.5814   25277604.7084
       209.000         149.000
 127106788.54348  81252038.62548  22284683.5964   22284685.7294   22284683.8864
       237.000         196.000
 127565867.96848  81609755.66048  22372050.5744   22372052.8634   22372050.4634
       236.000         196.000
 119858183.16748  75603773.23148  20905321.6244   20905323.5144   20905321.3474
       248.000         228.000
 132098228.19748  85141465.86848  23234529.6694   23234531.0814   23234529.7994
       233.000         192.000
 134378632.71748  86918416.12348  23668465.7434   23668465.8634   23668466.0064
       227.000         182.000
 124269771.24148  79041379.07948  21744815.2294   21744816.8234   21744815.1634
       241.000         211.000
 09  1 16  1 25 30.0000000  0 10G30G 5G 9G28G18G26G15G17G22G12
 141276298.19548  92293218.76648  24981048.1544   24981052.1244   24981048.6064
       213.000         153.000
 109358771.47148 103006820.63648  22713230.1374   22713233.6134   22713230.7064
       233.000         190.000
 115918626.18448  72533984.01448  20155652.4184   20155654.8714   20155652.5784
       252.000         228.000
 142931338.57548  93582845.68248  25296004.9294   25296005.3214   25296004.4834
       211.000         147.000
 127114834.13248  81258307.90448  22286214.7074   22286216.5214   22286215.6254
       235.000         195.000
 127658066.68148  81681598.81548  22389595.1424   22389597.4704   22389594.8254
       236.000         195.000
 119911198.64748  75645083.98848  20915409.8464   20915412.1734   20915409.4684
       248.000         227.000
 132108541.60848  85149502.29448  23236492.0324   23236493.5754   23236492.2634
       230.000         191.000
 134333855.75348  86883524.98948  23659944.3634   23659944.8984   23659944.4044
       227.000         178.000
 124192163.91848  78980905.84848  21730047.0804   21730048.6314   21730047.0934
       242.000         212.000
 09  1 16  1 26  0.0000000  0 10G30G 5G 9G28G18G26G15G17G22G12
 141164168.53348  92205845.01548  24959710.8914   24959713.9024   24959710.2264
       212.000         152.000
 109262637.36448 102931910.94848  22694936.4194   22694939.5564   22694937.9714
       230.000         189.000
 115891189.33148  72512604.65148  20150431.4264   20150433.9044   20150431.6724
       252.000         229.000
 143028063.64848  93658215.85348  25314410.6714   25314411.4454   25314411.2144
       208.000         145.000
 127123447.67348  81265019.74748  22287853.5904   22287855.5594   22287854.2974
       235.000         194.000
 127750540.03748  81753655.97148  22407192.4034   22407194.9384   22407192.7144
       235.000         194.000
 119964658.92648  75686741.34848  20925583.2044   20925585.0994   20925582.8694
       248.000         227.000
 132119410.06548  85157971.22948  23238560.0394   23238561.6144   23238560.1114
       230.000         191.000
 134289574.74348  86849020.28148  23651518.3544   23651517.2654   23651519.3494
       227.000         180.000
 124114935.61148  78920727.96248  21715351.1364   21715352.6204   21715350.8744
       242.000         213.000
 09  1 16  1 26 30.0000000  0 10G30G 5G 9G28G18G26G15G17G22G12
 141052120.55248  92118534.93348  24938388.7334   24938391.6024   24938389.2164
       214.000         155.000
 109166777.58448 102857215.01848  22676694.6414   22676698.0534   22676695.1174
       234.000         190.000
 115864088.71248  72491487.28948  20145274.4004   20145276.9424   20145274.5984
       253.000         229.000
 143124816.15548  93733607.41348  25332822.6374   25332823.7614   25332823.9294
       208.000         146.000
 127132629.89048  81272174.71748  22289601.1474   22289602.8874   22289601.6344
       236.000         194.000
 127843287.78148  81825926.92048  22424841.7164   22424844.2394   22424841.4154
       236.000         196.000
 120018564.53448  75728745.71648  20935841.0124   20935843.0044   20935840.8084
       247.000         226.000
 132130834.64848  85166873.50448  23240733.9974   23240735.6944   23240733.7504
       232.000         191.000
 134245792.46048  86814904.23648  23643186.4384   23643187.5094   23643186.3174
       225.000         181.000
 124038088.72148  78860847.27248  21700727.7714   21700729.2334   21700727.8164
       242.000         214.000
 09  1 16  1 27  0.0000000  0 10G30G 5G 9G28G18G26G15G17G22G12
 140940155.11848  92031289.13948  24917082.1604   24917085.4124   24917081.4754
       212.000         155.000
 109071192.96548 102782733.51648  22658505.5624   22658509.4934   22658506.3264
       232.000         190.000
 115837323.90548  72470631.60348  20140181.0264   20140183.7914   20140181.0914
       252.000         229.000
 143221593.37648  93809018.24548  25351238.6424   25351240.2914   25351239.8754
       209.000         147.000
 127142379.01848  81279771.43048  22291456.0704   22291457.9924   22291456.5384
       235.000         194.000
 127936307.52748  81898409.83648  22442543.0084   22442545.7884   22442542.9454
       236.000         196.000
 120072913.60748  75771095.64348  20946183.2894   20946185.2434   20946182.9204
       248.000         226.000
 132142814.58548  85176208.50448  23243014.0614   23243015.6764   23243013.8434
       231.000         193.000
 134202509.12348  86781176.93548  23634949.9974   23634951.2444   23634949.9584
       225.000         177.000
 123961623.67948  78801264.13848  21686176.8054   21686178.4254   21686176.6964
       242.000         214.000
 09  1 16  1 27 30.0000000  0 10G30G 5G 9G28G18G26G15G17G22G12
 140828274.90648  91944109.74848  24895791.6174   24895795.5694   24895791.1744
       212.000         154.000
 108975885.84248 102708468.24448  22640368.5614   22640372.9894   22640369.2534
       232.000         191.000
 115810896.07948  72450038.49948  20135152.1934   20135154.6714   20135152.4784
       252.000         229.000
 143318394.51948  93884447.69848  25369659.0214   25369661.0564   25369658.6234
       201.000         143.000
 127152695.13348  81287809.96148  22293419.1664   22293421.2394   22293419.7094
       236.000         195.000
 128029598.41048  81971104.02748  22460295.5784   22460298.1404   22460295.5814
       234.000         194.000
 120127706.61648  75813791.49148  20956610.0904   20956611.8644   20956609.8044
       248.000         226.000
 132155350.21648  85185976.53548  23245399.6234   23245401.1824   23245399.1204
       232.000         193.000
 134159727.28148  86747840.40348  23626808.6074   23626809.0164   23626807.8674
       222.000         176.000
 123885542.60048  78741980.18948  21671699.0534   21671700.6514   21671699.0454
       243.000         214.000
 09  1 16  1 28  0.0000000  0 10G30G 5G 9G28G18G26G15G17G22G12
 140716480.26248  91856997.03748  24874517.8824   24874521.9964   24874518.7514
       215.000         157.000
 108880857.18648 102634419.96148  22622285.8654   22622289.4154   22622285.9834
       235.000         192.000
 115784804.64548  72429707.51648  20130187.0234   20130189.6274   20130186.9514
       253.000         229.000
 143415217.27348  93959893.98048  25388083.5284   25388085.2994   25388082.6164
       206.000         143.000
 127163576.80248  81296289.18248  22295490.1754   22295492.2134   22295490.4404
       235.000         195.000
 128123158.55248  82044008.03848  22478099.1704   22478102.0834   22478099.0554
       235.000         194.000
 120182941.89548  75856831.96548  20967121.0104   20967122.9014   20967120.7714
       248.000         226.000
 132168441.50948  85196177.54848  23247890.7864   23247892.4004   23247890.8334
       232.000         193.000
 134117447.03448  86714894.79648  23618763.3764   23618764.3474   23618762.0914
       227.000         179.000
 123809846.38648  78682996.13248  21657294.7254   21657296.2544   21657294.6314
       243.000         215.000
 09  1 16  1 28 30.0000000  0 10G30G 5G 9G28G18G26G15G17G22G12
 140604773.04948  91769952.45948  24853262.0184   24853264.7004   24853261.6894
       216.000         158.000
 108786108.35148 102560589.71248  22604255.8914   22604259.2634   22604257.1844
       233.000         192.000
 115759050.24148  72409639.15248  20125286.1904   20125288.6084   20125286.6234
       252.000         229.000
 143512059.74748  94035355.65348  25406511.8314   25406514.8904   25406512.9014
       208.000         142.000
 127175023.14748  81305208.41348  22297668.0394   22297670.3934   22297668.5514
       236.000         193.000
 128216986.33748  82117120.59548  22495954.0484   22495956.8704   22495953.5414
       234.000         194.000
 120238618.69148  75900216.48248  20977715.9504   20977717.7634   20977715.6604
       247.000         226.000
 132182087.81848  85206811.03048  23250487.4504   23250489.1494   23250487.3104
       234.000         193.000
 134075668.99948  86682340.47248  23610813.0734   23610813.5084   23610812.4084
       225.000         175.000
 123734535.99148  78624312.73348  21642963.5004   21642965.0744   21642963.1984
       243.000         215.000
 09  1 16  1 29  0.0000000  0 10G30G 5G 9G28G18G26G15G17G22G12
 140493155.54748  91682977.83348  24832021.6534   24832024.3014   24832022.4034
       216.000         159.000
 108691641.26648 102486979.02148  22586279.5524   22586282.9184   22586280.2204
       234.000         193.000
 115733633.67848  72389834.04048  20120449.6024   20120452.1514   20120449.7664
       253.000         229.000
 143608920.52048  94110831.54448  25424943.8574   25424946.2974   25424945.2004
       205.000         140.000
 127187033.65348  81314567.24448  22299953.2624   22299955.5244   22299953.7974
       234.000         192.000
 128311080.73448  82190440.89848  22513859.6174   22513862.5754   22513859.6394
       233.000         194.000
 120294736.43848  75943944.58948  20988394.9394   20988396.7504   20988394.6644
       248.000         226.000
 132196289.15248  85217876.99448  23253190.0434   23253191.4974   23253190.0674
       233.000         194.000
 134034394.93948  86650178.86548  23602958.2344   23602959.1144   23602957.5094
       224.000         176.000
 123659612.69848  78565930.95448  21628706.0834   21628707.5734   21628705.9554
       243.000         215.000
 09  1 16  1 29 30.0000000  0 10G30G 5G 9G28G18G26G15G17G22G12
 140381628.60948  91596073.76348  24810798.6424   24810801.4134   24810798.5494
       213.000         157.000
 108597456.90648 102413588.63448  22568356.8624   22568360.2204   22568357.9074
       233.000         193.000
 115708554.42948  72370291.78048  20115677.1474   20115679.7344   20115677.3244
       253.000         229.000
 143705797.70148  94186320.26248  25443379.4284   25443383.3514   25443379.8074
       204.000         143.000
 127199606.53848  81324364.30548  22302346.1184   22302348.2584   22302346.1084
       235.000         192.000
 128405439.41048  82263967.12948  22531815.0084   22531818.3544   22531814.9874
       232.000         192.000
 120351293.81148  75988015.26648  20999157.4474   20999159.2454   20999157.2284
       248.000         226.000
 132211045.42248  85229375.39048  23255998.2304   23255999.3824   23255998.2434
       233.000         193.000
 133993626.30448  86618411.12748  23595200.6194   23595201.4104   23595200.7054
       226.000         177.000
 123585077.71948  78507851.76248  21614522.3474   21614523.9084   21614522.3204
       242.000         215.000
 09  1 16  1 30  0.0000000  0 10G30G 5G 9G28G18G26G15G17G22G12
 140270193.75648  91509241.44248  24789592.9964   24789595.9284   24789592.2994
       212.000         157.000
 108503556.92048 102340419.83948  22550487.9904   22550491.7424   22550489.2434
       234.000         193.000
 115683813.35948  72351013.02748  20110968.9434   20110971.8444   20110969.2014
       252.000         229.000
 143802689.53048  94261820.39248  25461817.4144   25461819.5624   25461817.5604
       206.000         143.000
 127212741.25648  81334599.13148  22304845.8014   22304847.4374   22304846.0854
       235.000         193.000
 128500061.19948  82337698.38148  22549821.4424   22549824.3104   22549821.0574
       233.000         192.000
 120408290.30848  76032428.11948  21010003.3024   21010005.2494   21010002.9324
       248.000         225.000
 132226356.59448  85241306.17148  23258911.6294   23258913.1294   23258911.7874
       231.000         192.000
 133953363.55248  86587037.55848  23587538.4524   23587538.8444   23587537.6954
       225.000         175.000
 123510932.22748  78450076.06148  21600412.9754   21600414.7444   21600412.9014
       243.000         216.000
 09  1 16  1 30 30.0000000  0 10G30G 5G 9G28G18G26G15G17G22G12
 140158853.14548  91422482.55048  24768405.4944   24768408.6724   24768404.8194
       214.000         156.000
 108409942.97748 102267473.93948  22532673.5534   22532677.5194   22532674.5584
       234.000         193.000
 115659410.71048  72331997.98048  20106325.3604   20106328.2684   20106325.5184
       252.000         229.000
 143899594.67248  94337330.84048  25480257.2594   25480260.1844   25480258.2834
       207.000         142.000
 127226437.08048  81345271.19148  22307451.7244   22307453.4214   22307452.3294
       234.000         192.000
 128594944.71648  82411633.59648  22567877.1864   22567879.9084   22567877.1674
       233.000         191.000
 120465725.13648  76077182.52048  21020933.0194   21020934.7724   21020932.6404
       247.000         225.000
 132242222.24348  85253669.01648  23261930.3524   23261932.1314   23261929.7744
       233.000         193.000
 133913608.60548  86556059.63948  23579974.6744   23579974.4694   23579974.2374
       229.000         183.000
 123437177.80148  78392605.08948  21586378.0254   21586379.8534   21586378.0724
       244.000         216.000
 09  1 16  1 31  0.0000000  0 10G30G 5G 9G28G18G26G15G17G22G12
 140047608.27948  91335798.23448  24747237.8804   24747239.2884   24747237.4664
       215.000         157.000
 108316616.37348 102194751.93248  22514914.1614   22514917.8674   22514915.3594
       234.000         193.000
 115635346.88448  72313246.94848  20101746.1914   20101748.8904   20101746.2994
       253.000         229.000
 143996510.80848  94412849.90148  25498700.7254   25498702.4984   25498700.5744
       208.000         140.000
 127240692.94948  81356379.64648  22310164.6364   22310166.4704   22310165.0814
       236.000         193.000
 128690088.30948  82485771.46048  22585982.1824   22585985.0694   22585982.1894
       232.000         192.000
 120523597.14448  76122277.59648  21031945.5974   21031947.4514   21031945.1684
       248.000         225.000
 132258642.20548  85266463.78348  23265055.4724   23265057.0464   23265055.0694
       233.000         195.000
 133874361.49148  86525477.49448  23572504.9614   23572506.4644   23572505.3264
       226.000         178.000
 123363815.04648  78335439.31148  21572417.5574   21572419.4004   21572417.3264
       243.000         217.000
 09  1 16  1 31 30.0000000  0 10G30G 5G 9G28G18G26G15G17G22G12
 139936460.44448  91249189.53948  24726086.8944   24726088.2224   24726086.9134
       216.000         157.000
 108223578.61248 102122254.99648  22497209.4564   22497213.1674   22497210.8594
       235.000         192.000
 115611622.25148  72294760.22948  20097231.4944   20097234.1074   20097231.7304
       252.000         229.000
 144093436.66548  94488376.57448  25517144.8244   25517146.2794   25517145.0964
       207.000         140.000
 127255508.08748  81367923.89848  22312984.0794   22312985.5804   22312984.9374
       236.000         192.000
 128785490.55748  82560110.85648  22604136.9774   22604139.6484   22604137.2774
       234.000         192.000
 120581905.81848  76167712.91748  21043041.5194   21043043.2304   21043041.4744
       248.000         225.000
 132275616.19048  85279690.25748  23268285.5914   23268286.9224   23268285.3924
       231.000         193.000
 133835624.11248  86495292.50148  23565134.3534   23565134.8314   23565134.2024
       228.000         182.000
 123290845.40548  78278579.86048  21558532.0814   21558533.8014   21558532.0494
       244.000         217.000
 09  1 16  1 32  0.0000000  0 10G30G 5G 9G28G18G26G15G17G22G12
 139825411.40748  91162657.82648  24704954.5154   24704956.2554   24704954.0594
       217.000         158.000
 108130831.30048 102049984.37248  22479560.4894   22479563.8114   22479561.3304
       235.000         193.000
 115588237.04548  72276537.99148  20092781.5204   20092784.1074   20092781.6544
       252.000         229.000
 144190371.09048  94563909.90248  25535590.6974   25535592.4704   25535590.5964
       208.000         140.000
 127270881.28248  81379903.00348  22315909.3804   22315911.2714   22315910.1074
       236.000         193.000
 128881149.88248  82634650.57048  22622340.4394   22622342.9704   22622340.3554
       232.000         191.000
 120640650.12848  76213487.70348  21054219.9764   21054221.8534   21054219.7004
       246.000         224.000
 132293144.08648  85293348.36648  23271621.0004   23271622.3214   23271620.9164
       233.000         193.000
 133797397.63848  86465505.65348  23557859.9274   23557860.7284   23557858.8984
       225.000         182.000
 123218270.34148  78222027.87648  21544721.3464   21544722.9404   21544721.4364
       244.000         216.000
 09  1 16  1 32 30.0000000  0 10G30G 5G 9G28G18G26G15G17G22G12
 139714459.75548  91076201.98248  24683841.1374   24683843.3164   24683841.4114
       218.000         159.000
 108038372.53848 101977938.59748  22461966.1104   22461969.4744   22461967.3194
       233.000         194.000
 115565188.32748  72258577.95148  20088395.4304   20088398.0094   20088395.6784
       252.000         229.000
 144287308.39948  94639445.47048  25554037.7624   25554038.2924   25554038.6204
       204.000         139.000
 127286808.01648  81392313.43048  22318939.9834   22318942.0854   22318940.4084
       235.000         193.000
 128977061.51648  82709386.89748  22640591.9334   22640594.1624   22640591.8064
       233.000         192.000
 120699825.75848  76259598.57348  21065480.8094   21065482.6914   21065480.3484
       248.000         224.000
 132311222.14148  85307435.15948  23275060.8124   23275062.4014   23275060.4924
       233.000         192.000
 133759679.08048  86436114.57348  23550682.3954   23550683.3664   23550682.8914
       229.000         181.000
 123146087.34148  78165781.38748  21530985.3614   21530986.9034   21530985.1464
       244.000         216.000
 09  1 16  1 33  0.0000000  0  9G30G 5G 9G18G26G15G17G22G12
 139603611.52048  90989826.76248  24662747.2674   24662749.7064   24662747.2364
       216.000         160.000
 107946208.41948 101906122.42648  22444427.8344   22444431.3454   22444428.4654
       237.000         195.000
 115542481.24648  72240884.13048  20084074.3764   20084077.0234   20084074.5804
       252.000         229.000
 127303291.91948  81405158.02048  22322077.0154   22322079.1124   22322077.3534
       236.000         194.000
 129073228.38448  82784322.12848  22658891.7614   22658894.2224   22658891.4874
       232.000         191.000
 120759436.32348  76306048.36248  21076824.3564   21076826.1424   21076824.2044
       247.000         224.000
 132329854.52948  85321953.89348  23278606.6664   23278608.0284   23278606.2144
       236.000         193.000
 133722474.47748  86407123.94448  23543601.8664   23543602.7254   23543602.3274
       221.000         176.000
 123074302.15648  78109844.90448  21517324.9534   21517326.5404   21517324.9234
       244.000         216.000
 09  1 16  1 33 30.0000000  0  9G30G 5G 9G18G26G15G17G22G12
 139492869.31748  90903534.12048  24641673.5304   24641676.1434   24641673.9814
       217.000         159.000
 107854341.31448 101834537.67748  22426946.3444   22426949.5004   22426947.5484
       235.000         195.000
 115520117.26548  72223457.65448  20079818.6184   20079821.2554   20079818.8184
       251.000         229.000
 127320333.00648  81418436.78648  22325319.8704   22325321.7934   22325320.0724
       236.000         194.000
 129169649.93648  82859455.80648  22677240.1324   22677242.7544   22677240.4904
       232.000         190.000
 120819481.84248  76352837.07448  21088250.5594   21088252.4774   21088250.1854
       247.000         224.000
 132349041.83648  85336905.04248  23282257.7514   23282259.4084   23282257.8214
       232.000         193.000
 133685785.59548  86378535.22048  23536620.5634   23536621.5204   23536619.8594
       228.000         180.000
 123002916.82148  78054219.98148  21503740.7694   21503742.3774   21503740.6864
       244.000         217.000
 09  1 16  1 34  0.0000000  0  9G30G 5G 9G18G26G15G17G22G12
 139382232.98948  90817323.98848  24620619.4814   24620622.4014   24620619.5864
       218.000         157.000
 107762771.06748 101763184.26248  22409520.9814   22409524.3424   22409521.8994
       235.000         197.000
 115498094.63648  72206297.17148  20075627.7394   20075630.4254   20075627.7724
       251.000         229.000
 127337928.08448  81432147.22048  22328667.8774   22328670.2324   22328668.5144
       235.000         194.000
 129266323.01448  82934785.46148  22695636.3214   22695639.0484   22695636.2644
       228.000         190.000
 120879959.85948  76399962.80348  21099759.1594   21099761.1334   21099759.0194
       247.000         224.000
 132368782.39648  85352287.30248  23286014.0074   23286015.8824   23286013.4854
       235.000         193.000
 133649611.86348  86350347.87948  23529736.8394   23529736.9394   23529735.9964
       223.000         174.000
 122931930.98148  77998906.34948  21490232.8764   21490234.0694   21490232.9474
       245.000         218.000
 09  1 16  1 34 30.0000000  0  9G30G 5G 9G18G26G15G17G22G12
 139271704.94648  90731198.23048  24599587.3154   24599589.3754   24599587.4594
       217.000         159.000
 107671499.60048 101692063.65048  22392152.4054   22392156.0814   22392153.2824
       236.000         197.000
 115476414.54948  72189403.60248  20071502.0814   20071504.8604   20071502.3944
       251.000         228.000
 127356076.79248  81446289.05048  22332121.6954   22332123.8084   22332122.3114
       236.000         194.000
 129363246.56848  83010310.28848  22714079.9894   22714082.9024   22714079.2014
       232.000         190.000
 120940870.05648  76447425.29248  21111349.8114   21111351.8314   21111349.6764
       247.000         223.000
 132389076.18148  85368100.62448  23289876.4974   23289877.8184   23289876.0384
       234.000         195.000
 133613954.36848  86322562.84248  23522951.1434   23522952.0114   23522950.5144
       226.000         178.000
 122861346.07448  77943905.13448  21476800.7854   21476802.2024   21476800.6154
       244.000         217.000
 09  1 16  1 35  0.0000000  0  9G30G 5G 9G18G26G15G17G22G12
 139161285.86848  90645157.41248  24578574.3454   24578577.2404   24578574.1124
       217.000         157.000
 107580527.85648 101621176.58848  22374841.2584   22374844.7564   22374841.6864
       237.000         197.000
 115455076.92248  72172776.88548  20067441.9244   20067444.4444   20067442.0674
       252.000         229.000
 127374777.73548  81460861.19848  22335680.4564   22335682.2904   22335681.3024
       237.000         194.000
 129460418.48948  83086028.66248  22732571.3364   22732574.0844   22732571.7874
       229.000         189.000
 121002210.79548  76495223.26148  21123022.5454   21123024.7854   21123022.2884
       246.000         224.000
 132409921.89348  85384344.03648  23293842.8734   23293844.4904   23293843.1344
       233.000         193.000
 133578814.11048  86295180.80248  23516264.4674   23516265.9104   23516264.7264
       224.000         179.000
 122791162.81448  77889216.88548  21463445.1534   21463446.9744   21463444.8434
       244.000         217.000
 09  1 16  1 35 30.0000000  0  9G30G 5G 9G18G26G15G17G22G12
 139050977.40148  90559202.76848  24557583.7724   24557586.2514   24557584.7144
       216.000         158.000
 107489857.27348 101550524.19848  22357587.0284   22357590.5454   22357587.8534
       234.000         196.000
 115434082.05948  72156417.25548  20063446.7774   20063449.1944   20063446.9574
       252.000         229.000
 127394029.58248  81475862.62448  22339344.1114   22339345.5574   22339344.8154
       235.000         193.000
 129557837.13048  83161939.29548  22751109.3544   22751112.5704   22751108.7194
       231.000         188.000
 121063980.95948  76543355.85148  21134777.1974   21134779.2874   21134777.0444
       246.000         223.000
 132431319.42148  85401017.43848  23297914.2434   23297916.4724   23297914.0914
       231.000         192.000
 133544191.96448  86268202.49248  23509676.6404   23509677.8064   23509676.4534
       227.000         180.000
 122721382.38348  77834842.53448  21450166.4394   21450168.2054   21450166.3474
       245.000         218.000
 09  1 16  1 36  0.0000000  0  9G30G 5G 9G18G26G15G17G22G12
 138940781.60548  90473335.94748  24536614.6194   24536616.8904   24536613.9634
       212.000         161.000
 107399489.46848 101480107.74948  22340390.0804   22340394.1794   22340390.1214
       236.000         197.000
 115413430.27548  72140324.96048  20059516.8664   20059519.3854   20059516.9784
       252.000         229.000
 127413831.23948  81491292.46948  22343112.2344   22343113.6244   22343112.5884
       236.000         192.000
 129655501.42048  83238041.33748  22769694.2894   22769697.2204   22769694.3174
       229.000         186.000
 121126179.84848  76591822.51148  21146613.2904   21146615.2404   21146613.0154
       246.000         223.000
 132453268.59148  85418120.69448  23302091.1414   23302093.2114   23302090.6864
       235.000         194.000
 133510088.84948  86241628.64648  23503187.0074   23503187.7174   23503186.3484
       225.000         179.000
 122652006.08848  77780783.08148  21436964.6684   21436966.3254   21436964.4654
       245.000         219.000
 09  1 16  1 36 30.0000000  0  9G30G 5G 9G18G26G15G17G22G12
 138830699.65248  90387557.80648  24515666.1814   24515669.3614   24515664.6884
       214.000         159.000
 107309425.66248 101409928.16748  22323251.9954   22323255.8994   22323252.7144
       237.000         199.000
 115393121.75748  72124500.14548  20055652.3154   20055654.7724   20055652.6034
       252.000         229.000
 127434181.40148  81507149.73548  22346984.4844   22346986.3154   22346985.2504
       236.000         191.000
 129753409.21348  83314333.12748  22788325.5074   22788328.2964   22788325.7634
       229.000         187.000
 121188806.39148  76640622.41048  21158530.7004   21158532.5494   21158530.2734
       247.000         222.000
 132475768.66248  85435653.21448  23306373.4014   23306374.5944   23306373.4124
       233.000         190.000
 133476505.48348  86215459.77948  23496796.0984   23496796.7864   23496795.7994
       227.000         180.000
 122583034.69248  77727039.15248  21423839.9094   21423841.6364   21423839.5624
       245.000         219.000
 09  1 16  1 37  0.0000000  0  9G30G 5G 9G18G26G15G17G22G12
 138720732.42648  90301869.06748  24494739.7824   24494743.3154   24494739.2214
       212.000         158.000
 107219666.68548 101339986.13748  22306171.4714   22306175.1334   22306172.1284
       237.000         199.000
 115373156.36048  72108942.69848  20051852.8474   20051855.4594   20051853.0874
       251.000         229.000
 127455078.15148  81523432.88548  22350961.0684   22350962.8054   22350961.7044
       235.000         192.000
 129851558.53448  83390813.10448  22807002.8544   22807005.6024   22807002.3634
       231.000         188.000
 121251858.72348  76689754.10048  21170529.1254   21170530.9994   21170528.8874
       246.000         223.000
 132498818.73948  85453614.32948  23310758.8574   23310760.6584   23310758.9044
       232.000         190.000
 133443442.10348  86189696.07548  23490504.3704   23490505.2144   23490505.3764
       228.000         178.000
 122514468.41848  77673610.88948  21410792.1024   21410793.7694   21410791.9074
       245.000         219.000
 09  1 16  1 37 30.0000000  0  9G30G 5G 9G18G26G15G17G22G12
 138610882.09148  90216271.38248  24473835.8564   24473839.6984   24473836.1904
       214.000         157.000
 107130214.27448 101270282.98348  22289149.2294   22289152.7654   22289149.8354
       237.000         198.000
 115353534.79448  72093653.16848  20048119.1084   20048121.5214   20048119.2944
       251.000         228.000
 127476520.58848  81540141.26848  22355041.2184   22355043.5524   22355041.6924
       235.000         193.000
 129949948.24548  83467480.41448  22825725.6394   22825728.5174   22825725.8514
       230.000         189.000
 121315336.28348  76739217.13748  21182608.6714   21182610.4774   21182608.3714
       247.000         222.000
 132522418.31648  85472003.59048  23315250.3064   23315251.7284   23315249.8914
       235.000         191.000
 133410899.87148  86164338.49848  23484312.0804   23484312.4614   23484313.5384
       229.000         179.000
 122446308.60648  77620499.36348  21397821.7964   21397823.3174   21397821.5274
       247.000         219.000
 09  1 16  1 38  0.0000000  0  9G30G 5G 9G18G26G15G17G22G12
 138501150.08548  90130765.91348  24452954.9994   24452958.3424   24452955.0704
       215.000         159.000
 107041069.58048 101200819.60648  22272185.8664   22272188.9144   22272186.6814
       238.000         199.000
 115334257.51848  72078631.91648  20044450.6714   20044453.1834   20044450.8804
       252.000         229.000
 127498507.07148  81557273.56648  22359225.0734   22359227.3924   22359225.7324
       235.000         193.000
 130048576.28648  83544333.42348  22844494.1454   22844496.8944   22844494.0014
       229.000         189.000
 121379237.77948  76789010.50748  21194768.5834   21194770.6434   21194768.3534
       246.000         222.000
 132546566.70748  85490820.51048  23319846.1484   23319846.6814   23319845.9504
       232.000         190.000
 133378879.24248  86139387.39448  23478218.7244   23478218.9024   23478220.3564
       230.000         179.000
 122378556.53148  77567705.54348  21384929.0954   21384930.7094   21384929.0094
       246.000         220.000
 09  1 16  1 38 30.0000000  0  9G30G 5G 9G18G26G15G17G22G12
 138391538.75948  90045354.50448  24432097.1364   24432100.2664   24432096.0884
       215.000         160.000
 106952234.76548 101131597.68648  22255281.0014   22255284.0644   22255281.6544
       238.000         199.000
 115315324.98148  72063879.28448  20040848.0034   20040850.5334   20040848.2054
       251.000         229.000
 127521037.28848  81574829.55448  22363512.6244   22363514.6714   22363513.2054
       234.000         193.000
 130147442.04048  83621371.65748  22863307.4704   22863310.3704   22863306.9774
       227.000         187.000
 121443562.52048  76839133.67848  21207009.1574   21207011.0634   21207008.8784
       246.000         222.000
 132571264.13148  85510065.28148  23324544.3014   23324546.5484   23324544.0444
       232.000         188.000
 133347382.11748  86114844.13848  23472225.3104   23472225.1974   23472225.1024
       230.000         180.000
 122311213.68648  77515230.60248  21372114.1044   21372115.9034   21372113.9934
       246.000         220.000
 09  1 16  1 39  0.0000000  0  9G30G 5G 9G18G26G15G17G22G12
 138282049.92148  89960038.56048  24411261.4774   24411265.1744   24411261.9634
       216.000         162.000
 106863711.51748 101062618.55648  22238435.5284   22238438.5644   22238436.1614
       238.000         199.000
 115296738.36248  72049396.21548  20037310.9504   20037313.6754   20037311.2294
       251.000         229.000
 127544109.94448  81592808.23748  22367903.2074   22367905.2664   22367903.7774
       235.000         192.000
 130246544.21548  83698594.13548  22882166.1904   22882168.8864   22882166.3474
       228.000         186.000
 121508310.16148  76889586.38448  21219329.9784   21219332.2224   21219329.5744
       246.000         222.000
 132596510.62448  85529737.84948  23329349.6394   23329351.1064   23329349.0184
       235.000         191.000
 133316409.45048  86090709.59948  23466331.1094   23466331.2634   23466330.7474
       226.000         178.000
 122244281.20948  77463075.44448  21359377.0464   21359378.9404   21359376.9384
       245.000         220.000
 09  1 16  1 39 30.0000000  0  9G30G 5G 9G18G26G15G17G22G12
 138172683.44048  89874817.95448  24390449.9614   24390453.6374   24390449.6804
       218.000         165.000
 106775499.63048 100993882.03248  22221649.4014   22221652.4344   22221649.6424
       240.000         200.000
 115278496.25648  72035181.58448  20033839.5944   20033842.2764   20033839.6214
       252.000         229.000
 127567722.43848  81611207.56548  22372396.7014   22372398.6294   22372397.0744
       235.000         192.000
 130345879.41848  83775998.17648  22901068.7564   22901071.9644   22901068.6664
       228.000         185.000
 121573478.56448  76940366.95848  21231731.3834   21231733.2594   21231731.1964
       245.000         221.000
 132622303.54948  85549836.23648  23334258.3894   23334259.4844   23334259.0204
       231.000         189.000
 133285960.44948  86066983.09648  23460536.7004   23460536.6264   23460535.5604
       229.000         179.000
 122177758.93748  77411239.92048  21346718.1664   21346720.1404   21346718.0214
       247.000         220.000
 09  1 16  1 40  0.0000000  0  9G30G 5G 9G18G26G15G17G22G12
 138063442.80048  89789695.39648  24369662.9664   24369666.0044   24369661.2384
       221.000         168.000
 106687602.19048 100925390.53248  22204922.9784   22204926.2214   22204923.8904
       239.000         201.000
 115260601.02348  72021237.24648  20030434.3404   20030436.8934   20030434.6654
       251.000         229.000
 127591874.73748  81630027.51448  22376992.7134   22376994.8484   22376993.2744
       235.000         192.000
 130445447.84848  83853583.95548  22920016.2804   22920019.2934   22920016.4054
       230.000         187.000
 121639067.78148  76991475.44148  21244212.5094   21244214.5784   21244212.0044
       245.000         222.000
 132648644.09048  85570361.36148  23339269.0204   23339271.7914   23339268.9354
       229.000         186.000
 133256037.38848  86043666.43348  23454842.5154   23454842.8464   23454842.6574
       226.000         179.000
 122111649.36248  77359725.96848  21334138.1874   21334139.8144   21334138.1354
       246.000         220.000
 09  1 16  1 40 30.0000000  0  9G30G 5G 9G18G26G15G17G22G12
 137954329.06948  89704671.71248  24348899.6404   24348902.4564   24348900.0874
       224.000         167.000
 106600019.96848 100857144.66548  22188256.3484   22188259.9594   22188256.9944
       238.000         201.000
 115243051.99148  72007562.68348  20027094.8334   20027097.5954   20027095.0064
       251.000         229.000
 127616564.97748  81649266.65148  22381691.1374   22381693.1884   22381691.8034
       234.000         191.000
 130545247.21148  83931349.69348  22939007.5424   22939010.3724   22939007.0534
       229.000         188.000
 121705075.88448  77042910.32648  21256773.5864   21256775.4234   21256773.3294
       246.000         221.000
 132675531.17148  85591312.32448  23344386.5354   23344388.1044   23344385.8824
       234.000         189.000
 133226640.60748  86020759.84548  23449248.5244   23449249.6924   23449248.3814
       229.000         184.000
 122045952.57748  77308533.68248  21321636.4174   21321638.0174   21321636.3124
       247.000         220.000
 09  1 16  1 41  0.0000000  0  9G30G 5G 9G18G26G15G17G22G12
 137845343.03048  89619747.51848  24328160.2574   24328162.6264   24328160.2914
       221.000         164.000
 106512753.50348 100789144.83248  22171650.1894   22171653.5584   22171650.7404
       238.000         202.000
 115225849.05048  71994157.79848  20023821.1014   20023823.8834   20023821.1424
       251.000         229.000
 127641791.05948  81668923.31948  22386491.2494   22386493.4274   22386491.5364
       233.000         191.000
 130645275.32548  84009293.68448  22958042.3774   22958044.9064   22958042.1524
       230.000         187.000
 121771500.66048  77094669.88748  21269413.6814   21269415.6694   21269413.5434
       246.000         221.000
 132702963.46648  85612688.14048  23349607.0554   23349608.4604   23349607.4074
       233.000         187.000
 133197769.96648  85998263.24148  23443754.8784   23443755.9494   23443755.8524
       228.000         184.000
 121980668.95048  77257663.33748  21309213.3714   21309214.8224   21309213.2354
       247.000         220.000
 09  1 16  1 41 30.0000000  0  9G30G 5G 9G18G26G15G17G22G12
 137736486.34348  89534924.12648  24307445.0664   24307447.3234   24307445.1034
       218.000         160.000
 106425804.29048 100721392.19748  22155104.3374   22155107.9374   22155104.7404
       242.000         203.000
 115208992.56748  71981022.87248  20020613.4384   20020616.1024   20020613.6634
       250.000         229.000
 127667551.50448  81688996.33848  22391393.3574   22391395.8134   22391393.9354
       234.000         192.000
 130745530.60548  84087414.66948  22977119.8174   22977122.8034   22977120.1844
       227.000         186.000
 121838342.01548  77146754.05848  21282133.1674   21282135.0264   21282132.8204
       246.000         221.000
 132730939.98448  85634488.01448  23354930.2424   23354931.7724   23354930.7554
       230.000         185.000
 133169426.17348  85976177.16148  23438360.7694   23438362.2424   23438361.8434
       230.000         186.000
 121915799.20048  77207115.48748  21296869.0294   21296870.5254   21296868.9384
       247.000         220.000
 09  1 16  1 42  0.0000000  0  9G30G 5G 9G18G26G15G17G22G12
 137627761.38248  89450203.37448  24286754.6864   24286757.0724   24286753.3604
       216.000         158.000
 106339174.39148 100653888.38248  22138619.4244   22138622.8994   22138620.5104
       240.000         203.000
 115192483.84948  71968158.94048  20017471.9064   20017474.6904   20017472.0484
       251.000         229.000
 127693845.66448  81709485.28148  22396397.1754   22396399.1684   22396398.0314
       233.000         190.000
 130846012.18648  84165711.99148  22996241.0054   22996244.1924   22996240.7604
       228.000         187.000
 121905598.87948  77199161.99848  21294931.8334   21294933.6904   21294931.6804
       245.000         221.000
 132759460.98748  85656712.17448  23360357.8404   23360359.2354   23360357.6044
       230.000         185.000
 133141610.64648  85954502.74448  23433067.7484   23433068.7904   23433067.8824
       228.000         183.000
 121851345.38148  77156891.72748  21284604.1584   21284605.4374   21284603.9424
       247.000         221.000
 09  1 16  1 42 30.0000000  0  9G30G 5G 9G18G26G15G17G22G12
 137519170.11848  89365586.80148  24266090.3334   24266093.4054   24266090.9114
       216.000         158.000
 106252865.78848 100586634.93248  22122195.5254   22122198.7014   22122195.9034
       240.000         204.000
 115176323.58548  71955566.53348  20014396.8894   20014399.3854   20014397.0724
       252.000         229.000
 127720672.61948  81730389.38948  22401502.1804   22401504.0374   22401502.6294
       234.000         190.000
 130946718.82648  84244184.68748  23015405.1494   23015408.0364   23015405.1754
       228.000         186.000
 121973270.94548  77251893.48748  21307809.4144   21307811.2904   21307809.1764
       245.000         220.000
 132788526.23148  85679360.42848  23365887.7504   23365890.4524   23365887.7374
       229.000         184.000
 133114324.73148  85933240.98748  23427875.6304   23427876.5644   23427876.9024
       231.000         186.000
 121787309.02148  77106993.27648  21272418.1514   21272419.9044   21272417.9784
       247.000         221.000
 09  1 16  1 43  0.0000000  0  9G30G 5G 9G18G26G15G17G22G12
 137410713.42648  89281075.11148  24245451.6284   24245455.1644   24245451.5304
       214.000         161.000
 106166878.97848 100519632.24248  22105832.8974   22105836.0784   22105833.6254
       240.000         204.000
 115160511.42448  71943245.37148  20011388.0894   20011390.3474   20011388.3684
       251.000         229.000
 127748030.15848  81751706.93148  22406708.1164   22406710.3564   22406708.5424
       234.000         191.000
 131047648.37248  84322831.07048  23034611.3884   23034614.5524   23034611.2574
       230.000         186.000
 122041356.20448  77304946.92348  21320765.6314   21320767.5404   21320765.4114
       246.000         220.000
 132818134.34748  85702431.68448  23371522.4454   23371524.7394   23371521.9624
       231.000         189.000
 133087568.38448  85912391.88548  23422783.7864   23422785.0644   23422784.2994
       228.000         183.000
 121723690.34848  77057420.29648  21260311.9174   21260313.8314   21260311.7674
       247.000         222.000
 09  1 16  1 43 30.0000000  0  9G30G 5G 9G18G26G15G17G22G12
 137302393.16648  89196669.76048  24224839.0124   24224842.3324   24224839.1074
       217.000         165.000
 106081215.62648 100452881.59148  22089531.7004   22089534.8454   22089532.3834
       240.000         204.000
 115145048.12348  71931196.04348  20008445.4134   20008447.7844   20008445.6624
       251.000         229.000
 127775917.01548  81773436.93848  22412015.0294   22412016.7674   22412015.6574
       234.000         190.000
 131148799.39748  84401650.05448  23053859.8954   23053862.4454   23053860.0184
       229.000         185.000
 122109853.52748  77358321.45848  21333800.2374   21333802.1444   21333800.0054
       246.000         220.000
 132848284.86848  85725925.59348  23377261.0394   23377261.9644   23377260.5914
       233.000         188.000
 133061342.23748  85891955.91948  23417793.0384   23417793.6144   23417792.7114
       229.000         182.000
 121660490.45948  77008173.63848  21248285.4764   21248287.3084   21248285.3684
       248.000         223.000
 09  1 16  1 44  0.0000000  0  9G30G 5G 9G18G26G15G17G22G12
 137194210.28948  89112371.43248  24204252.6204   24204255.6944   24204252.2474
       219.000         165.000
 105995876.43748 100386383.55748  22073291.7914   22073295.4834   22073292.6974
       240.000         205.000
 115129933.22348  71919418.21148  20005569.0514   20005571.5694   20005569.3224
       251.000         229.000
 127804331.08948  81795577.76348  22417421.7554   22417423.8074   22417422.4814
       233.000         189.000
 131250169.64048  84480639.84948  23073149.8594   23073152.5684   23073149.4444
       231.000         186.000
 122178761.69548  77412016.13748  21346913.0644   21346914.8274   21346912.7744
       245.000         220.000
 132878976.33548  85749841.03548  23383100.9714   23383102.5354   23383101.0034
       233.000         186.000
 133035646.44748  85871933.20948  23412903.6094   23412903.7134   23412904.1924
       228.000         181.000
 121597709.14648  76959253.13648  21236338.6644   21236340.3194   21236338.5204
       248.000         223.000
 09  1 16  1 44 30.0000000  0  9G30G 5G 9G18G26G15G17G22G12
 137086166.92348  89028181.79548  24183693.0574   24183695.3234   24183692.2344
       219.000         163.000
 105910863.25148 100320139.52348  22057114.6974   22057117.9744   22057115.2724
       241.000         206.000
 115115167.64048  71907912.56448  20002759.1844   20002761.7734   20002759.3834
       251.000         229.000
 127833271.24948  81818128.50948  22422928.7314   22422930.9984   22422929.3854
       233.000         190.000
 131351758.02848  84559799.63848  23092481.5874   23092484.0754   23092481.2304
       228.000         185.000
 122248079.69448  77466030.16248  21360103.7254   21360105.5844   21360103.2964
       245.000         219.000
 132910208.41748  85774177.71648  23389043.6734   23389046.0504   23389043.6364
       228.000         183.000
 133010482.09448  85852324.61348  23408114.4794   23408115.7274   23408114.5534
       226.000         183.000
 121535348.36748  76910660.33448  21224471.5434   21224473.6264   21224471.1984
       248.000         223.000
 09  1 16  1 45  0.0000000  0  9G30G 5G 9G18G26G15G17G22G12
 136978264.61448  88944102.07148  24163159.4904   24163161.7504   24163159.2734
       220.000         163.000
 105826176.97948 100254150.24648  22040999.0744   22041002.6714   22041000.0874
       241.000         205.000
 115100751.44548  71896679.16748  20000015.9534   20000018.4574   20000016.1714
       252.000         229.000
 127862735.75148  81841087.84748  22428535.9234   22428538.0914   22428536.6384
       232.000         190.000
 131453562.56148  84639127.83948  23111854.3554   23111856.6624   23111854.2254
       229.000         184.000
 122317805.84348  77520362.22448  21373372.1694   21373374.1194   21373371.9224
       245.000         219.000
 132941979.97348  85798934.80048  23395089.1904   23395091.5894   23395088.5984
       229.000         183.000
 132985849.31748  85833130.26148  23403426.8154   23403428.1254   23403426.6144
       226.000         182.000
 121473408.45348  76862395.47548  21212684.8094   21212686.6684   21212684.7304
       249.000         223.000
 09  1 16  1 45 30.0000000  0  9G30G 5G 9G18G26G15G17G22G12
 136870504.98248  88860133.49348  24142653.6704   24142655.9584   24142653.7104
       219.000         164.000
 105741819.27748 100188416.97748  22024946.4974   22024949.9504   22024947.0334
       241.000         206.000
 115086685.34548  71885718.56848  19997339.2384   19997341.8564   19997339.3684
       251.000         229.000
 127892723.19248  81864454.65648  22434242.0154   22434244.8914   22434242.4844
       232.000         190.000
 131555582.01448  84718623.51548  23131268.2684   23131270.2854   23131268.9014
       227.000         184.000
 122387939.57248  77575011.87448  21386718.0774   21386720.0604   21386717.6664
       244.000         219.000
 132974290.56048  85824111.86948  23401238.2344   23401240.1594   23401238.1334
       232.000         186.000
 132961748.99948  85814350.81048  23398840.9024   23398842.4864   23398840.7814
       229.000         186.000
 121411890.54148  76814459.44048  21200978.3754   21200979.9154   21200978.3194
       249.000         223.000
 09  1 16  1 46  0.0000000  0  9G30G 5G 9G18G26G15G17G22G12
 136762888.49548  88776276.47148  24122175.0774   24122177.5634   24122174.6004
       220.000         165.000
 105657790.31548 100122939.87148  22008956.2674   22008959.5664   22008957.0804
       240.000         205.000
 115072968.76448  71875030.32348  19994728.9894   19994731.6374   19994729.2654
       250.000         229.000
 127923230.90148  81888226.88248  22440047.7384   22440050.0784   22440048.2504
       234.000         190.000
 131657813.60948  84798284.47848  23150721.9534   23150724.5694   23150721.8134
       227.000         184.000
 122458478.25048  77629977.07348  21400141.1684   21400143.1294   21400140.7834
       245.000         219.000
 133007138.11248  85849707.33148  23407489.5614   23407491.1644   23407489.6154
       230.000         186.000
 132938180.58748  85795985.81648  23394356.8384   23394356.7684   23394356.9424
       230.000         185.000
 121350794.43248  76766852.08348  21189352.3324   21189353.5964   21189352.1244
       249.000         223.000
 09  1 16  1 46 30.0000000  0  9G30G 5G 9G18G26G15G17G22G12
 136655416.74448  88692532.24748  24101724.2714   24101726.2804   24101723.9304
       219.000         164.000
 105574091.55948 100057720.05748  21993029.0114   21993032.0244   21993029.3674
       241.000         206.000
 115059602.08848  71864614.72848  19992185.3874   19992188.1304   19992185.4454
       251.000         229.000
 127954257.29048  81912403.27448  22445951.8024   22445954.1584   22445952.6594
       231.000         189.000
 131760255.90048  84878109.62848  23170215.9054   23170218.5774   23170215.9984
       227.000         184.000
 122529420.77848  77685256.96448  21413641.4054   21413643.1784   21413641.2004
       246.000         219.000
 133040521.94448  85875720.69848  23413842.0034   23413843.5244   23413841.5584
       230.000         183.000
 132915144.54348  85778035.64448  23389973.0574   23389973.1594   23389973.5814
       232.000         184.000
 121290121.07548  76719574.15748  21177806.6594   21177807.9054   21177806.6364
       249.000         223.000
 09  1 16  1 47  0.0000000  0  9G30G 5G 9G18G26G15G17G22G12
 136548092.80848  88608903.20648  24081300.9724   24081302.9434   24081300.7964
       220.000         164.000
 105490725.61048  99992759.58848  21977164.7564   21977167.8744   21977165.2154
       241.000         206.000
 115046587.07648  71854473.16948  19989708.7014   19989711.4594   19989709.0384
       250.000         229.000
 127985802.00348  81936983.55448  22451954.5414   22451956.6514   22451954.7054
       233.000         189.000
 131862908.46148  84958098.61248  23189750.1804   23189752.9244   23189750.2244
       229.000         185.000
 122600767.38448  77740851.72848  21427218.1524   21427219.8534   21427218.0014
       245.000         218.000
 133074442.46148  85902152.28348  23420296.3934   23420298.4494   23420296.4054
       228.000         182.000
 132892642.96248  85760501.93848  23385690.7744   23385691.3974   23385690.9924
       229.000         182.000
 121229872.47648  76672627.22348  21166341.5644   21166343.0644   21166341.2544
       249.000         224.000
 09  1 16  1 47 30.0000000  0  9G30G 5G 9G18G26G15G17G22G12
 136440917.06248  88525389.64248  24060905.9964   24060908.4194   24060906.8314
       219.000         163.000
 105407692.77448  99928058.68448  21961364.0874   21961367.4524   21961364.8644
       241.000         207.000
 115033923.27248  71844605.27248  19987298.8914   19987301.6924   19987299.0574
       251.000         229.000
 128017862.68548  81961965.89148  22458055.8864   22458057.4594   22458056.4204
       233.000         188.000
 131965768.81448  85038249.52748  23209324.1484   23209326.5614   23209324.4714
       228.000         185.000
 122672515.42948  77796759.29148  21440871.3304   21440873.1084   21440871.0844
       245.000         218.000
 133108897.81848  85929000.61348  23426852.9334   23426855.6724   23426852.8614
       225.000         184.000
 132870675.18648  85743384.15948  23381511.1214   23381510.6814   23381511.3964
       229.000         181.000
 121170048.45148  76626011.10848  21154957.5484   21154959.1524   21154957.5084
       249.000         225.000
 09  1 16  1 48  0.0000000  0  9G30G 5G 9G18G26G15G17G22G12
 136333891.55848  88441993.13148  24040540.1014   24040542.2404   24040539.8014
       218.000         164.000
 105324994.53948  99863618.51248  21945627.3334   21945630.4984   21945627.8954
       241.000         208.000
 115021611.15048  71835011.40848  19984956.0494   19984958.5234   19984956.2364
       251.000         229.000
 128050437.35948  81987348.73948  22464254.5444   22464256.3264   22464255.5134
       234.000         188.000
 132068835.18348  85118560.98648  23228936.6684   23228939.5794   23228936.6534
       230.000         185.000
 122744664.23648  77852979.13548  21454600.6404   21454602.5734   21454600.3294
       244.000         218.000
 133143887.29848  85956265.14548  23433511.3444   23433513.9414   23433511.5184
       226.000         184.000
 132849241.83948  85726682.89848  23377431.5324   23377432.5134   23377432.1924
       228.000         182.000
 121110649.99448  76579726.60848  21143654.3484   21143656.0024   21143654.1114
       249.000         225.000
 09  1 16  1 48 30.0000000  0  9G30G 5G 9G18G26G15G17G22G12
 136227017.80048  88358714.86248  24020202.3404   24020205.0194   24020201.8304
       217.000         164.000
 105242632.27548  99799440.12348  21929954.6764   21929957.5134   21929954.9864
       242.000         208.000
 115009651.27948  71825692.02648  19982680.1944   19982682.7094   19982680.4224
       251.000         229.000
 128083524.97848  82013131.28548  22470550.8484   22470552.6944   22470551.2714
       234.000         187.000
 132172106.41448  85199032.06548  23248588.6484   23248591.4554   23248588.3554
       229.000         184.000
 122817212.52348  77909510.26648  21468406.1774   21468407.9764   21468405.9254
       244.000         218.000
 133179410.15048  85983945.27748  23440271.7584   23440273.2484   23440271.4374
       230.000         184.000
 132828343.52348  85710398.47948  23373455.7724   23373455.1174   23373455.1764
       231.000         183.000
 121051678.30648  76533774.66448  21132432.2124   21132434.0564   21132432.0924
       249.000         225.000
 09  1 16  1 49  0.0000000  0  9G30G 5G 9G18G26G15G17G22G12
 136120297.42848  88275556.14948  23999893.8494   23999896.9714   23999893.6394
       221.000         165.000
 105160606.99548  99735524.33848  21914345.6424   21914348.6984   21914346.3964
       241.000         209.000
 114998044.06148  71816647.43648  19980471.4014   19980473.9684   19980471.6084
       251.000         229.000
 128117122.90448  82039311.47448  22476944.4554   22476946.2944   22476944.9824
       233.000         187.000
 132275580.39748  85279661.14548  23268279.0574   23268281.7894   23268278.9764
       229.000         182.000
 122890158.81548  77966351.52148  21482287.4174   21482289.1614   21482287.0854
       244.000         217.000
 133215464.96748  86012039.93048  23447132.8284   23447134.0554   23447132.6384
       230.000         183.000
 132807980.26148  85694531.00748  23369580.9884   23369580.5674   23369580.9094
       230.000         182.000
 120993133.68348  76488155.49048  21121291.4244   21121293.3524   21121291.3424
       250.000         225.000
 09  1 16  1 49 30.0000000  0  9G30G 5G 9G18G26G15G17G22G12
 136013731.92248  88192518.09248  23979615.1414   23979618.1674   23979615.3694
       219.000         166.000
 105078920.08648  99671872.21548  21898800.9934   21898804.0924   21898801.5574
       243.000         209.000
 114986789.58548  71807877.71748  19978329.7004   19978332.2644   19978329.9234
       251.000         229.000
 128151230.55948  82065888.84648  22483434.6854   22483437.0254   22483435.4714
       232.000         187.000
 132379255.82148  85360447.20248  23288007.8394   23288010.1724   23288007.9444
       229.000         181.000
 122963501.93448  78023502.01248  21496244.0484   21496245.8214   21496243.7684
       243.000         217.000
 133252050.79948  86040548.36748  23454094.1414   23454096.2234   23454094.4214
       228.000         180.000
 132788152.63548  85679080.90848  23365807.0744   23365807.2274   23365808.1064
       229.000         180.000
 120935016.95248  76442869.73348  21110232.3294   21110234.0294   21110232.0674
       250.000         225.000
 09  1 16  1 50  0.0000000  0  9G30G 5G 9G18G26G15G17G22G12
 135907323.24948  88109602.23948  23959365.9954   23959369.2894   23959365.5424
       221.000         167.000
 104997573.06948  99608484.94848  21883321.3664   21883324.2834   21883322.0294
       242.000         209.000
 114975888.52948  71799383.38648  19976255.2724   19976257.9384   19976255.3654
       251.000         229.000
 128185845.85048  82092861.79848  22490021.7224   22490024.0354   22490022.4334
       232.000         187.000
 132483131.11048  85441388.98648  23307774.4204   23307777.3534   23307773.7814
       226.000         178.000
 123037240.44548  78080960.57848  21510275.7574   21510278.0804   21510275.1414
       243.000         217.000
 133289167.02248  86069470.09448  23461157.2774   23461159.2594   23461156.7344
       229.000         181.000
 132768861.41148  85664048.77548  23362136.0694   23362135.5454   23362135.9504
       225.000         179.000
 120877329.19748  76397918.24548  21099254.6474   21099256.4354   21099254.6094
       250.000         225.000
 09  1 16  1 50 30.0000000  0  9G30G 5G 9G18G26G15G17G22G12
 135801072.85548  88026809.70748  23939146.9014   23939150.4384   23939146.9524
       218.000         165.000
 104916567.28248  99545363.57548  21867906.0654   21867909.5594   21867906.6304
       241.000         209.000
 114965341.56648  71791164.98048  19974248.2334   19974250.9424   19974248.4974
       251.000         229.000
 128220966.84848  82120228.80948  22496705.4804   22496707.3194   22496705.7714
       232.000         188.000
 132587204.83748  85522485.39548  23327579.2734   23327581.8334   23327578.6784
       225.000         179.000
 123111373.61848  78138726.69248  21524382.9914   21524385.0824   21524382.6554
       243.000         216.000
 133326812.96448  86098804.60948  23468321.1094   23468322.8024   23468321.5854
       229.000         182.000
 132750106.62348  85649434.66548  23358566.9134   23358567.3164   23358565.9454
       231.000         183.000
 120820070.88148  76353301.38248  21088358.8214   21088360.4754   21088358.5674
       250.000         225.000
 09  1 16  1 51  0.0000000  0  9G30G 5G 9G18G26G15G17G22G12
 135694981.18948  87944140.87248  23918958.5174   23918961.8964   23918957.8614
       217.000         166.000
 104835902.86648  99482508.20348  21852555.9784   21852559.6344   21852556.4304
       241.000         209.000
 114955147.97948  71783221.92548  19972308.4554   19972311.2524   19972308.6894
       250.000         229.000
 128256590.84848  82147987.76248  22503484.2734   22503486.2614   22503485.0014
       233.000         187.000
 132691474.22248  85603734.24848  23347420.7424   23347423.4804   23347420.9484
       225.000         177.000
 123185898.91648  78196798.34248  21538564.8344   21538566.7524   21538564.5624
       244.000         217.000
 133364986.46448  86128550.20048  23475585.5334   23475587.3424   23475585.3364
       230.000         182.000
 132731887.96648  85635238.31148  23355100.7744   23355100.8124   23355101.2964
       230.000         183.000
 120763242.11348  76309019.23848  21077544.7474   21077546.2174   21077544.6904
       250.000         225.000
 09  1 16  1 51 30.0000000  0  9G30G 5G 9G18G26G15G17G22G12
 135589050.34448  87861597.36748  23898800.7164   23898804.3344   23898800.8364
       222.000         168.000
 104755581.26448  99419919.96348  21837271.2114   21837274.7274   21837271.8084
       241.000         208.000
 114945308.24648  71775554.60048  19970435.9764   19970438.8314   19970436.1194
       250.000         229.000
 128292716.37048  82176137.49348  22510358.8334   22510360.7034   22510359.4884
       231.000         187.000
 132795937.78548  85685134.42548  23367299.9094   23367302.3764   23367299.8464
       225.000         180.000
 123260815.15648  78255174.64048  21552820.9224   21552822.7544   21552820.7254
       244.000         216.000
 133403686.44548  86158706.03648  23482950.0964   23482951.4684   23482949.9834
       230.000         180.000
 132714205.69748  85621459.87448  23351736.2514   23351736.2914   23351735.9864
       231.000         184.000
 120706843.88348  76265072.57548  21066812.6804   21066813.7774   21066812.6044
       250.000         224.000
 09  1 16  1 52  0.0000000  0  9G30G 5G 9G18G26G15G17G22G12
 135483281.26648  87779179.89848  23878673.8344   23878676.6554   23878673.9214
       221.000         167.000
 104675603.38248  99357599.56148  21822051.9664   21822055.4694   21822052.5574
       241.000         210.000
 114935822.59548  71768163.18348  19968630.9004   19968633.6914   19968631.0514
       250.000         229.000
 128329341.29048  82204676.36148  22517328.3544   22517329.9134   22517328.5644
       233.000         187.000
 132900593.56648  85766684.37348  23387215.0564   23387218.1914   23387214.5824
       226.000         181.000
 123336120.64348  78313854.23248  21567151.1944   21567153.0014   21567151.0434
       244.000         216.000
 133442911.43748  86189270.97348  23490414.1844   23490415.5404   23490413.9974
       229.000         181.000
 132697060.05248  85608099.65148  23348473.1204   23348473.2594   23348474.3614
       230.000         185.000
 120650876.62848  76221461.74148  21056162.2654   21056163.4224   21056162.0424
       250.000         223.000
 09  1 16  1 52 30.0000000  0  9G30G 5G 9G18G26G15G17G22G12
 135377676.53948  87696890.50048  23858578.2104   23858580.5374   23858577.5974
       220.000         166.000
 104595971.15848  99295548.47948  21806898.7344   21806902.0424   21806899.3374
       242.000         209.000
 114926692.27848  71761048.65448  19966893.5834   19966896.1524   19966893.8404
       251.000         229.000
 128366464.46848  82233603.49448  22524392.7104   22524394.2544   22524393.2934
       231.000         186.000
 133005440.77848  85848383.47548  23407166.7424   23407170.0214   23407166.3214
       224.000         183.000
 123411814.88848  78372836.75548  21581555.2474   21581557.1764   21581555.2474
       243.000         216.000
 133482661.36248  86220244.94948  23497978.0024   23497979.5164   23497978.1054
       228.000         179.000
 132680451.79548  85595158.15548  23345312.0524   23345312.6614   23345311.5494
       227.000         183.000
 120595341.52348  76178187.63648  21045594.2364   21045595.5964   21045593.9904
       250.000         224.000
 09  1 16  1 53  0.0000000  0  9G30G 5G 9G18G26G15G17G22G12
 135272238.06648  87614730.64348  23838513.6354   23838515.8904   23838513.7164
       219.000         163.000
 104516686.18848  99233767.98448  21791811.3884   21791814.4224   21791811.7334
       243.000         209.000
 114917918.03348  71754211.58548  19965223.7454   19965226.4594   19965223.9284
       250.000         229.000
 128404084.53148  82262917.81948  22531550.9804   22531553.0994   22531551.4604
       231.000         185.000
 133110478.06648  85930230.70348  23427155.0574   23427157.8524   23427154.5234
       227.000         184.000
 123487896.63348  78432121.22848  21596033.2184   21596035.0654   21596032.8944
       243.000         217.000
 133522935.32748  86251627.27648  23505642.0384   23505642.8384   23505641.4554
       230.000         178.000
 132664381.44948  85582635.82248  23342254.1754   23342254.6384   23342254.7414
       229.000         183.000
 120540239.36148  76135250.90448  21035108.6284   21035110.0814   21035108.7854
       249.000         224.000
 09  1 16  1 53 30.0000000  0  9G30G 5G 9G18G26G15G17G22G12
 135166965.98248  87532700.43348  23818480.7874   23818483.2514   23818480.1794
       219.000         165.000
 104437748.12448  99172257.80948  21776790.0284   21776792.9084   21776790.5284
       243.000         210.000
 114909498.80348  71747651.14848  19963621.5054   19963624.5364   19963621.5994
       250.000         229.000
 128442197.92948  82292616.55048  22538803.8744   22538806.2764   22538804.4394
       231.000         186.000
 133215702.09648  86012223.44848  23447178.4124   23447181.3244   23447178.3554
       229.000         185.000
 123564363.10648  78491705.49248  21610584.3514   21610586.4584   21610584.1674
       243.000         217.000
 133563730.75648  86283415.93348  23513405.3084   23513406.6684   23513405.3334
       231.000         180.000
 132648847.90848  85570531.77648  23339298.1754   23339299.0124   23339299.3714
       228.000         182.000
 120485569.62848  76092651.13448  21024705.1284   21024706.6794   21024704.9594
       249.000         223.000
 09  1 16  1 54  0.0000000  0  9G30G 5G 9G18G26G15G17G22G12
 135061862.38348  87450801.52448  23798480.4234   23798482.7654   23798480.0544
       220.000         168.000
 104359158.88548  99111019.44548  21761835.1534   21761838.1564   21761835.9444
       242.000         210.000
 114901435.24948  71741367.85648  19962087.2334   19962090.0044   19962087.4504
       250.000         229.000
 128480803.46548  82322698.76148  22546150.5554   22546152.8024   22546151.0504
       232.000         186.000
 133321112.06248  86094361.08848  23467237.2564   23467239.8224   23467236.9664
       230.000         187.000
 123641213.73348  78551589.08848  21625208.3354   21625210.6594   21625207.9884
       242.000         216.000
 133605047.02248  86315610.41748  23521267.5894   23521268.8174   23521267.5524
       231.000         180.000
 132633851.87848  85558846.53748  23336444.4694   23336445.3704   23336444.5134
       228.000         181.000
 120431333.63848  76050389.33848  21014384.4254   21014385.8824   21014384.3354
       249.000         223.000
 09  1 16  1 54 30.0000000  0  9G30G 5G 9G18G26G15G17G22G12
 134956928.69048  87369035.00348  23778512.8104   23778514.8904   23778512.7074
       224.000         170.000
 104280919.42948  99050053.66948  21746946.3374   21746949.5104   21746946.7314
       243.000         210.000
 114893727.73848  71735362.00648  19960620.3694   19960623.2134   19960620.4914
       250.000         229.000
 128519898.91948  82353162.74548  22553590.1154   22553592.2244   22553591.1084
       232.000         186.000
 133426706.13548  86176642.16648  23487330.9874   23487333.9024   23487330.6954
       230.000         186.000
 123718446.65648  78611770.59248  21639905.2694   21639907.2824   21639905.0264
       242.000         214.000
 133646882.91548  86348209.81148  23529228.5564   23529230.0104   23529228.6844
       230.000         181.000
 132619393.62048  85547580.33748  23333693.4304   23333693.8264   23333693.0334
       229.000         182.000
 120377531.79948  76008465.84148  21004146.3714   21004147.7384   21004146.2024
       249.000         224.000
 09  1 16  1 55  0.0000000  0  9G30G 5G 9G18G26G15G17G22G12
 134852166.50748  87287402.15348  23758576.9624   23758579.4354   23758576.8454
       223.000         173.000
 104203031.01548  98989361.39648  21732124.7354   21732127.9464   21732125.5514
       242.000         211.000
 114886376.89748  71729634.07848  19959221.5954   19959224.3744   19959221.7414
       250.000         229.000
 128559482.42348  82384007.03848  22561122.7174   22561124.8024   22561123.4904
       232.000         187.000
 133532482.70948  86259065.45148  23507459.5644   23507462.5904   23507458.9914
       230.000         186.000
 123796060.58648  78672248.97448  21654674.7234   21654676.6454   21654674.6534
       243.000         215.000
 133689237.10248  86381213.09348  23537288.0744   23537290.1054   23537288.6774
       230.000         183.000
 132605473.33148  85536733.36348  23331044.5424   23331044.9024   23331044.7624
       230.000         183.000
 120324164.78048  75966881.15048  20993991.1114   20993992.3584   20993991.0344
       249.000         224.000
 09  1 16  1 55 30.0000000  0  9G30G 5G 9G18G26G15G17G22G12
 134747577.58248  87205904.31648  23738674.1694   23738676.9704   23738673.9384
       223.000         170.000
 104125495.05548  98928943.78448  21717370.0844   21717373.4494   21717370.7064
       242.000         210.000
 114879383.42748  71724184.63048  19957890.7674   19957893.6034   19957890.9954
       250.000         229.000
 128599552.15948  82415230.20948  22568747.5164   22568749.7924   22568747.9544
       230.000         186.000
 133638440.20848  86341629.72948  23527622.9034   23527625.2804   23527623.0924
       230.000         185.000
 123874054.50248  78733023.45648  21669516.4784   21669518.3474   21669516.3254
       243.000         214.000
 133732108.92048  86414619.72348  23545446.4274   23545448.6704   23545445.8224
       230.000         183.000
 132592091.37448  85526305.84848  23328498.2584   23328498.3694   23328497.6314
       230.000         181.000
 120271233.36248  75925635.89148  20983918.2944   20983919.8874   20983918.1484
       249.000         224.000
 09  1 16  1 56  0.0000000  0  9G30G 5G 9G18G26G15G17G22G12
 134643162.43448  87124541.86848  23718804.7474   23718806.8784   23718804.1754
       225.000         170.000
 104048311.86648  98868801.06048  21702682.3524   21702685.6814   21702683.1554
       241.000         210.000
 114872746.74648  71719013.19648  19956627.9044   19956630.5934   19956628.0014
       250.000         228.000
 128640105.78548  82446830.40748  22576464.1014   22576466.9924   22576464.6874
       229.000         185.000
 133744576.04648  86424332.98048  23547819.6924   23547822.1104   23547819.1234
       231.000         185.000
 123952425.98948  78794092.15248  21684430.0474   21684432.0704   21684429.8444
       243.000         215.000
 133775496.38348  86448428.15348  23553702.8854   23553704.4544   23553703.1074
       229.000         183.000
 132579246.65748  85516296.97348  23326053.5014   23326053.1944   23326053.9724
       229.000         181.000
 120218737.30248  75884729.88448  20973928.7464   20973930.1594   20973928.5584
       249.000         225.000
 09  1 16  1 56 30.0000000  0  9G30G 5G 9G18G26G15G17G22G12
 134538923.27148  87043316.51848  23698968.3974   23698970.5434   23698969.5384
       222.000         167.000
 103971483.04248  98808934.44648  21688062.3674   21688065.6154   21688063.0034
       241.000         209.000
 114866467.62648  71714120.37048  19955432.9614   19955435.7124   19955433.0974
       250.000         229.000
 128681141.45348  82478806.23948  22584273.3374   22584275.6034   22584273.9724
       231.000         186.000
 133850889.23448  86507174.40848  23568050.9534   23568052.9904   23568051.2284
       230.000         184.000
 124031173.83048  78855454.09648  21699415.4854   21699417.3354   21699415.4344
       242.000         214.000
 133819398.46348  86482637.56148  23562057.1574   23562058.8724   23562057.4524
       228.000         182.000
 132566940.00948  85506707.37648  23323711.7044   23323712.6244   23323712.1274
       229.000         184.000
 120166677.77548  75844164.03348  20964022.2324   20964023.6374   20964022.1134
       251.000         225.000
 09  1 16  1 57  0.0000000  0  9G30G 5G 9G18G26G15G17G22G12
 134434861.41248  86962229.36148  23679165.6044   23679168.5154   23679165.8284
       220.000         165.000
 103895009.44048  98749344.64448  21673509.5954   21673513.3944   21673510.3874
       240.000         209.000
 114860546.32548  71709506.37348  19954306.3094   19954309.0304   19954306.5254
       251.000         229.000
 128722657.13448  82511156.10748  22592173.6004   22592176.0404   22592174.2514
       231.000         187.000
 133957377.60848  86590152.35348  23588314.5744   23588317.5694   23588314.2734
       228.000         182.000
 124110296.66548  78917108.25948  21714472.0264   21714473.9124   21714471.6164
       242.000         214.000
 133863813.75748  86517246.87248  23570508.7114   23570510.3264   23570508.3264
       227.000         181.000
 132555171.24748  85497536.90448  23321471.8114   23321473.0854   23321471.3534
       229.000         183.000
 120115054.65848  75803938.23948  20954198.7704   20954200.1044   20954198.5234
       251.000         226.000
 09  1 16  1 57 30.0000000  0  9G30G 5G 9G18G26G15G17G22G12
 134330979.08948  86881282.07948  23659397.2184   23659400.1964   23659396.9494
       222.000         167.000
 103818893.09548  98690033.21748  21659025.5234   21659028.9274   21659026.0724
       242.000         210.000
 114854984.20148  71705172.25348  19953247.8564   19953250.5114   19953248.0394
       250.000         228.000
 128764651.53648  82543878.99548  22600165.1494   22600167.4474   22600165.7364
       232.000         187.000
 134064040.61848  86673266.37548  23608612.2164   23608614.2184   23608611.9744
       228.000         179.000
 124189793.88348  78979054.14648  21729599.6354   21729601.7724   21729599.2944
       241.000         214.000
 133908741.67448  86552255.64148  23579058.0444   23579060.1424   23579057.8054
       228.000         181.000
 132543941.20448  85488786.19748  23319334.6974   23319336.1264   23319335.1324
       226.000         183.000
 120063869.94948  75764054.06548  20944458.4724   20944460.0764   20944458.5404
       251.000         225.000
 09  1 16  1 58  0.0000000  0  9G30G 5G 9G18G26G15G17G22G12
 134227276.60948  86800474.93248  23639664.2984   23639666.7614   23639664.3854
       224.000         174.000
 103743133.97348  98631000.15248  21644609.0474   21644612.4844   21644609.9184
       242.000         210.000
 114849780.35448  71701117.30248  19952257.5854   19952260.1854   19952257.8154
       250.000         228.000
 128807121.41448  82576972.39648  22608246.6814   22608249.3354   22608247.1714
       231.000         186.000
 134170875.30248  86756514.18248  23628942.1164   23628944.3044   23628942.0544
       226.000         177.000
 124269662.75848  79041289.62248  21744798.2294   21744800.2344   21744797.7574
       241.000         213.000
 133954180.01648  86587662.14348  23587704.8904   23587706.3854   23587704.6784
       228.000         180.000
 132533248.95148  85480454.57748  23317300.5454   23317301.4654   23317300.2564
       232.000         185.000
 120013122.88548  75724510.91348  20934801.4354   20934803.1774   20934801.1594
       251.000         225.000
 09  1 16  1 58 30.0000000  0  9G30G 5G 9G18G26G15G17G22G12
 134123755.32848  86719809.02348  23619964.7144   23619967.9234   23619964.6714
       222.000         173.000
 103667732.68748  98572245.91748  21630260.9164   21630263.9254   21630261.4754
       243.000         210.000
 114844934.35648  71697341.19848  19951335.4644   19951338.1224   19951335.6624
       250.000         228.000
 128850063.82548  82610433.99348  22616418.4534   22616421.1434   22616419.3034
       231.000         185.000
 134277879.56848  86839894.12648  23649303.7214   23649306.9024   23649303.4394
       224.000         175.000
 124349901.36848  79103813.22448  21760067.3344   21760068.8794   21760067.0084
       242.000         213.000
 134000126.64648  86623464.68948  23596448.1694   23596449.5144   23596447.8814
       229.000         182.000
 132523093.75548  85472541.43548  23315367.9264   23315368.5404   23315368.1734
       230.000         183.000
 119962813.13348  75685308.51048  20925227.8334   20925229.5184   20925227.8114
       250.000         226.000
 09  1 16  1 59  0.0000000  0  9G30G 5G 9G18G26G15G17G22G12
 134020417.22248  86639285.82448  23600299.9334   23600303.3004   23600299.9534
       222.000         173.000
 103592690.83748  98513771.74348  21615980.9744   21615983.7104   21615981.6544
       243.000         209.000
 114840447.53348  71693844.96748  19950481.5444   19950484.1904   19950481.5964
       250.000         228.000
 128893477.86748  82644263.10548  22624679.7544   22624682.3024   22624680.1324
       229.000         185.000
 134385051.94948  86923405.04848  23669698.3764   23669701.3234   23669698.5744
       224.000         173.000
 124430508.55648  79166624.01248  21775406.2584   21775408.0794   21775406.1294
       241.000         213.000
 134046581.07048  86659662.95548  23605288.6394   23605290.2404   23605288.6794
       229.000         183.000
 132513476.29248  85465047.29148  23313538.2864   23313538.5894   23313537.9194
       232.000         184.000
 119912942.18648  75646448.03648  20915737.7704   20915739.4784   20915737.5404
       250.000         226.000
 09  1 16  1 59 30.0000000  0  9G30G 5G 9G18G26G15G17G22G12
 133917263.59448  86558906.39248  23580670.4554   23580673.7064   23580669.3364
       224.000         172.000
 103518009.43348  98455578.45448  21601769.5804   21601772.3694   21601770.2194
       243.000         209.000
 114836320.40148  71690629.02748  19949696.2994   19949698.7484   19949696.5074
       251.000         228.000
 128937361.15748  82678457.86548  22633030.5404   22633033.1544   22633031.2734
       229.000         183.000
 134492391.07148  87007045.93748  23690124.3434   23690127.0304   23690124.2394
       221.000         170.000
 124511482.80248  79229720.83348  21790815.0294   21790817.0074   21790814.7214
       241.000         212.000
 134093541.73748  86696255.67748  23614224.7874   23614227.3234   23614224.4254
       227.000         183.000
 132504396.23848  85457971.93548  23311810.2434   23311810.8684   23311810.7314
       229.000         184.000
 119863510.26748  75607929.66548  20906331.1354   20906332.7874   20906331.0324
       250.000         226.000
 09  1 16  2  0  0.0000000  0  9G30G 5G 9G18G26G15G17G22G12
 133814296.44048  86478672.23048  23561077.1814   23561079.6754   23561076.8754
       223.000         174.000
 103443689.70648  98397666.99948  21587626.7444   21587629.7404   21587627.1174
       243.000         209.000
 114832553.24448  71687693.57648  19948979.3094   19948981.9304   19948979.4534
       251.000         228.000
 128981711.62048  82713016.68048  22641470.1314   22641472.3344   22641470.6264
       229.000         182.000
 134599894.97948  87090815.20548  23710581.2294   23710584.1644   23710581.0484
       220.000         166.000
 124592822.65648  79293102.53048  21806293.3954   21806295.5564   21806293.0964
       240.000         212.000
 134141007.38448  86733241.91348  23623257.3004   23623259.3144   23623257.6384
       229.000         183.000
 132495853.98648  85451315.62648  23310184.3114   23310185.4334   23310184.5434
       231.000         186.000
 119814517.88548  75569753.78548  20897008.2304   20897009.7784   20897008.0554
       250.000         226.000
 09  1 16  2  0 30.0000000  0  9G30G 5G 9G18G26G15G17G22G12
 133711516.53548  86398584.03648  23541518.0764   23541521.2024   23541517.6694
       224.000         172.000
 103369732.36648  98340037.91748  21573552.9584   21573556.2564   21573553.8014
       242.000         209.000
 114829146.23948  71685038.77148  19948331.0484   19948333.7024   19948331.2124
       251.000         229.000
 129026526.80648  82747937.58248  22649997.9634   22650000.4024   22649998.8314
       229.000         182.000
 134707561.83648  87174711.43748  23731069.6884   23731072.9464   23731069.1944
       219.000         163.000
 124674526.42948  79356767.81148  21821841.1844   21821843.2614   21821840.9054
       240.000         212.000
 134188976.21348  86770620.21548  23632385.4514   23632387.5934   23632385.5654
       228.000         183.000
 132487848.97948  85445077.96748  23308661.0124   23308662.1984   23308661.1374
       230.000         186.000
 119765965.31148  75531920.60948  20887769.2134   20887770.5314   20887769.0914
       251.000         226.000
 09  1 16  2  1  0.0000000  0  9G30G 5G 9G18G26G15G17G22G12
 133608925.67248  86318643.08448  23521996.1704   23521998.6454   23521996.2994
       225.000         173.000
 103296138.65848  98282692.17248  21559548.5264   21559551.9224   21559548.9474
       241.000         208.000
 114826099.60748  71682664.76948  19947751.2934   19947754.0844   19947751.5944
       250.000         229.000
 129071804.84648  82783219.16348  22658614.4044   22658616.7814   22658615.1404
       228.000         183.000
 134815390.13048  87258733.48548  23751588.8554   23751591.7484   23751589.2284
       218.000         160.000
 124756592.42348  79420715.33748  21837458.1254   21837459.7684   21837457.8234
       240.000         212.000
 134237447.24248  86808389.84948  23641608.9934   23641610.8044   23641608.6344
       228.000         181.000
 132480381.34448  85439259.00048  23307240.5024   23307240.9684   23307239.9144
       230.000         185.000
 119717853.12148  75494430.59348  20878613.6664   20878615.1174   20878613.5394
       251.000         226.000
 09  1 16  2  1 30.0000000  0  9G30G 5G 9G18G26G15G17G22G12
 133506524.86448  86238850.24348  23502509.8544   23502512.3374   23502509.9864
       224.000         172.000
 103222909.40648  98225630.43548  21545613.2824   21545616.7904   21545613.8274
       242.000         208.000
 114823413.77048  71680571.91448  19947240.2094   19947242.9244   19947240.4004
       250.000         229.000
 129117543.28248  82818859.50048  22667318.3734   22667320.4044   22667318.8504
       231.000         182.000
 134923377.80148  87342879.72048  23772138.3864   23772141.0644   23772138.1484
       215.000         157.000
 124839019.07048  79484943.89848  21853143.2824   21853145.0344   21853143.0724
       241.000         212.000
 134286418.47248  86846549.26248  23650927.8454   23650929.9914   23650927.9584
       228.000         181.000
 132473450.40448  85433858.26048  23305921.5564   23305921.9244   23305922.1894
       230.000         184.000
 119670181.43848  75457283.83948  20869542.0354   20869543.5494   20869541.8994
       250.000         227.000
 09  1 16  2  2  0.0000000  0  9G30G 5G 9G18G26G15G17G22G12
 133404315.55548  86159206.62848  23483059.8324   23483062.4754   23483059.6344
       223.000         175.000
 103150045.23748  98168853.16548  21531747.7854   21531751.2234   21531748.4004
       242.000         209.000
 114821088.78148  71678760.23648  19946797.7714   19946800.5144   19946797.7844
       250.000         229.000
 129163739.54348  82854856.56648  22676109.2384   22676111.3584   22676109.5434
       231.000         182.000
 135031522.89248  87427148.61048  23792716.7544   23792720.3654   23792716.5424
       216.000         155.000
 124921804.32148  79549451.88448  21868896.9904   21868898.7634   21868896.7034
       240.000         213.000
 134335888.52648  86885097.35448  23660341.8204   23660343.3764   23660341.4774
       227.000         179.000
 132467055.60448  85428875.26448  23304704.6444   23304704.8004   23304705.2284
       231.000         185.000
 119622950.45448  75420480.48948  20860554.0744   20860555.7114   20860553.8844
       250.000         226.000
 09  1 16  2  2 30.0000000  0  9G30G 5G 9G18G26G15G17G22G12
 133302299.85148  86079713.88448  23463646.8564   23463649.5124   23463646.8154
       224.000         174.000
 103077547.81048  98112361.67148  21517952.1914   21517955.4524   21517952.9384
       243.000         210.000
 114819125.06448  71677230.07548  19946424.0414   19946426.7424   19946424.2534
       251.000         229.000
 129210392.07548  82891209.17448  22684987.1404   22684988.6414   22684988.0684
       229.000         182.000
 135139824.17148  87511539.19748  23813326.3104   23813329.0894   23813327.2094
       213.000         152.000
 125004947.32848  79614238.64448  21884718.3474   21884720.3754   21884718.1014
       240.000         211.000
 134385856.05248  86924033.07548  23669850.1364   23669850.8964   23669850.0204
       226.000         179.000
 132461197.56448  85424310.54448  23303589.9574   23303590.1904   23303590.0334
       229.000         184.000
 119576161.06548  75384021.24048  20851650.4864   20851651.9094   20851650.2294
       251.000         226.000
 09  1 16  2  3  0.0000000  0  9G30G 5G 9G18G26G15G17G22G12
 133200478.94848  86000372.94548  23444271.0184   23444274.1054   23444271.3294
       225.000         176.000
 103005417.96148  98056156.59848  21504226.3774   21504229.7224   21504226.9334
       242.000         210.000
 114817523.49248  71675982.09448  19946119.3154   19946121.8484   19946119.5624
       250.000         229.000
 129257498.51448  82927915.48148  22693950.6394   22693952.6414   22693951.1254
       226.000         179.000
 135248279.93648  87596050.19948  23833965.1414   23833967.6784   23833964.9454
       209.000         149.000
 125088446.19448  79679302.69648  21900607.5194   21900609.5344   21900607.3134
       241.000         211.000
 134436319.62048  86963355.33348  23679452.9114   23679454.7244   23679452.3294
       226.000         182.000
 132455875.86848  85420163.74348  23302577.2094   23302577.4654   23302577.1594
       229.000         182.000
 119529813.61248  75347906.34348  20842830.8064   20842832.3164   20842830.6424
       250.000         227.000
 09  1 16  2  3 30.0000000  0  9G30G 5G 9G18G26G15G17G22G12
 133098854.36448  85921184.96348  23424932.2974   23424935.2174   23424932.4424
       224.000         174.000
 102933656.89648  98000238.89048  21490570.4674   21490573.8854   21490571.0694
       242.000         210.000
 114816284.36148  71675016.54048  19945883.4984   19945886.1984   19945883.6954
       251.000         229.000
 129305056.55948  82964973.69448  22703000.3654   22703002.0694   22703000.6994
       228.000         180.000
 135356888.41648  87680680.16648  23854632.7004   23854634.9454   23854631.8104
       212.000         148.000
 125172299.52648  79744642.95048  21916564.4384   21916566.1854   21916564.5094
       239.000         210.000
 134487277.98248  87003063.18048  23689150.7274   23689153.2014   23689150.2464
       228.000         183.000
 132451090.13548  85416434.59748  23301666.1024   23301667.0904   23301666.7974
       230.000         182.000
 119483908.31648  75312135.98848  20834095.2584   20834096.8554   20834095.2464
       250.000         227.000
 09  1 16  2  4  0.0000000  0  9G30G 5G 9G18G26G15G17G22G12
 132997427.16148  85842150.79148  23405631.5764   23405633.7894   23405630.5944
       227.000         176.000
 102862264.91048  97944608.80148  21476984.8644   21476988.4224   21476985.3764
       243.000         210.000
 114815407.42048  71674333.21348  19945716.6674   19945719.2864   19945716.9194
       251.000         229.000
 129353063.43548  83002381.65548  22712135.9734   22712138.0364   22712136.5824
       228.000         182.000
 135465647.27548  87765427.32848  23875328.4994   23875331.0184   23875329.4184
       207.000         142.000
 125256504.84348  79810257.49248  21932588.0384   21932590.0774   21932587.9374
       240.000         210.000
 134538728.97948  87043154.87848  23698941.5514   23698943.3774   23698941.7234
       228.000         180.000
 132446840.06648  85413122.85348  23300857.4744   23300858.0234   23300856.8624
       231.000         184.000
 119438445.12848  75276710.14448  20825443.9544   20825445.2574   20825443.8744
       251.000         227.000
 09  1 16  2  4 30.0000000  0  9G30G 5G 9G18G26G15G17G22G12
 132896198.35548  85763271.18148  23386368.6714   23386370.8224   23386369.0854
       226.000         174.000
 102791242.65748  97889266.79648  21463469.9674   21463473.2524   21463470.4064
       243.000         211.000
 114814892.38148  71673931.87848  19945618.7554   19945621.2734   19945618.8064
       251.000         229.000
 129401516.56948  83040137.33348  22721356.4114   22721358.7494   22721357.1124
       229.000         183.000
 135574554.62648  87850290.17048  23896052.3824   23896056.0974   23896052.1034
       204.000         138.000
 125341060.60648  79876145.10748  21948678.5084   21948680.4634   21948678.3574
       240.000         210.000
 134590670.70348  87083628.90948  23708825.4814   23708825.7384   23708825.9734
       224.000         178.000
 132443124.57848  85410227.66448  23300150.4914   23300151.3864   23300151.6814
       228.000         183.000
 119393423.99748  75241628.75448  20816876.7804   20816877.9894   20816876.8854
       250.000         227.000
 09  1 16  2  5  0.0000000  0  9G30G 5G 9G18G26G15G17G22G12
 132795169.81348  85684547.66148  23367143.0914   23367145.5944   23367142.7404
       225.000         174.000
 102720591.45348  97834213.92448  21450025.6544   21450028.7084   21450026.4094
       243.000         211.000
 114814740.34548  71673813.40748  19945589.7734   19945592.3144   19945590.0034
       251.000         229.000
 129450414.31448  83078239.45448  22730661.5034   22730663.4724   22730661.9894
       231.000         183.000
 135683608.83848  87935267.49248  23916805.9974   23916807.4484   23916806.1314
       203.000         137.000
 125425965.10448  79942304.45148  21964834.9434   21964837.3324   21964834.6804
       238.000         209.000
 134643101.69548  87124484.22348  23718802.3384   23718805.0934   23718802.7984
       224.000         181.000
 132439944.05048  85407749.30648  23299545.3284   23299546.0734   23299544.6434
       229.000         185.000
 119348845.79848  75206892.50948  20808393.8834   20808395.3064   20808393.6934
       251.000         228.000
 09  1 16  2  5 30.0000000  0  9G30G 5G 9G18G26G15G17G22G12
 132694343.32548  85605981.56348  23347956.5924   23347958.8024   23347956.5804
       224.000         176.000
 102650312.50648  97779451.12748  21436652.1174   21436655.3824   21436652.6854
       243.000         212.000
 114814951.81148  71673978.18348  19945630.0214   19945632.5884   19945630.2234
       251.000         229.000
 129499754.11848  83116686.04848  22740050.8204   22740052.6604   22740051.1344
       230.000         184.000
 135792808.43748  88020358.07148  23937585.4244   23937588.5874   23937585.6714
       196.000         133.000
 125511217.27148  80008734.70348  21981057.9974   21981060.5464   21981057.6274
       239.000         210.000
 134696020.93148  87165720.01748  23728872.6404   23728876.6614   23728872.5434
       224.000         181.000
 132437297.83548  85405687.33048  23299042.0334   23299042.7714   23299042.7674
       230.000         186.000
 119304710.80748  75172501.61248  20799995.2894   20799996.6624   20799995.3304
       251.000         228.000
 09  1 16  2  6  0.0000000  0  9G30G 5G 9G18G26G15G17G22G12
 132593719.96748  85527573.75548  23328808.6214   23328811.2164   23328808.2004
       224.000         176.000
 102580406.58348  97724978.99048  21423349.4494   21423352.6704   21423349.7834
       244.000         211.000
 114815526.93448  71674426.32848  19945739.4924   19945741.9814   19945739.6264
       251.000         229.000
 129549533.78848  83155475.39348  22749523.2904   22749525.5494   22749523.8404
       229.000         183.000
 135902151.51548  88105560.45048  23958391.9274   23958395.7844   23958390.9884
       202.000         133.000
 125596814.98448  80075434.21048  21997347.0184   21997349.0044   21997346.8224
       240.000         209.000
 134749426.52548  87207334.78048  23739035.1524   23739038.3424   23739035.3064
       222.000         177.000
 132435186.00448  85404041.74248  23298639.9764   23298640.8464   23298639.5634
       228.000         183.000
 119261019.11148  75138456.14048  20791680.9994   20791682.2474   20791680.8284
       252.000         228.000
 09  1 16  2  6 30.0000000  0  9G30G 5G 9G18G26G15G17G22G12
 132493301.35948  85449325.50348  23309699.7884   23309702.7274   23309699.4114
       225.000         178.000
 102510874.66748  97670798.27548  21410117.9164   21410121.1244   21410118.7054
       242.000         211.000
 114816466.09848  71675158.13848  19945918.3494   19945920.6994   19945918.5534
       251.000         229.000
 129599750.81548  83194605.55348  22759079.4474   22759081.7384   22759080.1174
       230.000         184.000
 116011609.57058 108190846.46558  23979227.0605   23979230.3495   23979227.8155
       201.000         132.000
 125682756.85248  80142401.89648  22013701.2294   22013703.0934   22013700.9774
       239.000         209.000
 134803317.02348  87249327.34548  23749290.1264   23749290.9254   23749289.6874
       223.000         174.000
 132433608.05548  85402812.16548  23298339.5274   23298340.3274   23298340.3594
       229.000         184.000
 119217771.18748  75104756.46648  20783451.3124   20783452.4414   20783451.4204
       250.000         228.000
 09  1 16  2  7  0.0000000  0  9G30G 5G 9G18G26G15G17G22G12
 132393087.74448  85371237.00248  23290629.4054   23290632.8504   23290629.7714
       225.000         178.000
 102441716.60448  97616908.89248  21396957.3594   21396960.7284   21396957.9084
       243.000         211.000
 114817768.35548  71676172.87948  19946165.9834   19946168.6394   19946166.0784
       251.000         229.000
 129650401.58048  83234073.65848  22768717.4714   22768720.2964   22768718.0274
       228.000         181.000
 116121233.38748 108276267.60448  24000088.0284   24000089.3344   24000091.0694
       205.000         132.000
 125769039.80948  80209635.36548  22030120.2654   22030122.2324   22030119.8314
       240.000         210.000
 134857689.62748  87291695.58048  23759637.3294   23759638.0684   23759637.3934
       223.000         176.000
 132432562.78448  85401997.66548  23298140.5234   23298141.6494   23298140.5134
       231.000         184.000
 119174966.33648  75071402.05148  20775305.5434   20775306.9234   20775305.4304
       250.000         228.000
 09  1 16  2  7 30.0000000  0  9G30G 5G 9G18G26G15G17G22G12
 132293081.22248  85293309.85548  23271598.4934   23271602.0444   23271597.4514
       225.000         177.000
 102372933.77548  97563311.88848  21383868.3844   21383871.7024   21383869.1724
       242.000         211.000
 114819434.81748  71677471.42248  19946483.1824   19946485.6394   19946483.3264
       251.000         229.000
 129701485.05848  83273878.95248  22778438.3734   22778440.9204   22778438.7194
       226.000         180.000
 116230994.85548 108361796.03748  24020975.6024   24020976.9464   24020975.3074
       194.000         128.000
 125855662.95748  80277133.91948  22046604.3304   22046605.8394   22046604.1624
       239.000         208.000
 134912542.97648  87334438.43748  23770075.4844   23770076.9834   23770075.2494
       223.000         177.000
 132432049.64448  85401597.80448  23298042.9914   23298043.7944   23298043.1854
       230.000         185.000
 119132605.23648  75038393.42048  20767244.3704   20767246.0584   20767244.1334
       250.000         229.000
 09  1 16  2  8  0.0000000  0  9G30G 5G 9G18G26G15G17G22G12
 132193283.90048  85215545.73348  23252607.5974   23252611.1634   23252607.6614
       227.000         178.000
 102304528.05348  97510008.74648  21370851.2074   21370854.5794   21370851.6144
       243.000         212.000
 114821466.78148  71679054.77648  19946869.9224   19946872.2314   19946870.0964
       251.000         229.000
 129752998.98248  83314019.66748  22788240.9044   22788243.4894   22788241.7274
       227.000         179.000
 116340893.34148 108447431.27148  24041885.5904   24041889.1054   24041885.3004
       197.000         125.000
 125942625.39048  80344896.86148  22063152.5624   22063154.3424   22063152.4444
       239.000         208.000
 134967876.74148  87377555.68448  23780605.0224   23780607.5134   23780605.3134
       221.000         177.000
 132432069.46348  85401613.23948  23298047.0114   23298047.6134   23298047.5034
       232.000         184.000
 119090688.72848  75005731.21548  20759268.0654   20759269.4614   20759267.9024
       250.000         229.000
 09  1 16  2  8 30.0000000  0  9G30G 5G 9G18G26G15G17G22G12
 132093695.86448  85137944.65648  23233656.8454   23233659.7304   23233656.8324
       225.000         176.000
 102236498.83248  97456998.97748  21357905.4834   21357908.9144   21357906.1224
       244.000         212.000
 114823863.17148  71680922.09248  19947325.8764   19947328.3484   19947326.1334
       251.000         229.000
 129804939.71648  83354492.94448  22798125.0234   22798127.5644   22798125.2854
       228.000         180.000
 116450925.46848 108533170.57848  24062826.4074   24062829.6674   24062828.5534
       189.000         124.000
 126029924.06648  80412921.79548  22079764.9704   22079766.8414   22079764.8844
       237.000         208.000
 135023687.71048  87421044.75448  23791224.9094   23791228.8764   23791224.9294
       220.000         177.000
 132432620.24648  85402042.41148  23298151.9104   23298152.6404   23298152.1094
       231.000         183.000
 119049215.73948  74973414.61948  20751376.1644   20751377.3694   20751376.0384
       250.000         229.000
 09  1 16  2  9  0.0000000  0  9G30G 5G 9G18G26G15G17G22G12
 131994319.12748  85060508.24848  23214745.4224   23214748.3494   23214744.9444
       223.000         175.000
 102168847.57548  97404283.71948  21345032.3074   21345035.0064   21345033.0584
       244.000         212.000
 114826624.78548  71683073.99648  19947851.3264   19947853.8874   19947851.4394
       251.000         229.000
 129857305.43348  83395297.40148  22808090.5964   22808091.8254   22808090.9254
       230.000         181.000
 116561090.03148 108619013.07148  24083790.3014   24083794.4304   24083794.1504
       193.000         124.000
 126117557.54748  80481207.62348  22096440.7314   22096442.7914   22096440.2354
       238.000         207.000
 135079974.52948  87464904.62848  23801936.0784   23801940.1414   23801935.9924
       219.000         174.000
 132433702.10748  85402885.43748  23298357.7644   23298358.6444   23298358.1034
       230.000         185.000
 119008187.03848  74941444.21248  20743568.5924   20743569.9494   20743568.3194
       251.000         230.000
 09  1 16  2  9 30.0000000  0  9G30G 5G 9G18G26G15G17G22G12
 131895154.72648  84983237.30048  23195875.1904   23195878.2404   23195875.0454
       226.000         176.000
 102101574.78848  97351863.37948  21332230.5634   21332233.2944   21332231.1324
       244.000         212.000
 114829751.29848  71685510.24248  19948446.2964   19948448.8764   19948446.3794
       251.000         229.000
 129910093.47348  83436430.92448  22818135.8774   22818137.4664   22818136.4344
       230.000         181.000
 136671303.03758  88704878.17358  24104773.3365   24104780.9145   24104773.2775
       184.000         125.000
 126205523.75048  80549752.71248  22113180.1394   22113182.3784   22113180.0824
       237.000         206.000
 135136735.15848  87509133.68148  23812737.0474   23812740.0454   23812736.5624
       221.000         170.000
 132435314.26148  85404141.66148  23298664.4364   23298665.5824   23298664.9464
       229.000         184.000
 118967602.75948  74909820.11048  20735845.6924   20735847.1304   20735845.5214
       251.000         230.000
 09  1 16  2 10  0.0000000  0  9G30G 5G 9G18G26G15G17G22G12
 131796205.67548  84906134.15048  23177046.2014   23177049.0404   23177045.9764
       225.000         178.000
 102034683.05948  97299739.95648  21319501.7014   21319504.3704   21319502.5774
       244.000         212.000
 114833245.00248  71688232.60348  19949111.0484   19949113.6784   19949111.2584
       251.000         229.000
 129963303.05648  83477892.91748  22828261.2774   22828263.1784   22828261.9724
       231.000         181.000
 136781728.10448  88790923.66548  24125790.4614   24125792.0794   24125787.6564
       201.000         131.000
 126293822.76348  80618557.14748  22129983.0404   22129984.9164   22129982.8124
       238.000         206.000
 135193969.82548  87553732.14048  23823629.4774   23823629.9504   23823629.2714
       221.000         168.000
 132437457.67748  85405811.85548  23299072.0694   23299073.1014   23299071.7804
       230.000         184.000
 118927464.45348  74878543.51648  20728207.6154   20728209.0894   20728207.5714
       251.000         230.000
 09  1 16  2 10 30.0000000  0  9G30G 5G 9G18G26G15G17G22G12
 131697471.84248  84829198.70948  23158258.1054   23158260.6624   23158257.6404
       229.000         180.000
 101968171.48348  97247912.77148  21306844.5964   21306847.7544   21306845.2604
       243.000         212.000
 114837104.60548  71691240.09248  19949845.4614   19949848.1064   19949845.6424
       251.000         229.000
 130016929.85548  83519680.02248  22838466.0894   22838468.0574   22838466.1764
       230.000         182.000
 136892280.03848  88877068.06748  24146828.7494   24146829.9184   24146827.5634
       200.000         135.000
 126382451.23848  80687618.28948  22146847.9514   22146850.5284   22146847.8954
       236.000         206.000
 135251674.93648  87598697.13348  23834610.2324   23834610.6224   23834610.0734
       219.000         169.000
 132440130.22048  85407894.34648  23299580.1314   23299581.2244   23299580.2544
       227.000         181.000
 118887770.70448  74847613.32848  20720654.0964   20720655.4644   20720654.0324
       251.000         230.000
 09  1 16  2 11  0.0000000  0  9G30G 5G 9G18G26G15G17G22G12
 131598953.81348  84752431.42948  23139510.9874   23139513.6244   23139511.0514
       226.000         180.000
 101902040.12448  97196381.85448  21294260.1444   21294263.5804   21294260.7194
       243.000         213.000
 114841329.81748  71694532.45948  19950649.8044   19950652.1194   19950650.0134
       251.000         229.000
 130070970.65348  83561789.73048  22848750.2294   22848751.7774   22848750.9414
       230.000         181.000
 137002956.14248  88963309.10748  24167888.7004   24167893.3914   24167888.5854
       199.000         137.000
 126471406.23648  80756933.86948  22163775.9914   22163777.9784   22163775.5414
       239.000         206.000
 135309847.80648  87644026.64448  23845680.3904   23845680.9514   23845679.9944
       219.000         168.000
 132443330.53348  85410388.11348  23300189.5754   23300190.1174   23300189.9704
       228.000         182.000
 118848520.96548  74817029.11748  20713185.1774   20713186.3974   20713185.1404
       250.000         230.000
 09  1 16  2 11 30.0000000  0  9G30G 5G 9G18G26G15G17G22G12
 131500653.90148  84675834.12348  23120804.9374   23120807.5934   23120804.3134
       227.000         181.000
 101836290.84048  97145148.65948  21281748.6994   21281752.0504   21281749.2344
       244.000         213.000
 114845921.62248  71698110.48448  19951523.4674   19951525.9154   19951523.6214
       251.000         229.000
 130125424.03948  83604220.93048  22859111.6814   22859113.6344   22859112.7274
       228.000         178.000
 137113755.81248  89049646.46948  24188974.8034   24188976.8894   24188975.1094
       199.000         138.000
 126560687.18948  80826503.44848  22180765.6334   22180767.1864   22180765.4874
       237.000         204.000
 135368488.02348  87689720.31148  23856839.0994   23856840.9934   23856838.2594
       220.000         171.000
 132447059.16348  85413293.52248  23300899.2694   23300899.6914   23300899.5714
       231.000         183.000
 118809716.07248  74786791.55248  20705800.6694   20705802.1924   20705800.4504
       250.000         230.000
 09  1 16  2 12  0.0000000  0  9G30G 5G 9G18G26G15G17G22G12
 131402572.39448  84599406.99448  23102140.4614   23102143.5044   23102140.2344
       230.000         180.000
 101770923.43848  97094213.02848  21269309.7984   21269312.8484   21269310.2264
       244.000         213.000
 114850879.32948  71701973.63248  19952466.8664   19952469.4224   19952467.0004
       251.000         229.000
 130180286.68948  83646971.04948  22869551.4074   22869553.6594   22869551.8674
       227.000         178.000
 137224675.93048  89136077.72248  24210081.1794   24210084.8414   24210079.9304
       206.000         136.000
 126650291.44548  80896324.94848  22197816.7904   22197818.4464   22197816.3674
       237.000         206.000
 135427592.57148  87735775.82748  23868086.3584   23868088.7954   23868086.2254
       220.000         172.000
 132451314.11848  85416609.09648  23301708.6604   23301709.0854   23301708.9374
       228.000         181.000
 118771355.28048  74756900.02748  20698500.8734   20698502.3324   20698500.8374
       250.000         230.000
