     2.11           OBSERVATION DATA    G (GPS)             RINEX VERSION / TYPE
teqc  2008Oct2      gpsops              20090107 00:05:37UTCPGM / RUN BY / DATE
    30.0000                                                 INTERVAL
     1     1                                                WAVELENGTH FACT L1/2
     7    L1    L2    P1    P2    C1    S1    S2            # / TYPES OF OBSERV
Linux 2.4.20-8|Pentium IV|gcc -static|Linux|486/DX+         COMMENT
     2.10           OBSERVATION DATA    GPS                 COMMENT
soc2rnx ver 1.20    gpsops               7-Jan-2009 00:05:35COMMENT
S1, if present, is the SNR for the C/A data stream on L1.   COMMENT
 SNR is mapped to RINEX snr flag value [1,4-9]              COMMENT
    SNR:   >316  >100  >31.6  >10  >3.2    >0 bad=0         COMMENT
L1 & L2:      9     8     7     6     5     4     1         COMMENT
                                                            COMMENT
This data is provided as a public service by NASA/JPL.      COMMENT
No warranty is expressed or implied regarding suitability   COMMENT
for use.  For further information, contact:                 COMMENT
Dave Stowers, NASA/JPL m/s 238-600                          COMMENT
4800 Oak Grove Drive, Pasadena CA 91109 USA                 COMMENT
                                                            COMMENT
Forced Modulo Decimation to 30 seconds                      COMMENT
  2009     1     6     0     0    0.0000000     GPS         TIME OF FIRST OBS
DSN                 JPL                                     OBSERVER / AGENCY
451-U               AOAD/M_T        NONE                    ANT # / TYPE
  4849202.3940  -360328.9929  4114913.1862                  APPROX POSITION XYZ
        0.0254        0.0000        0.0000                  ANTENNA: DELTA H/E/N
LP03574             ASHTECH Z-XII3      CC00                REC # / TYPE / VERS
MADR                                                        MARKER NAME
13407S012                                                   MARKER NUMBER
                                                            END OF HEADER
 09  1  6  0  0  0.0000000  0  9G24G28G 8G 9G15G10G21G26G27
 128119921.36848  99833683.40148  24380429.1724   24380431.8514   24380428.4864
       211.000         154.000
 114795385.71448  89450939.65548  21844844.0954   21844845.8874   21844844.6884
       242.000         209.000
 122009675.54748  95072467.85648  23217674.3984   23217677.8634   23217674.5544
       226.000         178.000
 122392623.34048  95370862.23648  23290551.8154   23290554.8764   23290553.0204
       228.000         176.000
 110230326.86048  85893755.50948  20976138.9224   20976140.4004   20976138.5554
       250.000         229.000
 114597050.20448  89296388.21948  21807105.5014   21807109.1184   21807106.0964
       241.000         206.000
 128554614.39948 100172448.44348  24463110.2504   24463111.6864   24463113.8724
       220.000         161.000
 105546988.81148  82244397.73248  20084931.4144   20084933.8764   20084931.4024
       251.000         228.000
 121543165.45048  94708942.61148  23128908.2404   23128910.8844   23128909.4114
       234.000         193.000
 09  1  6  0  0 30.0000000  0  9G24G28G 8G 9G15G10G21G26G27
 128188930.44648  99887456.72148  24393559.7384   24393563.3024   24393559.6264
       210.000         153.000
 114819950.75148  89470081.24648  21849518.4224   21849520.5694   21849518.8844
       242.000         210.000
 122096731.50648  95140303.66648  23234240.7634   23234244.4104   23234241.2744
       228.000         179.000
 122296253.49548  95295768.88748  23272213.0234   23272216.6314   23272213.1704
       225.000         175.000
 110183910.37248  85857586.82048  20967306.1504   20967307.7204   20967305.8634
       249.000         229.000
 114683256.95548  89363562.30148  21823510.1934   21823513.6114   21823511.0614
       240.000         206.000
 128567258.76448 100182301.20948  24465516.2654   24465517.6954   24465518.5524
       211.000         159.000
 105546697.12248  82244170.44048  20084876.0514   20084878.3224   20084875.8634
       251.000         228.000
 121613997.32048  94764136.26348  23142386.8854   23142389.9744   23142387.3664
       232.000         192.000
 09  1  6  0  1  0.0000000  0  9G24G28G 8G 9G15G10G21G26G27
 128258131.52348  99941379.61448  24406727.3944   24406730.9704   24406727.6554
       209.000         152.000
 114845031.80748  89489624.93048  21854291.4394   21854293.1484   21854291.9184
       243.000         209.000
 122183880.82848  95208212.21548  23250824.6704   23250828.5474   23250824.8344
       225.000         178.000
 122200071.59948  95220821.97648  23253909.9724   23253913.4474   23253910.3304
       227.000         176.000
 110137746.84848  85821615.23748  20958521.5264   20958523.0534   20958521.1294
       250.000         229.000
 114769817.22548  89431011.86248  21839982.1304   21839985.4614   21839983.0344
       241.000         206.000
 128580379.94848 100192525.50848  24468011.9114   24468014.4424   24468009.8334
       204.000         147.000
 105546774.11248  82244230.43848  20084890.7074   20084893.0314   20084890.6774
       251.000         228.000
 121684879.55448  94819369.16948  23155875.2794   23155878.4874   23155875.6724
       232.000         191.000
 09  1  6  0  1 30.0000000  0  9G24G28G 8G 9G15G10G21G26G27
 128327522.01848  99995450.14748  24419932.6844   24419935.9594   24419932.6784
       208.000         154.000
 114870628.49348  89509570.39348  21859162.2414   21859163.8074   21859162.7444
       242.000         209.000
 122271122.44648  95276192.69448  23267426.0134   23267429.8314   23267426.2584
       227.000         177.000
 122104079.13348  95146022.67048  23235643.6544   23235646.6554   23235643.7034
       228.000         176.000
 110091837.85648  85785841.99848  20949785.3214   20949786.9374   20949785.2364
       249.000         229.000
 114856729.16148  89498735.44148  21856520.7534   21856524.2194   21856521.4904
       240.000         205.000
 128593977.27448 100203120.77348  24470599.3694   24470602.7724   24470600.2044
       205.000         153.000
 105547220.53648  82244578.30248  20084975.4784   20084977.9664   20084975.4114
       250.000         228.000
 121755811.80348  94874641.04548  23169373.1424   23169376.2354   23169373.2094
       233.000         191.000
 09  1  6  0  2  0.0000000  0  9G24G28G 8G 9G15G10G21G26G27
 128397098.06148 100049665.24748  24433172.1404   24433175.8904   24433172.1884
       213.000         153.000
 114896738.59248  89529915.92948  21864130.4704   21864132.5854   21864130.9044
       241.000         208.000
 122358454.34248  95344243.49648  23284044.9174   23284048.3114   23284045.2364
       224.000         175.000
 122008275.96548  95071370.85148  23217413.4034   23217416.2344   23217414.4424
       227.000         176.000
 110046183.89448  85750267.48848  20941097.5034   20941099.3944   20941097.3324
       250.000         230.000
 114943989.34848  89566730.38248  21873125.6654   21873129.2214   21873126.4274
       240.000         204.000
 128608048.19948 100214085.09348  24473278.0374   24473279.9614   24473278.8144
       215.000         157.000
 105548036.12348  82245213.81248  20085130.7594   20085133.2244   20085130.6814
       251.000         229.000
 121826792.44548  94929950.62048  23182880.3794   23182883.4144   23182880.7964
       229.000         190.000
 09  1  6  0  2 30.0000000  0  9G24G28G 8G 9G15G10G21G26G27
 128466856.89848 100104022.75148  24446446.1664   24446450.7224   24446445.9034
       210.000         150.000
 114923361.39748  89550660.98948  21869196.3744   21869198.6644   21869196.7684
       241.000         208.000
 122445874.61548  95412363.20448  23300680.4294   23300684.0124   23300680.7024
       227.000         175.000
 121912663.10048  94996867.33548  23199218.6684   23199221.3244   23199219.2114
       226.000         176.000
 110000786.26948  85714892.71548  20932458.7404   20932460.4544   20932458.3604
       250.000         230.000
 115031595.50248  89634994.91148  21889796.6764   21889800.2374   21889797.5094
       240.000         205.000
 128622591.46048 100225417.52748  24476045.4304   24476047.6604   24476046.4554
       213.000         157.000
 105549221.52648  82246137.49748  20085356.4214   20085358.8484   20085356.2824
       252.000         229.000
 121897820.47148  94985297.11748  23196396.1724   23196399.8654   23196396.6454
       228.000         190.000
 09  1  6  0  3  0.0000000  0  9G24G28G 8G 9G15G10G21G26G27
 128536796.15648 100158520.88548  24459755.2664   24459759.6644   24459756.1264
       207.000         149.000
 114950496.49748  89571805.22348  21874360.4064   21874362.4894   21874361.1734
       242.000         208.000
 122533382.86148  95480551.44048  23317332.9084   23317336.5374   23317333.4164
       228.000         176.000
 121817242.02648  94922513.26848  23181060.3814   23181063.3844   23181060.5684
       223.000         177.000
 109955646.64748  85679718.98848  20923868.9074   20923870.6314   20923868.6964
       250.000         230.000
 115119546.09448  89703527.83548  21906533.1394   21906536.8564   21906533.8674
       240.000         205.000
 128637606.51048 100237117.58948  24478903.1824   24478904.7554   24478901.6054
       216.000         158.000
 105550777.84548  82247350.21648  20085652.6444   20085654.9834   20085652.6114
       251.000         229.000
 121968895.67948  95040680.38848  23209921.6424   23209925.0774   23209921.4754
       231.000         191.000
 09  1  6  0  3 30.0000000  0  9G24G28G 8G 9G15G10G21G26G27
 128606912.59148 100213157.03248  24473097.6354   24473102.6994   24473097.3034
       211.000         152.000
 114978142.54748  89593347.59948  21879621.2104   21879622.9364   21879621.7454
       241.000         208.000
 122620977.14848  95548806.74248  23334001.8024   23334004.8174   23334002.5354
       226.000         173.000
 121722013.13748  94848308.97748  23162938.1164   23162941.9214   23162937.8834
       223.000         177.000
 109910766.26648  85644747.26848  20915328.3964   20915330.1294   20915328.0954
       250.000         230.000
 115207838.17648  89772326.85948  21923334.7164   21923338.4554   21923335.2934
       240.000         205.000
 128653091.39448 100249183.72548  24481849.7664   24481850.6574   24481851.8284
       214.000         156.000
 105552705.18648  82248852.03748  20086019.3034   20086021.8134   20086019.1844
       250.000         229.000
 122040016.57148  95096099.25948  23223455.9114   23223458.9714   23223456.2984
       230.000         190.000
 09  1  6  0  4  0.0000000  0  9G24G28G 8G 9G15G10G21G26G27
 128677203.28148 100267929.00248  24486474.0044   24486479.1974   24486474.6984
       213.000         152.000
 115006297.88248  89615286.83048  21884979.2794   21884980.9604   21884979.8664
       242.000         208.000
 122708656.21848  95617128.08348  23350686.1374   23350689.7924   23350686.4474
       226.000         175.000
 121626977.24548  94774255.07448  23144853.0364   23144857.0604   23144853.3484
       223.000         178.000
 109866146.06148  85609978.28148  20906837.5104   20906839.2824   20906837.2594
       250.000         230.000
 115296469.38748  89841390.13648  21940200.8074   21940204.2484   21940201.5724
       241.000         205.000
 128669044.93648 100261615.07048  24484884.9294   24484886.6434   24484886.5044
       212.000         154.000
 105555003.85848  82250643.20248  20086456.7334   20086459.2444   20086456.5134
       251.000         229.000
 122111182.16548  95151552.95048  23236997.9534   23237001.2464   23236998.3314
       229.000         189.000
 09  1  6  0  4 30.0000000  0  9G24G28G 8G 9G15G10G21G26G27
 128747665.80748 100322834.83948  24499882.5324   24499887.1374   24499882.7094
       212.000         151.000
 115034962.22748  89637622.68048  21890434.1544   21890435.5114   21890434.5344
       244.000         209.000
 122796418.89348  95685514.57848  23367386.5664   23367390.6714   23367386.6734
       225.000         173.000
 121532135.91248  94700352.74048  23126806.1684   23126808.5634   23126806.3904
       226.000         180.000
 109821788.15048  85575413.68048  20898396.3704   20898398.1814   20898396.1024
       250.000         230.000
 115385437.89048  89910716.23048  21957130.9574   21957134.2404   21957131.9684
       241.000         204.000
 128685466.33948 100274410.94448  24488010.6914   24488012.2634   24488009.9424
       209.000         155.000
 105557675.05648  82252724.64648  20086965.0364   20086967.4784   20086964.8404
       252.000         229.000
 122182392.19848  95207041.27548  23250548.3834   23250552.0334   23250548.5894
       228.000         188.000
 09  1  6  0  5  0.0000000  0  9G24G28G 8G 9G15G10G21G26G27
 128818296.82948 100377871.99648  24513323.9674   24513328.2354   24513324.9954
       211.000         153.000
 115064134.02048  89660353.95348  21895985.2674   21895987.0284   21895985.9274
       242.000         209.000
 122884263.59248  95753964.99948  23384103.1324   23384107.2344   23384103.7614
       225.000         175.000
 121437489.26748  94626602.12548  23108796.0364   23108798.6984   23108796.2734
       228.000         181.000
 109777693.47948  85541054.19748  20890005.5104   20890007.2584   20890005.2114
       251.000         230.000
 115474740.85748  89980302.95748  21974124.8784   21974128.1014   21974125.8794
       242.000         205.000
 128702353.21348 100287569.56048  24491223.8384   24491225.6214   24491225.0404
       209.000         152.000
 105560718.66548  82255096.28648  20087544.2234   20087546.6374   20087544.2374
       251.000         228.000
 122253645.64548  95262563.43148  23264107.7014   23264111.1024   23264107.5924
       228.000         187.000
 09  1  6  0  5 30.0000000  0  9G24G28G 8G 9G15G10G21G26G27
 128889093.36948 100433038.13648  24526795.4984   24526799.9294   24526795.4794
       213.000         152.000
 115093811.92948  89683479.60448  21901632.5124   21901634.5294   21901633.1134
       241.000         208.000
 122972188.83848  95822478.16748  23400834.9214   23400838.6364   23400835.0214
       229.000         173.000
 121343038.61848  94553004.22248  23090822.4744   23090825.1024   23090822.3124
       228.000         180.000
 109733862.99948  85506900.57748  20881664.7974   20881666.5764   20881664.6524
       250.000         230.000
 115564375.81948  90050148.36648  21991181.9434   21991185.2554   21991182.8594
       240.000         205.000
 128719704.44648 100301089.98348  24494525.5544   24494527.6564   24494525.5884
       206.000         149.000
 105564135.32848  82257758.61048  20088194.4344   20088196.7594   20088194.3284
       251.000         228.000
 122324941.79948  95318118.87348  23277675.1544   23277677.7664   23277675.3284
       230.000         187.000
 09  1  6  0  6  0.0000000  0  9G24G28G 8G 9G15G10G21G26G27
 128960052.86348 100488331.23548  24540298.9124   24540303.2264   24540298.8274
       215.000         155.000
 115123995.21548  89706999.05448  21907375.9484   21907378.0064   21907376.6594
       240.000         207.000
 123060193.46148  95891053.21548  23417581.9054   23417584.4984   23417582.7014
       228.000         171.000
 121248785.16648  94479559.97948  23072886.8994   23072889.4664   23072887.2384
       230.000         181.000
 109690298.34548  85472954.09448  20873374.8204   20873376.4864   20873374.6104
       250.000         230.000
 115654341.03148  90120251.12448  22008301.7284   22008304.9844   22008302.5164
       240.000         204.000
 128737518.86148 100314971.35048  24497915.2784   24497918.0004   24497915.4854
       212.000         148.000
 105567925.76548  82260712.19048  20088915.6834   20088918.1744   20088915.6074
       251.000         229.000
 122396279.98548  95373707.05948  23291250.0384   23291253.0294   23291250.3474
       228.000         188.000
 09  1  6  0  6 30.0000000  0  9G24G28G 8G 9G15G10G21G26G27
 129031171.96148 100543748.71348  24553832.3344   24553836.7274   24553832.8464
       215.000         157.000
 115154682.35548  89730911.10848  21913215.3354   21913217.6744   21913215.8034
       241.000         207.000
 123148275.80548  95959688.81148  23434342.9284   23434345.8894   23434343.6484
       226.000         170.000
 121154729.03148  94406269.50448  23054988.4514   23054991.3644   23054989.0914
       225.000         181.000
 109647000.57548  85439215.57748  20865135.5404   20865137.2154   20865135.2684
       250.000         231.000
 115744633.33448  90190608.74948  22025483.6184   22025487.0464   22025484.3634
       239.000         203.000
 128755794.53448 100329212.12548  24501393.1484   24501394.2534   24501394.8524
       210.000         148.000
 105572089.79348  82263956.88148  20089708.0364   20089710.6044   20089707.8714
       251.000         229.000
 122467658.57848  95429326.74148  23304833.2804   23304836.3364   23304833.6434
       229.000         188.000
 09  1  6  0  7  0.0000000  0  9G24G28G 8G 9G15G10G21G26G27
 129102448.44648 100599288.80548  24567395.8224   24567400.1674   24567396.5234
       214.000         159.000
 115185872.61648  89755215.21348  21919150.9324   21919152.9844   21919151.8794
       240.000         208.000
 123236435.17448  96028384.42148  23451118.8724   23451123.3264   23451119.2694
       226.000         172.000
 121060871.46648  94333133.74548  23037126.9814   23037130.7364   23037126.9974
       224.000         179.000
 109603971.70148  85405686.59148  20856947.3574   20856949.0794   20856947.0144
       250.000         231.000
 115835250.88748  90261219.81948  22042727.5024   22042730.9894   22042728.3144
       239.000         202.000
 128774530.60048 100343811.63348  24504958.9404   24504959.7974   24504958.1704
       211.000         149.000
 105576628.65548  82267493.65048  20090571.7844   20090574.3554   20090571.6184
       251.000         229.000
 122539077.50848  95484977.86048  23318423.8034   23318426.8434   23318424.0924
       229.000         188.000
 09  1  6  0  7 30.0000000  0 10G24G28G 8G 9G15G10G21G26G17G27
 129173879.25148 100654949.18048  24580989.1334   24580993.3944   24580988.8064
       213.000         159.000
 115217564.79648  89779910.41748  21925181.6674   21925183.7864   21925181.9494
       241.000         207.000
 123324670.34148  96097139.05848  23467910.0534   23467913.5794   23467910.2834
       229.000         173.000
 120967213.56848  94260153.58048  23019304.7354   23019308.3604   23019304.3584
       225.000         179.000
 109561213.18348  85372368.27048  20848810.6824   20848812.3424   20848810.3964
       251.000         231.000
 115926191.58248  90332082.69448  22060032.6454   22060036.2324   22060033.6234
       240.000         202.000
 128793725.51148 100358768.70348  24508611.4934   24508612.9074   24508614.3494
       211.000         149.000
 105581543.14848  82271323.12448  20091506.9794   20091509.5124   20091506.7604
       251.000         229.000
 142441902.74058  93201475.00558  25202862.3065   25202865.5505   25202862.8945
       215.000         154.000
 122610536.18348  95540659.92348  23332021.5854   23332025.0824   23332021.5984
       227.000         188.000
 09  1  6  0  8  0.0000000  0 10G24G28G 8G 9G15G10G21G26G17G27
 129245461.50548 100710727.52448  24594609.5684   24594614.3774   24594610.4754
       208.000         156.000
 115249757.43148  89804995.59948  21931307.8664   21931309.8434   21931308.6354
       241.000         208.000
 123412979.69548  96165951.55748  23484715.4174   23484717.7814   23484716.2754
       229.000         173.000
 120873755.85548  94187329.39948  23001520.3634   23001524.0944   23001520.6714
       226.000         180.000
 109518725.78748  85339261.20648  20840725.6824   20840727.3204   20840725.3354
       250.000         231.000
 116017451.99448  90403194.69848  22077399.0554   22077402.6154   22077399.7054
       240.000         202.000
 128813377.50448 100374081.88348  24512350.4434   24512351.5564   24512352.6644
       208.000         146.000
 105586833.14448  82275445.19248  20092513.7314   20092516.1244   20092513.7224
       252.000         229.000
 142365445.23548  93141897.64048  25188312.9424   25188315.5004   25188312.7154
       215.000         159.000
 122682033.12748  95596371.80748  23345626.9734   23345630.7934   23345626.7724
       228.000         188.000
 09  1  6  0  8 30.0000000  0 10G24G28G 8G 9G15G10G21G26G17G27
 129317192.43148 100766621.75448  24608260.0114   24608263.8574   24608260.1284
       210.000         155.000
 115282449.60248  89830470.01848  21937528.6744   21937531.1944   21937529.4484
       241.000         208.000
 123501361.96348  96234820.86648  23501533.7454   23501536.2484   23501534.2924
       228.000         171.000
 120780499.68548  94114662.26348  22983774.2984   22983777.8424   22983774.2554
       226.000         179.000
 109476510.77548  85306366.39448  20832692.3964   20832694.1564   20832692.1084
       251.000         231.000
 116109030.95548  90474554.92048  22094826.3574   22094829.6544   22094827.1434
       239.000         202.000
 128833485.08748 100389750.08348  24516176.4814   24516178.8414   24516174.6694
       205.000         144.000
 105592499.38248  82279860.43648  20093591.9564   20093594.3884   20093591.9224
       252.000         228.000
 142289047.21848  93082366.74848  25173774.8454   25173777.1804   25173773.7004
       214.000         162.000
 122753568.23048  95652113.42748  23359240.2694   23359243.4984   23359240.8324
       231.000         189.000
 09  1  6  0  9  0.0000000  0 10G24G28G 8G 9G15G10G21G26G17G27
 129389068.65748 100822629.18548  24621937.4914   24621941.8204   24621937.7994
       213.000         157.000
 115315639.96548  89856332.65648  21943844.9044   21943846.7964   21943845.4454
       242.000         208.000
 123589815.74848  96303745.89048  23518365.4294   23518368.6194   23518366.6924
       224.000         166.000
 120687445.47148  94042152.50848  22966066.9534   22966070.0614   22966067.3764
       228.000         180.000
 109434570.02948  85273685.29648  20824711.4944   20824713.0224   20824711.3534
       251.000         231.000
 116200925.59748  90546161.13648  22112313.0984   22112316.6794   22112313.6784
       239.000         202.000
 128854046.69148 100405772.07748  24520090.3724   24520091.6494   24520091.3654
       210.000         149.000
 105598542.18748  82284569.12548  20094741.8874   20094744.3314   20094741.8624
       251.000         229.000
 142212711.12548  93022884.13248  25159248.7594   25159251.1584   25159248.2854
       215.000         162.000
 122825140.47848  95707884.02648  23372860.1564   23372862.8984   23372860.7354
       229.000         189.000
 09  1  6  0  9 30.0000000  0 10G24G28G 8G 9G15G10G21G26G17G27
 129461086.88148 100878747.27648  24635642.0934   24635646.7804   24635642.6794
       208.000         155.000
 115349326.51348  89882581.90648  21950255.3074   21950257.3644   21950255.8364
       241.000         208.000
 123678339.21648  96372725.20248  23535210.8844   23535214.0474   23535211.0724
       224.000         167.000
 120594593.58648  93969800.39948  22948397.8884   22948401.0404   22948398.3134
       229.000         181.000
 109392904.44748  85241218.60348  20816782.7624   20816784.3874   20816782.4104
       251.000         231.000
 116293132.64948  90618010.77448  22129859.3334   22129863.4144   22129859.7674
       238.000         202.000
 128875060.17548 100422146.22748  24524088.3254   24524090.3434   24524090.4724
       206.000         145.000
 105604961.63348  82289571.28148  20095963.5124   20095965.9204   20095963.4094
       251.000         229.000
 142136439.51948  92963451.65748  25144734.9944   25144736.3334   25144734.1384
       217.000         160.000
 122896748.56648  95763682.52648  23386486.3314   23386489.6054   23386486.6624
       228.000         186.000
 09  1  6  0 10  0.0000000  0 10G24G28G 8G 9G15G10G21G26G17G27
 129533248.11148 100934976.78448  24649374.0564   24649378.5164   24649373.7994
       212.000         154.000
 115383511.90548  89909219.87648  21956760.4754   21956762.5354   21956761.0624
       241.000         207.000
 123766935.39748  96441761.19848  23552070.0194   23552072.9034   23552070.2474
       225.000         169.000
 120501948.72648  93897609.61448  22930768.1484   22930770.9934   22930768.3944
       230.000         182.000
 109351518.77048  85208970.01948  20808907.2484   20808908.9524   20808907.0094
       250.000         231.000
 116385653.32348  90690104.78248  22147465.4544   22147469.4464   22147466.3924
       239.000         201.000
 128896527.88848 100438874.29148  24528173.8714   24528175.2894   24528171.8864
       211.000         148.000
 105611761.87248  82294870.16648  20097257.6024   20097259.9634   20097257.5714
       252.000         229.000
 142060239.10648  92904074.71648  25130234.2274   25130235.7644   25130233.8314
       216.000         159.000
 122968395.44248  95819511.23048  23400119.5894   23400123.6584   23400120.1594
       225.000         185.000
 09  1  6  0 10 30.0000000  0 10G24G28G 8G 9G15G10G21G26G17G27
 129605544.23548 100991311.43848  24663132.0904   24663136.0024   24663132.9374
       210.000         156.000
 115418189.41348  89936241.31748  21963359.1814   21963361.3744   21963359.8074
       241.000         207.000
 123855597.06148  96510848.20848  23568942.1844   23568944.8934   23568942.6544
       226.000         167.000
 120409506.33548  93825576.59948  22913176.9604   22913180.1254   22913176.9404
       233.000         183.000
 109310409.05048  85176936.47248  20801084.2254   20801085.9834   20801083.9064
       250.000         231.000
 116478480.58148  90762437.70548  22165130.0104   22165133.8224   22165130.9714
       238.000         201.000
 128918442.82748 100455950.83448  24532344.5344   24532345.4774   24532345.1274
       207.000         146.000
 105618937.93248  82300461.89948  20098623.1354   20098625.5334   20098623.1154
       252.000         229.000
 141984107.50848  92844751.39648  25115746.6954   25115748.2254   25115746.6054
       213.000         155.000
 123040074.86948  95875365.30648  23413760.0004   23413763.8934   23413760.1974
       230.000         189.000
 09  1  6  0 11  0.0000000  0 11G24G28G 8G 9G15G18G10G21G26G17G27
 129677973.24548 101047749.62348  24676913.9564   24676919.2154   24676913.9964
       206.000         154.000
 115453358.84848  89963646.07648  21970051.8594   21970054.1054   21970052.2534
       240.000         207.000
 123944323.86348  96579985.97348  23585826.4994   23585829.8534   23585826.9914
       225.000         166.000
 120317268.04748  93753702.63148  22895624.2054   22895627.6904   22895624.7484
       229.000         181.000
 109269577.86348  85145119.96148  20793314.3634   20793316.1314   20793313.9574
       250.000         231.000
 138893139.88258  90436208.27858  24527552.0325   24527553.0955   24527552.2745
       218.000         160.000
 116571612.35448  90835007.91448  22182852.8564   22182855.8544   22182853.0824
       240.000         201.000
 128940804.18248 100473375.22548  24536598.7824   24536601.8624   24536600.4374
       198.000         141.000
 105626491.31348  82306347.64348  20100060.5144   20100062.9244   20100060.5024
       251.000         229.000
 141908048.40748  92785484.52648  25101273.7184   25101274.6604   25101273.8884
       217.000         164.000
 123111786.99248  95931244.88148  23427407.6644   23427410.0224   23427407.8934
       232.000         190.000
 09  1  6  0 11 30.0000000  0 11G24G28G 8G 9G15G18G10G21G26G17G27
 129750533.13048 101104289.77948  24690722.8794   24690726.8174   24690722.7664
       214.000         156.000
 115489019.95248  89991433.94548  21976838.1914   21976840.0454   21976838.6674
       241.000         207.000
 124033115.94848  96649174.59948  23602722.3564   23602725.9764   23602723.2114
       220.000         165.000
 120225235.99948  93681989.34448  22878111.2154   22878114.3744   22878111.1694
       232.000         182.000
 109229027.21248  85113522.05048  20785597.8164   20785599.4724   20785597.5354
       250.000         231.000
 138796343.08548  90360782.29048  24509131.5194   24509132.9904   24509133.8644
       214.000         158.000
 116665047.17748  90907814.26448  22200632.9424   22200636.0604   22200633.8164
       240.000         201.000
 128963611.40848 100491147.06948  24540938.2744   24540940.9134   24540937.3234
       202.000         144.000
 105634423.54748  82312528.60548  20101569.8994   20101572.2934   20101569.8554
       252.000         228.000
 141832065.93248  92726277.39648  25086814.7614   25086816.3884   25086815.0604
       215.000         162.000
 123183532.19348  95987150.23348  23441059.9234   23441062.7724   23441060.2544
       228.000         188.000
 09  1  6  0 12  0.0000000  0 11G24G28G 8G 9G15G18G10G21G26G17G27
 129823221.48348 101160930.10848  24704554.9564   24704559.1094   24704555.9754
       208.000         153.000
 115525171.62248  90019604.08348  21983717.4924   21983719.5104   21983717.8274
       241.000         207.000
 124121972.45048  96718413.40148  23619630.6874   23619634.7244   23619630.8724
       221.000         164.000
 120133411.47448  93610437.79248  22860637.9694   22860640.9734   22860638.5144
       231.000         184.000
 109188759.04748  85082144.25848  20777935.1104   20777936.5954   20777934.7074
       250.000         231.000
 138699767.58348  90285528.66948  24490753.6174   24490756.1594   24490754.0704
       217.000         159.000
 116758783.22748  90980855.33648  22218470.3214   22218473.5554   22218471.3924
       240.000         201.000
 128986863.13448 100509265.24648  24545364.0604   24545365.6194   24545364.1584
       208.000         149.000
 105642735.41048  82319005.39148  20103151.4164   20103153.9174   20103151.3564
       251.000         228.000
 141756163.45348  92667132.60048  25072369.7794   25072372.8084   25072370.1474
       207.000         160.000
 123255310.29148  96043081.20048  23454718.0014   23454721.5304   23454718.2344
       227.000         185.000
 09  1  6  0 12 30.0000000  0 11G24G28G 8G 9G15G18G10G21G26G17G27
 129896035.92048 101217668.64648  24718410.2814   24718415.4364   24718409.5564
       211.000         151.000
 115561812.43248  90048155.36348  21990689.8734   21990691.7244   21990690.4534
       241.000         206.000
 124210892.44648  96787701.72048  23636553.1194   23636555.4614   23636553.0554
       227.000         169.000
 120041795.73248  93539048.92248  22843204.0844   22843206.9194   22843204.6024
       232.000         183.000
 109148775.20248  85050988.00948  20770326.3824   20770327.9254   20770326.0074
       250.000         231.000
 138603416.01948  90210449.52248  24472418.1724   24472421.3774   24472418.7044
       211.000         159.000
 116852818.54348  91054129.60048  22236364.5174   22236367.9614   22236365.8414
       239.000         200.000
 129010557.98048 100527728.80348  24549872.7904   24549874.3464   24549875.8214
       211.000         150.000
 105651427.68448  82325778.57948  20104805.5594   20104808.0174   20104805.3604
       251.000         229.000
 141680344.12648  92608052.63348  25057942.4824   25057944.4854   25057942.2604
       213.000         162.000
 123327120.77548  96099037.39848  23468383.1504   23468386.4924   23468383.1794
       228.000         186.000
 09  1  6  0 13  0.0000000  0 11G24G28G 8G 9G15G18G10G21G26G17G27
 129968973.06448 101274502.78548  24732289.8984   24732294.8444   24732290.9534
       207.000         146.000
 115598941.28548  90077086.94748  21997755.2984   21997757.3304   21997755.5914
       240.000         206.000
 124299873.90248  96857037.95748  23653485.9184   23653488.1404   23653487.1764
       224.000         166.000
 119950388.82548  93467822.78348  22825809.6984   22825812.3414   22825810.0324
       230.000         182.000
 109109076.70448  85020054.11548  20762772.0724   20762773.5424   20762771.9534
       251.000         231.000
 138507291.00848  90135546.98448  24454126.1714   24454129.2414   24454125.8944
       215.000         162.000
 116947150.28448  91127634.83948  22254314.9244   22254318.6004   22254315.4804
       237.000         199.000
 129034694.27848 100546536.17348  24554466.7524   24554468.8584   24554466.0224
       204.000         154.000
 105660500.40848  82332848.23348  20106532.2094   20106534.5574   20106532.1834
       252.000         229.000
 141604610.61448  92549039.50048  25043530.9664   25043533.2004   25043530.6004
       215.000         165.000
 123398962.69348  96155018.11148  23482055.1024   23482057.7094   23482054.8844
       232.000         190.000
 09  1  6  0 13 30.0000000  0 11G24G28G 8G 9G15G18G10G21G26G17G27
 130042029.84148 101331430.11948  24746190.7514   24746196.9934   24746191.9204
       200.000         146.000
 115636556.58748  90106397.57348  22004913.3224   22004915.1954   22004913.9234
       241.000         206.000
 124388916.16848  96926421.52748  23670428.1484   23670432.5754   23670428.8814
       218.000         162.000
 119859191.87548  93396760.25748  22808455.1204   22808458.2844   22808455.0294
       229.000         183.000
 109069664.57348  84989343.36648  20755272.1604   20755273.6914   20755272.0424
       250.000         231.000
 138411395.06848  90060822.88748  24435878.1064   24435880.6654   24435878.5464
       217.000         156.000
 117041775.74748  91201368.94548  22272321.8244   22272325.2294   22272322.4134
       238.000         200.000
 129059269.90048 100565686.01348  24559142.7844   24559144.6114   24559143.6254
       217.000         157.000
 105669954.09948  82340214.73448  20108331.2144   20108333.5764   20108331.0744
       251.000         229.000
 141528965.73348  92490095.47248  25029135.9234   25029137.6104   25029136.2104
       210.000         157.000
 123470835.07248  96211022.57248  23495731.8674   23495734.7164   23495732.5834
       230.000         188.000
 09  1  6  0 14  0.0000000  0 11G24G28G 8G 9G15G18G10G21G26G17G27
 130115203.90748 101388448.87548  24760116.2524   24760121.1784   24760115.0104
       209.000         148.000
 115674656.97248  90136086.19148  22012163.7504   22012165.4074   22012164.1344
       241.000         207.000
 124478018.01948  96995851.52648  23687384.4104   23687388.1954   23687384.4714
       222.000         165.000
 119768206.13848  93325862.29948  22791141.4884   22791144.1724   22791141.9464
       229.000         183.000
 109030540.72248  84958857.25048  20747827.1054   20747828.6174   20747826.8404
       250.000         231.000
 138315730.87848  89986279.31248  24417673.7074   24417675.1494   24417673.9354
       214.000         155.000
 117136692.93148  91275330.39148  22290384.0644   22290387.1924   22290384.9194
       239.000         198.000
 129084283.77348 100585177.34048  24563903.7354   24563905.6124   24563906.2164
       209.000         156.000
 105679789.63448  82347878.78748  20110202.8554   20110205.1934   20110202.8574
       251.000         229.000
 141453412.95948  92431223.18648  25014757.9774   25014760.7524   25014757.3064
       210.000         157.000
 123542737.78348  96267050.64548  23509413.8314   23509417.4404   23509413.8914
       228.000         187.000
 09  1  6  0 14 30.0000000  0 11G24G28G 8G 9G15G18G10G21G26G17G27
 130188491.71548 101445556.28348  24774063.9894   24774066.6854   24774064.8334
       209.000         146.000
 115713240.91548  90166151.59448  22019505.7224   22019507.8654   22019506.4194
       240.000         206.000
 124567177.62048  97065326.57148  23704352.0934   23704354.1204   23704353.0544
       223.000         165.000
 119677431.69848  93255128.98048  22773867.5314   22773870.4174   22773867.4914
       231.000         184.000
 108991706.08748  84928596.50148  20740437.0934   20740438.7214   20740436.8804
       250.000         231.000
 138220300.32448  89911917.84948  24399514.4604   24399514.7704   24399514.1614
       218.000         157.000
 117231898.49348  91349516.54048  22308500.9294   22308504.3114   22308501.7524
       238.000         198.000
 129109733.28348 100605008.08548  24568745.8664   24568747.5864   24568743.8634
       212.000         151.000
 105690006.74448  82355840.17448  20112146.9564   20112149.3924   20112146.9204
       251.000         228.000
 141377954.59048  92372424.42248  25000400.8064   25000401.1954   25000400.6034
       215.000         165.000
 123614669.43848  96323101.26348  23523102.2084   23523105.6034   23523102.0334
       229.000         187.000
 09  1  6  0 15  0.0000000  0 11G24G28G 8G 9G15G18G10G21G26G17G27
 130261889.94548 101502749.72448  24788030.3374   24788034.3004   24788031.3834
       205.000         149.000
 115752306.28048  90196592.15648  22026939.4074   22026941.5224   22026939.9384
       240.000         206.000
 124656393.69948  97134845.55848  23721327.9904   23721331.6694   23721328.5534
       219.000         163.000
 119586868.86748  93184560.54648  22756633.8704   22756636.9664   22756634.1024
       231.000         185.000
 108953161.32548  84898561.62048  20733102.3544   20733103.8174   20733102.1664
       250.000         231.000
 138125105.48848  89837740.09348  24381399.3214   24381400.4384   24381399.1864
       211.000         152.000
 117327389.73748  91423925.29648  22326672.0524   22326675.7704   22326673.0674
       237.000         198.000
 129135616.14848 100625176.56548  24573671.4264   24573673.2094   24573672.7844
       210.000         154.000
 105700605.24048  82364098.74348  20114163.6014   20114166.2214   20114163.4754
       251.000         229.000
 141302592.86648  92313701.02148  24986058.7234   24986060.8574   24986058.6404
       213.000         163.000
 123686628.71248  96379173.40348  23536795.7284   23536799.1004   23536795.9634
       230.000         187.000
 09  1  6  0 15 30.0000000  0 11G24G28G 8G 9G15G18G10G21G26G17G27
 130335396.95848 101560027.90348  24802017.7284   24802023.1354   24802017.6104
       205.000         145.000
 115791852.76048  90227407.58948  22034464.6294   22034467.2814   22034465.0794
       241.000         206.000
 124745665.93248  97204408.32548  23738316.3284   23738319.9764   23738316.2674
       222.000         165.000
 119496519.66848  93114158.58448  22739441.2304   22739444.3534   22739441.5874
       230.000         186.000
 108914909.09148  84868754.69148  20725823.0684   20725824.7084   20725822.7814
       250.000         231.000
 138030150.32148  89763749.09448  24363329.9574   24363331.7474   24363329.6324
       214.000         159.000
 117423164.92948  91498555.31748  22344897.4394   22344901.0804   22344898.2454
       237.000         197.000
 129161931.85548 100645682.29848  24578679.4874   24578680.8384   24578679.5744
       216.000         153.000
 105711586.74448  82372655.75048  20116253.5224   20116255.9724   20116253.4024
       252.000         229.000
 141227332.06148  92255056.30648  24971737.3214   24971739.9044   24971737.2514
       207.000         159.000
 123758616.23348  96435267.58648  23550495.2194   23550497.6714   23550495.3754
       232.000         188.000
 09  1  6  0 16  0.0000000  0 11G24G28G 8G 9G15G18G10G21G26G17G27
 130409011.89948 101617390.19148  24816026.2914   24816030.9934   24816026.9384
       203.000         141.000
 115831880.87448  90258598.33448  22042081.9924   22042084.3014   22042082.6404
       240.000         206.000
 124834995.20648  97274015.57448  23755315.9094   23755318.3834   23755316.9494
       220.000         164.000
 119406386.88448  93043925.27648  22722289.3884   22722292.5774   22722290.1534
       229.000         185.000
 108876952.78048  84839178.33948  20718600.3244   20718601.9244   20718600.0364
       250.000         232.000
 137935439.46748  89689948.43348  24345307.1234   24345309.0834   24345307.2294
       214.000         160.000
 117519224.09348  91573406.60748  22363176.7144   22363180.5654   22363177.3884
       236.000         196.000
 129188680.25048 100666525.13948  24583768.7144   24583770.3894   24583770.0754
       205.000         150.000
 105722953.77448  82381513.18048  20118416.6534   20118419.1184   20118416.6294
       252.000         229.000
 141152177.39548  92196494.17548  24957436.1774   24957437.9034   24957435.7434
       210.000         162.000
 123830633.32548  96491384.80748  23564199.0284   23564201.9754   23564199.3174
       229.000         184.000
 09  1  6  0 16 30.0000000  0 11G24G28G 8G 9G15G18G10G21G26G17G27
 130482728.82448 101674831.93848  24830054.0224   24830058.3164   24830055.0204
       212.000         144.000
 115872386.26148  90290160.97048  22049790.1834   22049792.3684   22049790.9814
       240.000         206.000
 124924377.36948  97343663.99148  23772323.9334   23772327.1264   23772324.0104
       217.000         159.000
 119316468.55248  92973859.06348  22705178.7164   22705181.8334   22705178.7044
       230.000         187.000
 108839290.76648  84809831.31548  20711433.4604   20711435.1824   20711433.3474
       250.000         232.000
 137840972.06748  89616337.50848  24327330.2624   24327332.1044   24327329.1834
       215.000         158.000
 117615561.67048  91648474.83348  22381509.4074   22381512.9644   22381510.0084
       236.000         197.000
 129215857.20748 100687702.00648  24588940.8904   24588942.0284   24588939.0194
       210.000         152.000
 105734703.84548  82390669.07448  20120652.5994   20120655.0184   20120652.4914
       251.000         229.000
 141077128.59348  92138014.60648  24943154.2304   24943156.8074   24943154.2514
       210.000         164.000
 123902676.53048  96547522.33948  23577907.9524   23577911.4304   23577907.8044
       232.000         186.000
 09  1  6  0 17  0.0000000  0 11G24G28G 8G 9G15G18G10G21G26G17G27
 130556543.95748 101732350.24048  24844101.2384   24844104.8844   24844102.2334
       208.000         146.000
 115913366.59648  90322093.69648  22057588.3914   22057590.4124   22057588.9604
       240.000         206.000
 125013810.73548  97413352.29148  23789342.1614   23789346.3714   23789341.8334
       216.000         161.000
 119226764.50148  92903959.82548  22688108.5244   22688111.4544   22688108.8904
       228.000         187.000
 108801923.72048  84780714.13248  20704322.6574   20704324.4544   20704322.3554
       250.000         232.000
 137746750.08848  89542917.82548  24309400.7884   24309402.6954   24309400.9894
       218.000         161.000
 117712174.38648  91723757.46448  22399894.2354   22399898.0284   22399895.2294
       237.000         197.000
 129243460.02448 100709210.64248  24594192.6884   24594194.9874   24594194.3954
       206.000         149.000
 105746836.49048  82400123.07048  20122961.4394   20122963.7854   20122961.2364
       251.000         228.000
 141002187.83648  92079619.23348  24928894.0374   24928895.8974   24928894.1354
       214.000         163.000
 123974744.32348  96603679.08048  23591623.3904   23591625.6544   23591624.1234
       232.000         186.000
 09  1  6  0 17 30.0000000  0 11G24G28G 8G 9G15G18G10G21G26G17G27
 130630454.84748 101789943.13748  24858165.5424   24858170.5724   24858165.7544
       213.000         149.000
 115954820.83048  90354395.69948  22065477.0004   22065479.0464   22065477.7684
       240.000         206.000
 125103294.54448  97483079.94948  23806370.5164   23806374.5404   23806370.8504
       218.000         160.000
 119137275.96848  92834228.51948  22671078.9214   22671082.2404   22671079.3854
       228.000         187.000
 108764853.66248  84751828.37648  20697268.4004   20697270.2094   20697268.1644
       250.000         232.000
 137652776.65848  89469691.78948  24291517.7924   24291519.7074   24291518.2694
       217.000         159.000
 117809060.44648  91799253.09248  22418330.8334   22418334.8824   22418331.5114
       236.000         197.000
 129271486.72348 100731049.56348  24599526.3924   24599528.6464   24599526.0724
       211.000         155.000
 105759352.54548  82409875.83248  20125343.1034   20125345.5564   20125343.0304
       251.000         228.000
 140927358.75848  92021310.83748  24914654.1924   24914656.4564   24914654.7214
       211.000         163.000
 124046836.45748  96659854.74648  23605340.3544   23605344.4084   23605341.1754
       226.000         182.000
 09  1  6  0 18  0.0000000  0 11G24G28G 8G 9G15G18G10G21G26G17G27
 130704459.66948 101847609.24448  24872249.0584   24872253.4084   24872249.1984
       208.000         150.000
 115996748.70248  90387066.76348  22073455.4964   22073457.6604   22073455.7294
       240.000         205.000
 125192828.74048  97552846.84748  23823409.1344   23823412.2524   23823410.1214
       219.000         161.000
 119048004.93248  92764666.68248  22654091.2074   22654094.2174   22654091.5534
       231.000         186.000
 108728082.69348  84723175.67348  20690271.1614   20690273.0724   20690270.8874
       250.000         232.000
 137559055.44348  89396662.28948  24273683.2834   24273685.2174   24273682.5444
       213.000         156.000
 117906217.51848  91874959.89548  22436819.4504   22436823.3914   22436819.9804
       237.000         197.000
 129299936.78448 100753218.42748  24604940.3104   24604942.5844   24604940.9724
       210.000         155.000
 105772253.45748  82419928.48048  20127798.1654   20127800.5084   20127798.0824
       251.000         228.000
 140852645.02648  91963092.34748  24900436.0544   24900439.0784   24900436.2194
       213.000         159.000
 124118953.05648  96716049.48548  23619064.1504   23619067.5224   23619063.9484
       231.000         185.000
 09  1  6  0 18 30.0000000  0 11G24G28G 8G 9G15G18G10G21G26G17G27
 130778554.65548 101905345.58348  24886347.8024   24886353.6944   24886347.2654
       205.000         147.000
 116039147.14348  90420104.51448  22081523.6904   22081525.7794   22081523.9494
       240.000         205.000
 125282410.84348  97622651.05148  23840455.9894   23840459.3254   23840455.6464
       216.000         161.000
 118958950.84748  92695273.88948  22637144.9114   22637147.6744   22637145.2714
       232.000         188.000
 108691611.41648  84694756.50248  20683330.9694   20683332.6974   20683330.6754
       250.000         232.000
 137465587.78948  89323830.37248  24255896.3784   24255899.1314   24255897.7904
       214.000         158.000
 118003642.51848  91950875.46648  22455358.7794   22455362.6864   22455359.4684
       236.000         196.000
 129328807.33948 100775714.95948  24610434.0654   24610436.5034   24610434.4004
       211.000         154.000
 105785538.42748  82430280.40348  20130326.1284   20130328.5404   20130326.2184
       251.000         228.000
 140778048.71748  91904965.35948  24886240.6374   24886243.2444   24886241.1404
       213.000         162.000
 124191092.58348  96772262.11748  23632792.6184   23632795.0264   23632793.2204
       229.000         185.000
 09  1  6  0 19  0.0000000  0 11G24G28G 8G 9G15G18G10G21G26G17G27
 130852737.41148 101963150.33448  24900464.2304   24900469.8004   24900464.8414
       209.000         151.000
 116082015.33048  90453508.30148  22089681.3304   22089683.3594   22089681.6214
       240.000         205.000
 125372040.26748  97692492.16048  23857511.2174   23857515.2594   23857511.8054
       217.000         160.000
 118870115.10148  92626051.24248  22620240.3534   22620243.0744   22620240.6574
       232.000         188.000
 108655441.21748  84666571.93448  20676448.1114   20676449.7154   20676447.9054
       250.000         233.000
 137372376.54348  89251198.22748  24238159.9564   24238161.4044   24238159.9234
       215.000         158.000
 118101333.44948  92026998.26548  22473948.7444   22473952.6994   22473949.4594
       236.000         196.000
 129358096.76048 100798537.83248  24616007.6904   24616009.2464   24616009.7414
       212.000         154.000
 105799208.31048  82440932.24748  20132927.4244   20132929.8384   20132927.2644
       251.000         228.000
 140703573.13748  91846932.45848  24872069.2204   24872071.8304   24872068.4824
       217.000         167.000
 124263255.00848  96828492.56548  23646523.7714   23646527.1754   23646523.2414
       228.000         183.000
 09  1  6  0 19 30.0000000  0 11G24G28G 8G 9G15G18G10G21G26G17G27
 130927005.49048 102021021.54848  24914596.5394   24914602.2824   24914597.3704
       204.000         149.000
 116125351.89448  90487277.05448  22097927.8264   22097929.7894   22097928.3564
       239.000         204.000
 125461716.27148  97762369.53448  23874577.2734   23874580.5204   23874577.0224
       218.000         162.000
 118781498.90348  92556999.66348  22603377.3134   22603379.9994   22603377.6264
       232.000         188.000
 108619574.15648  84638623.57548  20669622.7934   20669624.3184   20669622.4744
       250.000         233.000
 137279424.98348  89178768.46948  24220471.7944   24220473.8324   24220471.6054
       218.000         163.000
 118199287.87948  92103326.38148  22492588.9304   22492592.8664   22492589.7474
       235.000         196.000
 129387803.45448 100821685.90348  24621661.8934   24621663.1284   24621660.2764
       209.000         151.000
 105813263.96048  82451884.69848  20135602.1154   20135604.6274   20135602.1634
       251.000         228.000
 140629221.58848  91788996.22648  24857920.0214   24857922.6604   24857919.7414
       215.000         161.000
 124335440.09948  96884740.68848  23660260.8284   23660263.4224   23660261.1654
       229.000         184.000
 09  1  6  0 20  0.0000000  0 11G24G28G 8G 9G15G18G10G21G26G17G27
 131001355.49248 102078956.61848  24928745.9764   24928751.0544   24928745.9804
       209.000         149.000
 116169155.04048  90521409.37448  22106263.3994   22106265.3814   22106263.5524
       240.000         205.000
 125551437.36248  97832282.06148  23891649.9314   23891653.3034   23891650.2424
       213.000         160.000
 118693102.55448  92488119.39048  22586556.1954   22586558.7884   22586556.3974
       233.000         189.000
 108584011.22148  84610912.20048  20662855.5714   20662857.0744   20662855.5074
       250.000         233.000
 137186735.11448  89106542.65148  24202833.6694   24202835.4184   24202836.0264
       218.000         164.000
 118297503.40448  92179857.95448  22511279.0594   22511282.4324   22511279.8214
       236.000         195.000
 129417925.53648 100845157.60248  24627393.6124   24627394.8274   24627394.4464
       208.000         154.000
 105827705.33548  82463137.71648  20138350.1804   20138352.7194   20138350.0654
       251.000         228.000
 140554996.92648  91731158.81948  24843796.9844   24843797.4254   24843796.4724
       219.000         161.000
 124407646.80848  96941005.64948  23674000.7604   23674003.9324   23674000.8454
       226.000         182.000
 09  1  6  0 20 30.0000000  0 11G24G28G 8G 9G15G18G10G21G26G17G27
 131075784.65248 102136953.36848  24942909.5294   24942913.9294   24942908.7674
       207.000         145.000
 116213423.44048  90555904.22548  22114687.5714   22114689.4334   22114688.2564
       240.000         204.000
 125641202.73748  97902229.06148  23908730.9074   23908735.1504   23908732.1664
       210.000         157.000
 118604927.06048  92419411.21948  22569776.8094   22569779.8274   22569777.3144
       232.000         190.000
 108548754.00948  84583439.05348  20656146.3154   20656147.9384   20656146.0774
       250.000         233.000
 137094309.53448  89034522.72348  24185245.6694   24185247.0004   24185246.4994
       215.000         160.000
 118395977.13248  92256590.72348  22530017.5644   22530021.4834   22530018.6254
       235.000         195.000
 129448460.64948 100868951.17348  24633203.6574   24633205.5384   24633202.6574
       207.000         154.000
 105842532.97548  82474691.71148  20141171.7964   20141174.2474   20141171.7274
       251.000         228.000
 140480902.33948  91673422.74748  24829696.3224   24829697.1274   24829696.2924
       218.000         161.000
 124479874.67348  96997287.11448  23687744.9224   23687748.3554   23687744.8344
       227.000         182.000
 09  1  6  0 21  0.0000000  0 11G24G28G 8G 9G15G18G10G21G26G17G27
 131150290.68948 102195010.05348  24957085.9794   24957091.2194   24957086.8414
       205.000         139.000
 116258155.71748  90590760.54948  22123199.8134   22123201.4714   22123200.2304
       239.000         205.000
 125731011.64248  97972210.01848  23925822.3864   23925824.6894   23925823.3024
       213.000         158.000
 118516973.75148  92350876.18948  22553039.7814   22553042.6774   22553039.6734
       229.000         189.000
 108513804.19348  84556205.43348  20649495.4394   20649497.1744   20649495.1274
       250.000         233.000
 137002151.55848  88962711.35448  24167708.5584   24167710.0244   24167709.6454
       217.000         163.000
 118494707.64248  92333523.57348  22548805.1994   22548809.1594   22548805.7824
       234.000         194.000
 129479407.67948 100893065.66748  24639093.1064   24639094.5644   24639092.6524
       211.000         155.000
 105857747.76548  82486547.38748  20144067.1064   20144069.5244   20144067.0914
       251.000         228.000
 140406940.96348  91615790.56948  24815621.5874   24815623.5394   24815622.1424
       214.000         160.000
 124552123.54648  97053584.92148  23701493.5334   23701496.9944   23701493.3164
       227.000         182.000
 09  1  6  0 21 30.0000000  0 11G24G28G 8G 9G15G18G10G21G26G17G27
 131224870.91248 102253124.58548  24971278.9604   24971283.0054   24971279.4844
       201.000         135.000
 116303350.47948  90625977.24648  22131799.7664   22131801.9474   22131799.8144
       240.000         204.000
 125820863.13948  98042224.16348  23942919.6044   23942922.7504   23942918.9734
       211.000         158.000
 118429243.53348  92282515.00748  22536344.6874   22536348.4124   22536344.3694
       229.000         188.000
 108479163.55448  84529212.73148  20642903.4214   20642905.2694   20642903.0324
       250.000         233.000
 136910263.84348  88891110.53748  24150223.0104   24150224.1984   24150223.6574
       220.000         161.000
 118593691.66948  92410653.96548  22567641.5424   22567645.1474   22567642.1454
       234.000         193.000
 129510764.49048 100917499.55748  24645058.6374   24645061.0964   24645060.0624
       213.000         152.000
 105873350.04348  82498704.99548  20147036.1494   20147038.5434   20147036.0214
       251.000         228.000
 140333115.89048  91558264.50648  24801573.2874   24801575.2954   24801572.7664
       218.000         163.000
 124624393.04148  97109898.82648  23715246.2724   23715249.1554   23715246.3144
       230.000         182.000
 09  1  6  0 22  0.0000000  0 11G24G28G 8G 9G15G18G10G21G26G17G27
 131299522.42048 102311294.55948  24985485.9264   24985489.8464   24985487.4974
       203.000         137.000
 116349005.85748  90661552.86948  22140487.8314   22140489.8794   22140488.8074
       240.000         204.000
 125910755.97248  98112270.52548  23960025.4484   23960029.1614   23960026.3844
       213.000         158.000
 118341737.03648  92214328.13648  22519692.9074   22519696.3254   22519693.3784
       230.000         187.000
 108444833.27348  84502461.86148  20636370.5884   20636372.4094   20636370.2514
       250.000         233.000
 136818648.60248  88819722.05648  24132788.8834   24132790.8444   24132791.2264
       216.000         161.000
 118692926.86448  92487980.07748  22586525.3864   22586528.7254   22586526.1114
       234.000         193.000
 129542529.16148 100942251.25148  24651104.2864   24651106.2914   24651104.0694
       213.000         153.000
 105889340.05748  82511164.73948  20150078.9484   20150081.3664   20150078.8924
       251.000         228.000
 140259430.19448  91500847.07848  24787551.8034   24787553.6394   24787552.0624
       215.000         165.000
 124696682.33848  97166228.13648  23729002.4714   23729005.5454   23729002.9244
       227.000         180.000
 09  1  6  0 22 30.0000000  0 11G24G28G 8G 9G15G18G10G21G26G17G27
 131374241.90948 102369517.54148  24999704.5694   24999706.7554   24999704.7864
       209.000         142.000
 116395120.08848  90697486.04748  22149262.8914   22149265.2364   22149262.9274
       240.000         204.000
 126000688.98848  98182348.16248  23977139.5674   23977142.4864   23977138.7374
       212.000         158.000
 118254454.87448  92146316.07748  22503083.6294   22503086.4014   22503083.9614
       230.000         186.000
 108410814.65748  84475953.84948  20629897.1254   20629898.8894   20629896.8614
       250.000         233.000
 136727308.34348  88748547.84048  24115407.0994   24115408.9654   24115408.0404
       218.000         163.000
 118792410.27848  92565499.61748  22605456.2114   22605459.7184   22605457.0274
       235.000         192.000
 129574699.13848 100967318.74648  24657226.0464   24657228.9324   24657227.1184
       200.000         145.000
 105905717.88648  82523926.67748  20153195.5014   20153198.0034   20153195.3844
       251.000         228.000
 140185886.37148  91443540.24248  24773556.4204   24773559.3454   24773556.8484
       214.000         163.000
 124768990.73148  97222572.33548  23742762.2074   23742765.7244   23742762.4424
       226.000         180.000
 09  1  6  0 23  0.0000000  0 11G24G28G 8G 9G15G18G10G21G26G17G27
 131449026.67448 102427791.38148  25013935.6684   25013939.0944   25013935.9474
       207.000         144.000
 116441691.82148  90733775.70348  22158125.4384   22158127.3964   22158126.0974
       240.000         203.000
 126090661.07748  98252456.27048  23994260.2004   23994263.8924   23994261.2584
       215.000         160.000
 118167397.79548  92078479.39348  22486517.4964   22486520.1144   22486517.3504
       232.000         187.000
 108377108.95948  84449689.67248  20623483.1394   20623484.7544   20623482.9634
       250.000         233.000
 136636245.74248  88677590.00448  24098078.6024   24098079.9974   24098079.3274
       215.000         161.000
 118892139.89548  92643211.00048  22624434.3434   22624437.8644   22624435.3354
       234.000         193.000
 129607273.03948 100992700.90548  24663424.6104   24663427.9124   24663424.0794
       197.000         145.000
 105922484.02048  82536991.19048  20156386.0234   20156388.4904   20156385.9234
       251.000         228.000
 140112487.88448  91386346.59148  24759588.5544   24759591.3484   24759588.3204
       219.000         162.000
 124841317.68448  97278931.00948  23756525.8804   23756528.8964   23756525.8834
       229.000         182.000
 09  1  6  0 23 30.0000000  0 11G24G28G 8G 9G15G18G10G21G26G17G27
 131523873.73448 102486113.77348  25028177.8494   25028181.8804   25028176.7374
       209.000         146.000
 116488719.02848  90770420.28648  22167074.1334   22167076.0814   22167074.1284
       239.000         203.000
 126180671.15348  98322593.96448  24011388.1994   24011392.8544   24011387.6194
       208.000         158.000
 118080566.19048  92010818.39248  22469994.1184   22469996.5704   22469994.1434
       232.000         188.000
 108343717.25848  84423670.16248  20617128.9124   20617130.6404   20617128.6764
       250.000         233.000
 136545463.14148  88606850.30148  24080802.9754   24080804.7194   24080803.3634
       215.000         162.000
 118992112.90948  92721112.03048  22643458.4154   22643462.3714   22643458.7814
       233.000         192.000
 129640248.20348 101018395.79148  24669699.8044   24669700.8794   24669699.7854
       207.000         148.000
 105939638.67948  82550358.44848  20159650.4744   20159652.9144   20159650.4324
       251.000         228.000
 140039237.08648  91329268.02948  24745650.5794   24745652.1774   24745650.6794
       213.000         163.000
 124913662.63048  97335303.67348  23770292.3394   23770295.8814   23770292.8524
       226.000         181.000
 09  1  6  0 24  0.0000000  0 11G24G28G 8G 9G15G18G10G21G26G17G27
 131598780.87548 102544482.99548  25042431.8594   25042436.4424   25042433.6334
       208.000         149.000
 116536200.42548  90807418.77448  22176109.8774   22176111.7594   22176110.2234
       240.000         203.000
 126270718.49448  98392760.70748  24028523.7374   24028528.3234   24028524.6544
       210.000         159.000
 117993961.35448  91943334.10948  22453513.6324   22453516.2834   22453514.1474
       233.000         189.000
 108310641.53548  84397896.87548  20610834.9224   20610836.3974   20610834.6434
       250.000         234.000
 136454963.59248  88536331.20648  24063580.9534   24063583.4744   24063581.5484
       214.000         163.000
 119092326.94948  92799200.88548  22662528.4154   22662532.4224   22662528.9424
       234.000         191.000
 129673623.07548 101044402.17448  24676050.8274   24676052.9034   24676051.6134
       212.000         149.000
 105957182.51848  82564028.97048  20162988.8844   20162991.4064   20162988.8254
       250.000         228.000
 139966137.59448  91272307.42348  24731739.7954   24731741.6974   24731739.5104
       212.000         164.000
 124986025.35848  97391690.21948  23784062.2504   23784066.1704   23784062.1844
       225.000         179.000
 09  1  6  0 24 30.0000000  0 11G24G28G 8G 9G15G18G10G21G26G17G27
 131673744.65948 102602896.30948  25056697.8734   25056701.2014   25056697.4584
       206.000         149.000
 116584133.73548  90844769.39848  22185231.3004   22185233.0284   22185232.1134
       239.000         202.000
 126360801.78648  98462955.42548  24045665.6984   24045670.5094   24045664.5514
       212.000         161.000
 117907583.80648  91876026.94748  22437076.5514   22437079.7354   22437076.8824
       233.000         192.000
 108277882.90548  84372370.67348  20604601.2344   20604602.6944   20604601.0274
       250.000         234.000
 136364749.14648  88466034.22248  24046413.9124   24046416.3814   24046413.3284
       214.000         161.000
 119192779.52548  92877475.61448  22681644.0424   22681647.8764   22681645.3314
       233.000         192.000
 129707395.36148 101070718.22448  24682476.9064   24682479.2784   24682479.1434
       205.000         141.000
 105975115.64548  82578002.82548  20166401.4604   20166403.9644   20166401.3154
       251.000         228.000
 139893191.70448  91215466.48748  24717859.0334   24717860.2544   24717858.6174
       215.000         162.000
 125058404.84148  97448089.81748  23797835.6794   23797839.3624   23797835.7754
       226.000         179.000
 09  1  6  0 25  0.0000000  0 11G24G28G 8G 9G15G18G10G21G26G17G27
 131748762.11848 102661351.46448  25070972.0804   25070976.5974   25070972.1724
       202.000         141.000
 116632517.43348  90882470.98748  22194438.1734   22194440.1114   22194438.5054
       239.000         202.000
 126450919.70548  98533177.19148  24062815.4344   24062818.5344   24062815.3994
       211.000         161.000
 117821434.33048  91808897.50248  22420683.0454   22420686.0704   22420682.9494
       232.000         192.000
 108245442.68848  84347092.57948  20598428.0214   20598429.6024   20598427.7694
       250.000         234.000
 136274822.23148  88395961.34748  24029300.8294   24029303.9244   24029303.5874
       215.000         161.000
 119293467.29948  92955933.61148  22700804.6854   22700808.1244   22700805.4044
       235.000         192.000
 129741562.78048 101097342.13748  24688979.1614   24688980.8054   24688978.4044
       205.000         140.000
 105993438.06248  82592280.01548  20169888.2054   20169890.5784   20169888.2684
       252.000         228.000
 139820402.93948  91158748.01248  24704006.9874   24704008.8264   24704006.8874
       216.000         162.000
 125130800.47248  97504501.98848  23811612.5144   23811615.9954   23811613.2184
       227.000         179.000
 09  1  6  0 25 30.0000000  0 11G24G28G 8G 9G15G18G10G21G26G17G27
 131823830.05748 102719845.92248  25085256.9064   25085262.4604   25085257.2424
       202.000         139.000
 116681349.37948  90920521.85448  22203730.5394   22203732.3784   22203731.0544
       240.000         202.000
 126541070.83548  98603424.80048  24079970.5124   24079974.1294   24079971.6054
       210.000         158.000
 117735512.97148  91741945.81648  22404332.3224   22404335.5194   22404332.1574
       233.000         191.000
 108213321.57648  84322063.14248  20592315.4754   20592317.1144   20592315.2764
       250.000         234.000
 136185185.38748  88326114.47048  24012244.1964   24012246.5684   24012245.2434
       220.000         162.000
 119394387.40648  93034572.65448  22720009.1214   22720012.7314   22720009.8454
       233.000         191.000
 129776122.55148 101124271.81948  24695555.0154   24695557.0454   24695556.0834
       204.000         140.000
 106012149.70248  82606860.50048  20173448.8664   20173451.3634   20173448.7114
       252.000         227.000
 139747773.26048  91102153.45648  24690186.9304   24690188.1134   24690187.0674
       216.000         166.000
 125203211.36348  97560926.04948  23825391.7334   23825395.1494   23825392.1824
       227.000         179.000
 09  1  6  0 26  0.0000000  0 11G24G28G 8G 9G15G18G10G21G26G17G27
 131898945.51048 102778377.42748  25099551.6404   25099555.0594   25099551.0204
       201.000         137.000
 116730627.67948  90958920.53048  22213108.0354   22213110.0934   22213108.8734
       240.000         203.000
 126631254.48448  98673697.74748  24097131.8624   24097135.5244   24097132.4394
       212.000         159.000
 117649820.50348  91675172.48148  22388026.0994   22388028.5344   22388026.4294
       233.000         190.000
 108181520.99848  84297283.47648  20586263.9864   20586265.6754   20586263.7764
       250.000         234.000
 136095840.69948  88256495.20448  23995242.9744   23995244.5164   23995244.9644
       216.000         163.000
 119495537.70448  93113391.06148  22739257.1154   22739261.1554   22739257.5914
       232.000         190.000
 129811072.58748 101151505.54548  24702206.9104   24702207.5094   24702207.1374
       201.000         138.000
 106031250.81748  82621744.48148  20177083.6474   20177086.2364   20177083.7104
       252.000         227.000
 139675305.65748  91045685.19948  24676396.4944   24676398.2284   24676396.9394
       213.000         163.000
 125275636.96748  97617361.57448  23839174.1754   23839177.0204   23839174.5254
       228.000         180.000
 09  1  6  0 26 30.0000000  0 11G24G28G 8G 9G15G18G10G21G26G17G27
 131974106.08448 102836944.12948  25113853.7094   25113858.2304   25113852.3034
       202.000         133.000
 116780350.62648  90997665.69148  22222570.0404   22222572.0264   22222570.5944
       240.000         202.000
 126721469.80248  98743995.37448  24114299.2334   24114303.3494   24114300.7384
       212.000         160.000
 117564358.03848  91608578.36848  22371762.5604   22371765.3344   22371763.2354
       233.000         189.000
 108150042.86648  84272755.06648  20580273.8644   20580275.6054   20580273.5914
       250.000         234.000
 136006791.11448  88187105.93148  23978296.4104   23978299.1934   23978297.9114
       216.000         162.000
 119596915.54448  93192386.76548  22758548.6624   22758552.8964   22758549.7804
       232.000         190.000
 129846411.41648 101179042.35248  24708931.1884   24708934.3534   24708931.7944
       209.000         147.000
 106050742.02548  82636932.42848  20180792.6914   20180795.2044   20180792.6174
       253.000         227.000
 139603003.79448  90989346.09048  24662637.2724   24662639.6654   24662637.5014
       219.000         168.000
 125348076.90648  97673808.27348  23852959.3184   23852962.1274   23852960.0704
       226.000         180.000
 09  1  6  0 27  0.0000000  0 11G24G28G 8G 9G15G18G10G21G26G17G27
 132049309.47148 102895544.26148  25128164.0404   25128168.0844   25128165.8454
       204.000         136.000
 116830517.51048  91036756.76948  22232116.4974   22232118.4834   22232116.6114
       240.000         203.000
 126811716.41648  98814317.37048  24131473.1344   24131476.8384   24131473.9464
       212.000         162.000
 117479127.26148  91542164.78448  22355543.9564   22355546.7214   22355544.0024
       236.000         193.000
 108118889.21248  84248479.49448  20574345.5394   20574347.2424   20574345.4584
       250.000         234.000
 135918040.22448  88117949.42148  23961407.4274   23961411.0844   23961407.4984
       213.000         165.000
 119698519.32548  93271558.52648  22777883.1054   22777887.4514   22777883.9314
       232.000         190.000
 129882137.52248 101206880.81948  24715729.8104   24715732.6824   24715729.8474
       211.000         152.000
 106070624.45948  82652425.23348  20184576.1594   20184578.6374   20184576.2534
       252.000         227.000
 139530871.22748  90933138.90748  24648911.5964   24648913.6204   24648911.8474
       218.000         169.000
 125420531.53248  97730266.41848  23866746.5974   23866749.8184   23866746.4234
       225.000         178.000
 09  1  6  0 27 30.0000000  0 11G24G28G 8G 9G15G18G10G21G26G17G27
 132124553.04148 102954175.56948  25142483.3624   25142487.8914   25142483.7684
       206.000         135.000
 116881126.73148  91076192.52148  22241747.1264   22241748.8754   22241747.8554
       239.000         202.000
 126901993.29548  98884662.99648  24148652.1244   24148655.9764   24148653.7624
       211.000         162.000
 117394128.50248  91475931.98048  22339369.5424   22339372.3674   22339370.1934
       234.000         193.000
 108088061.19248  84224457.65948  20568479.1954   20568480.7094   20568478.7304
       251.000         235.000
 135829590.22348  88049027.34648  23944576.5984   23944579.4174   23944576.1044
       216.000         165.000
 119800346.15948  93350904.10948  22797260.5914   22797264.1694   22797260.9274
       234.000         191.000
 129918248.44248 101235019.12748  24722602.3054   24722604.3744   24722603.6024
       215.000         158.000
 106090898.15848  82668222.91248  20188434.1344   20188436.5734   20188433.9134
       253.000         227.000
 139458910.80948  90877065.88648  24635217.1924   24635219.7064   24635217.5114
       217.000         165.000
 125493000.34748  97786735.60848  23880536.5364   23880540.1714   23880536.5914
       224.000         178.000
 09  1  6  0 28  0.0000000  0 11G24G28G 8G 9G15G18G10G21G26G17G27
 132199833.22248 103012835.51348  25156809.1084   25156812.3704   25156808.9364
       203.000         138.000
 116932175.56448  91115970.83948  22251461.3614   22251463.4134   22251461.7614
       239.000         202.000
 126992298.68248  98955030.80148  24165837.6814   24165840.0864   24165837.6904
       215.000         162.000
 117309361.99648  91409880.17048  22323238.4874   22323242.0004   22323238.2364
       232.000         192.000
 108057559.70148  84200690.26448  20562675.0154   20562676.4404   20562674.8284
       251.000         235.000
 135741442.84148  87980341.10148  23927802.7314   23927804.7134   23927803.3364
       218.000         166.000
 119902393.05048  93430421.15948  22816679.3464   22816683.2264   22816680.9024
       233.000         191.000
 129954741.46948 101263455.27848  24729545.8254   24729547.9704   24729546.6954
       215.000         155.000
 106111562.76648  82684325.19848  20192366.5964   20192369.0284   20192366.6434
       253.000         227.000
 139387124.94048  90821128.80848  24621557.0424   24621558.8244   24621557.6034
       215.000         163.000
 125565482.11448  97843214.89248  23894329.5714   23894333.1724   23894329.6204
       225.000         178.000
 09  1  6  0 28 30.0000000  0 11G24G28G 8G 9G15G18G10G21G26G17G27
 132275147.69348 103071522.08848  25171140.9424   25171145.8684   25171140.9454
       204.000         142.000
 116983662.36548  91156090.41548  22261258.9004   22261261.3714   22261259.1444
       240.000         202.000
 127082632.01148  99025420.37348  24183026.8954   24183029.8954   24183029.2774
       211.000         161.000
 117224828.65748  91344010.06148  22307152.4394   22307155.7364   22307152.5854
       231.000         192.000
 108027386.44948  84177178.63548  20556933.2364   20556934.7184   20556932.9264
       251.000         235.000
 135653601.31148  87911893.18148  23911087.3304   23911088.5884   23911086.8844
       219.000         164.000
 120004657.53648  93510107.76748  22836139.5084   22836143.2704   22836140.0564
       231.000         188.000
 129991614.53348 101292187.51748  24736562.7354   24736564.3124   24736562.6204
       209.000         149.000
 106132618.90848  82700732.56948  20196373.4544   20196375.8884   20196373.3854
       252.000         227.000
 139315516.48448  90765330.05948  24607930.0584   24607932.7034   24607930.2014
       217.000         167.000
 125637976.69348  97899704.19248  23908124.7654   23908128.4014   23908124.8584
       223.000         176.000
 09  1  6  0 29  0.0000000  0 11G24G28G 8G 9G15G18G10G21G26G17G27
 132350493.90948 103130233.39648  25185477.9664   25185483.3944   25185479.3334
       200.000         144.000
 117035585.87948  91196550.30348  22271139.8444   22271141.6494   22271140.4434
       239.000         201.000
 127172992.79848  99095831.35548  24200222.4204   24200225.2754   24200222.0784
       212.000         159.000
 117140529.77548  91278322.64148  22291110.7424   22291114.1104   22291110.4494
       231.000         191.000
 107997542.84448  84153923.88148  20551254.1174   20551255.7024   20551253.8734
       251.000         235.000
 135566068.68048  87843685.91948  23894430.6144   23894431.6884   23894430.1324
       220.000         166.000
 120107137.35548  93589962.16348  22855640.8894   22855644.0924   22855641.6744
       231.000         187.000
 130028866.02048 101321214.66248  24743651.5644   24743653.0674   24743651.5664
       210.000         148.000
 106154067.16548  82717445.49748  20200454.8954   20200457.2364   20200454.9174
       253.000         227.000
 139244089.07948  90709672.31848  24594338.7084   24594340.0364   24594338.3564
       218.000         167.000
 125710483.90548  97956203.30548  23921922.4634   23921925.9044   23921922.8494
       224.000         176.000
 09  1  6  0 29 30.0000000  0 11G24G28G 8G 9G15G18G10G21G26G17G27
 132425867.63348 103188966.15448  25199821.0424   25199826.4744   25199821.7844
       203.000         146.000
 117087943.45448  91237348.40448  22281102.7784   22281104.6164   22281103.0664
       239.000         200.000
 127263378.84848  99166262.02348  24217422.0754   24217425.0264   24217422.2274
       213.000         161.000
 117056465.09648  91212817.71448  22275113.8954   22275116.5434   22275114.2774
       234.000         191.000
 107968029.84348  84130926.73948  20545638.0064   20545639.5234   20545637.7784
       251.000         235.000
 135478846.29348  87775720.44748  23877832.2734   23877834.7184   23877834.0724
       219.000         166.000
 120209828.88748  93669981.53448  22875182.2864   22875185.7604   22875183.3034
       231.000         187.000
 130066492.47548 101350533.96448  24750811.5674   24750813.7314   24750812.1104
       203.000         142.000
 106175906.81148  82734463.39748  20204610.7804   20204613.2394   20204610.8434
       252.000         227.000
 139172844.39148  90654156.99948  24580781.3874   24580782.9864   24580781.9914
       216.000         166.000
 125783002.17048  98012711.03048  23935722.4574   23935725.6224   23935722.8494
       223.000         175.000
 09  1  6  0 30  0.0000000  0 11G24G28G 8G 9G15G18G10G21G26G17G27
 132501266.64948 103247718.59348  25214170.3194   25214174.3114   25214170.0974
       207.000         145.000
 117140733.41648  91278483.43448  22291148.7334   22291150.1884   22291149.6674
       240.000         201.000
 127353789.54248  99236711.88148  24234626.3734   24234629.4304   24234627.5524
       214.000         163.000
 116972635.79848  91147496.18848  22259161.8084   22259164.5414   22259162.3444
       235.000         193.000
 107938848.85748  84108188.30248  20540085.0494   20540086.5034   20540084.8024
       251.000         235.000
 135391936.73548  87707998.69648  23861294.4844   23861296.0844   23861294.9824
       219.000         165.000
 120312729.81448  93750164.07348  22894763.5164   22894767.1454   22894764.6574
       230.000         186.000
 130104492.02948 101380143.98648  24758042.6634   24758044.4844   24758043.5734
       207.000         145.000
 106198138.33148  82751786.65448  20208841.4064   20208843.8934   20208841.2804
       252.000         227.000
 139101786.32348  90598787.07748  24567259.7094   24567261.4174   24567259.2754
       217.000         168.000
 125855531.29148  98069227.22348  23949523.9014   23949527.4884   23949523.9014
       223.000         175.000
 09  1  6  0 30 30.0000000  0 11G24G28G 8G 9G15G18G10G21G26G17G27
 132576688.52948 103306488.88548  25228522.4404   25228526.6244   25228524.0994
       200.000         137.000
 117193954.03548  91319954.05448  22301275.9724   22301278.2444   22301276.3354
       239.000         201.000
 127444224.36848  99307180.55348  24251835.7384   24251839.1334   24251837.2314
       217.000         163.000
 116889042.63848  91082358.66248  22243254.8004   22243257.3994   22243254.8934
       236.000         194.000
 107910001.40348  84085709.76948  20534595.5924   20534597.1124   20534595.4244
       251.000         235.000
 135305342.97448  87640523.08748  23844816.3634   23844818.1004   23844817.2424
       220.000         169.000
 120415838.38348  93830508.40248  22914383.9004   22914388.0714   22914384.2664
       228.000         187.000
 130142863.03748 101410043.44748  24765344.9344   24765346.4874   24765344.3664
       204.000         146.000
 106220762.19048  82769415.62248  20213146.5104   20213149.1534   20213146.2784
       252.000         227.000
 139030917.76848  90543564.86148  24553772.8584   24553775.2984   24553772.4034
       216.000         163.000
 125928071.29548  98125751.89448  23963327.9604   23963331.0674   23963327.8984
       223.000         174.000
 09  1  6  0 31  0.0000000  0 11G24G28G 8G 9G15G18G10G21G26G17G27
 132652130.95248 103365275.21248  25242878.8084   25242881.7544   25242878.5094
       193.000         129.000
 117247604.15848  91361759.34748  22311485.2584   22311487.8974   22311485.5574
       239.000         201.000
 127534682.74848  99377667.53748  24269049.4094   24269053.2284   24269049.4394
       215.000         162.000
 116805686.57948  91017405.89248  22227392.5774   22227395.2674   22227392.7184
       235.000         194.000
 107881489.36748  84063492.59148  20529169.8964   20529171.3904   20529169.7014
       251.000         236.000
 135219067.97148  87573295.81648  23828398.6194   23828400.2154   23828398.7064
       221.000         169.000
 120519151.77948  93911012.33848  22934044.1394   22934048.0294   22934044.2484
       230.000         188.000
 130181603.08748 101440230.56048  24772716.0424   24772718.9374   24772716.6754
       208.000         147.000
 106243779.17748  82787350.94148  20217526.5644   20217529.2174   20217526.4734
       252.000         227.000
 138960241.94148  90488492.79148  24540324.3624   24540326.7854   24540323.7794
       221.000         171.000
 126000622.32748  98182285.15048  23977134.2584   23977137.1094   23977134.7894
       223.000         174.000
 09  1  6  0 31 30.0000000  0 10G28G 8G 9G15G18G10G21G26G17G27
 117301680.88748  91403897.06148  22321775.8394   22321777.6604   22321776.2144
       241.000         200.000
 127625163.10048  99448171.68648  24286266.3834   24286270.3684   24286266.8974
       215.000         161.000
 116722567.76548  90952638.00248  22211575.0864   22211578.3814   22211575.4724
       234.000         193.000
 107853313.39848  84041537.28848  20523808.2264   20523809.7504   20523807.9954
       251.000         236.000
 135133113.99548  87506318.69348  23812041.5494   23812043.5294   23812043.4344
       221.000         168.000
 120622667.01748  93991673.55548  22953742.4314   22953746.5624   22953743.1964
       230.000         185.000
 130220709.64248 101470703.19548  24780157.9584   24780160.5864   24780158.8244
       203.000         145.000
 106267188.90448  82805592.27448  20221981.3694   20221983.7974   20221981.3464
       252.000         227.000
 138889761.51348  90433572.95248  24526912.8764   24526914.4664   24526912.4554
       216.000         166.000
 126073182.94748  98238825.88548  23990942.2904   23990945.1674   23990942.3484
       223.000         175.000
 09  1  6  0 32  0.0000000  0 10G28G 8G 9G15G18G10G21G26G17G27
 117356183.10448  91446366.31448  22332147.2874   22332148.9884   22332147.9424
       239.000         201.000
 127715665.02048  99518692.62448  24303489.3194   24303492.0734   24303489.9034
       215.000         161.000
 116639687.69748  90888056.15848  22195803.5104   22195806.9994   22195804.0044
       236.000         196.000
 107825475.46248  84019845.38848  20518510.7644   20518512.2854   20518510.4104
       251.000         236.000
 135047483.82548  87439593.93548  23795747.1324   23795748.7184   23795747.5134
       224.000         170.000
 120726381.64548  94072490.14148  22973478.8424   22973482.7644   22973479.2004
       232.000         186.000
 130260180.95248 101501460.06548  24787669.0834   24787671.6324   24787669.3134
       202.000         137.000
 106290991.76148  82824139.94648  20226511.0304   20226513.3534   20226511.0174
       252.000         227.000
 138819479.65848  90378807.84848  24513537.8994   24513540.0014   24513537.3574
       215.000         164.000
 126145753.18148  98295374.10348  24004752.1074   24004755.1254   24004752.6214
       223.000         175.000
 09  1  6  0 32 30.0000000  0 10G28G 8G 9G15G18G10G21G26G17G27
 117411108.59248  91489165.39148  22342599.1084   22342601.0964   22342599.6124
       239.000         201.000
 127806187.24248  99589229.39548  24320714.7254   24320718.0904   24320715.3554
       216.000         161.000
 116557046.17648  90823660.16248  22180077.9714   22180080.6034   22180077.7054
       237.000         197.000
 107797976.32848  83998417.49148  20513277.8474   20513279.3534   20513277.4444
       251.000         236.000
 134962179.33248  87373122.87948  23779514.5244   23779516.2884   23779514.4754
       220.000         169.000
 120830292.85848  94153459.90948  22993252.4274   22993256.4854   22993253.6804
       230.000         184.000
 130300014.24148 101532499.07748  24795248.4804   24795250.3024   24795251.1214
       197.000         128.000
 106315187.89148  82842994.05948  20231115.0464   20231117.7194   20231114.9414
       251.000         227.000
 138749398.91348  90324199.50948  24500200.6684   24500204.3534   24500200.1044
       209.000         161.000
 126218332.22448  98351929.18748  24018563.2824   24018566.1764   24018563.3994
       222.000         174.000
 09  1  6  0 33  0.0000000  0 10G28G 8G 9G15G18G10G21G26G17G27
 117466455.60248  91532292.94148  22353131.6034   22353133.7134   22353132.2184
       242.000         202.000
 127896729.33348  99659781.64748  24337944.5424   24337947.8994   24337944.9144
       216.000         163.000
 116474644.77948  90759451.28648  22164397.3404   22164400.2364   22164397.6434
       233.000         195.000
 107770818.09548  83977255.23248  20508109.8594   20508111.2494   20508109.6194
       251.000         236.000
 134877203.66048  87306908.09548  23763343.3854   23763345.7954   23763343.1674
       219.000         168.000
 120934398.57048  94234581.25048  23013063.3004   23013066.6404   23013063.7324
       230.000         182.000
 130340207.67548 101563818.61248  24802897.8404   24802899.0704   24802897.0024
       190.000         125.000
 106339777.74148  82862154.97748  20235794.3624   20235797.0264   20235794.1854
       253.000         227.000
 138679523.05248  90269750.76348  24486904.6114   24486907.0434   24486903.9354
       216.000         166.000
 126290920.14548  98408491.20148  24032376.0614   24032378.6654   24032375.7364
       224.000         173.000
 09  1  6  0 33 30.0000000  0  9G28G 8G 9G15G18G10G26G17G27
 117522222.25648  91575747.47948  22363743.6964   22363745.9834   22363744.6174
       240.000         201.000
 127987289.78448  99730348.19748  24355177.4634   24355181.0734   24355177.6924
       212.000         163.000
 116392483.70648  90695429.69648  22148762.1894   22148765.3354   22148762.7784
       234.000         194.000
 107744001.78848  83956359.40748  20503006.7354   20503008.2264   20503006.3854
       251.000         236.000
 134792559.07448  87240951.27548  23747236.3464   23747238.1634   23747236.0164
       223.000         170.000
 121038696.00148  94315851.97548  23032910.3384   23032914.0244   23032910.9354
       230.000         184.000
 106364761.31948  82881622.69148  20240548.8274   20240551.2744   20240548.8224
       252.000         227.000
 138609854.52048  90215463.57548  24473647.8334   24473649.8324   24473647.8774
       211.000         167.000
 126363516.29148  98465059.61148  24046190.6034   24046193.9404   24046190.9994
       222.000         173.000
 09  1  6  0 34  0.0000000  0  9G28G 8G 9G15G18G10G26G17G27
 117578406.19348  91619527.16448  22374435.2064   22374436.8784   22374435.5904
       240.000         200.000
 128077867.78148  99800928.42048  24372413.9524   24372417.5414   24372413.2574
       217.000         164.000
 116310563.35848  90631595.68048  22133173.3624   22133176.4634   22133173.6504
       235.000         196.000
 107717528.19248  83935730.62648  20497969.1004   20497970.6184   20497968.7894
       251.000         236.000
 134708247.90048  87175254.25148  23731192.8314   23731194.2084   23731193.6504
       220.000         171.000
 121143181.93648  94397269.57748  23052793.2684   23052797.5754   23052793.9054
       230.000         185.000
 106390138.42048  82901397.04848  20245377.9454   20245380.3294   20245377.8004
       254.000         227.000
 138540395.79948  90161339.91348  24460429.9554   24460432.4444   24460429.6084
       217.000         166.000
 126436119.99848  98521633.92748  24060006.5174   24060009.5334   24060006.6554
       219.000         170.000
 09  1  6  0 34 30.0000000  0  9G28G 8G 9G15G18G10G26G17G27
 117635005.92648  91663630.85848  22385205.6914   22385207.2114   22385205.7854
       241.000         201.000
 128168462.69748  99871521.84248  24389653.5914   24389657.3614   24389653.9394
       216.000         165.000
 116228884.76648  90567950.04748  22117630.4144   22117633.5474   22117630.1684
       234.000         196.000
 107691399.32348  83915370.46648  20492996.7484   20492998.5624   20492996.4564
       251.000         237.000
 134624272.87748  87109819.20348  23715212.5604   23715214.6084   23715211.6244
       219.000         169.000
 121247854.51248  94478832.61348  23072711.6304   23072716.2794   23072712.6574
       228.000         185.000
 106415909.75848  82921478.60148  20250282.0694   20250284.3714   20250282.2184
       252.000         227.000
 138471150.05048  90107382.19948  24447251.7244   24447254.3844   24447252.3214
       213.000         164.000
 126508731.30748  98578214.14648  24073823.9384   24073827.1654   24073823.5704
       220.000         170.000
 09  1  6  0 35  0.0000000  0  9G28G 8G 9G15G18G10G26G17G27
 117692020.20748  91708057.56648  22396055.0594   22396056.9254   22396056.0934
       239.000         200.000
 128259074.12248  99942128.12948  24406895.6134   24406900.2494   24406895.7734
       216.000         165.000
 116147449.47348  90504493.99248  22102133.8944   22102136.6714   22102133.4664
       236.000         196.000
 107665617.06548  83895280.39148  20488090.6714   20488092.4094   20488090.3574
       252.000         237.000
 134540637.19148  87044648.53248  23699296.7594   23699299.2064   23699296.1594
       223.000         170.000
 121352711.28248  94560539.18348  23092665.1394   23092669.6744   23092665.7994
       228.000         184.000
 106442075.92148  82941867.80648  20255261.3194   20255263.5594   20255261.1204
       253.000         226.000
 138402121.08748  90053593.41448  24434117.3114   24434119.0714   24434116.8404
       214.000         167.000
 126581349.93448  98634800.07848  24087642.7734   24087646.1784   24087643.1394
       222.000         170.000
 09  1  6  0 35 30.0000000  0  9G28G 8G 9G15G18G10G26G17G27
 117749445.74748  91752804.74148  22406982.8714   22406985.2714   22406983.3214
       240.000         200.000
 128349699.89248 100012745.60848  24424142.1314   24424145.5814   24424142.0504
       217.000         166.000
 116066256.64448  90441226.87348  22086683.5724   22086686.4004   22086684.0924
       236.000         197.000
 107640181.52848  83875460.48248  20483250.5704   20483252.2234   20483250.2634
       252.000         237.000
 134457342.19148  86979743.34148  23683446.4604   23683448.4744   23683447.2004
       222.000         171.000
 121457748.68348  94642386.49348  23112653.1164   23112657.5824   23112653.6694
       230.000         183.000
 106468635.92448  82962563.89948  20260315.4064   20260317.7704   20260315.4074
       252.000         226.000
 138333310.68448  89999974.88348  24421023.2204   24421024.5544   24421022.3544
       218.000         168.000
 126653974.46048  98691390.61848  24101463.0464   24101466.3864   24101463.1754
       221.000         171.000
 09  1  6  0 36  0.0000000  0 10G28G 8G 9G15G18G10G26G17G12G27
 117807280.61348  91797870.87648  22417988.6164   22417991.0074   22417988.5754
       239.000         200.000
 128440339.30848 100083373.69248  24441390.0244   24441393.9964   24441390.3364
       220.000         167.000
 115985307.06448  90378149.30048  22071279.1694   22071282.3214   22071279.8514
       236.000         197.000
 107615094.05448  83855911.79548  20478476.6554   20478478.1724   20478476.4264
       252.000         237.000
 134374390.27848  86915105.50148  23667661.8224   23667663.3574   23667661.6684
       221.000         173.000
 121562964.04348  94724372.47948  23132675.5204   23132679.2074   23132676.6314
       229.000         183.000
 106495589.94548  82983567.02248  20265444.5324   20265447.0224   20265444.3394
       252.000         226.000
 138264721.78548  89946528.99748  24407971.3174   24407973.3784   24407971.1224
       217.000         172.000
 132485151.38958 103235166.01858  25211098.4305   25211102.8105   25211097.4155
       201.000         142.000
 126726604.56948  98747985.48048  24115283.8104   24115287.7004   24115283.6954
       221.000         170.000
 09  1  6  0 36 30.0000000  0 10G28G 8G 9G15G18G10G26G17G12G27
 117865523.48448  91843254.92648  22429071.5464   22429073.5274   22429072.1674
       238.000         198.000
 128530991.92948 100154012.05548  24458640.4834   24458644.5254   24458641.5084
       219.000         167.000
 115904601.82148  90315262.09948  22055921.5544   22055924.4784   22055922.1064
       236.000         197.000
 107590356.31248  83836635.62948  20473769.4044   20473770.8034   20473769.1934
       253.000         237.000
 134291784.24548  86850737.18848  23651942.0744   23651944.2244   23651942.1064
       222.000         172.000
 121668355.17548  94806495.43548  23152730.7764   23152734.5814   23152731.6084
       229.000         183.000
 106522938.56648  83004877.63148  20270648.8954   20270651.4434   20270648.7944
       252.000         226.000
 138196357.57848  89893258.19448  24394961.6544   24394963.9854   24394961.0734
       218.000         170.000
 132369703.44448 103145206.57348  25189129.9524   25189133.8744   25189130.3514
       205.000         143.000
 126799240.15648  98804584.63348  24129105.6874   24129109.5864   24129106.3644
       218.000         167.000
 09  1  6  0 37  0.0000000  0 10G28G 8G 9G15G18G10G26G17G12G27
 117924172.45448  91888955.42748  22440231.8944   22440233.4054   22440232.5634
       238.000         196.000
 128621657.22148 100224660.31948  24475893.9264   24475897.2284   24475893.4314
       218.000         166.000
 115824142.21148  90252566.32148  22040610.5544   22040613.4594   22040610.8654
       237.000         198.000
 107565970.25948  83817633.50848  20469128.8574   20469130.3314   20469128.8064
       252.000         237.000
 134209527.05948  86786640.68548  23636289.3354   23636291.5084   23636289.9754
       221.000         173.000
 121773919.73348  94888753.51848  23172818.7744   23172822.5314   23172819.2934
       228.000         181.000
 106550682.07348  83026495.93848  20275928.3664   20275930.8384   20275928.1374
       252.000         226.000
 138128221.57848  89840165.20848  24381995.8484   24381997.6894   24381995.2244
       215.000         170.000
 132254274.87748 103055262.22748  25167165.2684   25167167.8444   25167167.5384
       209.000         142.000
 126871881.39548  98861188.20748  24142928.6134   24142932.3244   24142928.4524
       219.000         166.000
 09  1  6  0 37 30.0000000  0 10G28G 8G 9G15G18G10G26G17G12G27
 117983225.18648  91934970.54448  22451469.3354   22451470.8584   22451469.4944
       238.000         197.000
 128712334.26548 100295317.74648  24493148.6034   24493152.3504   24493149.0834
       220.000         166.000
 115743928.57448  90190062.19948  22025346.3334   22025349.3194   22025346.8274
       238.000         199.000
 107541936.96748  83798906.27248  20464555.3084   20464556.9454   20464555.1644
       252.000         237.000
 134127621.11548  86722817.89448  23620702.4234   23620704.4784   23620702.5374
       223.000         171.000
 121879654.85648  94971144.51048  23192939.8064   23192943.0804   23192940.7934
       229.000         181.000
 106578820.74148  83048422.16048  20281282.8984   20281285.3964   20281282.7814
       252.000         226.000
 138060316.43248  89787252.14648  24369074.2564   24369076.7144   24369073.6544
       219.000         172.000
 132138867.80048 102965334.59448  25145205.4674   25145205.8234   25145207.1884
       211.000         142.000
 126944527.60248  98917795.64848  24156752.6024   24156756.5594   24156753.1584
       220.000         166.000
 09  1  6  0 38  0.0000000  0 10G28G 8G 9G15G18G10G26G17G12G27
 118042679.81148  91981298.82548  22462783.2414   22462785.3034   22462784.2204
       239.000         196.000
 128803022.05548 100365983.56948  24510407.0324   24510410.1654   24510407.7354
       221.000         168.000
 115663961.34848  90127750.09848  22010129.1004   22010131.9184   22010129.0184
       236.000         199.000
 107518257.47348  83780454.71348  20460049.2314   20460050.7844   20460048.9734
       252.000         237.000
 134046068.73948  86659270.58548  23605184.2954   23605185.4194   23605184.3374
       224.000         173.000
 121985558.22048  95053666.62048  23213092.2684   23213095.4554   23213093.0084
       228.000         179.000
 106607354.20248  83070656.01948  20286712.5824   20286715.1184   20286712.6024
       252.000         226.000
 137992644.89648  89734521.02748  24356197.1314   24356198.6564   24356197.0004
       218.000         171.000
 132023484.21648 102875425.24548  25123249.7364   25123247.4484   25123249.1024
       211.000         145.000
 127017178.12348  98974406.41548  24170578.3924   24170581.9354   24170578.2414
       220.000         168.000
 09  1  6  0 38 30.0000000  0 10G28G 8G 9G15G18G10G26G17G12G27
 118102534.31148  92027938.69748  22474173.1674   22474175.3964   22474174.1614
       238.000         196.000
 128893719.72348 100436657.06948  24527666.0334   24527669.4474   24527667.0144
       218.000         166.000
 115584241.10448  90065630.44748  21994958.7134   21994961.6544   21994958.8644
       237.000         198.000
 107494932.87348  83762279.69748  20455610.8324   20455612.2994   20455610.5904
       252.000         237.000
 133964872.39448  86596000.69748  23589733.2034   23589734.1884   23589733.5464
       222.000         173.000
 122091626.39648  95136317.13748  23233275.9264   23233279.8304   23233277.0804
       226.000         179.000
 106636282.69248  83093197.69248  20292217.6364   20292220.1414   20292217.5404
       252.000         226.000
 137925209.62348  89681974.08448  24343364.4504   24343366.0184   24343363.9404
       218.000         172.000
 131908126.03848 102785535.71048  25101296.7414   25101296.6154   25101297.7844
       211.000         146.000
 127089832.61148  99031020.28148  24184404.5544   24184407.8054   24184404.2804
       222.000         168.000
 09  1  6  0 39  0.0000000  0 10G28G 8G 9G15G18G10G26G17G12G27
 118162786.69948  92074888.61948  22485638.6654   22485640.5964   22485638.8574
       237.000         195.000
 128984426.45448 100507337.63048  24544926.6734   24544930.4814   24544927.0064
       221.000         167.000
 115504768.75948  90003703.95948  21979835.7044   21979838.2604   21979836.3394
       237.000         198.000
 107471965.00948  83744382.65948  20451240.1604   20451241.6874   20451239.9114
       252.000         238.000
 133884034.52048  86533010.16548  23574349.6314   23574351.7324   23574349.9764
       223.000         172.000
 122197857.54248  95219094.64148  23253491.3594   23253494.9474   23253492.0004
       227.000         178.000
 106665606.54448  83116047.44348  20297797.7874   20297800.3664   20297797.7234
       253.000         226.000
 137858013.92748  89629613.81348  24330576.7114   24330579.2974   24330576.3184
       218.000         170.000
 131792795.89648 102695668.11448  25079349.4984   25079350.2734   25079350.4464
       210.000         147.000
 127162491.10448  99087637.27748  24198230.7854   24198234.0134   24198231.3174
       220.000         166.000
 09  1  6  0 39 30.0000000  0 10G28G 8G 9G15G18G10G26G17G12G27
 118223435.37848  92122147.32548  22497179.8944   22497180.7044   22497179.8524
       236.000         194.000
 129075141.90448 100578024.94348  24562188.9854   24562193.1644   24562189.5734
       220.000         167.000
 115425545.10448  89941971.26648  21964759.9624   21964762.9394   21964760.0384
       237.000         200.000
 107449355.39848  83726764.77448  20446937.6694   20446939.1234   20446937.3194
       252.000         237.000
 133803558.10248  86470301.27148  23559035.7314   23559037.9084   23559036.1974
       224.000         173.000
 122304248.94848  95301997.02148  23273737.0364   23273740.2724   23273737.8074
       225.000         180.000
 106695326.03848  83139205.47948  20303453.2974   20303455.7104   20303453.2584
       253.000         226.000
 137791060.78348  89577442.54948  24317836.8054   24317838.5154   24317836.8984
       220.000         173.000
 131677496.35848 102605824.31848  25057409.1344   25057409.3974   25057410.6974
       209.000         146.000
 127235153.39848  99144257.23048  24212057.8154   24212061.1074   24212057.9504
       218.000         164.000
 09  1  6  0 40  0.0000000  0 10G28G 8G 9G15G18G10G26G17G12G27
 118284478.17048  92169713.12448  22508795.9194   22508796.2934   22508795.7754
       237.000         194.000
 129165865.05448 100648718.31248  24579452.9524   24579457.1784   24579453.8664
       219.000         166.000
 115346570.50748  89880432.64648  21949731.5374   21949734.5744   21949732.3534
       237.000         200.000
 107427104.82948  83709426.67148  20442703.5154   20442705.0924   20442703.3304
       252.000         238.000
 133723445.08348  86407875.54348  23543790.8524   23543792.3294   23543792.1524
       223.000         171.000
 122410798.28148  95385022.48448  23294012.8364   23294016.2454   23294012.9074
       227.000         180.000
 106725441.02948  83162671.69548  20309184.1344   20309186.3274   20309184.1034
       253.000         226.000
 137724353.04948  89525462.48648  24305142.1354   24305144.4674   24305141.9334
       219.000         170.000
 131562229.59448 102516006.07848  25035472.5414   25035475.6374   25035474.0794
       205.000         149.000
 127307819.05548  99200879.80948  24225885.5134   24225888.8714   24225885.9414
       217.000         164.000
 09  1  6  0 40 30.0000000  0 10G28G 8G 9G15G18G10G26G17G12G27
 118345912.36448  92217583.91948  22520486.7424   22520487.3964   22520487.4274
       238.000         196.000
 129256594.69748 100719416.71248  24596718.3254   24596722.2694   24596718.6734
       217.000         164.000
 115267845.47648  89819088.49148  21934750.7674   21934753.8054   21934751.1104
       239.000         201.000
 107405214.82348  83692369.52248  20438537.8994   20438539.5144   20438537.7414
       252.000         238.000
 133643697.83048  86345734.84948  23528615.4864   23528617.1274   23528616.3334
       223.000         174.000
 122517502.05148  95468168.26148  23314317.7724   23314322.0854   23314318.9534
       227.000         180.000
 106755951.17748  83186445.81548  20314989.9194   20314992.2574   20314989.8904
       252.000         226.000
 137657893.01048  89473675.45048  24292496.1064   24292496.9904   24292496.4164
       219.000         174.000
 131446997.08148 102426214.50648  25013544.4694   25013550.0394   25013544.5664
       208.000         152.000
 127380487.08448  99257504.22448  24239713.9214   24239716.8214   24239714.0794
       219.000         161.000
 09  1  6  0 41  0.0000000  0 10G28G 8G 9G15G18G10G26G17G12G27
 118407736.61448  92265758.65648  22532251.3644   22532253.3084   22532252.6034
       237.000         196.000
 129347330.34748 100790119.80048  24613983.8874   24613987.8624   24613983.6064
       214.000         161.000
 115189371.00248  89757939.56148  21919817.6224   21919820.3764   21919818.0054
       238.000         199.000
 107383686.85548  83675594.48348  20434441.3254   20434442.9404   20434441.0824
       253.000         238.000
 133564319.10248  86283881.29748  23513510.4574   23513512.1584   23513509.8794
       224.000         173.000
 122624358.17448  95551432.75848  23334651.7654   23334656.0234   23334653.3624
       227.000         179.000
 106786856.98748  83210528.25148  20320871.0984   20320873.4674   20320870.9514
       253.000         226.000
 137591684.33048  89422084.29848  24279895.0124   24279899.0414   24279894.1734
       215.000         169.000
 131331801.99448 102336452.05648  24991623.8934   24991629.3854   24991622.6844
       202.000         151.000
 127453157.70948  99314130.67248  24253542.7764   24253545.4614   24253543.3474
       217.000         162.000
 09  1  6  0 41 30.0000000  0 10G28G 8G 9G15G18G10G26G17G12G27
 118469949.07848  92314235.91348  22544089.6014   22544093.0954   22544089.8354
       236.000         197.000
 129438071.65148 100860827.26048  24631251.8674   24631255.1154   24631252.4704
       217.000         161.000
 115111148.15848  89696986.71348  21904932.0534   21904934.8394   21904932.1544
       238.000         200.000
 107362522.62048  83659102.85848  20430413.9424   20430415.5054   20430413.7214
       252.000         238.000
 133485311.80048  86222317.16248  23498476.0994   23498477.4524   23498475.2694
       226.000         175.000
 122731364.08148  95634813.97848  23355014.4264   23355018.2064   23355015.2484
       225.000         177.000
 106818159.12848  83234919.51548  20326827.6924   20326830.1764   20326827.5734
       252.000         226.000
 137525730.18448  89370691.47148  24267345.2264   24267347.5004   24267344.7194
       214.000         168.000
 131216646.83948 102246720.80948  24969710.4434   24969715.3114   24969709.9454
       206.000         152.000
 127525830.90248  99370759.12348  24267371.8154   24267375.0134   24267371.9694
       218.000         162.000
 09  1  6  0 42  0.0000000  0 10G28G 8G 9G15G18G10G26G17G12G27
 118532547.62448  92363014.01748  22556001.9354   22556005.4714   22556002.6914
       237.000         198.000
 129528817.47648 100931538.27448  24648521.0994   24648523.6364   24648521.4904
       219.000         165.000
 115033177.51948  89636230.39848  21890094.8274   21890097.6434   21890095.4874
       238.000         200.000
 107341723.55948  83642895.79748  20426456.0144   20426457.5394   20426455.7874
       252.000         238.000
 133406678.18148  86161044.22048  23483512.7184   23483514.2324   23483512.7344
       227.000         176.000
 122838517.38948  95718310.04448  23375405.1564   23375408.4894   23375405.0444
       227.000         177.000
 106849857.39648  83259619.45548  20332859.4874   20332862.1334   20332859.3874
       252.000         225.000
 137460033.31848  89319499.10448  24254843.6504   24254845.9874   24254843.2814
       216.000         170.000
 131101533.84748 102157022.37148  24947805.9344   24947809.6444   24947806.3544
       212.000         153.000
 127598506.51848  99427389.48748  24281201.2614   24281205.0074   24281202.3054
       214.000         160.000
 09  1  6  0 42 30.0000000  0 10G28G 8G 9G15G18G10G26G17G12G27
 118595529.53448  92412090.83148  22567986.9234   22567990.7774   22567987.3504
       236.000         197.000
 129619566.66148 101002251.92348  24665789.8284   24665793.1404   24665791.0494
       215.000         164.000
 114955458.99248  89575670.52348  21875305.5184   21875308.0924   21875305.2034
       239.000         200.000
 107321289.51948  83626973.16848  20422567.5124   20422569.1054   20422567.2704
       253.000         238.000
 133328419.66948  86100063.56548  23468620.3894   23468622.3954   23468621.3014
       226.000         176.000
 122945814.77048  95801918.39548  23395823.9824   23395826.6424   23395825.4644
       226.000         179.000
 106881951.00948  83284627.45548  20338966.7584   20338969.3424   20338966.6314
       252.000         225.000
 137394595.75048  89268508.74648  24242390.9544   24242392.8584   24242390.4654
       214.000         164.000
 130986464.41748 102067357.84248  24925910.0964   24925912.2664   24925911.3104
       210.000         152.000
 127671183.10148  99484020.58848  24295031.2404   24295034.7124   24295030.6504
       215.000         161.000
 09  1  6  0 43  0.0000000  0 10G28G 8G 9G15G18G10G26G17G12G27
 118658893.04248  92461465.00048  22580044.8174   22580047.9434   22580045.0294
       237.000         196.000
 129710318.70248 101072967.75648  24683059.0674   24683063.0554   24683058.1834
       216.000         165.000
 114877993.53448  89515307.84048  21860564.2404   21860566.5004   21860564.7314
       238.000         199.000
 107301222.66448  83611336.65548  20418748.8984   20418750.4824   20418748.6974
       253.000         239.000
 133250539.35348  86039377.61848  23453799.9524   23453801.8874   23453800.1934
       226.000         172.000
 123053253.89148  95885637.18048  23416268.1504   23416272.1134   23416268.5854
       226.000         179.000
 106914440.26848  83309943.75448  20345149.1584   20345151.7464   20345149.0394
       252.000         225.000
 137329420.81348  89217723.11648  24229988.5874   24229991.1714   24229988.2624
       217.000         169.000
 130871440.92248 101977729.15048  24904021.6434   24904023.8394   24904020.4794
       205.000         148.000
 127743860.77948  99540652.50348  24308861.2424   24308864.9864   24308860.5614
       215.000         159.000
 09  1  6  0 43 30.0000000  0 10G28G 8G 9G15G18G10G26G17G12G27
 118722636.02248  92511134.85248  22592174.6224   22592177.7034   22592175.3514
       236.000         195.000
 129801072.76648 101143685.19548  24700329.1564   24700332.5074   24700329.2314
       218.000         163.000
 114800781.67048  89455142.77448  21845871.1174   21845874.1274   21845871.1434
       238.000         201.000
 107281524.18248  83595987.18748  20415000.4914   20415001.9394   20415000.2414
       252.000         239.000
 133173039.69348  85978988.27148  23439052.5464   23439053.4584   23439053.8584
       224.000         174.000
 123160831.96748  95969464.24748  23436739.9244   23436743.7944   23436740.3074
       226.000         178.000
 106947325.46848  83335568.58448  20351406.9894   20351409.5004   20351406.9124
       252.000         225.000
 137264511.37148  89167144.30948  24217637.0354   24217638.9444   24217636.6074
       217.000         169.000
 130756466.11148 101888138.38748  24882143.1014   24882144.3264   24882141.7614
       212.000         151.000
 127816539.33848  99597285.12348  24322691.7034   24322695.3424   24322692.1414
       215.000         157.000
 09  1  6  0 44  0.0000000  0 10G28G 8G 9G15G18G10G26G17G12G27
 118786756.64748  92561098.97848  22604376.3934   22604378.9244   22604377.1004
       236.000         192.000
 129891828.62348 101214404.04348  24717599.8714   24717602.8344   24717600.4654
       216.000         159.000
 114723824.22648  89395175.95348  21831226.8454   21831229.8214   21831227.0364
       239.000         201.000
 107262195.82948  83580926.13048  20411322.3874   20411323.9614   20411322.0724
       253.000         239.000
 133095923.38448  85918897.64848  23424377.6264   23424379.0704   23424377.9744
       225.000         174.000
 123268547.05448  96053398.07748  23457237.3834   23457240.9304   23457238.3734
       226.000         177.000
 106980606.78948  83361502.06648  20357740.4054   20357742.7734   20357740.2004
       252.000         225.000
 137199870.60148  89116774.89548  24205336.3144   24205338.6974   24205336.0744
       216.000         169.000
 130641542.27348 101798587.32948  24860274.0694   24860273.8814   24860273.4434
       211.000         150.000
 127889218.70148  99653918.38748  24336521.8974   24336525.3554   24336521.8894
       215.000         158.000
 09  1  6  0 44 30.0000000  0 10G28G 8G 9G15G18G10G26G17G12G27
 118851252.57548  92611355.54148  22616649.5944   22616651.1964   22616650.6784
       237.000         192.000
 129982585.10048 101285123.40248  24734869.9454   24734873.4674   24734870.3974
       216.000         159.000
 114647121.68448  89335407.76248  21816630.7654   21816633.7774   21816630.6234
       240.000         202.000
 107243238.29248  83566154.01948  20407714.8874   20407716.4534   20407714.6554
       254.000         239.000
 133019192.46748  85859107.33048  23409775.9494   23409777.7964   23409777.2004
       228.000         176.000
 123376395.87048  96137436.09248  23477759.7794   23477764.2014   23477760.9154
       224.000         176.000
 107014283.99048  83387744.03448  20364149.0024   20364151.4774   20364148.9134
       253.000         226.000
 137135500.91548  89066616.69648  24193087.1374   24193088.3934   24193086.3444
       219.000         169.000
 130526671.64748 101709077.76348  24838414.8864   24838414.6364   24838415.1134
       212.000         150.000
 127961898.35348  99710551.90648  24350352.1074   24350355.9004   24350352.4734
       213.000         156.000
 09  1  6  0 45  0.0000000  0 10G28G 8G 9G15G18G10G26G17G12G27
 118916122.39548  92661903.43348  22628993.9484   22628994.5064   22628994.8174
       236.000         190.000
 130073341.83148 101355842.92748  24752140.6334   24752144.0994   24752141.1354
       219.000         163.000
 114570675.24948  89275839.14548  21802083.6344   21802086.4794   21802084.1514
       240.000         202.000
 107224653.49948  83551672.36348  20404178.2614   20404179.8574   20404178.0394
       254.000         239.000
 132942850.24148  85799619.88548  23395248.3304   23395250.4734   23395248.5974
       229.000         176.000
 123484376.27448  96221576.65548  23498308.7444   23498312.0564   23498309.6174
       224.000         175.000
 107048357.52748  83414294.83048  20370632.9874   20370635.5624   20370632.9594
       253.000         226.000
 137071405.90848  89016672.54548  24180890.8474   24180892.6454   24180890.0644
       218.000         170.000
 130411856.67748 101619611.54948  24816566.0864   24816566.7024   24816566.4934
       209.000         152.000
 128034578.53848  99767185.81948  24364182.9874   24364186.1884   24364183.0184
       212.000         157.000
 09  1  6  0 45 30.0000000  0 10G28G 8G 9G15G18G10G26G17G12G27
 118981363.07248  92712740.31548  22641408.7344   22641408.2754   22641409.2634
       236.000         189.000
 130164097.56548 101426561.71148  24769410.7834   24769413.9944   24769411.9694
       218.000         164.000
 114494485.06148  89216470.19048  21787584.8264   21787587.7994   21787584.9734
       238.000         202.000
 107206441.96048  83537481.54548  20400712.8304   20400714.3054   20400712.6544
       254.000         239.000
 132866897.99248  85740436.30448  23380795.7224   23380797.2544   23380796.4524
       227.000         174.000
 123592484.88548  96305817.12448  23518880.1384   23518884.1564   23518880.5624
       222.000         175.000
 107082826.78148  83441153.97548  20377192.4364   20377194.7894   20377192.4534
       253.000         226.000
 137007587.73248  88966944.10148  24168746.4214   24168748.0824   24168746.3104
       218.000         172.000
 130297099.27048 101530190.21248  24794727.3884   24794729.4344   24794726.8314
       205.000         150.000
 128107258.34948  99823819.42448  24378013.3214   24378016.5204   24378013.1804
       212.000         156.000
 09  1  6  0 46  0.0000000  0 10G28G 8G 9G15G18G10G26G17G12G27
 119046973.40248  92763865.24048  22653894.1184   22653893.6454   22653894.6214
       235.000         190.000
 130254852.28948 101497279.67648  24786680.4384   24786684.4144   24786680.8034
       217.000         162.000
 114418552.34048  89157301.87148  21773135.2824   21773138.4034   21773134.9854
       238.000         202.000
 107188605.92848  83523583.34148  20397318.6914   20397320.2664   20397318.5014
       255.000         239.000
 132791338.92948  85681559.10648  23366416.8634   23366418.9654   23366417.7854
       227.000         177.000
 123700719.74048  96390155.96048  23539477.1044   23539480.4894   23539476.9784
       224.000         173.000
 107117692.61348  83468322.14848  20383827.1704   20383829.4724   20383827.2604
       253.000         225.000
 136944050.11348  88917434.26948  24156655.6774   24156657.7214   24156655.4994
       222.000         173.000
 130182402.53548 101440816.14348  24772900.6944   24772903.7464   24772899.1474
       206.000         153.000
 128179938.31448  99880453.17748  24391843.5814   24391847.3134   24391843.6184
       210.000         156.000
 09  1  6  0 46 30.0000000  0 10G28G 8G 9G15G18G10G26G17G12G27
 119112950.28148  92815275.77848  22666448.9974   22666449.2864   22666449.3434
       233.000         190.000
 130345604.61948 101567995.77048  24803950.7614   24803954.0764   24803950.6604
       218.000         160.000
 114342876.81448  89098333.94948  21758734.8244   21758737.5184   21758735.0104
       238.000         202.000
 107171145.90748  83509978.13148  20393996.2624   20393997.7184   20393996.0454
       255.000         239.000
 132716174.82248  85622989.67848  23352113.7054   23352115.1484   23352113.8354
       227.000         175.000
 123809078.17848  96474591.10548  23560096.4484   23560100.3654   23560098.3564
       224.000         173.000
 107152954.25848  83495798.75648  20390537.0714   20390539.5764   20390536.9704
       252.000         225.000
 136880794.78948  88868144.40548  24144618.9274   24144620.4584   24144619.0914
       222.000         174.000
 130067767.73048 101351490.33448  24751086.9104   24751090.8394   24751084.8584
       207.000         155.000
 128252617.43848  99937086.22148  24405674.0794   24405677.9734   24405673.7004
       215.000         157.000
 09  1  6  0 47  0.0000000  0 10G28G 8G 9G15G18G10G26G17G12G27
 119179292.25848  92866970.82348  22679073.2514   22679074.7404   22679073.4614
       235.000         190.000
 130436353.92348 101638709.52348  24821218.5544   24821222.4824   24821219.1284
       219.000         160.000
 114267459.31548  89039567.09548  21744383.2504   21744386.1774   21744383.3014
       239.000         202.000
 107154062.99648  83496666.77248  20390745.3104   20390746.9734   20390745.0884
       254.000         239.000
 132641407.72248  85564729.61448  23337885.7654   23337887.2104   23337885.6804
       227.000         175.000
 123917557.53148  96559120.46048  23580739.1054   23580743.3994   23580739.6594
       222.000         173.000
 107188611.68648  83523583.75148  20397322.4204   20397325.0194   20397322.2984
       254.000         225.000
 136817824.97748  88819077.03248  24132635.7894   24132637.6814   24132635.3324
       219.000         174.000
 129953197.49348 101262214.85748  24729284.6154   24729288.5174   24729284.9254
       209.000         154.000
 128325295.58848  99993718.54148  24419505.1324   24419507.9834   24419505.1444
       212.000         159.000
 09  1  6  0 47 30.0000000  0 10G28G 8G 9G15G18G10G26G17G12G27
 119245995.83148  92918947.64548  22691766.5024   22691768.8104   22691766.5154
       234.000         192.000
 130527098.29248 101709419.38948  24838486.9804   24838490.6544   24838488.1914
       218.000         160.000
 114192299.56848  88981001.09148  21730080.8744   21730083.6594   21730081.3184
       238.000         202.000
 107137357.85448  83483649.77248  20387566.5864   20387568.0614   20387566.4004
       254.000         240.000
 132567039.49248  85506780.35148  23323734.1624   23323735.8844   23323734.3314
       228.000         177.000
 124026153.93148  96643741.02448  23601405.0054   23601408.6274   23601406.1404
       225.000         173.000
 107224663.88048  83551676.36748  20404183.0624   20404185.5854   20404183.0194
       253.000         225.000
 136755142.07048  88770233.19948  24120707.7184   24120709.1574   24120707.4424
       220.000         174.000
 129838692.91848 101172990.50548  24707495.9384   24707499.3244   24707496.3064
       208.000         156.000
 128397971.08248 100050348.80348  24433334.5394   24433337.9404   24433334.1504
       210.000         158.000
 09  1  6  0 48  0.0000000  0 10G28G 8G 9G15G18G10G26G17G12G27
 119313059.75948  92971205.24548  22704528.3204   22704531.2964   22704528.5844
       234.000         193.000
 130617838.16548 101780125.76448  24855754.6364   24855757.9554   24855754.8214
       219.000         162.000
 114117398.90448  88922636.96548  21715827.6654   21715830.4114   21715827.8804
       240.000         202.000
 107121032.22048  83470928.49948  20384459.8254   20384461.4014   20384459.5014
       255.000         239.000
 132493072.96448  85449144.09548  23309659.1084   23309660.2854   23309659.3704
       230.000         177.000
 124134865.39248  96728451.24748  23622092.2914   23622095.7014   23622093.9514
       225.000         175.000
 107261111.64948  83580077.22348  20411118.9114   20411121.3814   20411118.7564
       252.000         225.000
 136692750.19148  88721616.17948  24108834.7894   24108837.2884   24108834.3144
       219.000         175.000
 129724257.14048 101083819.81348  24685719.8384   24685722.0754   24685718.9114
       209.000         156.000
 128470644.71248 100106977.58548  24447164.3984   24447166.5184   24447165.3394
       216.000         159.000
 09  1  6  0 48 30.0000000  0 10G28G 8G 9G15G18G10G26G17G12G27
 119380482.64648  93023742.56748  22717358.5714   22717361.4744   22717359.0134
       235.000         194.000
 130708573.37248 101850828.53148  24873020.9124   24873024.3124   24873021.7174
       218.000         164.000
 114042758.51448  88864475.64248  21701624.3254   21701626.8834   21701624.5724
       241.000         203.000
 107105087.83448  83458504.30348  20381425.7234   20381427.3004   20381425.4024
       255.000         239.000
 132419511.50048  85391823.47448  23295660.6904   23295662.1944   23295661.2354
       231.000         179.000
 124243690.34948  96813249.90948  23642801.2404   23642804.8324   23642802.1944
       225.000         175.000
 107297955.53248  83608786.73648  20418129.8514   20418132.5534   20418129.7314
       252.000         225.000
 136630652.66448  88673228.50148  24097018.3384   24097019.4484   24097017.6664
       219.000         172.000
 129609893.18548 100994705.09648  24663956.4364   24663959.0524   24663954.6374
       214.000         160.000
 128543316.89948 100163605.24448  24460993.5484   24460996.5754   24460995.0684
       212.000         157.000
 09  1  6  0 49  0.0000000  0 10G28G 8G 9G15G18G10G26G17G12G27
 119448262.39048  93076557.95448  22730256.6794   22730259.6764   22730257.2954
       235.000         195.000
 130799303.07648 101921526.98048  24890286.2964   24890289.7044   24890286.6244
       217.000         164.000
 113968379.03248  88806517.62748  21687470.0554   21687473.0104   21687470.2074
       239.000         202.000
 107089526.37448  83446378.48948  20378464.4654   20378466.0514   20378464.3164
       254.000         239.000
 132346357.26248  85334820.16548  23281739.9314   23281741.7814   23281740.4724
       229.000         181.000
 124352625.92848  96898134.76448  23663530.5504   23663534.4894   23663531.4324
       223.000         175.000
 107335195.43848  83637804.84448  20425216.4294   20425219.0764   20425216.4244
       252.000         225.000
 136568852.38548  88625072.44648  24085257.5884   24085259.7684   24085257.1974
       220.000         174.000
 129495603.41548 100905648.14848  24642209.2144   24642209.4624   24642208.0854
       215.000         161.000
 128615987.37548 100220231.59448  24474822.1714   24474824.8784   24474821.3014
       212.000         157.000
 09  1  6  0 49 30.0000000  0 10G28G 8G 9G15G18G10G26G17G12G27
 119516396.68048  93129649.61448  22743222.2534   22743225.3294   22743222.8274
       236.000         196.000
 130890027.21848 101992221.08548  24907550.6704   24907554.0734   24907551.8614
       221.000         167.000
 113894261.36548  88748763.61748  21673365.8484   21673368.7104   21673365.7494
       239.000         204.000
 107074349.15248  83434552.08148  20375576.4074   20375577.9174   20375576.1074
       254.000         240.000
 132273612.86148  85278136.21748  23267896.8884   23267899.4064   23267896.9184
       230.000         182.000
 124461669.81848  96983104.03148  23684280.6614   23684285.4024   23684280.7094
       221.000         174.000
 107372831.78348  83667131.85748  20432378.4934   20432381.0814   20432378.4984
       253.000         225.000
 136507352.37648  88577150.37948  24073554.5994   24073556.5884   24073554.3494
       215.000         171.000
 129381390.46048 100816651.04248  24620474.4584   24620475.3374   24620473.6884
       211.000         158.000
 128688656.40648 100276856.77748  24488650.7004   24488653.0624   24488650.4374
       213.000         158.000
 09  1  6  0 50  0.0000000  0 10G28G 8G 9G15G18G10G26G17G12G27
 119584883.43348  93183015.91948  22756255.0004   22756258.0224   22756255.8114
       236.000         196.000
 130980744.92548 102062910.24048  24924813.5644   24924817.3524   24924814.4634
       219.000         166.000
 113820405.69748  88691213.76048  21659311.9044   21659314.5104   21659311.8054
       239.000         204.000
 107059557.10648  83423025.80948  20372761.5194   20372762.9854   20372761.2454
       255.000         240.000
 132201280.34948  85221773.22848  23254132.8364   23254134.2164   23254133.1834
       231.000         179.000
 124570819.12348  97068155.43348  23705051.5194   23705056.0354   23705051.7874
       225.000         174.000
 107410863.98148  83696767.32748  20439615.6904   20439618.3974   20439615.6464
       252.000         225.000
 136446154.79548  88529463.97048  24061908.3764   24061910.8984   24061907.6994
       215.000         169.000
 129267256.06348 100727715.19148  24598754.5254   24598755.8054   24598753.5694
       215.000         159.000
 128761323.41348 100333480.40248  24502479.2344   24502481.5144   24502479.9624
       215.000         162.000
 09  1  6  0 50 30.0000000  0 10G28G 8G 9G15G18G10G26G17G12G27
 119653719.54348  93236654.44648  22769353.9994   22769356.9834   22769354.7664
       235.000         195.000
 131071454.89148 102133593.26748  24942075.2254   24942078.6954   24942075.8924
       221.000         171.000
 113746812.14448  88633868.15448  21645307.3854   21645309.9774   21645307.7354
       237.000         203.000
 107045150.73248  83411800.06048  20370020.1674   20370021.5914   20370019.8714
       255.000         240.000
 132129361.27048  85165732.38748  23240447.1084   23240448.1824   23240447.9404
       227.000         178.000
 124680070.22748  97153286.13748  23725841.0824   23725845.5394   23725843.3254
       223.000         172.000
 107449291.17548  83726710.58448  20446928.1934   20446930.6964   20446928.0204
       252.000         225.000
 136385261.76748  88482014.84948  24050321.2814   24050323.1804   24050320.5824
       219.000         173.000
 129153201.68548 100638841.64248  24577051.1394   24577051.6834   24577050.7314
       212.000         158.000
 128833987.28848 100390101.58148  24516306.9574   24516309.0994   24516307.7014
       211.000         162.000
 09  1  6  0 51  0.0000000  0 10G28G 8G 9G15G18G10G26G17G12G27
 119722903.80548  93290564.26348  22782519.6264   22782522.2874   22782520.3534
       237.000         195.000
 131162156.93048 102204270.14248  24959334.9014   24959338.7914   24959335.7414
       222.000         173.000
 113673481.86148  88576727.69448  21631352.9004   21631355.8174   21631352.8084
       239.000         204.000
 107031132.08848  83400876.44148  20367352.4524   20367353.9954   20367352.1874
       255.000         240.000
 132057858.43048  85110015.89948  23226839.8284   23226841.4274   23226840.4374
       228.000         178.000
 124789421.69048  97238495.06148  23746650.2234   23746654.6524   23746650.8924
       222.000         172.000
 107488114.16348  83756962.25848  20454315.9114   20454318.6134   20454315.7654
       253.000         225.000
 136324677.14348  88434806.06248  24038792.0494   24038794.8224   24038792.5484
       215.000         170.000
 129039230.69648 100550033.11848  24555362.2194   24555363.7424   24555361.9924
       218.000         160.000
 128906648.55648 100446720.76048  24530132.5054   24530136.4104   24530131.0754
       211.000         160.000
 09  1  6  0 51 30.0000000  0  9G28G 8G 9G18G10G26G17G12G27
 119792433.61248  93344743.33348  22795750.7014   22795753.0314   22795751.4164
       235.000         194.000
 131252849.95448 102274940.01648  24976593.2084   24976597.3684   24976593.7644
       220.000         165.000
 113600415.13048  88519792.58248  21617449.0394   21617451.5734   21617449.4844
       238.000         204.000
 131986774.36548  85054625.72148  23213312.9704   23213314.9954   23213314.2264
       228.000         178.000
 124898870.47448  97323779.83448  23767477.4644   23767481.8454   23767479.2864
       222.000         170.000
 107527332.49048  83787521.98348  20461779.0434   20461781.7574   20461779.0844
       253.000         225.000
 136264403.41148  88387839.52248  24027322.7434   24027325.2074   24027321.7294
       215.000         172.000
 128925344.89348 100461290.92848  24533692.2924   24533693.0114   24533693.7404
       219.000         166.000
 128979306.85748 100503337.59948  24543959.2234   24543962.5794   24543959.7684
       210.000         159.000
 09  1  6  0 52  0.0000000  0 10G28G 8G 9G15G18G10G26G17G12G27
 119862306.82448  93399189.98648  22809046.9364   22809049.1154   22809047.2664
       234.000         194.000
 131343533.07248 102345602.15148  24993850.0874   24993853.6824   24993850.8854
       215.000         153.000
 113527612.24248  88463063.07548  21603595.0214   21603597.6904   21603595.2014
       238.000         204.000
 117004263.06658  73379938.97158  20362239.0355   20362240.5395   20362238.9385
       255.000         240.000
 131916110.92348  84999563.30648  23199866.1614   23199868.1124   23199867.1364
       228.000         179.000
 125008413.67548  97409138.13848  23788322.2854   23788326.5084   23788322.4584
       220.000         170.000
 107566945.86848  83818389.54748  20469317.1234   20469319.7844   20469317.1564
       253.000         225.000
 136204443.03748  88341117.16248  24015913.5104   24015914.8494   24015913.2864
       219.000         173.000
 128811546.30148 100372616.71648  24512036.6064   24512038.5464   24512036.6804
       218.000         167.000
 129051961.73848 100559951.77048  24557785.0904   24557788.5054   24557786.4034
       211.000         159.000
 09  1  6  0 52 30.0000000  0 10G28G 8G 9G15G18G10G26G17G12G27
 119932521.35248  93453902.59848  22822407.9534   22822410.1874   22822408.1684
       234.000         193.000
 131434206.24148 102416256.53048  25011104.4864   25011107.8274   25011105.1084
       204.000         141.000
 113455074.51348  88406540.18848  21589791.2224   21589794.2204   21589791.3734
       238.000         204.000
  96991414.63058  93369927.41858  20359794.0365   20359795.5075   20359793.8025
       255.000         240.000
 131845870.72548  84944830.69448  23186499.9314   23186501.8814   23186500.7144
       229.000         180.000
 125118049.12248  97494568.36948  23809185.8174   23809189.8264   23809185.9434
       224.000         173.000
 107606954.54648  83849565.12948  20476930.4304   20476933.1154   20476930.3074
       252.000         225.000
 136144799.01548  88294641.28548  24004562.9514   24004565.7474   24004563.2274
       218.000         174.000
 128697837.59848 100284012.52248  24490398.9244   24490400.0994   24490398.0754
       217.000         167.000
 129124613.17448 100616563.27448  24571611.0084   24571613.0034   24571611.8074
       209.000         158.000
 09  1  6  0 53  0.0000000  0  9G28G 8G 9G18G10G26G17G12G27
 120003075.12248  93508879.56448  22835834.1794   22835835.9034   22835834.4424
       236.000         192.000
 141524912.75058  92486944.64258  25028358.4605   25028360.2185   25028357.7325
       194.000         129.000
 113382802.32848  88350224.21048  21576038.4244   21576041.2394   21576038.4984
       239.000         204.000
 131776056.12048  84890429.67448  23173215.1444   23173216.3084   23173215.2514
       226.000         179.000
 125227774.24348  97580068.46348  23830066.1894   23830070.0764   23830067.6154
       221.000         169.000
 107647358.47748  83881048.70648  20484619.1964   20484621.7224   20484619.1224
       253.000         225.000
 136085474.19648  88248414.17648  23993273.9854   23993276.2224   23993273.0304
       223.000         175.000
 128584221.37148 100195480.41248  24468778.4604   24468779.9034   24468777.6114
       219.000         168.000
 129197260.70548 100673171.69948  24585434.3944   24585437.8224   24585434.8504
       208.000         158.000
 09  1  6  0 53 30.0000000  0  8G28G 9G18G10G26G17G12G27
 120073965.64748  93564118.93848  22849324.3134   22849325.9554   22849325.1084
       234.000         192.000
 113310796.07048  88294115.43648  21562336.3584   21562338.6964   21562336.3994
       240.000         205.000
 131706668.95548  84836361.76948  23160010.6544   23160013.0674   23160010.9194
       228.000         180.000
 125337585.91548  97665635.99648  23850961.8884   23850965.9004   23850962.0824
       222.000         170.000
 107688157.06448  83912839.80048  20492382.8014   20492385.5594   20492382.7474
       252.000         225.000
 136026470.99448  88202437.63548  23982046.0684   23982048.1484   23982046.5834
       220.000         173.000
 128470698.99848 100107021.42148  24447175.9764   24447177.7824   24447176.9414
       219.000         168.000
 129269904.31648 100729777.09748  24599258.3874   24599261.3424   24599259.1004
       207.000         156.000
 09  1  6  0 54  0.0000000  0  9G28G 9G15G18G10G26G17G12G27
 120145191.01548  93619619.20948  22862878.0584   22862879.5754   22862878.3584
       236.000         192.000
 113239056.54348  88238214.52948  21548684.6334   21548687.1224   21548685.0404
       238.000         205.000
 116955223.70858  73341725.70058  20352907.0165   20352908.5525   20352906.9655
       255.000         240.000
 131637711.66948  84782628.82448  23146888.9344   23146891.0874   23146890.3254
       228.000         181.000
 125447481.98648  97751269.28548  23871874.3964   23871878.6194   23871875.2204
       221.000         169.000
 107729350.49748  83944938.56248  20500221.6934   20500224.4754   20500221.7334
       252.000         225.000
 135967792.26748  88156713.95948  23970880.5424   23970882.2864   23970880.3094
       219.000         174.000
 128357273.16848 100018637.65948  24425591.5564   24425593.7084   24425591.4754
       217.000         166.000
 129342543.88448 100786379.31448  24613080.7894   24613084.1484   24613079.9754
       204.000         157.000
 09  1  6  0 54 30.0000000  0  8G28G 9G18G10G26G17G12G27
 120216748.92148  93675378.61048  22876495.3774   22876496.9554   22876495.8064
       236.000         193.000
 113167584.58748  88182522.12048  21535083.4674   21535086.7754   21535083.1034
       238.000         205.000
 131569186.60548  84729232.66848  23133848.8854   23133850.9374   23133850.4164
       228.000         179.000
 125557459.91548  97836966.36848  23892802.8954   23892807.4204   23892803.3834
       221.000         172.000
 107770938.69548  83977344.94348  20508135.7664   20508138.4024   20508135.7204
       253.000         225.000
 135909440.80948  88111245.29748  23959776.3284   23959777.9944   23959776.4884
       220.000         173.000
 128243946.49348  99930331.17848  24404025.4274   24404027.8724   24404024.4034
       218.000         167.000
 129415179.38648 100842978.44348  24626902.7374   24626906.2014   24626903.5874
       206.000         158.000
 09  1  6  0 55  0.0000000  0  8G28G 9G18G10G26G17G12G27
 120288637.34248  93731395.55748  22890174.9344   22890176.7684   22890175.0244
       233.000         191.000
 113096380.35148  88127038.30648  21521533.9914   21521537.0744   21521534.1094
       239.000         206.000
 131501096.05548  84676175.10448  23120892.0244   23120893.8274   23120893.5474
       228.000         181.000
 125667516.78648  97922724.93348  23913746.0594   23913750.1214   23913746.7034
       223.000         169.000
 107812921.45548  84010058.75948  20516124.7144   20516127.4004   20516124.3194
       253.000         225.000
 135851419.57448  88066033.93548  23948735.0794   23948736.4284   23948735.3024
       221.000         175.000
 128130721.38048  99842103.79148  24382479.8384   24382481.2734   24382479.7154
       217.000         165.000
 129487810.79648 100899574.27648  24640724.8784   24640727.7694   24640724.2524
       212.000         159.000
 09  1  6  0 55 30.0000000  0  8G28G 9G18G10G26G17G12G27
 120360853.75648  93787668.08948  22903916.9004   22903919.0724   22903916.6654
       233.000         191.000
 113025444.04848  88071763.27648  21508035.4814   21508038.3714   21508035.7344
       238.000         205.000
 131433441.78148  84623457.51148  23108017.3814   23108019.4874   23108019.0314
       227.000         179.000
 125777650.19648  98008543.15548  23934703.7004   23934706.9714   23934705.3404
       221.000         166.000
 107855297.99548  84043079.43348  20524188.9144   20524191.3754   20524189.0584
       251.000         224.000
 135793730.72748  88021081.57848  23937756.8824   23937759.0134   23937756.8854
       218.000         173.000
 128017599.49648  99753956.91648  24360952.3804   24360954.4964   24360952.5864
       215.000         162.000
 129560437.33148 100956166.36148  24654544.9304   24654548.1634   24654545.7004
       212.000         159.000
 09  1  6  0 56  0.0000000  0  9G28G 9G15G18G10G26G17G12G27
 120433396.21448  93844194.67548  22917721.4204   22917723.3784   22917721.7554
       234.000         190.000
 112954777.03748  88016698.08648  21494587.6644   21494590.9264   21494587.5924
       240.000         206.000
  96912515.69658  93308447.94858  20344779.7345   20344781.1755   20344779.5215
       255.000         240.000
 131366226.46048  84571081.95148  23095226.6954   23095228.4154   23095227.2064
       231.000         182.000
 125887857.41448  98094418.92048  23955676.0944   23955679.1314   23955677.4884
       221.000         168.000
 107898068.84748  84076407.34648  20532327.6314   20532330.4954   20532327.0874
       254.000         225.000
 135736377.27648  87976390.59148  23926843.0554   23926844.4354   23926842.7834
       218.000         172.000
 127904583.74048  99665892.66048  24339446.9034   24339448.1554   24339446.9334
       216.000         163.000
 129633059.25748 101012754.86048  24668364.8654   24668367.4694   24668365.6124
       209.000         158.000
 09  1  6  0 56 30.0000000  0  9G28G 9G15G18G10G26G17G12G27
 120506262.36248  93900973.48648  22931587.3494   22931589.2774   22931587.8554
       234.000         190.000
 112884379.43348  87961842.81448  21481191.8174   21481194.6564   21481192.2934
       240.000         206.000
  96902836.13248  93300905.43648  20342937.7424   20342939.2624   20342937.4064
       255.000         240.000
 131299451.98548  84519049.88148  23082520.5904   23082521.8164   23082521.1194
       229.000         181.000
 125998135.89348  98180350.19148  23976660.5944   23976665.5644   23976661.8954
       217.000         168.000
 107941233.41448  84110042.06148  20540541.7794   20540544.4224   20540542.1304
       252.000         224.000
 135679361.62948  87931962.81648  23915993.3804   23915994.7434   23915992.5514
       221.000         175.000
 127791675.65248  99577912.33348  24317961.9044   24317962.3164   24317960.9474
       219.000         164.000
 129705676.23748 101069339.49948  24682182.8044   24682186.0914   24682183.3614
       208.000         157.000
 09  1  6  0 57  0.0000000  0  8G28G 9G18G10G26G17G12G27
 120579449.93748  93958002.75948  22945514.7934   22945516.2144   22945515.6554
       233.000         189.000
 112814251.95248  87907198.03448  21467846.8734   21467849.5804   21467847.0784
       240.000         206.000
 131233121.03348  84467363.44448  23069897.7624   23069899.9174   23069898.1434
       228.000         182.000
 126108482.89248  98266334.85348  23997659.0704   23997663.4804   23997659.8314
       221.000         167.000
 107984791.67548  84143983.53648  20548830.7404   20548833.3414   20548830.2874
       253.000         225.000
 135622686.73048  87887800.58748  23905208.1244   23905210.2194   23905208.1044
       221.000         174.000
 127678877.86348  99490017.94448  24296497.4394   24296498.2184   24296498.1444
       218.000         166.000
 129778288.19248 101125920.22248  24696000.4164   24696003.8234   24696000.4954
       210.000         159.000
 09  1  6  0 57 30.0000000  0  9G28G 9G15G18G10G26G17G12G27
 120652957.26048  94015281.18248  22959502.6134   22959504.3214   22959503.4284
       233.000         189.000
 112744395.50848  87852764.45448  21454553.7744   21454556.4234   21454553.6354
       240.000         207.000
 116884683.06858  73286760.18858  20339483.5135   20339484.9365   20339482.9235
       255.000         241.000
 131167235.32948  84416023.91248  23057359.6444   23057361.7954   23057359.0804
       226.000         180.000
 126218896.28848  98352371.25748  24018670.1414   24018673.7634   24018671.3224
       219.000         168.000
 108028743.88148  84178232.00048  20557194.4684   20557197.0874   20557194.7504
       252.000         224.000
 135566355.68748  87843906.26748  23894488.7894   23894490.5854   23894488.3834
       222.000         175.000
 127566193.10048  99402211.62948  24275054.2224   24275055.5314   24275054.7094
       219.000         170.000
 129850895.30048 101182497.19148  24709817.1154   24709820.1844   24709816.8084
       209.000         160.000
 09  1  6  0 58  0.0000000  0  9G28G 9G15G18G10G26G17G12G27
 120726781.63148  94072806.66148  22973550.9044   22973552.6314   22973551.2834
       233.000         188.000
 112674810.43748  87798542.34048  21441312.0064   21441315.0734   21441312.1524
       240.000         206.000
  96876209.66458  93280157.10358  20337871.1915   20337872.7255   20337871.1125
                       241.000
 131101797.24748  84365033.20848  23044907.6484   23044909.4344   23044907.7824
       229.000         181.000
 126329373.59948  98438457.45648  24039693.2974   24039697.3994   24039693.7464
       220.000         166.000
 108073089.39448  84212786.93748  20565633.1644   20565635.7724   20565632.7994
       253.000         225.000
 135510370.96748  87800281.78048  23883835.8704   23883837.3674   23883836.0204
       218.000         174.000
 127453623.58448  99314495.15948  24253632.2134   24253635.0874   24253631.9594
       214.000         167.000
 129923497.35748 101239070.20348  24723632.6864   24723636.4694   24723632.7274
       211.000         160.000
 09  1  6  0 58 30.0000000  0  9G28G 9G15G18G10G26G17G12G27
 120800920.74948  94130577.39948  22987659.3094   22987660.9424   22987660.0414
       232.000         188.000
 112605496.72548  87744531.67948  21428121.9954   21428125.0174   21428122.1004
       240.000         207.000
 116868146.83358  73273875.25158  20336336.4655   20336337.8425   20336336.2305
       255.000         241.000
 131036808.62548  84314392.73348  23032540.9264   23032542.7134   23032541.9504
       227.000         182.000
 126439911.56648  98524590.93148  24060727.9004   24060732.1114   24060728.7804
       218.000         165.000
 108117827.85148  84247648.05048  20574146.7044   20574149.3744   20574146.5734
       253.000         225.000
 135454734.60648  87756928.76248  23873247.9414   23873249.9264   23873247.4384
       222.000         176.000
 127341170.89148  99226869.73548  24232232.0354   24232235.9104   24232231.9904
       216.000         168.000
 129996093.79948 101295638.82048  24737448.0684   24737450.4644   24737448.6884
       215.000         162.000
 09  1  6  0 59  0.0000000  0  9G28G 9G15G18G10G26G17G12G27
 120875372.70348  94188591.90648  23001826.8624   23001829.0354   23001826.8404
       231.000         188.000
 112536455.43348  87690733.27948  21414984.1074   21414986.7534   21414984.4984
       241.000         208.000
  96860482.04158  93267901.80358  20334878.5115   20334880.0725   20334878.1585
       255.000         241.000
 130972272.01648  84264104.47948  23020259.5314   23020261.6604   23020260.1574
       228.000         181.000
 126550507.79748  98610769.77248  24081773.0624   24081777.3294   24081773.5344
       219.000         164.000
 108162959.03448  84282815.19348  20582735.1824   20582737.4274   20582735.2024
       253.000         225.000
 135399449.60348  87713849.54148  23862727.2934   23862729.5594   23862727.0984
       220.000         175.000
 127228838.11348  99139337.70748  24210857.3444   24210859.1084   24210857.1264
       219.000         168.000
 130068684.90048 101352203.28548  24751261.5364   24751264.4224   24751261.5244
       214.000         162.000
 09  1  6  0 59 30.0000000  0  8G28G 9G18G10G26G17G12G27
 120950135.03148  94246848.25148  23016053.5524   23016055.7474   23016053.5294
       231.000         187.000
 112467686.93348  87637147.45048  21401897.8704   21401900.5594   21401898.3764
       240.000         207.000
 130908189.31848  84214169.90648  23008065.4964   23008067.4044   23008066.2404
       231.000         184.000
 126661159.96948  98696992.27848  24102830.6504   24102833.4094   24102831.3284
       218.000         163.000
 108208482.85248  84318288.28148  20591397.8894   20591400.5504   20591397.7284
       253.000         225.000
 135344518.37548  87671046.02248  23852275.0024   23852277.1604   23852274.7564
       223.000         176.000
 127116626.86348  99051900.39848  24189503.9604   24189505.2644   24189504.7614
       216.000         163.000
 130141270.16648 101408763.23448  24765073.6404   24765076.7804   24765073.9744
       210.000         162.000
 09  1  6  1  0  0.0000000  0  8G28G 9G18G10G26G17G12G27
 121025204.95448  94305344.28648  23030339.0684   23030340.9954   23030339.0974
       231.000         188.000
 112399191.50948  87583774.41548  21388863.3134   21388866.4474   21388863.3364
       239.000         207.000
 130844562.31148  84164590.42648  22995957.8844   22995959.5194   22995958.6604
       230.000         183.000
 126771864.99348  98783255.92748  24123896.1524   24123900.8844   24123897.0124
       216.000         164.000
 108254398.68348  84354066.85048  20600135.2904   20600137.8234   20600135.1064
       253.000         224.000
 135289943.33748  87628519.99448  23841889.0284   23841891.8184   23841889.3234
       219.000         175.000
 127004539.12848  98964559.32948  24168173.7084   24168175.5134   24168174.3254
       219.000         167.000
 130213849.18348 101465318.30048  24778884.5304   24778887.8084   24778884.8494
       214.000         162.000
 09  1  6  1  0 30.0000000  0  9G28G 9G15G18G10G26G17G12G27
 121100581.28148  94364079.08048  23044682.7264   23044684.4134   23044683.1244
       232.000         186.000
 112330970.36248  87530615.09948  21375881.2174   21375884.3124   21375881.1164
       239.000         208.000
 116839948.45058  73251902.26458  20330970.5055   20330971.9285   20330970.1465
       255.000         241.000
 130781393.70848  84115368.14448  22983937.0804   22983938.5444   22983937.9334
       228.000         182.000
 126882620.62248  98869559.01148  24144971.9394   24144976.9804   24144972.3254
       216.000         165.000
 108300706.66648  84390150.97348  20608947.4984   20608949.9194   20608947.4974
       253.000         225.000
 135235727.67948  87586274.01748  23831573.0544   23831574.9564   23831572.5374
       222.000         176.000
 126892577.85048  98877316.80048  24146869.0494   24146870.4944   24146868.2384
       218.000         171.000
 130286422.25048 101521868.71148  24792695.3544   24792698.8534   24792695.8754
       213.000         166.000
 09  1  6  1  1  0.0000000  0  9G 5G28G 9G18G10G26G17G12G27
 143620380.28658  94119760.89658  25427124.5935   25427128.5485   25427123.1585
       200.000         140.000
 121176261.73548  94423050.85648  23059084.0274   23059085.9414   23059084.4234
       231.000         186.000
 112263023.96948  87477669.86648  21362951.4994   21362954.4614   21362952.1194
       240.000         207.000
 130718685.59048  84066504.66348  22972004.4084   22972005.5464   22972004.4854
       232.000         183.000
 126993424.52448  98955899.72848  24166058.0644   24166061.9434   24166058.7564
       217.000         164.000
 108347406.84248  84426540.70848  20617834.3004   20617836.9844   20617834.3364
       253.000         225.000
 135181874.10848  87544310.21348  23821324.2544   23821326.3714   23821323.8634
       221.000         175.000
 126780745.48448  98790174.71048  24125588.0224   24125589.7974   24125587.5294
       218.000         167.000
 130358989.57148 101578414.65848  24806504.8284   24806507.8594   24806504.5894
       211.000         163.000
 09  1  6  1  1 30.0000000  0 10G 5G28G 9G15G18G10G26G17G12G27
 143503981.08548  94029060.22748  25404975.7564   25404977.9714   25404976.1484
       203.000         141.000
 121252243.45148  94482257.37448  23073542.7834   23073544.6684   23073542.7834
       231.000         185.000
 112195352.60048  87424938.94248  21350074.1084   21350076.7784   21350074.6034
       240.000         208.000
  96828308.29658  93242832.21758  20328755.3265   20328756.6295   20328754.8315
       254.000         241.000
 130656439.73848  84018001.42548  22960159.4084   22960160.8144   22960161.1804
       232.000         184.000
 127104274.04048  99042275.92948  24187150.4984   24187156.4594   24187150.8194
       215.000         162.000
 108394498.40848  84463235.43248  20626795.5194   20626798.0544   20626795.3674
       253.000         224.000
 135128384.68548  87502630.15748  23811145.5134   23811147.5024   23811144.9124
       222.000         175.000
 126669043.80148  98703134.42848  24104331.9284   24104333.4244   24104331.6514
       219.000         169.000
 130431550.52048 101634955.62448  24820312.3524   24820315.8774   24820312.4654
       214.000         163.000
 09  1  6  1  2  0.0000000  0 10G 5G28G 9G15G18G10G26G17G12G27
 143387609.99948  93938381.46648  25382831.2524   25382833.3194   25382832.6904
       204.000         143.000
 121328524.18748  94541696.90048  23088058.6404   23088060.4594   23088059.2304
       230.000         184.000
 112127956.65648  87372422.63248  21337249.0604   21337251.7874   21337249.3114
       241.000         208.000
  96823105.20148  93238777.85748  20327765.2044   20327766.5724   20327765.0964
       254.000         241.000
 130594657.98548  83969859.79148  22948402.3434   22948404.0214   22948403.7834
       231.000         183.000
 127215166.27548  99128685.43548  24208253.3944   24208258.2454   24208253.3684
       217.000         165.000
 108441980.65648  84500234.57048  20635831.0744   20635833.5704   20635831.0164
       252.000         224.000
 135075261.95548  87461235.84048  23801037.2084   23801038.8754   23801037.9414
       222.000         174.000
 126557474.89748  98616197.63848  24083100.9534   24083102.9774   24083101.2254
       217.000         170.000
 130504104.92448 101691491.53948  24834119.5674   24834122.4204   24834120.4454
       215.000         166.000
 09  1  6  1  2 30.0000000  0 10G 5G28G 9G15G18G10G26G17G12G27
 143271268.97948  93847726.13448  25360691.8274   25360695.6604   25360693.5164
       205.000         142.000
 121405101.56748  94601367.58348  23102630.9014   23102632.7994   23102631.1694
       230.000         185.000
 112060836.50048  87320121.22848  21324476.2734   21324479.4794   21324476.4204
       240.000         209.000
  96818315.25948  93235045.43248  20326853.8314   20326855.1114   20326853.5144
       254.000         241.000
 130533342.09248  83922081.17648  22936734.3264   22936735.9644   22936735.9984
       230.000         182.000
 127326098.53848  99215126.16448  24229364.1704   24229367.3804   24229364.1634
       221.000         163.000
 108489853.46448  84537538.05248  20644940.7474   20644943.4164   20644940.6004
       251.000         224.000
 135022508.33948  87420129.12448  23790997.8984   23791000.2414   23790998.2734
       219.000         176.000
 126446041.08148  98529366.15248  24061894.9844   24061897.5024   24061895.8294
       220.000         169.000
 130576652.58648 101748022.15648  24847925.0044   24847928.3084   24847925.0194
       218.000         165.000
 09  1  6  1  3  0.0000000  0 10G 5G28G 9G15G18G10G26G17G12G27
 143154960.82448  93757096.34948  25338559.7434   25338563.2524   25338562.9144
       202.000         142.000
 121481974.02248  94661268.17848  23117259.3904   23117260.9494   23117259.7264
       230.000         184.000
 111993993.30248  87268035.63148  21311756.8784   21311759.4584   21311756.8764
       241.000         208.000
  96813940.12448  93231636.23348  20326021.2674   20326022.5694   20326021.0284
       255.000         241.000
 130472494.98148  83874667.83948  22925155.3274   22925157.2924   22925155.7244
       230.000         184.000
 127437068.97748  99301596.65248  24250480.5714   24250484.6634   24250481.4924
       215.000         158.000
 108538117.34448  84575146.25748  20654125.0914   20654127.7014   20654124.9514
       251.000         224.000
 134970126.85048  87379312.40348  23781030.3394   23781032.4124   23781030.4304
       221.000         177.000
 126334745.14948  98442642.06248  24040716.8724   24040718.1434   24040716.1084
       221.000         170.000
 130649194.00648 101804547.92648  24861728.5434   24861732.0194   24861729.2554
       217.000         167.000
 09  1  6  1  3 30.0000000  0 10G 5G28G 9G15G18G10G26G17G12G27
 143038687.39448  93666493.66948  25316432.5034   25316437.6934   25316433.7044
       195.000         142.000
 121559139.61648  94721397.20748  23131943.5704   23131944.8544   23131944.4424
       230.000         184.000
 111927427.77648  87216166.39348  21299089.6104   21299092.0774   21299089.1804
       241.000         208.000
  96809980.97348  93228551.17948  20325267.8404   20325269.2094   20325267.6694
       254.000         241.000
 130412118.93448  83827621.56448  22913666.2834   22913667.9994   22913666.0334
       231.000         183.000
 127548075.03448  99388094.85948  24271604.2454   24271608.1774   24271604.6404
       217.000         161.000
 108586771.83548  84613058.82948  20663383.9114   20663386.3934   20663383.7164
       251.000         224.000
 134918120.52548  87338788.02248  23771133.3274   23771136.3174   23771133.9074
       223.000         178.000
 126223589.40148  98356027.21648  24019564.1434   24019566.1024   24019563.3854
       220.000         169.000
 130721729.26448 101861068.89448  24875531.6164   24875535.3994   24875531.4714
       215.000         167.000
 09  1  6  1  4  0.0000000  0 10G 5G28G 9G15G18G10G26G17G12G27
 142922450.67348  93575919.61748  25294312.0204   25294318.7184   25294311.4724
       199.000         143.000
 121636595.57348  94781752.50148  23146682.8424   23146684.5464   23146683.6244
       228.000         183.000
 111861140.21748  87164513.77148  21286475.4484   21286478.3244   21286475.0924
       241.000         209.000
  96806438.32148  93225790.66248  20324593.7574   20324595.0824   20324593.5974
       255.000         241.000
 130352215.69048  83780943.71948  22902267.2004   22902268.9144   22902267.8064
       230.000         184.000
 127659114.17948  99474618.89848  24292734.6504   24292738.3074   24292734.7614
       217.000         160.000
 108635816.28248  84651275.28048  20672716.6554   20672719.2824   20672716.6474
       251.000         223.000
 134866491.44248  87298557.55348  23761309.5144   23761310.6194   23761309.6614
       224.000         179.000
 126112575.87548  98269523.19448  23998438.3074   23998441.3864   23998438.8384
       218.000         167.000
 130794258.11448 101917584.86548  24889333.5594   24889336.7984   24889333.8584
       215.000         166.000
 09  1  6  1  4 30.0000000  0 10G 5G28G 9G15G18G10G26G17G12G27
 142806252.20948  93485375.30548  25272202.8944   25272206.7204   25272202.0344
       200.000         145.000
 121714339.74548  94842332.36448  23161477.0264   23161478.4514   23161477.0794
       228.000         182.000
 111795130.94648  87113077.96148  21273914.6814   21273917.1524   21273914.8674
       242.000         209.000
  96803312.95748  93223355.31748  20323998.9154   20324000.3134   20323998.7474
       254.000         241.000
 130292786.62548  83734635.36248  22890958.6964   22890960.1134   22890959.2544
       231.000         185.000
 127770182.87348  99561165.90848  24313870.0564   24313874.6094   24313870.7054
       219.000         164.000
 108685250.39348  84689795.36548  20682123.5724   20682126.2934   20682123.5884
       250.000         223.000
 134815241.83848  87258622.78848  23751556.6234   23751558.4854   23751556.6934
       222.000         178.000
 126001706.64548  98183131.56648  23977340.6574   23977343.3854   23977340.7474
       219.000         168.000
 130866779.96448 101974095.36248  24903134.1404   24903137.2024   24903134.9694
       218.000         165.000
 09  1  6  1  5  0.0000000  0 10G 5G28G 9G15G18G10G26G17G12G27
 142690093.53348  93394862.04248  25250099.0304   25250101.2524   25250098.8044
       202.000         147.000
 121792369.09748  94903134.45648  23176325.6074   23176327.2674   23176325.8444
       229.000         183.000
 111729400.03048  87061859.08848  21261406.4674   21261408.7954   21261406.8354
       241.000         209.000
  96800605.76048  93221245.81248  20323483.6684   20323485.1394   20323483.2554
       254.000         241.000
 130233833.47948  83688697.84248  22879739.8484   22879741.2804   22879741.0284
       231.000         184.000
 127881278.66948  99647734.03848  24335011.3424   24335015.2034   24335011.9604
       218.000         164.000
 108735073.20248  84728618.32748  20691604.6334   20691607.2594   20691604.4724
       251.000         223.000
 134764373.78048  87218985.34848  23741876.9884   23741878.9344   23741876.3014
       223.000         180.000
 125890983.45548  98096853.77248  23956271.0894   23956273.2564   23956270.6034
       222.000         172.000
 130939294.45148 102030600.14848  24916933.2564   24916936.1364   24916934.3874
       216.000         164.000
 09  1  6  1  5 30.0000000  0 10G 5G28G 9G15G18G10G26G17G12G27
 142573977.19248  93304381.80648  25228003.7924   25228005.9394   25228005.5994
       207.000         148.000
 121870681.76348  94964157.29948  23191227.8264   23191229.3254   23191229.0804
       229.000         181.000
 111663948.77948  87010858.13148  21248951.2644   21248953.9714   21248951.7284
       242.000         209.000
  96798317.92648  93219463.08848  20323048.3484   20323049.7494   20323048.0774
       254.000         241.000
 130175358.79948  83643133.17048  22868612.5704   22868614.2594   22868612.9494
       231.000         185.000
 127992399.61348  99734321.76248  24356157.6524   24356159.5994   24356158.7644
       218.000         161.000
 108785284.80548  84767744.24148  20701159.5624   20701162.1884   20701159.4214
       251.000         223.000
 134713890.26448  87179647.53548  23732270.2244   23732272.0264   23732270.7974
       222.000         180.000
 125780409.07948  98010691.92748  23935230.5964   23935231.9054   23935230.5674
       223.000         175.000
 131011802.01548 102087099.52048  24930730.3964   24930733.8464   24930731.8544
       217.000         164.000
 09  1  6  1  6  0.0000000  0 10G 5G28G 9G15G18G10G26G17G12G27
 142457904.45348  93213935.55048  25205915.2844   25205918.1744   25205916.7874
       202.000         148.000
 121949275.16048  95025398.90548  23206183.9634   23206185.2194   23206185.0864
       229.000         181.000
 111598776.78248  86960074.77048  21236549.5994   21236552.0804   21236550.3544
       242.000         209.000
  96796449.58248  93218007.23448  20322692.7724   20322694.2664   20322692.4754
       254.000         241.000
 130117363.87248  83597942.31548  22857576.3244   22857577.9924   22857576.8924
       230.000         184.000
 128103542.33448  99820926.49348  24377306.6604   24377309.1594   24377308.1514
       215.000         156.000
 108835884.34648  84807172.44448  20710788.3934   20710790.9694   20710788.4564
       251.000         223.000
 134663793.29948  87140610.95048  23722737.0824   23722739.1784   23722736.5084
       223.000         180.000
 125669985.35948  97924647.49248  23914217.3284   23914218.5784   23914216.9874
       222.000         173.000
 131084301.76048 102143592.80548  24944526.8774   24944530.3054   24944527.5894
       215.000         166.000
 09  1  6  1  6 30.0000000  0 10G 5G28G 9G15G18G10G26G17G12G27
 142341878.22448  93123525.52548  25183834.5034   25183839.0184   25183835.6564
       205.000         146.000
 122028147.91548  95086858.19648  23221192.7344   23221194.4344   23221192.8484
       226.000         181.000
 111533885.20348  86909509.91348  21224200.9824   21224203.4964   21224201.4384
       242.000         210.000
  96795003.22048  93216880.19848  20322417.4754   20322419.0604   20322417.2104
       254.000         241.000
 130059851.84848  83553127.77448  22846632.2944   22846633.8574   22846632.7564
       230.000         183.000
 128214705.27648  99907547.00948  24398458.5094   24398462.6524   24398458.8244
       211.000         154.000
 108886872.24148  84846903.25648  20720491.0344   20720493.6834   20720490.8844
       250.000         223.000
 134614086.00248  87101878.00148  23713278.2074   23713280.1114   23713277.4064
       224.000         180.000
 125559715.09448  97838722.60548  23893232.9874   23893234.0874   23893233.5594
       222.000         173.000
 131156794.60148 102200080.74548  24958321.4994   24958325.4204   24958322.0434
       215.000         166.000
 09  1  6  1  7  0.0000000  0 10G 5G28G 9G15G18G10G26G17G12G27
 142225901.50248  93033154.04148  25161764.5764   25161769.4484   25161767.2594
       205.000         147.000
 122107298.67448  95148534.10048  23236254.4794   23236256.3424   23236255.3524
       228.000         181.000
 111469275.88648  86859165.00348  21211906.3714   21211908.8194   21211906.8774
       242.000         210.000
  96793980.53948  93216083.29648  20322222.9634   20322224.4364   20322222.6584
       255.000         241.000
 130002825.08048  83508691.32448  22835780.3594   22835781.6694   22835780.9644
       229.000         183.000
 128325886.95548  99994182.06348  24419615.6554   24419620.6444   24419616.1194
       213.000         157.000
 108938249.09648  84886937.15548  20730267.9004   20730270.4714   20730267.7594
       250.000         223.000
 134564771.90748  87063451.43448  23703893.5214   23703895.6164   23703892.8384
       223.000         178.000
 125449601.45848  97752919.77448  23872279.0724   23872280.7304   23872278.8794
       221.000         174.000
 131229281.56448 102256564.05448  24972116.0564   24972119.0044   24972115.6964
       217.000         166.000
 09  1  6  1  7 30.0000000  0 10G 5G28G 9G15G18G10G26G17G12G27
 142109975.02348  92942821.75748  25139704.3024   25139709.6094   25139706.6334
       208.000         146.000
 122186723.98548  95210423.95048  23251368.5174   23251370.7664   23251369.7764
       228.000         182.000
 111404948.16248  86809039.51548  21199665.1134   21199667.7874   21199665.3914
       242.000         210.000
  96793381.19448  93215616.26848  20322108.9304   20322110.3714   20322108.9854
       254.000         241.000
 129946284.40248  83464633.66048  22825020.4914   22825022.4704   22825021.1954
       231.000         182.000
 128437083.56048 100080828.73448  24440776.3944   24440781.7114   24440777.6154
       218.000         164.000
 108990013.17548  84927272.78648  20740118.3074   20740120.7414   20740118.4184
       251.000         223.000
 134515852.27548  87025332.23648  23694584.8874   23694586.2374   23694584.4454
       225.000         177.000
 125339645.76548  97667240.02948  23851355.1924   23851357.6854   23851355.2544
       223.000         176.000
 131301761.32248 102313041.78148  24985908.0274   24985911.1174   24985908.1174
       217.000         166.000
 09  1  6  1  8  0.0000000  0 10G 5G28G 9G15G18G10G26G17G12G27
 141994100.24648  92852529.72148  25117655.6614   25117659.4824   25117658.2234
       200.000         146.000
 122266420.87748  95272525.42348  23266534.4934   23266536.6904   23266535.3244
       228.000         181.000
 111340902.02148  86759133.44648  21187477.6114   21187480.1124   21187477.9884
       243.000         210.000
  96793205.44648  93215479.31848  20322075.4854   20322076.9174   20322075.2404
       254.000         241.000
 129890231.19448  83420955.84648  22814354.2314   22814355.6424   22814354.4524
       230.000         184.000
 128548291.51548 100167484.27448  24461939.8654   24461944.3254   24461940.6004
       217.000         161.000
 109042163.69448  84967909.54248  20750042.1774   20750044.6594   20750042.2604
       251.000         223.000
 134467328.91348  86987521.80648  23685351.3044   23685352.9234   23685350.6264
       226.000         179.000
 125229849.68648  97581684.65248  23830462.0314   23830464.7894   23830463.0864
       222.000         176.000
 131374233.18748 102369513.33648  24999699.1384   24999702.3494   24999699.4664
       218.000         166.000
 09  1  6  1  8 30.0000000  0 10G 5G28G 9G15G18G10G26G17G12G27
 141878279.83248  92762280.07248  25095614.8304   25095619.0624   25095615.0704
       208.000         146.000
 122346388.09948  95334837.54048  23281751.9564   23281753.9934   23281753.3384
       229.000         180.000
 111277138.42848  86709447.54748  21175343.5284   21175346.4874   21175344.3814
       241.000         210.000
  96793455.18648  93215673.91848  20322123.0844   20322124.4884   20322122.8804
       255.000         241.000
 129834668.12848  83377659.95548  22803781.0074   22803782.0924   22803781.1194
       231.000         183.000
 128659509.72048 100254147.79448  24483104.3694   24483107.5364   24483105.9224
       215.000         156.000
 109094700.95348  85008847.65248  20760039.7604   20760042.3664   20760039.6714
       250.000         223.000
 134419205.02648  86950022.69148  23676193.3294   23676195.5514   23676193.0924
       224.000         179.000
 125120215.98548  97496255.80848  23809599.3914   23809601.9204   23809598.9234
       221.000         177.000
 131446697.72448 102425979.19048  25013488.6624   25013492.3184   25013488.8734
       218.000         165.000
 09  1  6  1  9  0.0000000  0 10G 5G28G 9G15G18G10G26G17G12G27
 141762515.72048  92672074.26848  25073586.3834   25073590.5914   25073590.9114
       208.000         147.000
 122426623.25848  95397358.43948  23297020.1624   23297022.3384   23297020.7904
       226.000         181.000
 111213657.86448  86659982.18048  21163263.3224   21163266.4294   21163263.7394
       242.000         211.000
  96794131.15648  93216200.64048  20322251.7224   20322253.0944   20322251.5184
       254.000         241.000
 129779597.08348  83334747.45648  22793301.1554   22793302.8134   22793302.0124
       230.000         183.000
 128770735.26948 100340817.05548  24504268.6494   24504272.3294   24504270.3344
       213.000         154.000
 109147624.29848  85050086.61248  20770110.5264   20770113.4124   20770110.3684
       250.000         223.000
 134371482.82848  86912836.58348  23667111.8934   23667114.0144   23667111.7824
       227.000         180.000
 125010746.83448  97410955.18848  23788768.0914   23788770.3494   23788767.6214
       222.000         177.000
 131519155.07248 102482439.47648  25027276.7724   25027280.3094   25027277.3404
       216.000         164.000
 09  1  6  1  9 30.0000000  0 10G 5G28G 9G15G18G10G26G17G12G27
 141646810.34748  92581914.28448  25051567.8094   25051571.5844   25051570.4194
       206.000         149.000
 122507124.40248  95460086.59248  23312339.2474   23312340.8334   23312339.0404
       227.000         180.000
 111150461.50648  86610738.26848  21151238.0034   21151240.5474   21151237.6354
       242.000         211.000
  96795234.74448  93217060.57548  20322461.5894   20322463.1304   20322461.2714
       254.000         241.000
 129725020.14148  83292219.97448  22782915.3134   22782917.3954   22782915.8494
       231.000         186.000
 128881966.11048 100427490.44248  24525435.0614   24525438.8444   24525436.5594
       214.000         154.000
 109200933.88848  85091626.54848  20780255.0444   20780257.6584   20780255.0034
       251.000         222.000
 134324165.35348  86875965.80848  23658108.0774   23658110.0964   23658107.7804
       227.000         180.000
 124901445.05948  97325785.00248  23767968.4884   23767970.6714   23767969.3664
       223.000         176.000
 131591605.41548 102538894.25348  25041063.6764   25041066.9614   25041064.6744
       219.000         165.000
 09  1  6  1 10  0.0000000  0 10G 5G28G 9G15G18G10G26G17G12G27
 141531165.22048  92491801.19948  25029560.7774   25029566.4034   25029561.1094
       211.000         151.000
 122587889.07748  95523020.10248  23327708.2614   23327709.7764   23327708.3684
       227.000         179.000
 111087549.31448  86561715.79448  21139266.0934   21139268.6034   21139266.0094
       242.000         211.000
  96796766.26248  93218253.96148  20322753.0854   20322754.6224   20322752.8384
       254.000         241.000
 129670939.07748  83250078.89248  22772624.4384   22772626.3584   22772624.5574
       232.000         188.000
 128993199.34148 100514165.67548  24546601.8044   24546606.4614   24546603.2444
       211.000         151.000
 109254628.82748  85133466.75248  20790473.0144   20790475.5124   20790473.0004
       250.000         222.000
 134277254.43148  86839411.83548  23649181.4394   23649183.0874   23649181.1664
       226.000         180.000
 124792312.34048  97240746.51748  23747201.3504   23747203.1344   23747201.4854
       222.000         178.000
 131664048.38748 102595343.34248  25054849.7164   25054853.0364   25054850.8764
       220.000         165.000
 09  1  6  1 10 30.0000000  0 10G 5G28G 9G15G18G10G26G17G12G27
 141415582.10148  92401736.38848  25007567.6684   25007570.9174   25007567.5824
       209.000         153.000
 122668914.53448  95586156.81548  23343126.9484   23343128.2214   23343127.4634
       226.000         177.000
 111024921.70148  86512915.06348  21127348.5284   21127351.0314   21127348.5354
       243.000         212.000
  96798726.61748  93219781.50448  20323126.0984   20323127.5214   20323125.8204
       255.000         241.000
 129617355.23648  83208325.24948  22762427.8564   22762429.5304   22762429.0024
       233.000         187.000
 129104432.54848 100600840.92048  24567769.9804   24567772.9884   24567770.0324
       212.000         153.000
 109308708.52948  85175606.76448  20800763.9714   20800766.6044   20800763.9624
       249.000         222.000
 134230751.90548  86803176.12748  23640332.3154   23640333.3844   23640331.9794
       227.000         180.000
 124683350.65148  97155841.33648  23726466.4204   23726468.4654   23726466.4074
       223.000         177.000
 131736484.11048 102651786.71048  25068633.0154   25068636.4084   25068633.9664
       220.000         164.000
 09  1  6  1 11  0.0000000  0 10G 5G28G 9G15G18G10G26G17G12G27
 141300063.17148  92311721.68848  24985584.1054   24985588.1994   24985583.9914
       211.000         155.000
 122750198.95848  95649495.31748  23358594.5604   23358596.2134   23358595.1654
       226.000         178.000
 110962579.22448  86464336.53748  21115484.6444   21115487.8394   21115484.9714
       242.000         211.000
  96801116.88548  93221644.04448  20323580.9764   20323582.3964   20323580.7074
       254.000         241.000
 129564270.37648  83166960.44048  22752326.0034   22752327.8274   22752327.0364
       232.000         187.000
 129215663.02548 100687514.01548  24588935.8364   24588940.1864   24588935.5554
       213.000         156.000
 109363172.56848  85218046.26248  20811128.1284   20811130.6514   20811127.9444
       250.000         222.000
 134184660.60948  86767260.82748  23631560.8894   23631563.0694   23631560.4914
       228.000         182.000
 124574562.59948  97071071.41448  23705764.4594   23705766.7194   23705764.6994
       224.000         178.000
 131808912.38348 102708224.31048  25082416.0604   25082419.0414   25082416.2994
       217.000         164.000
 09  1  6  1 11 30.0000000  0 10G 5G28G 9G15G18G10G26G17G12G27
 141184610.93348  92221758.93248  24963614.4044   24963618.6844   24963614.3614
       212.000         157.000
 122831740.59248  95713034.25548  23374111.5054   23374112.8684   23374111.3384
       226.000         179.000
 110900523.00348  86415981.04248  21103675.9114   21103678.6844   21103675.7904
       243.000         211.000
  96803938.40648  93223842.62948  20324118.0004   20324119.4104   20324117.7084
       254.000         241.000
 129511686.96748  83125986.35648  22742319.7694   22742321.6764   22742320.1454
       230.000         186.000
 129326888.65948 100774183.33748  24610101.5514   24610105.2284   24610101.9714
       213.000         157.000
 109418020.93648  85260785.23848  20821565.4244   20821567.9844   20821565.3524
       250.000         222.000
 134138983.37248  86731668.18448  23622869.4224   23622871.0244   23622869.6904
       229.000         182.000
 124465950.53148  96986438.64648  23685096.5904   23685098.1134   23685096.2734
       227.000         178.000
 131881333.66848 102764656.46448  25096197.1304   25096200.5064   25096197.2314
       219.000         165.000
 09  1  6  1 12  0.0000000  0 10G 5G28G 9G15G18G10G26G17G12G27
 141069226.79348  92131849.21248  24941657.6004   24941661.8914   24941657.8854
       214.000         157.000
 122913536.51348  95776771.32448  23389676.7194   23389678.3324   23389676.8444
       224.000         176.000
 110838752.77848  86367848.40248  21091921.4294   21091924.2294   21091921.7304
       243.000         212.000
  96807191.35248  93226377.38548  20324737.0824   20324738.3944   20324736.7754
       255.000         241.000
 129459606.14148  83085403.89748  22732408.9564   22732410.7304   22732409.5024
       231.000         188.000
 129438106.66248 100860846.67148  24631264.9124   24631270.1424   24631266.1734
       207.000         153.000
 109473252.73148  85303822.99348  20832075.6134   20832078.3644   20832075.5814
       250.000         221.000
 134093722.02948  86696399.62248  23614256.3184   23614257.7354   23614256.4654
       228.000         182.000
 124357516.30248  96901944.43948  23664462.8044   23664463.8264   23664463.0344
       228.000         178.000
 131953747.24648 102821082.64848  25109976.4694   25109980.4984   25109976.8674
       219.000         163.000
 09  1  6  1 12 30.0000000  0 10G 5G28G 9G15G18G10G26G17G12G27
 140953912.65748  92041994.05848  24919715.2754   24919718.3424   24919715.5794
       214.000         157.000
 122995584.22848  95840704.60548  23405289.5694   23405291.2434   23405289.8684
       225.000         174.000
 110777269.13348  86319939.06748  21080221.7824   21080224.3964   21080221.8264
       243.000         212.000
  96810876.50448  93229248.93348  20325438.2394   20325439.6474   20325438.0314
       254.000         241.000
 129408029.78348  83045214.54548  22722594.3154   22722596.3374   22722594.4434
       233.000         188.000
 129549314.73048 100947502.27548  24652427.1344   24652432.1074   24652427.8434
       213.000         153.000
 109528867.31448  85347159.02348  20842658.7874   20842661.5254   20842658.8354
       249.000         221.000
 134048878.72348  86661456.80148  23605722.9774   23605724.6774   23605723.2244
       228.000         182.000
 124249262.10148  96817590.53848  23643863.3264   23643864.1454   23643863.4694
       227.000         179.000
 132026153.20348 102877502.84048  25123755.5884   25123759.0324   25123756.5824
       220.000         165.000
 09  1  6  1 13  0.0000000  0 10G 5G28G 9G15G18G10G26G17G12G27
 140838670.23348  91952194.83148  24897784.3734   24897788.4484   24897784.9434
       213.000         157.000
 123077881.55448  95904832.38748  23420950.3924   23420952.0114   23420951.0054
       226.000         176.000
 110716072.31248  86272253.24548  21068576.0494   21068578.9434   21068576.5174
       244.000         213.000
  96814994.10548  93232457.44748  20326221.7454   20326223.2114   20326221.5104
       254.000         241.000
 129356959.21748  83005419.31748  22712875.8134   22712877.7674   22712876.9764
       232.000         186.000
 129660509.71448 101034147.75648  24673587.4574   24673591.6654   24673588.1074
       214.000         151.000
 109584863.87848  85390792.69548  20853314.5744   20853317.1814   20853314.5834
       248.000         221.000
 134004455.70148  86626841.46848  23597268.9784   23597271.2124   23597269.4694
       229.000         181.000
 124141189.90548  96733378.43748  23623297.8814   23623299.1174   23623297.6884
       226.000         178.000
 132098551.34648 102933916.93948  25137532.8234   25137535.0174   25137533.6594
       221.000         165.000
 09  1  6  1 13 30.0000000  0 10G 5G28G 9G15G18G10G26G17G12G27
 140723501.34148  91862452.84848  24875868.2384   24875872.1774   24875869.5314
       213.000         155.000
 123160425.82448  95969152.59248  23436657.9614   23436659.9174   23436658.9804
       227.000         177.000
 110655162.70948  86224791.22348  21056985.6474   21056988.4784   21056986.1094
       244.000         214.000
  96819545.63948  93236004.09548  20327087.9764   20327089.3484   20327087.7404
       254.000         241.000
 129306395.98548  82966019.39548  22703253.4034   22703255.6634   22703254.5974
       230.000         187.000
 129771688.68848 101120780.74448  24694743.8804   24694747.3424   24694744.4844
       210.000         151.000
 109641241.75848  85434723.47748  20864042.9644   20864045.6614   20864042.6064
       247.000         221.000
 133960454.69248  86592554.99248  23588895.8544   23588897.8064   23588896.1564
       228.000         182.000
 124033301.66048  96649309.69248  23602766.1864   23602768.2984   23602766.3624
       224.000         178.000
 132170941.18248 102990324.58848  25151308.0124   25151311.3904   25151308.7824
       219.000         164.000
 09  1  6  1 14  0.0000000  0 10G 5G28G 9G15G18G10G26G17G12G27
 140608407.02848  91772769.00748  24853965.7594   24853969.6244   24853965.8354
       213.000         154.000
 123243213.91748  96033662.79948  23452412.0054   23452414.1214   23452412.9114
       226.000         177.000
 110594539.94548  86177552.70648  21045449.3464   21045452.2954   21045449.1364
       244.000         214.000
  96824530.85548  93239888.67848  20328036.4484   20328038.0004   20328036.0794
       254.000         241.000
 129256340.90248  82927015.43048  22693728.5894   22693730.7874   22693728.4554
       230.000         187.000
 129882848.68048 101207398.88348  24715896.3584   24715900.3384   24715897.1464
       207.000         151.000
 109697999.63448  85478950.39348  20874843.4644   20874846.3804   20874842.9944
       249.000         221.000
 133916877.21048  86558598.51448  23580603.5644   23580605.6204   23580604.1294
       227.000         181.000
 123925598.63248  96565385.24948  23582270.5424   23582273.3704   23582270.4964
       223.000         178.000
 132243322.10348 103046725.31348  25165081.5324   25165085.0414   25165081.7224
       218.000         165.000
 09  1  6  1 14 30.0000000  0 10G 5G28G 9G15G18G10G26G17G12G27
 140493392.60048  91683147.38948  24832079.6974   24832082.7384   24832079.7194
       214.000         156.000
 123326247.02048  96098363.91348  23468212.5474   23468214.9584   23468213.0774
       227.000         177.000
 110534207.73848  86130540.61348  21033968.6334   21033971.3784   21033968.6604
       244.000         214.000
  96829953.28748  93244113.94948  20329068.3644   20329069.8594   20329068.1734
       254.000         241.000
 129206799.31148  82888411.59848  22684301.1524   22684303.2464   22684301.4184
       232.000         188.000
 129993990.19948 101294002.66248  24737046.1914   24737049.9414   24737046.3864
       208.000         155.000
 109755140.23148  85523475.53648  20885717.1514   20885719.7974   20885717.1964
       250.000         221.000
 133873728.54948  86524976.18848  23572392.7794   23572394.5634   23572392.1684
       227.000         181.000
 123818086.03648  96481609.20248  23561811.1804   23561814.1774   23561810.3694
       225.000         178.000
 132315697.24748 103103121.50948  25178853.5684   25178857.7774   25178853.1484
       219.000         163.000
 09  1  6  1 15  0.0000000  0 10G 5G28G 9G15G18G10G26G17G12G27
 140378458.72448  91593588.51748  24810209.7044   24810211.4614   24810210.7304
       214.000         157.000
 123409521.52948  96163253.12048  23484059.2204   23484061.3594   23484060.0824
       225.000         175.000
 110474165.07048  86083754.12948  21022542.8674   21022545.6294   21022543.2044
       245.000         214.000
  96835812.88548  93248679.86948  20330183.4774   20330184.8834   20330183.2814
       254.000         241.000
 129157771.11648  82850207.81348  22674971.4724   22674973.2484   22674972.3914
       231.000         188.000
 130105109.53148 101380589.14048  24758192.1304   24758195.9344   24758193.0584
       210.000         154.000
 109812661.69648  85568297.45148  20896662.9804   20896665.9684   20896662.8734
       248.000         220.000
 133831010.02848  86491689.06248  23564263.2214   23564265.3104   23564262.8054
       228.000         182.000
 123710765.11948  96397982.52148  23541388.9294   23541391.2974   23541389.0644
       226.000         179.000
 132388065.39148 103159512.23948  25192624.9984   25192628.6304   25192625.5734
       218.000         163.000
 09  1  6  1 15 30.0000000  0 10G 5G28G 9G15G18G10G26G17G12G27
 140263606.99948  91504093.71348  24788353.4294   24788356.9804   24788353.6084
       211.000         156.000
 123493034.72148  96228328.34948  23499951.4844   23499953.1944   23499952.0394
       226.000         174.000
 110414412.24048  86037193.49348  21011172.1694   21011174.8904   21011172.5094
       244.000         214.000
  96842109.73148  93253586.49648  20331381.7424   20331383.1194   20331381.5144
       254.000         241.000
 129109257.67948  82812405.13548  22665739.7094   22665741.6554   22665740.0654
       233.000         189.000
 130216204.19948 101467156.42048  24779332.3054   24779337.0794   24779332.0224
       208.000         152.000
 109870563.13948  85613415.44848  20907681.2224   20907684.1574   20907680.9654
       248.000         220.000
 133788723.71948  86458738.68448  23556216.6794   23556218.8134   23556216.1724
       230.000         183.000
 123603637.56648  96314506.51848  23521003.6724   23521005.4524   23521003.6344
       229.000         182.000
 132460426.18248 103215897.22748  25206394.6034   25206397.9894   25206395.1684
       220.000         164.000
 09  1  6  1 16  0.0000000  0 10G 5G28G 9G15G18G10G26G17G12G27
 140148839.36748  91414664.42448  24766513.2094   24766517.6814   24766512.9244
       207.000         152.000
 123576784.62948  96293588.00648  23515888.4044   23515890.1864   23515889.3144
       227.000         175.000
 110354949.85548  85990859.17448  20999856.8864   20999859.5774   20999856.8944
       245.000         215.000
  96848844.80248  93258834.60548  20332663.2974   20332664.7794   20332662.9634
       254.000         241.000
 129061260.65348  82775004.86148  22656606.3334   22656608.1224   22656606.8114
       232.000         188.000
 130327271.59548 101553702.40848  24800467.1314   24800471.9314   24800466.8724
       207.000         151.000
 109928843.97148  85658829.06948  20918771.8684   20918774.5384   20918771.7604
       248.000         220.000
 133746871.26148  86426126.38948  23548252.8864   23548254.1844   23548252.2794
       229.000         184.000
 123496705.76648  96231183.04348  23500656.2004   23500656.5604   23500656.0474
       227.000         180.000
 132532779.46148 103272276.42048  25220163.2714   25220167.1304   25220164.2454
       220.000         160.000
 09  1  6  1 16 30.0000000  0 10G 5G28G 9G15G18G10G26G17G12G27
 140034157.86148  91325302.23948  24744689.4464   24744694.1014   24744690.6654
       206.000         151.000
 123660768.90848  96359030.31348  23531870.4374   23531871.9444   23531870.5024
       227.000         175.000
 110295778.22948  85944751.41848  20988597.0494   20988599.7404   20988597.5254
       245.000         214.000
  96856018.84648  93264424.76848  20334028.4724   20334029.9644   20334028.2344
       254.000         241.000
 129013781.71148  82738008.27148  22647571.4354   22647573.0304   22647571.4304
       233.000         189.000
 130438308.80348 101640224.92348  24821596.8514   24821601.0004   24821596.3124
       209.000         147.000
 109987503.62348  85704537.88548  20929934.4214   20929937.1284   20929934.2204
       248.000         219.000
 133705454.97048  86393853.97748  23540371.2094   23540373.2544   23540370.6444
       231.000         183.000
 123389971.78148  96148013.71748  23480345.0264   23480345.6044   23480345.2564
       225.000         179.000
 132605125.14148 103328649.70048  25233929.7714   25233933.8324   25233930.6484
       218.000         159.000
 09  1  6  1 17  0.0000000  0 10G 5G28G 9G15G18G10G26G17G12G27
 139919564.35148  91236008.65248  24722882.9404   24722887.4154   24722884.0684
       212.000         152.000
 123744985.00048  96424653.22448  23547895.8884   23547898.2514   23547896.1744
       227.000         176.000
 110236897.98448  85898870.72248  20977392.3024   20977395.1114   20977392.8454
       245.000         215.000
  96863632.59348  93270357.55448  20335477.4464   20335478.8224   20335477.3224
       254.000         241.000
 128966822.40848  82701416.61548  22638635.3344   22638637.3664   22638636.3264
       232.000         189.000
 130549314.04648 101726722.53848  24842721.1274   24842725.2954   24842722.2054
       211.000         153.000
 110046541.45548  85750541.37948  20941168.9634   20941171.5764   20941168.8344
       248.000         219.000
 133664476.98348  86361923.09448  23532573.3764   23532574.9234   23532573.0764
       228.000         182.000
 123283437.68648  96065000.14448  23460072.0934   23460073.0244   23460072.2214
       226.000         180.000
 132677463.37048 103385017.07348  25247696.2234   25247699.7954   25247696.8134
       215.000         161.000
 09  1  6  1 17 30.0000000  0 10G 5G28G 9G15G18G10G26G17G12G27
 139805060.28248  91146784.74348  24701094.5744   24701097.3464   24701095.7154
       210.000         155.000
 123829430.07048  96490454.58248  23563965.5974   23563967.2684   23563966.5924
       227.000         176.000
 110178308.76148  85853216.78648  20966243.3174   20966245.9204   20966243.8004
       245.000         215.000
  96871686.18248  93276633.07048  20337010.0724   20337011.3224   20337009.9574
       254.000         241.000
 128920383.69048  82665230.61048  22629798.3974   22629800.1134   22629799.4894
       233.000         189.000
 130660284.33148 101813192.87048  24863838.2464   24863843.5974   24863839.4324
       214.000         160.000
 110105956.33648  85796838.68048  20952475.1724   20952478.0324   20952474.9534
       248.000         220.000
 133623938.99148  86330335.04048  23524859.0414   23524860.6454   23524858.5234
       226.000         180.000
 123177105.06148  95982143.58148  23439837.1474   23439839.2814   23439837.3354
       225.000         182.000
 132749793.56148 103441378.26248  25261459.4524   25261462.9734   25261459.5224
       219.000         163.000
 09  1  6  1 18  0.0000000  0 10G 5G28G 9G15G18G10G26G17G12G27
 139690648.49648  91057632.74148  24679323.1124   24679325.2894   24679322.7524
       214.000         155.000
 123914103.00648  96556433.47448  23580077.9644   23580080.0884   23580078.6294
       226.000         175.000
 110120011.94748  85807790.70048  20955149.7454   20955152.3934   20955149.9754
       245.000         215.000
  96880181.12348  93283252.50048  20338626.5394   20338627.8744   20338626.3244
       254.000         240.000
 128874468.01448  82629452.15548  22621061.0204   22621062.7264   22621061.9574
       233.000         189.000
 130771217.58648 101899634.34448  24884947.8534   24884953.9164   24884948.0944
       210.000         159.000
 110165748.46748  85843429.94648  20963853.2654   20963856.0524   20963853.1734
       248.000         220.000
 133583844.06348  86299092.25548  23517229.3544   23517231.3024   23517228.5274
       228.000         182.000
 123070976.89948  95899446.32948  23419641.4364   23419644.1604   23419640.9724
       225.000         182.000
 132822116.58748 103497733.85348  25275221.9874   25275225.5994   25275222.5144
       219.000         165.000
 09  1  6  1 18 30.0000000  0 10G 5G28G 9G15G18G10G26G17G12G27
 139576330.42348  90968553.73448  24657569.2934   24657570.5404   24657570.2624
       214.000         156.000
 123999001.00548  96622587.74148  23596233.6344   23596235.5604   23596233.8654
       226.000         175.000
 110062007.52948  85762592.45548  20944111.9414   20944114.1984   20944112.1844
       246.000         215.000
  96889117.87448  93290216.20348  20340327.0504   20340328.4984   20340326.7754
       254.000         240.000
 128829076.47948  82594082.13148  22612423.1474   22612425.0334   22612423.8494
       232.000         189.000
 130882110.93848 101986044.72348  24906049.9664   24906055.0334   24906050.1854
       204.000         144.000
 110225916.97448  85890314.49048  20975303.0574   20975305.6484   20975303.1794
       248.000         219.000
 133544193.67748  86268195.84248  23509684.3174   23509685.9034   23509684.1454
       227.000         182.000
 122965054.88248  95816909.69348  23399485.4704   23399487.7984   23399485.2744
       226.000         183.000
 132894432.24248 103554083.68948  25288983.3354   25288986.8024   25288983.8214
       221.000         166.000
 09  1  6  1 19  0.0000000  0 10G 5G28G 9G15G18G10G26G17G12G27
 139462108.32248  90879549.51648  24635832.9424   24635835.2654   24635832.9854
       212.000         154.000
 124084122.14548  96688915.90448  23612431.8674   23612433.4664   23612432.7674
       228.000         175.000
 110004296.52148  85717622.84248  20933129.9514   20933132.2604   20933130.4324
       246.000         215.000
  96898497.31548  93297524.84848  20342111.9444   20342113.3274   20342111.6354
       254.000         240.000
 128784210.90048  82559121.94348  22603885.4374   22603887.4864   22603886.5254
       232.000         190.000
 130992962.48648 102072422.54648  24927142.5704   24927146.8144   24927144.7574
       210.000         139.000
 110286461.21748  85937491.81548  20986824.0094   20986826.8214   20986824.0274
       248.000         219.000
 133504990.07648  86237647.58948  23502223.8844   23502225.5784   23502223.5494
       227.000         183.000
 122859341.43648  95734535.57848  23379369.0034   23379371.2634   23379369.4504
       226.000         183.000
 132966740.51848 103610427.79548  25302743.5234   25302746.8494   25302744.3174
       220.000         160.000
 09  1  6  1 19 30.0000000  0 10G 5G28G 9G15G18G10G26G17G12G27
 139347984.74248  90790622.07048  24614115.6824   24614118.3174   24614117.3044
       210.000         153.000
 124169464.81748  96755416.67848  23628671.9724   23628673.5534   23628673.6334
       228.000         175.000
 109946879.84348  85672882.57748  20922203.7514   20922206.4654   20922203.9704
       245.000         216.000
  96908320.74448  93305179.46648  20343981.2454   20343982.7354   20343981.0404
       254.000         240.000
 128739873.24948  82524573.13448  22595448.3424   22595450.0554   22595448.7094
       235.000         190.000
 131103770.07248 102158766.19948  24948230.8934   24948233.8284   24948231.5424
       216.000         155.000
 110347381.32848  85984962.02048  20998416.9074   20998419.6604   20998416.8314
       248.000         219.000
 133466236.02148  86207449.61348  23494849.7084   23494851.1794   23494849.5284
       227.000         184.000
 122753839.36248  95652326.18348  23359292.1674   23359294.6384   23359291.6594
       227.000         183.000
 133039042.03948 103666766.62848  25316501.9414   25316504.8134   25316502.6104
       217.000         156.000
 09  1  6  1 20  0.0000000  0 10G 5G28G 9G15G18G10G26G17G12G27
 139233961.47548  90701772.80748  24592417.9214   24592421.1354   24592418.7504
       213.000         156.000
 124255026.54748  96822088.15048  23644953.8094   23644955.2494   23644954.1734
       227.000         173.000
 109889757.77048  85628371.87848  20911333.8194   20911336.4724   20911334.2684
       246.000         216.000
  96918588.42748  93313180.25748  20345935.1624   20345936.6734   20345934.9394
       253.000         240.000
 128696064.84748  82490436.70348  22587112.0684   22587113.3814   22587112.6654
       235.000         191.000
 131214531.09448 102245073.49448  24969308.1654   24969312.5404   24969309.2814
       211.000         156.000
 110408676.46348  86032724.45448  21010080.9884   21010083.6594   21010080.9544
       248.000         218.000
 133427933.50048  86177603.49648  23487560.2844   23487562.2014   23487560.3704
       229.000         183.000
 122648550.75248  95570283.12748  23339256.6374   23339258.5434   23339257.1004
       226.000         183.000
 133111336.77248 103723100.19548  25330258.9174   25330262.8434   25330259.8484
       216.000         156.000
 09  1  6  1 20 30.0000000  0  8G 5G28G 9G15G18G17G12G27
 139120039.49048  90613002.44348  24570738.9214   24570743.1974   24570739.8614
       212.000         159.000
 124340803.95248  96888927.66848  23661276.5554   23661278.3374   23661277.2904
       226.000         175.000
 109832929.78448  85584090.33148  20900519.8414   20900522.3974   20900520.1484
       246.000         216.000
  96929300.15748  93321527.05748  20347973.4614   20347975.0204   20347973.2114
       253.000         240.000
 128652786.17248  82456713.05948  22578876.3564   22578877.6334   22578876.7024
       235.000         190.000
 133390083.46448  86148109.97448  23480358.0304   23480359.7304   23480357.8854
       229.000         186.000
 122543476.53948  95488407.11448  23319261.8514   23319263.4174   23319261.1184
       227.000         183.000
 133183623.91948 103779427.84648  25344014.8024   25344018.3164   25344014.7284
       214.000         152.000
 09  1  6  1 21  0.0000000  0 10G 5G28G 9G15G18G10G26G17G12G27
 139006221.39348  90524313.03548  24549080.0174   24549084.0234   24549080.9574
       211.000         160.000
 124426795.68348  96955934.21248  23677640.4654   23677642.0184   23677640.0764
       227.000         176.000
 109776397.28948  85540039.03148  20889762.1054   20889764.5894   20889762.6474
       246.000         216.000
  96940457.33448  93330220.94748  20350096.6424   20350098.1504   20350096.4294
       253.000         240.000
 128610039.42448  82423403.92148  22570741.8954   22570743.5604   22570742.1544
       234.000         191.000
 131435901.74448 102417570.01048  25011432.9454   25011437.3634   25011433.9364
       213.000         150.000
 110532386.81048  86129122.12348  21033622.2574   21033625.0344   21033622.2234
       247.000         218.000
 133352688.69948  86118971.18548  23473241.9004   23473244.1284   23473241.6574
       227.000         184.000
 122438619.59548  95406700.41648  23299308.1964   23299310.3704   23299308.3644
       228.000         183.000
 133255904.04948 103835750.03248  25357768.9664   25357773.5934   25357768.9754
       210.000         144.000
 09  1  6  1 21 30.0000000  0 10G 5G28G 9G15G18G10G26G17G12G27
 138892508.91348  90435705.92148  24527440.9874   24527445.0344   24527441.2524
       214.000         161.000
 124512999.18748  97023105.74348  23694044.6084   23694046.2494   23694045.4254
       226.000         174.000
 109720160.40448  85496218.08648  20879060.5184   20879063.1364   20879060.8864
       248.000         216.000
  96952060.22048  93339262.14848  20352304.6504   20352306.0884   20352304.5274
       253.000         240.000
 128567825.71248  82390510.11748  22562708.8594   22562710.6984   22562709.5344
       234.000         191.000
 131546506.74148 102503755.82448  25032480.8674   25032483.8104   25032481.8764
       213.000         148.000
 110594800.97348  86177756.52948  21045499.1934   21045502.2344   21045499.1324
       248.000         218.000
 133315750.89848  86090188.48948  23466212.7494   23466214.7314   23466212.2264
       230.000         184.000
 122333981.55748  95325164.30148  23279395.9094   23279398.7094   23279396.0864
       225.000         185.000
 133328176.89048 103892066.55048  25371522.2534   25371525.9594   25371522.3504
       203.000         134.000
 09  1  6  1 22  0.0000000  0 10G 5G28G 9G15G18G10G26G17G12G27
 138778903.83548  90347182.48248  24505823.5304   24505826.4004   24505824.4594
       214.000         161.000
 124599411.98248  97090440.37748  23710488.3474   23710490.0134   23710488.6574
       227.000         173.000
 109664219.41348  85452627.70248  20868415.3304   20868417.8194   20868415.7904
       247.000         216.000
  96964109.61348  93348651.28148  20354597.4864   20354598.9564   20354597.1354
       253.000         240.000
 128526146.20148  82358032.58148  22554777.0204   22554779.4914   22554777.5804
       234.000         191.000
 131657055.07048 102589897.38248  25053517.3154   25053521.1224   25053517.9914
       209.000         148.000
 110657586.93048  86226680.64448  21057446.9554   21057449.8744   21057446.8044
       247.000         218.000
 133279272.09448  86061763.45348  23459270.9624   23459272.9114   23459271.5334
       229.000         183.000
 122229564.76148  95243800.58648  23259525.9914   23259528.5054   23259525.5374
       228.000         185.000
 143400436.22958  93948371.22258  25385273.0685   25385278.6345   25385273.6055
       199.000         132.000
 09  1  6  1 22 30.0000000  0 10G 5G28G 9G15G18G10G26G17G12G27
 138665408.38748  90258744.51448  24484225.7484   24484229.2674   24484225.7894
       213.000         160.000
 124686032.21848  97157936.65448  23726971.7454   23726973.1044   23726972.6704
       226.000         173.000
 109608574.81148  85409268.27748  20857826.4224   20857828.9284   20857826.6274
       247.000         217.000
  96976606.11848  93358388.80948  20356975.5384   20356976.9184   20356975.3764
       253.000         239.000
 128485002.48148  82325972.54148  22546947.9034   22546949.6434   22546948.4024
       233.000         191.000
 131767545.07048 102675993.43748  25074541.8504   25074546.7544   25074542.2624
       205.000         146.000
 110720744.00148  86275893.93948  21069465.4164   21069468.1824   21069465.1714
       248.000         218.000
 133243254.64748  86033697.90648  23452416.9074   23452419.2964   23452415.7674
       227.000         181.000
 122125371.38948  95162610.94848  23239699.1794   23239701.0614   23239699.5284
       226.000         184.000
 143472694.49148  94004676.36448  25399024.5794   25399029.3044   25399025.4554
       196.000         127.000
 09  1  6  1 23  0.0000000  0 10G 5G28G 9G15G18G10G26G17G12G27
 138552024.91648  90170393.78248  24462649.8214   24462653.1474   24462649.7144
       215.000         161.000
 124772858.17948  97225593.24148  23743493.9704   23743495.6094   23743493.9544
       226.000         175.000
 109553227.39248  85366140.42148  20847294.1984   20847296.7534   20847294.2834
       247.000         217.000
  96989550.89348  93368475.64048  20359438.7924   20359440.2914   20359438.5054
       253.000         239.000
 128444396.32748  82294331.37448  22539221.1314   22539222.4854   22539221.5144
       235.000         192.000
 131877973.67948 102762041.69248  25095556.9364   25095560.6724   25095557.1734
       212.000         151.000
 110784271.97748  86325396.25048  21081554.5814   21081557.0214   21081554.4264
       247.000         217.000
 133207700.68348  86005993.51848  23445651.2064   23445653.3594   23445650.8184
       229.000         183.000
 122021404.00248  95081597.42248  23219914.5204   23219916.5064   23219914.2354
       227.000         183.000
 143544946.13648  94060976.33348  25412771.2234   25412777.3054   25412772.0804
       198.000         127.000
 09  1  6  1 23 30.0000000  0 10G 5G28G 9G15G18G10G26G17G12G27
 138438754.92248  90082131.46848  24441094.3604   24441098.3484   24441094.4004
       214.000         161.000
 124859886.86248  97293407.78548  23760054.6234   23760057.1834   23760054.7154
       226.000         175.000
 109498177.42048  85323244.35248  20836818.4974   20836821.1494   20836818.2534
       248.000         217.000
  97002943.81248  93378911.66848  20361987.4344   20361988.9674   20361987.1524
       253.000         239.000
 128404328.87348  82263109.99748  22531596.3664   22531598.0274   22531597.3154
       234.000         191.000
 131988338.21448 102848040.06448  25116559.5794   25116562.5764   25116560.7944
       213.000         150.000
 110848169.68948  86375186.67348  21093713.6464   21093716.4144   21093713.6114
       247.000         217.000
 133172611.57048  85978651.34048  23438974.3134   23438976.0874   23438974.2624
       227.000         182.000
 121917664.22648  95000761.22948  23200173.7794   23200175.1804   23200173.3334
       228.000         183.000
 143617190.51248  94117270.68048  25426518.7464   25426523.5254   25426519.9674
       191.000         125.000
 09  1  6  1 24  0.0000000  0  9G 5G28G 9G15G18G10G26G17G12
 138325600.23648  89993958.96748  24419562.3454   24419565.9084   24419563.2534
       215.000         161.000
 124947116.05848  97361378.55648  23776654.0374   23776656.2394   23776655.4234
       227.000         175.000
 109443425.25048  85280580.32348  20826399.6044   20826402.2394   20826400.0744
       248.000         217.000
  97016785.33848  93389697.26648  20364621.4264   20364622.9484   20364621.1424
       253.000         239.000
 128364801.17148  82232309.17548  22524074.6484   22524076.1604   22524074.9614
       235.000         192.000
 132098636.01848 102933986.40648  25137547.7004   25137551.4864   25137548.2974
       209.000         146.000
 110912436.37548  86425264.60048  21105943.2824   21105945.9874   21105943.1524
       247.000         217.000
 133137989.28948  85951672.95948  23432385.8874   23432387.8724   23432385.0444
       229.000         183.000
 121814154.03248  94920103.93648  23180476.6984   23180477.7204   23180476.6934
       229.000         185.000
 09  1  6  1 24 30.0000000  0  9G 5G28G 9G15G18G10G26G17G12
 138212562.44348  89905877.55748  24398052.0244   24398055.2994   24398052.6314
       218.000         163.000
 125034543.50248  97429503.83348  23793291.2614   23793292.6794   23793291.6914
       225.000         172.000
 109388971.01248  85238148.45248  20816037.2834   20816039.8414   20816037.0344
       248.000         217.000
  97031075.93048  93400832.78548  20367340.8064   20367342.3494   20367340.6324
       253.000         239.000
 128325814.13348  82201929.67748  22516655.6254   22516657.4824   22516656.0754
       234.000         192.000
 132208864.99148 103019879.09448  25158523.3404   25158527.3504   25158524.5244
       208.000         144.000
 110977070.70748  86475629.01548  21118242.5964   21118245.3874   21118242.3604
       247.000         217.000
 133103835.45148  85925059.55548  23425886.7254   23425888.5174   23425886.6294
       229.000         183.000
 121710875.25148  94839626.98948  23160822.9534   23160824.6104   23160822.9174
       229.000         187.000
 09  1  6  1 25  0.0000000  0  9G 5G28G 9G15G18G10G26G17G12
 138099644.00048  89817889.16148  24376564.9994   24376567.6554   24376565.8484
       218.000         164.000
 125122167.24148  97497782.06248  23809965.3264   23809966.9884   23809965.6054
       226.000         169.000
 109334815.63848  85195949.46648  20805731.6904   20805734.3334   20805732.1224
       248.000         217.000
  97045816.62448  93412319.03248  20370145.9714   20370147.4324   20370145.8534
       253.000         239.000
 128287369.83348  82171973.07348  22509340.0744   22509340.9774   22509340.2094
       235.000         192.000
 132319023.07348 103105716.57448  25179486.1544   25179489.4334   25179487.2864
       213.000         149.000
 111042072.75548  86526279.95148  21130612.3004   21130614.9964   21130612.2704
       247.000         216.000
 133070152.14748  85898812.83948  23419476.9644   23419478.7324   23419477.1454
       229.000         184.000
 121607830.41548  94759332.32948  23141214.2434   23141216.0484   23141214.5024
       227.000         187.000
 09  1  6  1 25 30.0000000  0  9G 5G28G 9G15G18G10G26G17G12
 137986846.99948  89729995.42048  24355100.4124   24355103.5244   24355102.1754
       219.000         163.000
 125209985.14848  97566211.59348  23826676.6444   23826678.0704   23826677.5644
       226.000         168.000
 109280959.68448  85153983.78248  20795483.2104   20795486.0804   20795483.1634
       248.000         218.000
  97061007.68948  93424156.21548  20373036.6084   20373038.1694   20373036.4164
       252.000         239.000
 128249469.09348  82142440.02748  22502127.4514   22502129.0274   22502128.0134
       236.000         193.000
 132429107.91748 103191497.00448  25200434.8554   25200438.1724   25200436.1584
       214.000         149.000
 111107441.80748  86577216.87048  21143051.5544   21143054.2934   21143051.5004
       247.000         216.000
 133036941.75448  85872934.61548  23413157.3814   23413159.3074   23413157.0944
       230.000         186.000
 121505021.78648  94679221.72148  23121650.2254   23121652.1784   23121649.3274
       228.000         187.000
 09  1  6  1 26  0.0000000  0  9G 5G28G 9G15G18G10G26G17G12
 137874172.77048  89642197.32448  24333659.0864   24333662.3134   24333660.5294
       214.000         160.000
 125297994.63748  97634790.41348  23843424.4524   23843425.8804   23843425.4244
       226.000         171.000
 109227403.10748  85112251.38848  20785291.8814   20785294.4004   20785291.7804
       248.000         218.000
  97076649.46448  93436344.60348  20376013.1564   20376014.7284   20376012.7854
       253.000         239.000
 128212113.27748  82113331.59948  22495019.3914   22495020.7774   22495019.8904
       237.000         194.000
 132539116.56148 103277218.02448  25221368.3054   25221371.6014   25221369.8084
       207.000         143.000
 111173176.46548  86628438.67948  21155560.3664   21155563.1864   21155560.3444
       247.000         216.000
 133004205.21048  85847425.61648  23406928.0104   23406930.0734   23406927.5024
       228.000         186.000
 121402450.78548  94599296.27348  23102131.6044   23102133.6734   23102131.5524
       228.000         186.000
 09  1  6  1 26 30.0000000  0  9G 5G28G 9G15G18G10G26G17G12
 137761624.19748  89554497.13448  24312240.7704   24312244.7724   24312240.4684
       215.000         161.000
 125386194.10548  97703517.24348  23860208.5924   23860209.8214   23860210.0444
       227.000         173.000
 109174147.10748  85070753.19948  20775157.9174   20775160.3614   20775158.0804
       249.000         218.000
  97092743.47548  93448885.39048  20379075.8144   20379077.4094   20379075.5944
       253.000         239.000
 128175304.20748  82084649.21548  22488014.8084   22488016.2244   22488015.5274
       237.000         194.000
 132649047.37548 103362878.39448  25242287.1594   25242289.8814   25242286.2914
       204.000         140.000
 111239277.00748  86679945.58748  21168138.9084   21168141.8684   21168138.8614
       247.000         216.000
 132971945.54748  85822288.22148  23400789.1804   23400791.0474   23400788.7914
       230.000         186.000
 121300120.39448  94519558.31448  23082658.7854   23082660.6774   23082658.6754
       228.000         186.000
 09  1  6  1 27  0.0000000  0  9G 5G28G 9G15G18G10G26G17G12
 137649202.95748  89466896.16448  24290847.9294   24290851.7124   24290847.9014
       217.000         165.000
 125474581.19648  97772390.28548  23877027.6114   23877029.3314   23877028.3774
       224.000         174.000
 109121191.83148  85029489.36448  20765080.5144   20765083.4784   20765080.8234
       248.000         218.000
  97109289.59848  93461778.46148  20382224.4534   20382226.0534   20382224.1664
       253.000         239.000
 128139042.59548  82056393.41548  22481114.1684   22481115.6174   22481114.9604
       236.000         193.000
 132758898.22048 103448476.45448  25263191.2744   25263193.6244   25263190.2534
       207.000         144.000
 111305742.26548  86731736.69048  21180786.8504   21180789.5774   21180786.7744
       246.000         216.000
 132940164.20448  85797523.54848  23394741.2954   23394743.5454   23394741.3214
       226.000         185.000
 121198032.11248  94440009.02248  23063232.4584   23063234.0044   23063232.7484
       229.000         187.000
 09  1  6  1 27 30.0000000  0  9G 5G28G 9G15G18G10G26G17G12
 137536911.45348  89379396.28948  24269480.0144   24269483.7384   24269480.0094
       220.000         168.000
 125563154.37148  97841408.31548  23893882.4784   23893884.2744   23893882.7544
       224.000         171.000
 109068538.57148  84988460.85048  20755061.0914   20755063.6164   20755061.4554
       248.000         218.000
  97126288.92548  93475024.67848  20385459.3274   20385460.7904   20385459.0434
       252.000         239.000
 128103330.35848  82028565.69348  22474318.5494   22474319.8894   22474318.6594
       237.000         194.000
 132868666.93548 103534010.51448  25284079.9944   25284083.0334   25284079.4924
       208.000         144.000
 111372571.96348  86783811.77748  21193504.2494   21193506.9414   21193504.1564
       247.000         215.000
 132908863.26748  85773133.21348  23388784.5944   23388786.9284   23388784.2494
       227.000         184.000
 121096188.83848  94360650.62548  23043852.5424   23043853.4034   23043852.9424
       229.000         187.000
 09  1  6  1 28  0.0000000  0  9G 5G28G 9G15G18G10G26G17G12
 137424750.84048  89291998.44848  24248136.4484   24248140.0784   24248136.9784
       218.000         167.000
 125651910.51448  97910568.92548  23910772.2684   23910773.6064   23910772.5414
       223.000         167.000
 109016186.64348  84947667.15048  20745098.5364   20745101.3954   20745098.7884
       249.000         218.000
  97143741.30648  93488623.93048  20388780.2694   20388781.7794   20388780.0084
       252.000         238.000
 128068167.73748  82001166.25948  22467627.1604   22467628.6524   22467628.5364
       236.000         193.000
 132978350.36448 103619478.10248  25304951.2044   25304954.6564   25304951.5694
       209.000         146.000
 111439764.72248  86836169.76348  21206290.5444   21206293.4214   21206290.4244
       247.000         216.000
 132878044.06848  85749118.27248  23382919.8874   23382921.7774   23382919.7224
       230.000         185.000
 120994591.99748  94281484.28548  23024519.0404   23024520.2804   23024519.0354
       229.000         188.000
 09  1  6  1 28 30.0000000  0  9G 5G28G 9G15G18G10G26G17G12
 137312723.62648  89204704.52948  24226818.6164   24226821.9154   24226819.7204
       219.000         165.000
 125740847.86748  97979870.72948  23927696.4794   23927697.7694   23927698.1074
       224.000         164.000
 108964137.21348  84907109.15448  20735194.1794   20735196.5074   20735194.3834
       249.000         219.000
  97161647.74148  93502576.98348  20392187.9144   20392189.3144   20392187.6564
       253.000         238.000
 128033556.43848  81974196.41948  22461040.8024   22461042.2204   22461040.7764
       238.000         194.000
 133087946.76248 103704877.90048  25325806.9144   25325809.8544   25325806.1584
       206.000         143.000
 111507320.04948  86888810.26848  21219146.0154   21219148.6614   21219145.9454
       247.000         215.000
 132847708.95848  85725480.50748  23377147.1664   23377149.4634   23377147.2354
       229.000         185.000
 120893244.00848  94202511.83048  23005233.2624   23005234.3724   23005232.8884
       231.000         188.000
 09  1  6  1 29  0.0000000  0  9G 5G28G 9G15G18G10G26G17G12
 137200830.85848  89117515.35648  24205526.0574   24205529.2164   24205527.3564
       216.000         164.000
 125829963.63948  98049311.59948  23944654.4314   23944655.4884   23944655.1054
       222.000         162.000
 108912389.56948  84866786.32148  20725346.8434   20725349.5204   20725346.7254
       249.000         219.000
  97180007.76248  93516883.48748  20395681.6324   20395683.0644   20395681.4404
       252.000         238.000
 127999496.75848  81947656.40648  22454559.7214   22454561.1964   22454560.6804
       237.000         194.000
 133197452.69148 103790207.19948  25346645.7184   25346649.1954   25346644.3424
       205.000         141.000
 111575236.35648  86941732.06648  21232070.0934   21232072.7574   21232070.1984
       246.000         215.000
 132817858.55148  85702220.45948  23371467.3124   23371469.0184   23371466.9954
       231.000         185.000
 120792145.97848  94123734.14548  22985994.8774   22985995.8844   22985995.0914
       230.000         189.000
 09  1  6  1 29 30.0000000  0  9G 5G28G 9G15G18G10G26G17G12
 137089075.33948  89030433.14648  24184259.2424   24184262.6234   24184258.7934
       215.000         162.000
 125919256.43848  98118890.38448  23961646.4324   23961647.7794   23961646.8904
       221.000         163.000
 108860945.37248  84826699.93848  20715557.2504   20715560.0134   20715556.9014
       250.000         220.000
  97198822.54448  93531544.35348  20399261.9334   20399263.4034   20399261.7004
       252.000         238.000
 127965990.72148  81921547.81048  22448183.5854   22448184.8424   22448184.0934
       238.000         192.000
 133306867.08548 103875465.19348  25367466.2554   25367469.5384   25367466.2554
       205.000         140.000
 111643513.71948  86994935.20748  21245062.7594   21245065.4354   21245062.6424
       247.000         214.000
 132788495.73648  85679340.34648  23365879.7574   23365881.3294   23365879.6544
       230.000         185.000
 120691300.89448  94045153.56948  22966804.9944   22966806.2464   22966804.9844
       229.000         190.000
 09  1  6  1 30  0.0000000  0  9G 5G28G 9G15G18G10G26G17G12
 136977458.93348  88943459.33248  24163019.3324   24163022.3904   24163020.6794
       219.000         165.000
 126008723.80848  98188605.20948  23978671.4654   23978672.9034   23978671.8504
       221.000         163.000
 108809805.16348  84786850.42748  20705825.9154   20705828.3574   20705826.2024
       250.000         220.000
  97218092.55748  93546559.93848  20402928.8764   20402930.4804   20402928.6904
       251.000         238.000
 127933039.19148  81895871.29348  22441913.0724   22441914.2314   22441913.6184
       235.000         192.000
 133416187.36248 103960649.86748  25388268.5094   25388272.6654   25388268.0104
       204.000         135.000
 111712151.27348  87048419.00648  21258123.9604   21258126.6364   21258123.8234
       246.000         214.000
 132759621.92848  85656841.26548  23360384.9224   23360387.0684   23360384.2804
       232.000         186.000
 120590710.51548  93966771.46448  22947662.8804   22947664.5764   22947663.0364
       228.000         189.000
 09  1  6  1 30 30.0000000  0  9G 5G28G 9G15G18G10G26G17G12
 136865983.01848  88856595.01548  24141807.0034   24141809.4484   24141807.6844
       221.000         168.000
 126098363.37648  98258454.19448  23995729.4024   23995731.1034   23995729.4294
       220.000         164.000
 108758968.75848  84747237.64548  20696151.9314   20696154.3084   20696152.5034
       249.000         220.000
  97237817.28148  93561929.84348  20406682.2604   20406683.9594   20406681.7504
       252.000         238.000
 127900642.97648  81870627.48548  22435747.8944   22435749.5484   22435748.3594
       236.000         193.000
 133525410.61248 104045758.92148  25409052.6814   25409056.4144   25409053.2774
       205.000         137.000
 111781147.55448  87102182.34348  21271253.4244   21271256.0904   21271253.0944
       246.000         214.000
 132731238.34248  85634724.19548  23354983.9884   23354985.3954   23354983.8514
       231.000         186.000
 120490376.76148  93888589.32348  22928569.6214   22928571.5784   22928569.3994
       230.000         189.000
 09  1  6  1 31  0.0000000  0  9G 5G28G 9G15G18G10G26G17G12
 136754649.81048  88769841.89948  24120621.0864   24120623.4114   24120621.8444
       221.000         168.000
 126188173.24248  98328435.91348  24012819.6804   24012821.1704   24012820.4564
       219.000         161.000
 108708436.75048  84707862.06748  20686535.7304   20686538.5734   20686535.9244
       247.000         219.000
  97257998.15348  93577655.19048  20410522.7714   20410524.3104   20410522.4934
       252.000         238.000
 127868803.22048  81845817.28348  22429689.2854   22429691.0564   22429689.8804
       238.000         194.000
 133634534.79048 104130790.73348  25429819.3344   25429822.7194   25429820.6134
       205.000         139.000
 111850502.01648  87156224.77748  21284451.4574   21284453.8584   21284451.5394
       245.000         214.000
 132703346.98448  85612990.66948  23349676.3114   23349677.9944   23349676.0754
       231.000         188.000
 120390301.70948  93810608.76748  22909525.5394   22909528.0654   22909524.8544
       228.000         189.000
 09  1  6  1 31 30.0000000  0  9G 5G28G 9G15G18G10G26G17G12
 136643461.24348  88683201.46748  24099462.3284   24099464.9144   24099462.4504
       220.000         169.000
 126278151.17848  98398548.54648  24029941.8584   24029943.9714   24029943.0784
       218.000         162.000
 108658209.53748  84668723.98348  20676977.9524   20676980.4254   20676978.0454
       248.000         220.000
  97278635.33148  93593736.10248  20414449.8564   20414451.4234   20414449.6914
       252.000         238.000
 127837520.87748  81821441.43948  22423736.7794   22423738.1114   22423737.6944
       237.000         193.000
 133743557.78348 104215743.70248  25450565.8904   25450569.3724   25450565.7984
       205.000         142.000
 111920213.97148  87210545.78248  21297716.9694   21297719.7054   21297716.7604
       245.000         214.000
 132675949.40948  85591641.91348  23344462.7834   23344464.7774   23344462.9584
       229.000         188.000
 120290487.33648  93732831.34948  22890531.4544   22890534.1594   22890531.1034
       230.000         191.000
 09  1  6  1 32  0.0000000  0  9G 5G28G 9G15G18G10G26G17G12
 136532419.55148  88596675.49248  24078331.5694   24078334.5304   24078331.5744
       220.000         170.000
 126368295.53448  98468790.88048  24047095.6204   24047097.8924   24047096.3434
       219.000         162.000
 108608288.09248  84629824.16348  20667477.9904   20667480.9304   20667478.1214
       249.000         220.000
  97299729.25848  93610172.92648  20418463.7884   20418465.4454   20418463.5464
       252.000         237.000
 127806797.10948  81797500.83848  22417889.7564   22417891.2614   22417890.3534
       236.000         191.000
 133852477.85648 104300616.49348  25471293.0094   25471297.1474   25471291.7554
       207.000         143.000
 111990282.67348  87265144.75848  21311050.7264   21311053.5584   21311050.7794
       247.000         214.000
 132649047.62048  85570679.48448  23339343.2944   23339345.1454   23339343.4404
       229.000         188.000
 120190935.95648  93655258.84848  22871588.0364   22871589.9804   22871588.1794
       232.000         192.000
 09  1  6  1 32 30.0000000  0  9G 5G28G 9G15G18G10G26G17G12
 136421526.02248  88510264.95148  24057228.9074   24057232.6124   24057229.7784
       221.000         171.000
 126458603.13548  98539160.42348  24064280.7144   24064283.2134   24064282.3634
       218.000         160.000
 108558672.22748  84591162.45248  20658036.6854   20658039.1634   20658037.1894
       248.000         220.000
  97321279.71948  93626965.47748  20422564.8394   20422566.3444   20422564.6824
       252.000         237.000
 127776632.63848  81773996.04548  22412149.6344   22412151.2584   22412149.6904
       236.000         193.000
 133961291.87248 104385406.62648  25491998.2114   25492003.7794   25491998.7644
       206.000         141.000
 112060706.78148  87320020.68448  21324452.0804   21324454.8414   21324452.0744
       244.000         214.000
 132622642.77248  85550104.28448  23334318.4634   23334320.6954   23334318.4304
       230.000         187.000
 120091649.02948  93577892.43148  22852694.6264   22852696.3814   22852694.8374
       230.000         192.000
 09  1  6  1 33  0.0000000  0  9G 5G28G 9G15G18G10G26G17G12
 136310782.91448  88423971.64048  24036155.0554   24036158.7784   24036156.4594
       220.000         169.000
 126549072.25748  98609655.83148  24081496.4914   24081499.5914   24081496.7764
       215.000         160.000
 108509362.43248  84552739.23648  20648653.2504   20648655.8894   20648653.6594
       249.000         220.000
  97343287.41148  93644114.31948  20426752.6864   20426754.2514   20426752.4064
       252.000         237.000
 127747028.53248  81750927.92448  22406516.2064   22406517.8024   22406517.0664
       236.000         193.000
 134069997.72448 104470112.49848  25512685.4894   25512689.0434   25512686.1164
       201.000         135.000
 112131485.76848  87375173.13748  21337920.7374   21337923.5104   21337920.6644
       245.000         213.000
 132596736.61548  85529917.65748  23329388.7274   23329390.6724   23329388.6204
       231.000         187.000
 119992628.88848  93500733.89548  22833851.6614   22833853.5224   22833851.2154
       231.000         193.000
 09  1  6  1 33 30.0000000  0  9G 5G28G 9G15G18G10G26G17G12
 136200192.04548  88337796.93848  24015110.5204   24015113.9794   24015110.6804
       221.000         171.000
 126639700.75548  98680275.39948  24098742.1224   24098744.9604   24098742.2234
       216.000         157.000
 108460359.20048  84514554.90748  20639328.3124   20639330.7974   20639328.8904
       248.000         220.000
  97365752.50448  93661619.58248  20431027.7354   20431029.2174   20431027.4474
       252.000         237.000
 127717985.58248  81728297.04748  22400989.5504   22400991.3304   22400989.8954
       236.000         193.000
 134178593.05848 104554732.23048  25533351.8134   25533353.9064   25533352.5314
       206.000         139.000
 112202618.52048  87430601.25748  21351457.0514   21351459.5964   21351456.8794
       245.000         213.000
 132571330.57548  85510120.75948  23324554.5864   23324556.0594   23324554.9744
       232.000         187.000
 119893877.45648  93423784.74748  22815059.8414   22815061.6354   22815059.7544
       232.000         192.000
 09  1  6  1 34  0.0000000  0 10G 5G28G 9G15G18G10G22G26G17G12
 136089754.60648  88251741.81648  23994094.8254   23994098.2984   23994095.2604
       223.000         172.000
 126730485.86548  98751017.01048  24116018.3474   24116021.0524   24116020.4054
       216.000         157.000
 108411662.44148  84476609.38448  20630061.5724   20630064.2504   20630061.5744
       248.000         221.000
  97388674.84448  93679481.13948  20435389.6704   20435391.2944   20435389.4234
       252.000         237.000
 127689504.27548  81706103.82748  22395569.4534   22395571.4654   22395570.4004
       236.000         193.000
 134287075.18148 104639263.77148  25553993.7134   25553998.4334   25553996.1494
       201.000         137.000
 138199316.97658  89895569.21058  24395520.6475   24395520.4695   24395521.6925
       223.000         161.000
 112274103.55348  87486303.88448  21365060.0034   21365062.7424   21365060.0854
       245.000         212.000
 132546425.90748  85490714.52448  23319814.9014   23319817.1514   23319815.0334
       231.000         188.000
 119795395.93048  93347045.88548  22796319.3924   22796320.8544   22796319.3354
       230.000         192.000
 09  1  6  1 34 30.0000000  0 10G 5G28G 9G15G18G10G22G26G17G12
 135979472.83448  88165807.97848  23973109.1204   23973112.2294   23973110.3184
       222.000         171.000
 126821425.74348  98821879.24148  24133323.9104   24133326.0934   24133324.8694
       216.000         160.000
 108363272.64048  84438903.05248  20620853.2894   20620856.0654   20620853.3224
       248.000         221.000
  97412054.76348  93697699.24848  20439838.6974   20439840.2974   20439838.5034
       252.000         237.000
 127661585.64348  81684349.04748  22390256.9914   22390258.7644   22390257.2914
       237.000         194.000
 134395442.06048 104723705.50248  25574614.4904   25574617.9314   25574615.3424
       203.000         140.000
 138126204.59448  89838598.48248  24381607.5124   24381607.5364   24381607.8184
       220.000         169.000
 112345940.36748  87542280.61848  21378730.1864   21378732.9494   21378730.1544
       244.000         212.000
 132522024.15648  85471700.18348  23315171.6964   23315173.6144   23315171.2594
       234.000         188.000
 119697186.46248  93270519.04448  22777630.6244   22777632.5264   22777629.6524
       231.000         193.000
 09  1  6  1 35  0.0000000  0  9G 5G28G 9G15G18G22G26G17G12
 135869350.15848  88079998.10048  23952153.8414   23952156.3984   23952154.4344
       223.000         171.000
 126912519.75948  98892861.58048  24150658.0174   24150660.3724   24150657.3874
       215.000         157.000
 108315191.99448  84401437.61848  20611703.7314   20611706.5604   20611704.1894
       248.000         221.000
  97435894.52448  93716275.68148  20444375.3154   20444376.7674   20444375.1514
       252.000         237.000
 127634231.65048  81663034.24048  22385051.9784   22385053.2594   22385052.9304
       237.000         195.000
 138053475.43048  89781926.47948  24367766.9334   24367767.8904   24367765.5894
       213.000         165.000
 112418129.40248  87598531.80748  21392466.9924   21392469.8414   21392466.7414
       244.000         211.000
 132498128.20948  85453079.95048  23310624.3504   23310625.9784   23310623.9624
       231.000         188.000
 119599252.71748  93194207.05548  22758994.3724   22758996.6124   22758994.7734
       232.000         194.000
 09  1  6  1 35 30.0000000  0  9G 5G28G 9G15G18G22G26G17G12
 135759387.97348  87994313.30048  23931228.4064   23931231.3084   23931229.1774
       222.000         171.000
 127003765.21048  98963961.90148  24168021.6824   24168023.8384   24168022.6064
       217.000         159.000
 108267420.35048  84364212.95648  20602613.4684   20602615.8624   20602613.4864
       248.000         222.000
  97460193.34248  93735209.81748  20448999.2604   20449000.8004   20448998.8964
       252.000         237.000
 127607443.04948  81642160.00148  22379954.2454   22379955.5624   22379954.9564
       237.000         193.000
 137981131.25548  89725554.37648  24354000.4214   24354002.3764   24353999.9144
       222.000         168.000
 112490669.20348  87655056.32548  21406270.9824   21406273.7044   21406270.7874
       243.000         212.000
 132474739.16148  85434854.72448  23306173.8304   23306175.5464   23306173.5854
       231.000         189.000
 119501596.06048  93118110.98548  22740410.5814   22740413.3774   22740410.4454
       230.000         194.000
 09  1  6  1 36  0.0000000  0  9G 5G28G 9G15G18G22G26G17G12
 135649587.90048  87908754.82248  23910334.0234   23910337.2564   23910333.8814
       223.000         171.000
 127095159.70248  99035178.38248  24185413.4934   24185415.8284   24185414.1224
       215.000         159.000
 108219957.94948  84327229.27248  20593581.5444   20593584.1034   20593581.8704
       248.000         221.000
  97484951.54848  93754501.91848  20453710.5744   20453712.1744   20453710.2874
       252.000         237.000
 127581220.50448  81621726.85648  22374964.3544   22374965.8924   22374964.7804
       237.000         194.000
 137909174.27948  89669483.97748  24340307.7384   24340308.2184   24340307.6374
       216.000         165.000
 112563558.68848  87711853.32848  21420141.4794   21420144.3244   21420141.1774
       244.000         211.000
 132451858.31248  85417025.48648  23301819.4824   23301821.3784   23301818.8964
       229.000         187.000
 119404218.36448  93042232.27648  22721880.3854   22721882.7804   22721880.2204
       232.000         195.000
 09  1  6  1 36 30.0000000  0  9G 5G28G 9G15G18G22G26G17G12
 135539951.70948  87823324.04648  23889470.9994   23889474.4014   23889471.4034
       224.000         172.000
 127186701.12448  99106509.32648  24202832.8274   24202835.6964   24202834.2364
       218.000         158.000
 108172805.09748  84290486.79648  20584608.4274   20584611.0804   20584608.5884
       248.000         221.000
  97510169.18948  93774152.02548  20458509.2634   20458510.9524   20458509.0354
       252.000         237.000
 127555564.41248  81601735.07848  22370081.7964   22370083.2954   22370082.2964
       237.000         193.000
 137837605.76648  89613716.35148  24326688.6634   24326689.4384   24326689.1904
       218.000         167.000
 112636796.80848  87768921.98748  21434078.3074   21434081.0664   21434078.2664
       244.000         211.000
 132429486.86448  85399593.19448  23297562.1284   23297563.9214   23297561.2204
       230.000         187.000
 119307121.37548  92966572.29548  22703403.8114   22703405.7724   22703403.6874
       232.000         195.000
 09  1  6  1 37  0.0000000  0  9G 5G28G 9G15G18G22G26G17G12
 135430480.82448  87738022.04648  23868639.2544   23868642.6884   23868639.9064
       224.000         173.000
 127278386.77948  99177952.65848  24220280.5734   24220283.0894   24220282.7514
       214.000         159.000
 108125961.63948  84253985.40348  20575694.3094   20575697.1534   20575694.5974
       248.000         221.000
  97535845.96948  93794159.89948  20463395.5584   20463397.0274   20463395.4024
       251.000         236.000
 127530474.94248  81582184.84648  22365307.4294   22365309.2264   22365308.1744
       236.000         194.000
 137766427.75548  89558253.01048  24313143.9944   24313144.6894   24313143.5254
       221.000         171.000
 112710382.02948  87826261.11448  21448081.0954   21448083.7424   21448081.0544
       243.000         210.000
 132407625.76148  85382558.54848  23293402.3014   23293404.3694   23293401.9214
       232.000         190.000
 119210306.33648  92891132.01848  22684980.5904   22684982.4734   22684980.3014
       233.000         195.000
 09  1  6  1 37 30.0000000  0  9G 5G28G 9G15G18G22G26G17G12
 135321177.35948  87652850.50448  23847839.6884   23847843.1544   23847840.0854
       223.000         173.000
 127370214.76648  99249506.92148  24237754.7354   24237757.2624   24237754.2474
       215.000         157.000
 108079428.55348  84217725.87048  20566839.4634   20566842.2204   20566839.5594
       248.000         222.000
  97561982.29548  93814525.85848  20468369.1344   20468370.6394   20468368.9384
       252.000         236.000
 127505953.27648  81563077.04148  22360641.1424   22360642.6894   22360641.4394
       238.000         194.000
 137695642.37348  89503095.60648  24299674.4254   24299674.8534   24299673.8794
       219.000         167.000
 112784313.67348  87883870.18348  21462149.7734   21462152.4944   21462149.5614
       243.000         211.000
 132386276.95348  85365923.10248  23289339.8294   23289341.5054   23289339.9034
       233.000         190.000
 119113775.65448  92815913.32448  22666611.2544   22666613.3934   22666611.2954
       233.000         195.000
 09  1  6  1 38  0.0000000  0  9G 5G28G 9G15G18G22G26G17G12
 135212043.44848  87567811.10348  23827071.4924   23827075.7664   23827072.0644
       222.000         172.000
 127462183.50848  99321170.84148  24255255.6654   24255257.8094   24255256.0364
       215.000         157.000
 108033206.22648  84181708.47548  20558043.6834   20558046.3864   20558043.6964
       249.000         222.000
  97588578.86148  93835250.44148  20473430.2534   20473431.8304   20473430.1854
       251.000         236.000
 127482000.55148  81544412.58048  22356083.4944   22356084.6474   22356084.1874
       238.000         194.000
 137625252.34648  89448246.21448  24286279.6104   24286279.4394   24286280.6834
       223.000         169.000
 112858590.94648  87941748.57648  21476284.1514   21476286.9754   21476284.1394
       243.000         210.000
 132365441.94048  85349688.02848  23285375.2274   23285377.0534   23285375.5134
       232.000         191.000
 119017531.42248  92740917.84848  22648296.1264   22648298.3854   22648296.0194
       233.000         195.000
 09  1  6  1 38 30.0000000  0  9G 5G28G 9G15G18G22G26G17G12
 135103080.76448  87482905.12148  23806336.9324   23806341.1304   23806338.0364
       224.000         174.000
 127554290.33748  99392942.37848  24272783.7304   24272785.1674   24272783.7094
       215.000         158.000
 107987295.02048  84145933.51648  20549307.0504   20549309.7344   20549307.0954
       249.000         222.000
  97615635.56648  93856333.58348  20478578.8944   20478580.5404   20478578.4704
       251.000         236.000
 127458616.99948  81526191.62748  22351633.5654   22351634.9334   22351633.8124
       237.000         194.000
 137555259.44848  89393706.27648  24272960.1814   24272959.8384   24272958.5474
       221.000         165.000
 112933212.93348  87999895.57848  21490484.2984   21490487.2984   21490484.3514
       243.000         211.000
 132345121.51248  85333853.91748  23281507.8984   23281510.2254   23281508.1144
       233.000         191.000
 118921575.14748  92666146.72648  22630036.3294   22630038.3584   22630036.0184
       233.000         195.000
 09  1  6  1 39  0.0000000  0  9G 5G28G 9G15G18G22G26G17G12
 134994291.81148  87398134.51548  23785635.0644   23785639.0264   23785634.7264
       221.000         174.000
 127646533.87248  99464820.43348  24290336.2434   24290338.4874   24290336.9004
       214.000         157.000
 107941695.88248  84110401.72148  20540629.9454   20540632.5334   20540629.9994
       248.000         222.000
  97643153.00448  93877775.73048  20483815.3034   20483816.9464   20483815.0164
       251.000         236.000
 127435803.74248  81508415.07048  22347292.0774   22347294.0294   22347292.7964
       236.000         194.000
 137485666.44948  89339477.96748  24259716.5554   24259717.0354   24259716.4614
       221.000         165.000
 113008179.07048  88058310.74748  21504749.7884   21504752.9344   21504749.8144
       243.000         210.000
 132325317.88748  85318422.51548  23277739.7124   23277741.6314   23277739.5654
       234.000         192.000
 118825909.99448  92591602.46748  22611831.8434   22611833.9024   22611832.0354
       235.000         197.000
 09  1  6  1 39 30.0000000  0  9G 5G28G 9G15G18G22G26G17G12
 134885677.18248  87313499.72648  23764966.6974   23764969.9154   23764967.6654
       225.000         174.000
 127738910.76548  99536802.38548  24307915.6274   24307917.1874   24307917.8574
       214.000         156.000
 107896407.88148  84075112.37048  20532011.8284   20532014.4074   20532012.0434
       248.000         222.000
  97671130.03548  93899576.00248  20489139.0964   20489140.8194   20489138.7984
       251.000         236.000
 127413560.52548  81491082.68248  22343059.5184   22343060.9784   22343059.9244
       237.000         195.000
 137416474.38548  89285562.06548  24246549.9424   24246550.8144   24246551.7784
       218.000         170.000
 113083486.99248  88116992.23548  21519080.4014   21519083.4404   21519080.1524
       243.000         210.000
 132306031.35848  85303394.03948  23274069.5614   23274071.4374   23274069.4954
       233.000         192.000
 118730535.79348  92517284.91048  22593683.1204   22593684.9734   22593682.9364
       235.000         197.000
 09  1  6  1 40  0.0000000  0  9G 5G28G 9G15G18G22G26G17G12
 134777239.22448  87229002.61648  23744331.5054   23744334.9834   23744332.6414
       222.000         175.000
 127831419.59148  99608887.18948  24325518.5804   24325521.2204   24325517.8654
       208.000         154.000
 107851432.12948  84040066.32848  20523453.3454   20523455.7664   20523453.6174
       249.000         223.000
  97699567.52148  93921735.07248  20494550.7154   20494552.2214   20494550.4644
       252.000         235.000
 127391888.48348  81474195.38648  22338935.5264   22338937.1154   22338936.3744
       236.000         194.000
 137347685.90248  89231960.63048  24233460.2724   24233460.3594   24233458.5844
       216.000         163.000
 113159136.25548  88175939.70848  21533476.0624   21533478.9134   21533476.1654
       242.000         210.000
 132287263.74148  85288769.93548  23270498.5244   23270500.1264   23270498.1894
       232.000         192.000
 118635455.22548  92443196.16548  22575589.8414   22575591.6584   22575589.6944
       236.000         196.000
 09  1  6  1 40 30.0000000  0  9G 5G28G 9G15G18G22G26G17G12
 134668981.11548  87144645.65148  23723730.7524   23723733.9214   23723731.0514
       224.000         175.000
 127924059.45848  99681074.05848  24343147.3724   24343150.0454   24343146.7094
       209.000         150.000
 107806770.34448  84005264.93448  20514954.5084   20514957.0214   20514954.6654
       249.000         223.000
  97728466.77648  93944253.96248  20500050.0434   20500051.6314   20500049.7814
       251.000         235.000
 127370789.31548  81457754.46848  22334920.1714   22334921.9724   22334920.2334
       237.000         193.000
 137279303.73248  89178675.87348  24220447.0574   24220448.0294   24220449.0964
       216.000         166.000
 113235127.20848  88235153.43448  21547936.5854   21547939.3724   21547936.2384
       242.000         209.000
 132269017.04748  85274551.73248  23267025.8854   23267027.9234   23267025.8384
       231.000         191.000
 118540671.55048  92369338.76048  22557552.8324   22557554.8554   22557552.6104
       235.000         196.000
 09  1  6  1 41  0.0000000  0  9G 5G28G 9G15G18G22G26G17G12
 134560903.37148  87060429.23248  23703164.0114   23703167.4194   23703164.7144
       224.000         176.000
 128016827.03748  99753360.46348  24360799.9504   24360803.2144   24360801.4934
       205.000         150.000
 107762421.62948  83970707.49548  20506515.1984   20506517.7764   20506515.8024
       248.000         223.000
  97757826.32448  93967131.52248  20505636.9914   20505638.6574   20505636.7304
       251.000         235.000
 127350262.17848  81441759.30148  22331014.1234   22331015.8254   22331015.4534
       237.000         194.000
 137211328.91048  89125708.48548  24207511.3544   24207513.3884   24207512.2184
       218.000         170.000
 113311457.45148  88294631.53248  21562461.9924   21562464.7894   21562462.0164
       243.000         210.000
 132251291.61448  85260739.71548  23263652.5624   23263654.7184   23263652.0484
       234.000         192.000
 118446185.40648  92295713.20648  22539572.7374   22539574.7624   22539572.5814
       236.000         198.000
 09  1  6  1 41 30.0000000  0  9G 5G28G 9G15G18G22G26G17G12
 134453008.19548  86976355.06048  23682632.5244   23682635.2114   23682633.2574
       225.000         173.000
 128109720.39048  99825744.87948  24378477.1424   24378480.6224   24378475.9384
       210.000         151.000
 107718386.79848  83936394.64348  20498135.6034   20498138.2064   20498135.6654
       249.000         223.000
  97787647.26848  93990368.61048  20511311.6854   20511313.3844   20511311.5164
       251.000         235.000
 127330308.22948  81426210.75548  22327217.0564   22327218.8134   22327217.2604
       235.000         194.000
 137143763.99648  89073060.50948  24194654.9134   24194656.1784   24194654.6834
       218.000         169.000
 113388126.43848  88354373.60248  21577051.4804   21577054.4414   21577051.6734
       242.000         209.000
 132234089.05448  85247335.12648  23260379.4334   23260381.4064   23260379.1464
       233.000         192.000
 118351998.85848  92222321.10648  22521649.5854   22521651.5684   22521649.7324
       236.000         199.000
 09  1  6  1 42  0.0000000  0  9G 5G28G 9G15G18G22G26G17G12
 134345297.43248  86892424.59048  23662135.4814   23662138.6444   23662135.6114
       222.000         173.000
 128202737.65548  99898225.83048  24396178.0834   24396181.1584   24396178.4414
       210.000         153.000
 107674665.97348  83902326.48148  20489815.5484   20489818.4274   20489815.8794
       249.000         223.000
  97817929.34748  94013965.03048  20517074.1354   20517075.8804   20517073.8684
       251.000         235.000
 127310927.80248  81411109.12448  22323528.8844   22323530.7704   22323529.6384
       235.000         193.000
 137076610.88048  89020733.45748  24181876.4154   24181876.8674   24181877.6594
       222.000         171.000
 113465132.96548  88414378.67648  21591705.4274   21591708.1584   21591705.1284
       243.000         209.000
 132217410.25648  85234338.65548  23257205.4304   23257207.4344   23257205.1374
       233.000         193.000
 118258113.62148  92149163.79348  22503783.9074   22503785.6104   22503783.9604
       236.000         199.000
 09  1  6  1 42 30.0000000  0  9G 5G28G 9G15G18G22G26G17G12
 134237772.84948  86808639.18248  23641674.3744   23641677.6594   23641674.8694
       223.000         175.000
 128295876.46548  99970801.49948  24413902.7884   24413904.9134   24413902.3404
       213.000         155.000
 107631259.78748  83868503.48148  20481555.7944   20481558.5464   20481556.0094
       248.000         223.000
  97848672.26848  94037920.55048  20522924.3734   20522925.9284   20522924.1734
       250.000         235.000
 127292121.14748  81396454.59048  22319950.1064   22319951.6354   22319950.8204
       235.000         193.000
 137009871.51448  88968728.75948  24169176.4744   24169176.2854   24169176.4744
       223.000         171.000
 113542476.00148  88474645.97148  21606423.1374   21606425.9644   21606423.0124
       242.000         209.000
 132201256.69248  85221751.46248  23254131.6554   23254133.6904   23254132.0464
       233.000         192.000
 118164531.68348  92076242.81048  22485975.8404   22485977.6184   22485975.6864
       235.000         198.000
 09  1  6  1 43  0.0000000  0  9G 5G28G 9G15G18G22G26G17G12
 134130435.76548  86724999.91248  23621248.8434   23621252.2454   23621249.4964
       224.000         177.000
 128389134.37848 100043469.97248  24431649.1514   24431651.7444   24431650.1684
       212.000         157.000
 107588167.98148  83834925.45048  20473355.6724   20473358.4134   20473355.6894
       249.000         224.000
  97879875.74748  94062234.93948  20528862.1124   20528863.7614   20528861.7734
       250.000         235.000
 127273888.34148  81382247.20448  22316480.5934   22316482.0784   22316480.8974
       235.000         193.000
 136943547.42448  88917047.62648  24156555.5034   24156555.6914   24156556.3504
       223.000         172.000
 113620153.87148  88535174.17248  21621204.7354   21621207.6554   21621204.3664
       243.000         208.000
 132185628.70348  85209573.81748  23251157.6004   23251159.7794   23251158.0324
       232.000         193.000
 118071254.12248  92003559.01748  22468225.4354   22468227.1164   22468225.0684
       237.000         197.000
 09  1  6  1 43 30.0000000  0  9G 5G28G 9G15G18G22G26G17G12
 134023288.19748  86641508.29948  23600859.5304   23600862.8644   23600860.2624
       224.000         177.000
 128482509.83548 100116230.02948  24449418.3654   24449420.4144   24449419.2424
       210.000         156.000
 107545391.29548  83801592.96548  20465215.5864   20465218.3474   20465215.6244
       249.000         224.000
  97911539.95448  94086908.33448  20534887.8054   20534889.4054   20534887.4614
       251.000         234.000
 127256229.96148  81368487.42248  22313120.2204   22313121.8264   22313120.7874
       237.000         193.000
 136877640.82048  88865691.85548  24144013.4064   24144013.6554   24144014.5554
       220.000         165.000
 113698165.62448  88595962.54148  21636050.0214   21636052.7924   21636049.9154
       243.000         209.000
 132170527.76348  85197806.84848  23248284.0794   23248286.0834   23248283.6914
       232.000         194.000
 117978283.37748  91931114.28448  22450533.8564   22450535.3744   22450533.7514
       238.000         199.000
 09  1  6  1 44  0.0000000  0  9G 5G28G 9G15G18G22G26G17G12
 133916332.71548  86558166.36648  23580506.6154   23580509.7204   23580507.0844
       225.000         178.000
 128576001.07248 100189080.30848  24467209.3054   24467210.9994   24467208.8924
       212.000         156.000
 107502930.80948  83768506.87648  20457135.7324   20457138.4394   20457136.1454
       250.000         224.000
  97943665.78748  94111941.44048  20541001.1034   20541002.7984   20541000.7284
       250.000         234.000
 127239147.16648  81355176.14548  22309869.5114   22309871.2884   22309870.2184
       235.000         194.000
 136812154.06548  88814663.23348  24131551.6464   24131551.8144   24131552.1294
       219.000         166.000
 113776510.94548  88657010.84748  21650958.7214   21650961.3844   21650958.7004
       243.000         208.000
 132155955.61148  85186451.93148  23245510.9854   23245512.8824   23245510.4394
       233.000         193.000
 117885621.39548  91858910.15148  22432900.9414   22432902.6494   22432900.7664
       239.000         201.000
 09  1  6  1 44 30.0000000  0  9G 5G28G 9G15G18G22G26G17G12
 133809570.92748  86474975.38748  23560190.2654   23560193.8124   23560190.9574
       224.000         179.000
 128669606.12848 100262019.28148  24485022.0074   24485023.6804   24485022.7254
       214.000         155.000
 107460786.91448  83735667.47748  20449116.0234   20449118.6184   20449116.1964
       249.000         225.000
  97976253.21248  94137334.22748  20547202.2544   20547203.8814   20547201.9504
       251.000         234.000
 127222640.49248  81342313.80148  22306728.4304   22306730.4554   22306729.1164
       237.000         194.000
 136747089.43548  88763963.54148  24119169.8264   24119170.3394   24119170.6694
       222.000         167.000
 113855188.66748  88718318.16548  21665930.4944   21665933.5494   21665930.3694
       242.000         208.000
 132141913.56348  85175510.08648  23242839.0354   23242840.8274   23242839.2404
       233.000         194.000
 117793270.04448  91786948.08448  22415326.9904   22415329.2914   22415326.8634
       238.000         202.000
 09  1  6  1 45  0.0000000  0  9G 5G28G 9G15G18G22G26G17G12
 133703004.73448  86391936.79248  23539911.5074   23539914.9534   23539911.4214
       224.000         178.000
 128763322.67548 100335045.13048  24502855.3014   24502857.1544   24502856.4654
       211.000         153.000
 107418959.96948  83703075.05348  20441156.7484   20441159.1994   20441156.5894
       249.000         224.000
  98009301.84648  94163086.39048  20553491.1664   20553492.7634   20553490.9374
       250.000         234.000
 127206710.23248  81329900.59848  22303697.2414   22303698.9444   22303697.8444
       236.000         194.000
 136682448.69748  88713594.13548  24106869.1464   24106869.9004   24106868.6894
       219.000         167.000
 113934197.76548  88779883.69048  21680965.5404   21680968.3334   21680965.2664
       242.000         208.000
 132128402.31848  85164981.84948  23240267.6844   23240269.9134   23240267.6224
       234.000         194.000
 117701231.11548  91715229.45148  22397812.5114   22397814.9534   22397812.0334
       238.000         202.000
 09  1  6  1 45 30.0000000  0  9G 5G28G 9G15G18G22G26G17G12
 133596636.40748  86309052.38248  23519670.2064   23519673.8134   23519670.8114
       227.000         180.000
 128857149.44248 100408156.87448  24520710.0244   24520711.3364   24520709.4334
       210.000         150.000
 107377450.80248  83670730.24848  20433257.6614   20433260.1224   20433257.6974
       250.000         225.000
  98042812.24748  94189198.38648  20559867.9794   20559869.6754   20559867.6944
       250.000         234.000
 127191356.99748  81317937.03448  22300775.3354   22300777.3284   22300776.0034
       236.000         194.000
 136618234.39448  88663557.01248  24094649.4794   24094651.1764   24094649.6074
       220.000         169.000
 114013537.42248  88841706.79748  21696063.2744   21696066.0304   21696062.8444
       243.000         208.000
 132115423.44048  85154868.43448  23237798.1334   23237799.8744   23237798.1934
       233.000         194.000
 117609507.02148  91643756.15648  22380357.8394   22380360.3414   22380358.1704
       235.000         201.000
 09  1  6  1 46  0.0000000  0  9G 5G28G 9G15G18G22G26G17G12
 133490466.88348  86226322.90248  23499466.7424   23499470.8264   23499467.7924
       223.000         180.000
 128951083.34048 100481352.11548  24538584.7364   24538586.0714   24538586.1274
       214.000         151.000
 107336259.26948  83638632.95448  20425419.1444   20425421.7124   20425419.5134
       250.000         225.000
  98076783.50548  94215669.50248  20566332.5964   20566334.1084   20566332.3014
       250.000         234.000
 127176580.43548  81306422.82348  22297963.6044   22297965.5364   22297963.9654
       235.000         195.000
 136554447.44248  88613852.93448  24082511.2304   24082512.5584   24082512.4344
       222.000         173.000
 114093205.78448  88903786.04248  21711223.6484   21711226.3774   21711223.4924
       241.000         207.000
 132102977.28848  85145170.13648  23235429.7704   23235431.6914   23235429.6584
       235.000         193.000
 117518098.46648  91572528.73548  22362963.3064   22362965.9514   22362962.5054
       238.000         202.000
 09  1  6  1 46 30.0000000  0  9G 5G28G 9G15G18G22G26G17G12
 133384498.17348  86143749.88848  23479301.7724   23479305.6964   23479301.6964
       225.000         180.000
 129045122.93348 100554629.70748  24556480.4494   24556481.0424   24556481.1574
       212.000         150.000
 107295385.57948  83606783.33148  20417641.0354   20417643.7044   20417641.2844
       250.000         225.000
  98111215.71548  94242499.78948  20572884.8364   20572886.3554   20572884.6614
       250.000         233.000
 127162381.05548  81295358.36548  22295261.6964   22295263.4424   22295262.5214
       236.000         194.000
 136491090.17548  88564483.65548  24070455.7804   24070455.8394   24070455.4604
       220.000         170.000
 114173201.89148  88966120.67148  21726446.5254   21726449.2844   21726446.4914
       242.000         207.000
 132091064.86748  85135887.73948  23233162.7224   23233164.8194   23233162.9944
       234.000         193.000
 117427007.59048  91501548.84048  22345629.6774   22345631.9604   22345629.7264
       239.000         204.000
 09  1  6  1 47  0.0000000  0  9G 5G28G 9G15G18G22G26G17G12
 133278732.11948  86061334.77448  23459175.5904   23459178.9304   23459176.6904
       225.000         180.000
 129139265.92048 100627987.85148  24574395.1104   24574396.3734   24574396.7854
       211.000         149.000
 107254830.07948  83575181.64448  20409923.6884   20409926.2854   20409923.8774
       250.000         225.000
  98146108.90748  94269689.29248  20579524.6414   20579526.3234   20579524.3534
       250.000         233.000
 127148758.77648  81284743.60948  22292669.3884   22292671.3764   22292669.8444
       236.000         195.000
 136428164.28948  88515450.52248  24058480.1944   24058481.1334   24058480.0204
       220.000         169.000
 114253524.66648  89028709.84248  21741731.2274   21741734.1184   21741731.0744
       242.000         206.000
 132079687.24648  85127022.06148  23230997.6124   23230999.3094   23230997.5784
       235.000         192.000
 117336236.20448  91430817.88848  22328356.9634   22328358.4134   22328356.8354
       240.000         205.000
 09  1  6  1 47 30.0000000  0  9G 5G28G 9G15G18G22G26G17G12
 133173170.17748  85979078.72548  23439087.3774   23439090.8824   23439088.2094
       225.000         180.000
 129233509.78248 100701424.60648  24592328.8394   24592330.3654   24592329.9524
       209.000         149.000
 107214593.16948  83543828.20648  20402267.0004   20402269.5454   20402267.3014
       250.000         225.000
  98181462.88148  94297237.83048  20586252.3614   20586254.0704   20586251.9004
       250.000         233.000
 127135713.66348  81274578.56748  22290186.8994   22290188.8244   22290187.3404
       234.000         194.000
 136365671.49248  88466754.84248  24046588.6274   24046589.5314   24046589.6794
       223.000         172.000
 114334172.49648  89091552.31148  21757078.2214   21757080.7764   21757078.1174
       242.000         207.000
 132068845.04548  85118573.59648  23228934.7524   23228936.1434   23228935.1884
       234.000         193.000
 117245785.65848  91360336.94248  22311144.6704   22311146.2144   22311144.4294
       239.000         204.000
 09  1  6  1 48  0.0000000  0  9G 5G28G 9G15G18G22G26G17G12
 133067814.76548  85896983.59548  23419038.9744   23419042.3174   23419039.6144
       226.000         180.000
 129327853.33948 100774939.05548  24610282.0264   24610283.0194   24610284.3984
       210.000         148.000
 107174675.70248  83512723.68248  20394670.8094   20394673.3964   20394671.1434
       250.000         225.000
  98217277.59948  94325145.39848  20593067.6214   20593069.5024   20593067.3904
       250.000         233.000
 127123246.68748  81264864.04248  22287814.6534   22287816.3504   22287815.0594
       237.000         195.000
 136303614.33148  88418398.62048  24034780.3374   24034780.3614   24034780.6664
       222.000         172.000
 114415144.99548  89154647.76048  21772486.8124   21772489.4454   21772486.8574
       242.000         207.000
 132058539.73248  85110543.49548  23226973.6374   23226975.4084   23226973.6474
       232.000         193.000
 117155658.16048  91290107.73948  22293993.5994   22293995.4494   22293993.4084
       239.000         203.000
 09  1  6  1 48 30.0000000  0  9G 5G28G 9G15G18G22G26G17G12
 132962667.41048  85815050.60048  23399030.2284   23399033.3304   23399030.8724
       226.000         180.000
 129422294.61748 100848529.64348  24628253.5154   24628255.4624   24628254.5114
       207.000         148.000
 107135078.10948  83481868.41148  20387135.6924   20387138.2964   20387135.6914
       250.000         225.000
  98253553.11448  94353412.01448  20599970.6194   20599972.4624   20599970.4114
       250.000         233.000
 127111357.75348  81255599.94148  22285552.3464   22285554.0344   22285552.9814
       237.000         196.000
 136241994.41448  88370383.13448  24023053.5544   24023053.9584   24023053.6314
       220.000         167.000
 114496440.71248  89217995.07648  21787956.8164   21787959.4814   21787956.7104
       242.000         206.000
 132048772.28348  85102932.51048  23225114.6694   23225116.8704   23225114.7084
       232.000         194.000
 117065855.40348  91220131.58048  22276904.7204   22276906.3754   22276904.5104
       239.000         204.000
 09  1  6  1 49  0.0000000  0  9G 5G28G 9G15G18G22G26G17G12
 132857730.36648  85733281.48548  23379061.4094   23379064.4874   23379062.4854
       225.000         181.000
 129516831.70848 100922194.88548  24646243.1394   24646244.6724   24646245.2124
       212.000         151.000
 107095800.89048  83451262.78548  20379661.4164   20379664.0284   20379661.5024
       250.000         225.000
  98290289.74948  94382037.94848  20606961.3634   20606963.0554   20606961.0794
       249.000         232.000
 127100047.52248  81246786.76848  22283400.1624   22283401.9074   22283400.3474
       237.000         195.000
 136180814.01048  88322710.09048  24011411.6834   24011411.7044   24011411.8444
       223.000         170.000
 114578058.78948  89281593.57048  21803488.0274   21803490.8744   21803487.8534
       242.000         206.000
 132039543.78648  85095741.48148  23223358.5514   23223360.5674   23223358.9414
       234.000         194.000
 116976379.38848  91150410.03548  22259877.9074   22259879.7664   22259877.7204
       240.000         205.000
 09  1  6  1 49 30.0000000  0  9G 5G28G 9G15G18G22G26G17G12
 132753004.89248  85651677.25048  23359132.6954   23359135.9304   23359132.5194
       226.000         180.000
 129611462.32048 100995933.00348  24664250.9794   24664252.9034   24664252.4484
       209.000         151.000
 107056844.36748  83420907.05548  20372248.3304   20372250.9594   20372248.6304
       251.000         225.000
  98327486.88948  94411022.71748  20614039.7884   20614041.3724   20614039.4494
       249.000         232.000
 127089315.64448  81238424.27148  22281357.5744   22281359.3094   22281358.4754
       235.000         194.000
 136120074.41948  88275380.56948  23999853.2424   23999853.7054   23999854.6804
       220.000         167.000
 114659997.83948  89345442.16848  21819080.8264   21819083.4744   21819080.7754
       242.000         206.000
 132030854.72048  85088970.78748  23221705.4284   23221706.9284   23221705.5564
       233.000         195.000
 116887231.44248  91080944.12348  22242913.4624   22242915.3974   22242913.2634
       239.000         205.000
 09  1  6  1 50  0.0000000  0  9G 5G28G 9G15G18G22G26G17G12
 132648493.56648  85570239.86548  23339244.7894   23339248.0954   23339245.2634
       226.000         181.000
 129706185.20848 101069743.00148  24682276.4534   24682278.1254   24682276.9084
       206.000         152.000
 107018209.22348  83390801.74948  20364896.2454   20364898.7754   20364896.5034
       250.000         225.000
  98365144.68448  94440366.45448  20621205.9084   20621207.5364   20621205.6824
       250.000         232.000
 127079163.09448  81230513.19748  22279425.6484   22279427.3244   22279426.1324
       234.000         193.000
 136059778.20848  88228396.49348  23988378.8184   23988379.7344   23988380.0384
       220.000         166.000
 114742257.16948  89409540.35348  21834734.1404   21834736.8424   21834733.7694
       242.000         205.000
 132022706.52648  85082621.54648  23220154.7444   23220156.5394   23220154.9584
       233.000         195.000
 116798414.12948  91011735.84148  22226012.3774   22226013.9114   22226012.0814
       240.000         205.000
 09  1  6  1 50 30.0000000  0  9G 5G28G 9G15G18G22G26G17G12
 132544197.93948  85488970.56948  23319397.9274   23319401.3934   23319398.4184
       228.000         181.000
 129800998.18948 101143623.24248  24700318.1874   24700320.9884   24700317.4954
       205.000         153.000
 106979895.97448  83360947.27748  20357605.4414   20357608.0554   20357605.4414
       250.000         225.000
  98403262.98448  94470069.01548  20628459.6044   20628461.2054   20628459.3624
       250.000         232.000
 127069589.84148  81223053.51448  22277603.7144   22277605.8724   22277604.3324
       235.000         194.000
 135999927.26548  88181759.39548  23976989.6034   23976990.0214   23976988.6234
       224.000         174.000
 114824835.56548  89473887.14948  21850448.3544   21850451.0754   21850448.4304
       242.000         206.000
 132015099.93348  85076694.31748  23218707.2404   23218709.1784   23218706.9074
       231.000         194.000
 116709928.69948  90942786.17648  22209174.0874   22209175.6224   22209174.1024
       239.000         205.000
 09  1  6  1 51  0.0000000  0  9G 5G28G 9G15G18G22G26G17G12
 132440119.91748  85407870.82248  23299592.5654   23299595.8174   23299593.8364
       226.000         180.000
 129895899.36448 101217572.20448  24718377.1214   24718380.2194   24718377.5384
       210.000         154.000
 106941905.11148  83331343.99848  20350376.1594   20350378.5024   20350376.3894
       250.000         226.000
  98441842.17848  94500130.71848  20635801.0424   20635802.6824   20635800.7784
       250.000         232.000
 127060595.66648  81216045.05948  22275892.3184   22275894.2954   22275893.0764
       236.000         195.000
 135940522.94148  88135470.34348  23965685.4854   23965686.5474   23965684.8894
       221.000         170.000
 114907732.06648  89538481.81148  21866222.9454   21866225.8064   21866222.8184
       242.000         205.000
 132008035.72748  85071189.74248  23217362.8994   23217364.8594   23217362.3714
       232.000         194.000
 116621777.01148  90874096.56248  22192399.3954   22192400.7774   22192399.1534
       240.000         205.000
 09  1  6  1 51 30.0000000  0  9G 5G28G 9G15G18G22G26G17G12
 132336260.40348  85326941.31748  23279828.9564   23279831.7914   23279829.2574
       226.000         181.000
 129990886.01848 101291587.75048  24736452.9514   24736455.9004   24736454.4444
       209.000         153.000
 106904235.99148  83301991.44948  20343207.7154   20343210.5914   20343207.7204
       250.000         226.000
  98480880.78848  94530550.40648  20643229.7524   20643231.4744   20643229.4984
       249.000         231.000
 127052179.88348  81209487.30448  22274290.7774   22274292.8414   22274291.2524
       235.000         195.000
 135881566.80448  88089530.49848  23954466.5684   23954467.3264   23954467.4974
       222.000         170.000
 114990944.41648  89603322.60348  21882057.7554   21882060.5324   21882057.7674
       242.000         205.000
 132001514.15548  85066108.00448  23216122.2264   23216123.7594   23216122.4914
       234.000         195.000
 116533959.83948  90805667.61848  22175688.3394   22175689.9624   22175688.7624
       240.000         207.000
 09  1  6  1 52  0.0000000  0  9G 5G28G 9G15G18G22G26G17G12
 132232620.32248  85246182.83048  23260106.7154   23260110.1574   23260107.7154
       226.000         181.000
 130085955.56548 101365667.88248  24754544.1434   24754547.0104   24754545.0284
       205.000         153.000
 106866888.57348  83272889.56148  20336100.8844   20336103.4834   20336100.8324
       250.000         225.000
  98520377.72848  94561327.23348  20650745.4994   20650747.3644   20650745.2214
       249.000         231.000
 127044341.72148  81203379.63848  22272799.6614   22272801.1184   22272800.1514
       237.000         195.000
 135823059.73448  88043940.56748  23943333.0854   23943333.8104   23943334.2634
       219.000         170.000
 115074470.63848  89668407.96248  21897952.3104   21897954.9424   21897952.0634
       240.000         204.000
 131995535.01548  85061448.92948  23214984.4294   23214986.0264   23214985.1084
       235.000         196.000
 116446478.31448  90737500.21048  22159041.3424   22159042.6944   22159041.0624
       240.000         206.000
 09  1  6  1 52 30.0000000  0  9G 5G28G 9G15G18G22G26G17G12
 132129203.04748  85165597.95248  23240426.8264   23240430.4124   23240427.4704
       226.000         181.000
 130181107.33248 101439812.09248  24772650.9364   24772653.3374   24772649.8514
       207.000         153.000
 106829864.61548  83244039.72648  20329055.2724   20329058.0024   20329055.5914
       250.000         226.000
  98560334.35648  94592462.26048  20658349.0364   20658350.9584   20658348.6564
       249.000         231.000
 127037083.05648  81197723.52948  22271418.3644   22271419.8984   22271419.2414
       237.000         195.000
 135765004.87548  87998703.04148  23932286.2744   23932286.3934   23932285.8784
       222.000         177.000
 115158311.20548  89733738.26648  21913906.5014   21913909.0854   21913906.0704
       242.000         204.000
 131990100.67348  85057214.38148  23213950.3434   23213951.8634   23213950.4744
       230.000         194.000
 116359335.41548  90669596.66648  22142458.5284   22142459.8864   22142458.5114
       240.000         207.000
 09  1  6  1 53  0.0000000  0  9G 5G28G 9G15G18G22G26G17G12
 132026010.34748  85085188.06848  23220790.1774   23220793.6504   23220791.1754
       226.000         181.000
 130276339.64248 101514019.07148  24790772.6804   24790775.7874   24790772.9524
       204.000         152.000
 106793164.27848  83215442.06648  20322071.4544   20322074.2014   20322071.4874
       250.000         226.000
  98600750.49148  94623955.34748  20666039.9434   20666041.9504   20666039.5274
       249.000         231.000
 127030403.57648  81192518.73048  22270147.3314   22270148.9924   22270147.7384
       237.000         195.000
 135707404.04548  87953819.26948  23921324.4494   23921325.3234   23921323.0364
       222.000         175.000
 115242464.55948  89799312.31448  21929920.5744   21929923.1064   21929920.4504
       241.000         204.000
 131985211.46248  85053404.61648  23213019.5614   23213021.3564   23213019.0664
       231.000         194.000
 116272532.89948  90601958.35148  22125940.3194   22125941.8204   22125940.1674
       239.000         207.000
 09  1  6  1 53 30.0000000  0  9G 5G28G 9G15G18G22G26G17G12
 131923043.90348  85004954.49248  23201195.9954   23201199.6954   23201196.9394
       226.000         182.000
 130371650.26648 101588287.05948  24808909.7404   24808913.4894   24808910.1804
       208.000         153.000
 106756788.28848  83187097.13748  20315149.4814   20315152.0614   20315149.6974
       250.000         226.000
  98641625.99948  94655806.38248  20673818.4634   20673820.4164   20673818.1234
       249.000         231.000
 127024303.33148  81187765.27948  22268986.1164   22268988.2924   22268987.0064
       235.000         195.000
 135650258.84548  87909290.55248  23910450.5614   23910450.5984   23910451.9934
       222.000         173.000
 115326929.79048  89865129.36648  21945993.6154   21945996.5074   21945993.3674
       241.000         205.000
 131980868.60048  85050020.56248  23212193.2514   23212195.2054   23212192.6474
       231.000         194.000
 116186072.42348  90534586.56748  22109486.8804   22109488.9784   22109486.3814
       239.000         206.000
 09  1  6  1 54  0.0000000  0  9G 5G28G 9G15G18G22G26G17G12
 131820305.00048  84924898.21448  23181645.3774   23181649.0614   23181645.7664
       226.000         181.000
 130467036.75348 101662614.16648  24827060.9794   24827064.4464   24827062.1434
       208.000         156.000
 106720736.48348  83159004.82548  20308288.8934   20308291.6324   20308289.2774
       251.000         226.000
  98682959.86648  94688014.58048  20681684.2314   20681685.8964   20681684.0194
       250.000         231.000
 127018781.70548  81183462.70648  22267935.9804   22267937.4934   22267936.6844
       237.000         195.000
 135593570.61148  87865117.91748  23899663.1324   23899663.2864   23899664.9724
       224.000         175.000
 115411704.98048  89931187.95748  21962126.1054   21962128.7874   21962125.8044
       241.000         204.000
 131977071.96848  85047062.14948  23211470.7724   23211472.6164   23211470.6534
       231.000         193.000
 116099954.91648  90467482.01748  22093099.5604   22093101.2724   22093099.3394
       240.000         206.000
 09  1  6  1 54 30.0000000  0  9G 5G28G 9G15G18G22G26G17G12
 131717794.63148  84845020.02248  23162138.0094   23162142.0644   23162138.6494
       225.000         182.000
 130562497.01448 101736998.77148  24845226.9984   24845229.7054   24845228.3484
       210.000         156.000
 106685008.87748  83131165.12548  20301490.3944   20301492.8844   20301490.4224
       250.000         226.000
  98724750.95248  94720579.05048  20689636.8384   20689638.4194   20689636.5664
       250.000         231.000
 127013837.91948  81179610.40248  22266994.7874   22266996.4814   22266995.5064
       236.000         194.000
 135537340.44148  87821302.20348  23888962.2804   23888963.1914   23888962.6854
       220.000         174.000
 115496788.32848  89997486.66848  21978316.8114   21978319.5104   21978316.4924
       241.000         203.000
 131973821.60548  85044529.40048  23210852.2214   23210853.7894   23210852.4234
       232.000         193.000
 116014181.43248  90400645.55248  22076777.3124   22076779.2594   22076777.3394
       239.000         207.000
 09  1  6  1 55  0.0000000  0  9G 5G28G 9G15G18G22G26G17G12
 131615516.11748  84765322.46948  23142675.2494   23142678.8674   23142675.7444
       225.000         182.000
 130658030.22248 101811440.21048  24863406.6964   24863408.5244   24863408.4124
       210.000         157.000
 106649607.17348  83103579.38348  20294753.5724   20294756.2554   20294753.9374
       251.000         227.000
  98767001.03448  94753501.18648  20697676.6554   20697678.3224   20697676.4784
       248.000         230.000
 127009473.19848  81176209.30148  22266163.9144   22266165.9474   22266164.2964
       236.000         195.000
 135481571.42248  87777845.84848  23878350.2584   23878351.1174   23878349.4494
       225.000         174.000
 115582180.09648  90064025.70848  21994566.1584   21994569.1184   21994566.1154
       240.000         203.000
 131971119.48848  85042423.84648  23210338.2484   23210339.8204   23210338.0724
       232.000         195.000
 115928755.09148  90334079.58348  22060521.5844   22060523.2544   22060521.3944
       241.000         208.000
 09  1  6  1 55 30.0000000  0  9G 5G28G 9G15G18G22G26G17G12
 131513471.00048  84685806.79648  23123256.6434   23123260.0964   23123256.5994
       225.000         181.000
 130753634.34348 101885936.92848  24881599.4674   24881600.8344   24881600.2454
       212.000         156.000
 106614531.52648  83076247.71048  20288078.9534   20288081.4794   20288079.3764
       251.000         227.000
  98809709.05348  94786780.15548  20705803.5754   20705805.2874   20705803.2024
       249.000         230.000
 127005687.48448  81173259.39148  22265444.0244   22265445.5774   22265444.3744
       237.000         195.000
 135426265.24348  87734750.11148  23867825.6454   23867825.6924   23867826.9214
       223.000         171.000
 115667878.60648  90130803.76248  22010874.0934   22010876.7634   22010873.6044
       241.000         202.000
 131968966.07348  85040745.85348  23209928.1714   23209930.4254   23209927.5264
       230.000         194.000
 115843677.18448  90267785.12048  22044332.0124   22044333.4484   22044332.0794
       240.000         208.000
 09  1  6  1 56  0.0000000  0  9G 5G28G 9G15G18G22G26G17G12
 131411660.10548  84606473.65548  23103882.7064   23103886.1804   23103883.3534
       225.000         179.000
 130849306.74648 101960486.85948  24899804.8344   24899806.7884   24899805.6934
       212.000         158.000
 106579781.56748  83049169.81648  20281466.3544   20281468.7574   20281466.3554
       252.000         227.000
  98852873.97948  94820415.15448  20714017.6404   20714019.3904   20714017.4374
       248.000         230.000
 127002479.50648  81170759.66848  22264833.4954   22264835.1344   22264834.4734
       236.000         195.000
 135371422.60348  87692015.59548  23857389.4274   23857389.9414   23857390.5914
       222.000         174.000
 115753881.90648  90197819.33348  22027240.0434   22027242.4474   22027240.1324
       241.000         203.000
 131967361.14948  85039495.25648  23209622.7404   23209624.7714   23209622.0244
       231.000         193.000
 115758948.54748  90201762.82148  22028208.3364   22028210.0384   22028208.0034
       240.000         208.000
 09  1  6  1 56 30.0000000  0  9G 5G28G 9G15G18G22G26G17G12
 131310086.30448  84527325.24348  23084553.7504   23084557.1304   23084553.9654
       225.000         180.000
 130945046.64948 102035089.36948  24918023.8034   24918025.5234   24918024.5264
       214.000         158.000
 106545358.88248  83022346.94248  20274915.8974   20274918.3984   20274916.0844
       251.000         227.000
  98896496.75948  94854406.92148  20722318.6864   20722320.5834   20722318.3494
       249.000         229.000
 126999850.19748  81168710.83648  22264333.1934   22264334.9804   22264333.7604
       237.000         196.000
 135317046.27948  87649644.44448  23847042.1314   23847042.8274   23847041.4774
       222.000         176.000
 115840189.79848  90265072.23248  22043663.8344   22043666.7314   22043663.6584
       241.000         203.000
 131966306.31348  85038673.32648  23209422.1184   23209424.0734   23209421.9304
       231.000         194.000
 115674571.89048  90136014.78748  22012152.0164   22012153.6844   22012151.9274
       240.000         209.000
 09  1  6  1 57  0.0000000  0  9G 5G28G 9G15G18G22G26G17G12
 131208750.14748  84448362.01348  23065270.2714   23065273.8054   23065270.8174
       227.000         182.000
 131040850.99148 102109742.09448  24936254.7104   24936255.7334   24936256.9904
       217.000         158.000
 106511262.64848  82995778.44748  20268427.5604   20268430.2014   20268427.8194
       251.000         227.000
  98940575.68048  94888754.12148  20730706.5914   20730708.6494   20730706.4004
       249.000         230.000
 126997798.52848  81167112.11948  22263942.4654   22263944.5484   22263943.0074
       235.000         195.000
 135263137.05848  87607637.28548  23836783.0014   23836783.9464   23836783.4404
       222.000         173.000
 115926800.10148  90332560.75948  22060145.2514   22060148.2804   22060145.1264
       240.000         202.000
 131965801.23948  85038279.75848  23209325.9054   23209328.1744   23209326.2144
       231.000         193.000
 115590547.81248  90070541.48448  21996162.7194   21996164.5884   21996162.4944
       239.000         208.000
 09  1  6  1 57 30.0000000  0  9G 5G28G 9G15G18G22G26G17G12
 131107653.12748  84369585.11848  23046032.4224   23046035.8494   23046033.0764
       227.000         183.000
 131136717.69348 102184443.42248  24954498.1664   24954498.7174   24954499.9874
       215.000         158.000
 106477493.08848  82969464.50848  20262001.3874   20262003.9074   20262001.6764
       251.000         227.000
  98985110.33048  94923456.43748  20739181.2804   20739183.3094   20739181.1064
       248.000         229.000
 126996324.04648  81165963.16248  22263661.7684   22263663.7794   22263662.4444
       234.000         194.000
 135209696.61548  87565995.39048  23826614.4044   23826614.3724   23826614.8494
       226.000         176.000
 116013710.88848  90400283.46048  22076683.7554   22076686.4414   22076683.8184
       240.000         201.000
 131965846.00348  85038314.65848  23209334.5984   23209336.2864   23209334.6564
       232.000         193.000
 115506877.41548  90005343.79348  21980240.5704   21980242.5114   21980240.4894
       240.000         209.000
 09  1  6  1 58  0.0000000  0  9G 5G28G 9G15G18G22G26G17G12
 131006800.01948  84290998.28748  23026840.8224   23026843.8544   23026841.4654
       227.000         183.000
 131232647.99548 102259194.30948  24972752.7584   24972753.8364   24972753.0924
       212.000         158.000
 106444053.54548  82943407.71748  20255638.1424   20255640.7724   20255638.4764
       251.000         227.000
  99030103.23848  94958515.84648  20747743.3354   20747745.0984   20747743.0724
       249.000         229.000
 126995429.15448  81165265.83948  22263491.9704   22263493.5964   22263492.1074
       237.000         195.000
 135156728.51848  87524721.55048  23816534.8234   23816535.0314   23816536.1604
       222.000         175.000
 116100924.19948  90468241.87848  22093279.7654   22093282.5414   22093279.4404
       239.000         200.000
 131966444.21748  85038780.81148  23209448.0664   23209449.9084   23209448.2254
       230.000         192.000
 115423565.37548  89940425.32348  21964387.0444   21964388.8954   21964387.0554
       240.000         210.000
 09  1  6  1 58 30.0000000  0  9G 5G28G 9G15G18G22G26G17G12
 130906189.50548  84212600.47848  23007695.0924   23007698.4534   23007695.4874
       227.000         184.000
 131328637.01348 102333990.96148  24991017.9344   24991019.6964   24991016.8054
       211.000         158.000
 106410941.51348  82917606.12948  20249337.0264   20249339.5024   20249337.2974
       251.000         227.000
  99075550.83748  94993929.55548  20756391.8044   20756393.4964   20756391.7304
       249.000         229.000
 126995110.72848  81165017.70348  22263431.4024   22263433.2024   22263432.5804
       236.000         195.000
 135104232.54448  87483815.62248  23806544.6754   23806545.5524   23806545.4354
       222.000         177.000
 116188435.70348  90536432.65148  22109932.8214   22109935.5584   22109932.9904
       240.000         200.000
 131967593.15548  85039676.07848  23209666.7204   23209668.6444   23209666.4704
       232.000         193.000
 115340610.14948  89875784.89048  21948601.0084   21948602.9404   21948600.7044
       240.000         209.000
 09  1  6  1 59  0.0000000  0  9G 5G28G 9G15G18G22G26G17G12
 130805823.59448  84134393.30348  22988595.9584   22988599.4404   22988597.1664
       227.000         182.000
 131424683.27148 102408832.20348  25009295.1714   25009297.7394   25009294.5544
       212.000         159.000
 106378157.73748  82892060.32048  20243098.5554   20243101.1114   20243098.4864
       252.000         227.000
  99121453.11248  95029697.55848  20765126.6854   20765128.4434   20765126.3634
       248.000         229.000
 126995368.58048  81165218.60048  22263480.1724   22263482.2234   22263480.5564
       236.000         194.000
 135052209.34748  87443278.07248  23796644.9154   23796645.7044   23796644.8704
       223.000         176.000
 116276244.23548  90604854.88848  22126642.2554   22126644.9304   22126642.2394
       239.000         200.000
 131969293.58948  85041001.09848  23209990.2454   23209992.2914   23209990.7204
       230.000         192.000
 115258013.49948  89811423.87448  21932883.5554   21932885.5224   21932883.4724
       240.000         211.000
 09  1  6  1 59 30.0000000  0  9G 5G28G 9G15G18G22G26G17G12
 130705704.30548  84056378.28448  22969544.1174   22969547.2034   22969544.6714
       226.000         182.000
 131520785.31048 102483716.91748  25027582.9924   25027585.7984   25027583.1094
       212.000         159.000
 106345703.02248  82866770.92148  20236922.5174   20236925.0384   20236922.8554
       251.000         227.000
  99167810.13448  95065819.90048  20773948.0554   20773949.8624   20773947.8194
       249.000         229.000
 126996203.02048  81165868.79048  22263639.0954   22263640.6384   22263639.4154
       236.000         195.000
 135000661.42648  87403110.88048  23786835.9394   23786836.6814   23786835.2774
       220.000         175.000
 116364348.94548  90673507.89848  22143407.8454   22143410.7384   22143407.5374
       238.000         200.000
 131971546.43248  85042756.56448  23210418.8804   23210421.1454   23210418.4614
       230.000         192.000
 115175777.34548  89747343.77048  21917234.7384   21917236.4524   21917234.4134
       241.000         211.000
 09  1  6  2  0  0.0000000  0  9G 5G28G 9G15G18G22G26G17G12
 130605833.51548  83978556.88448  22950539.4224   22950542.4694   22950539.8044
       229.000         184.000
 131616941.43548 102558643.76548  25045880.9814   25045883.1204   25045880.7704
       212.000         160.000
 106313577.67548  82841738.17748  20230809.3314   20230811.8994   20230809.2664
       251.000         227.000
  99214621.46948  95102296.25048  20782856.0684   20782857.8814   20782855.7644
       249.000         229.000
 126997613.61648  81166967.95248  22263907.6874   22263909.0744   22263908.4164
       236.000         194.000
 134949590.68148  87363315.51648  23777117.2714   23777117.7694   23777116.0144
       228.000         179.000
 116452748.74948  90742390.86048  22160229.8854   22160232.7364   22160229.9034
       239.000         200.000
 131974352.17548  85044942.86048  23210953.0924   23210955.0874   23210952.6574
       231.000         193.000
 115093903.28148  89683545.81148  21901654.3404   21901656.3414   21901654.0954
       239.000         210.000
 09  1  6  2  0 30.0000000  0  9G 5G28G 9G15G18G22G26G17G12
 130506212.22948  83900929.92248  22931581.9804   22931585.3994   22931582.7454
       228.000         184.000
 131713149.24648 102633610.92048  25064188.1584   25064191.1984   25064188.5274
       214.000         158.000
 106281781.77748  82816962.15648  20224758.7684   20224761.3184   20224759.2984
       252.000         228.000
  99261885.73348  95139125.52948  20791850.0404   20791852.0314   20791849.7774
       248.000         228.000
 126999599.11148  81168515.08048  22264285.3424   22264287.0144   22264285.8424
       235.000         194.000
 134898998.02248  87323892.65048  23767490.6414   23767490.3104   23767490.8114
       223.000         178.000
 116541441.51848  90811502.10448  22177107.6934   22177110.3584   22177107.5464
       239.000         199.000
 131977710.66148  85047559.85548  23211592.1294   23211594.2194   23211591.8744
       231.000         194.000
 115012392.44048  89620030.88548  21886143.1284   21886145.3124   21886142.9524
       239.000         211.000
 09  1  6  2  1  0.0000000  0  9G 5G28G 9G15G18G22G26G17G12
 130406841.55348  83823498.23348  22912672.0114   22912675.7244   22912672.3574
       226.000         185.000
 131809405.96248 102708616.15548  25082505.4604   25082508.3184   25082505.3614
       209.000         157.000
 106250315.04748  82792442.62248  20218770.8734   20218773.5244   20218770.8154
       252.000         228.000
  99309602.12848  95176307.12048  20800930.0774   20800931.9254   20800929.8274
       248.000         228.000
 127002159.22548  81170509.96448  22264772.2854   22264774.3714   22264772.8554
       235.000         194.000
 134848883.95248  87284842.78448  23757952.9034   23757954.5224   23757951.1434
       223.000         176.000
 116630425.33448  90880840.14848  22194040.4984   22194043.3524   22194040.4184
       238.000         198.000
 131981621.21048  85050607.04748  23212336.0934   23212338.7604   23212335.7634
       230.000         193.000
 114931245.55448  89556799.55148  21870701.6194   21870703.5824   21870701.5484
       240.000         211.000
 09  1  6  2  1 30.0000000  0  9G 5G28G 9G15G18G22G26G17G12
 130307724.87248  83746264.48248  22893810.4084   22893814.4204   22893811.1754
       228.000         184.000
 131905712.03848 102783659.83448  25100831.7564   25100834.4264   25100830.5844
       212.000         156.000
 106219179.49048  82768181.15148  20212845.9814   20212848.5784   20212846.2784
       252.000         228.000
  99357771.83648  95213841.94348  20810096.4134   20810098.3454   20810096.0864
       248.000         227.000
 127005294.68048  81172953.16148  22265369.3144   22265370.7454   22265369.8804
       237.000         194.000
 134799252.16748  87246168.65948  23748509.2934   23748509.0104   23748508.5704
       224.000         176.000
 116719700.82248  90950405.46148  22211029.1904   22211031.9084   22211029.2144
       239.000         199.000
 131986086.11248  85054086.20848  23213185.8254   23213188.0204   23213185.4774
       231.000         192.000
 114850465.92748  89493854.38648  21855329.8364   21855331.6814   21855329.7034
       241.000         211.000
 09  1  6  2  2  0.0000000  0  9G 5G28G 9G15G18G22G26G17G12
 130208862.75148  83669229.06348  22874997.9544   22875001.4664   22874998.5604
       229.000         186.000
 132002064.11848 102858739.40548  25119166.4234   25119169.4594   25119166.5154
       212.000         155.000
 106188374.23048  82744177.05348  20206983.9284   20206986.6154   20206984.1644
       252.000         228.000
  99406393.31948  95251728.81148  20819348.8254   20819350.7004   20819348.5474
       248.000         228.000
 127009004.00348  81175843.52648  22266075.3974   22266076.9264   22266076.3384
       236.000         194.000
 134750102.88348  87207870.52948  23739156.1154   23739155.9974   23739156.2544
       223.000         174.000
 116809265.43548  91020196.06548  22228072.8144   22228075.4304   22228072.8774
       238.000         198.000
 131991104.88948  85057996.94948  23214140.3854   23214142.8694   23214139.8064
       228.000         191.000
 114770053.52548  89431195.37748  21840027.7864   21840029.6614   21840027.8304
       240.000         211.000
 09  1  6  2  2 30.0000000  0  9G 5G28G 9G15G18G22G26G17G12
 130110257.66248  83592393.94848  22856233.8134   22856237.6574   22856233.8274
       230.000         186.000
 132098461.35548 102933854.12048  25137510.3914   25137512.8194   25137511.2504
       208.000         151.000
 106157900.93048  82720431.62248  20201185.1604   20201187.6674   20201185.4254
       252.000         228.000
  99455466.77148  95289967.85748  20828687.2644   20828689.2144   20828687.1244
       248.000         228.000
 127013287.64648  81179181.41148  22266889.9664   22266891.8884   22266890.0854
       235.000         193.000
 134701438.25148  87169950.04048  23729895.4674   23729895.6164   23729895.9724
       226.000         176.000
 116899118.48448  91090211.42448  22245171.2104   22245173.7634   22245170.8474
       238.000         198.000
 131996678.24848  85062339.82748  23215201.4504   23215203.4584   23215200.8714
       231.000         191.000
 114690011.07348  89368824.63948  21824796.0184   21824797.8434   21824795.8224
       240.000         210.000
 09  1  6  2  3  0.0000000  0  9G 5G28G 9G15G18G22G26G17G12
 130011910.38648  83515759.71648  22837519.3304   22837522.8784   22837519.8884
       231.000         187.000
 132194901.35348 103009002.17048  25155862.9064   25155865.2144   25155864.5154
       213.000         156.000
 106127759.02048  82696944.42248  20195449.2864   20195451.8834   20195449.5724
       252.000         228.000
  99504990.42048  95328557.70148  20838111.3434   20838113.4434   20838111.1294
       247.000         228.000
 127018144.04648  81182965.59648  22267814.5884   22267816.0334   22267814.8124
       236.000         193.000
 134653259.00248  87132407.76248  23720726.9494   23720727.9514   23720728.0144
       218.000         172.000
 116989257.67348  91160449.75348  22262324.3164   22262326.8324   22262324.2184
       238.000         198.000
 132002805.50948  85067114.31748  23216367.6304   23216369.2604   23216368.2674
       231.000         191.000
 114610338.91948  89306742.46248  21809634.7874   21809636.8934   21809634.7064
       240.000         211.000
 09  1  6  2  3 30.0000000  0  9G 5G28G 9G15G18G22G26G17G12
 129913822.42148  83439327.53648  22818854.0954   22818856.9694   22818854.8234
       232.000         186.000
 132291382.15848 103084182.02648  25174221.7784   25174224.2794   25174224.4124
       211.000         151.000
 106097948.63848  82673715.55648  20189776.6964   20189779.0014   20189776.8024
       253.000         228.000
  99554964.24548  95367498.34048  20847621.0714   20847622.9114   20847620.6524
       248.000         228.000
 127023572.76648  81187195.75348  22268847.3204   22268849.1294   22268848.1494
       235.000         193.000
 134605566.21548  87095244.58148  23711650.6834   23711652.1424   23711650.9214
       224.000         173.000
 117079681.79648  91230910.11048  22279531.3204   22279533.8344   22279531.0914
       238.000         197.000
 132009487.09448  85072320.77148  23217639.1694   23217640.6214   23217639.4954
       231.000         190.000
 114531038.39948  89244949.87248  21794544.5924   21794546.6284   21794544.1834
       240.000         212.000
 09  1  6  2  4  0.0000000  0  9G 5G28G 9G15G18G22G26G17G12
 129815996.16648  83363099.30148  22800238.4404   22800241.4344   22800239.4674
       231.000         187.000
 132387902.57348 103159392.76148  25192589.4464   25192591.5024   25192589.3894
       204.000         148.000
 106068471.16248  82650746.10648  20184167.1164   20184169.6444   20184167.2954
       251.000         228.000
  99605388.29848  95406789.80248  20857216.5554   20857218.4234   20857216.4454
       248.000         227.000
 127029573.82948  81191871.90648  22269989.5744   22269991.3344   22269990.2544
       236.000         194.000
 134558362.14548  87058462.18748  23702668.9984   23702669.1434   23702669.4244
       225.000         176.000
 117170389.99448  91301591.81048  22296792.5354   22296795.0284   22296792.4244
       237.000         197.000
 132016723.84548  85077959.80548  23219015.7044   23219017.7094   23219015.2034
       231.000         191.000
 114452111.55048  89183448.44848  21779525.1414   21779526.9934   21779524.8444
       241.000         212.000
 09  1  6  2  4 30.0000000  0  9G 5G28G 9G15G18G22G26G17G12
 129718433.41548  83287076.40048  22781672.4584   22781675.9624   22781672.8034
       233.000         188.000
 132484461.10748 103234633.16348  25210963.7454   25210965.5424   25210962.9994
       203.000         146.000
 106039326.98948  82628036.36148  20178621.3044   20178623.7004   20178621.2974
       253.000         228.000
  99656261.87848  95446431.53848  20866897.2224   20866899.3764   20866896.8234
       248.000         227.000
 127036146.66448  81196993.58148  22271240.1474   22271242.0194   22271240.8334
       236.000         193.000
 134511648.69748  87022062.11248  23693778.9184   23693780.2184   23693778.9374
       224.000         177.000
 117261381.12948  91372493.99248  22314107.4494   22314110.1044   22314107.5734
       237.000         196.000
 132024515.87748  85084031.52848  23220498.6304   23220500.7784   23220498.6784
       230.000         192.000
 114373560.04548  89122239.48248  21764577.5854   21764579.1574   21764577.4994
       240.000         213.000
 09  1  6  2  5  0.0000000  0  9G 5G28G 9G15G18G22G26G17G12
 129621135.35748  83211259.75348  22763157.5724   22763160.9914   22763158.2334
       233.000         189.000
 132581055.53048 103309901.58248  25229345.4964   25229346.5964   25229347.4104
       209.000         144.000
 106010516.07648  82605586.30348  20173138.6334   20173141.2134   20173138.7384
       252.000         228.000
  99707584.18048  95486422.92848  20876663.6524   20876665.5174   20876663.3284
       248.000         227.000
 127043290.33048  81202560.05948  22272599.5174   22272601.1694   22272599.8424
       235.000         194.000
 134465426.41548  86986044.76048  23684983.7004   23684983.9184   23684985.1784
       228.000         179.000
 117352653.34248  91443615.20548  22331476.0554   22331478.7224   22331475.5194
       236.000         197.000
 132032863.03548  85090535.80848  23222087.0804   23222089.1734   23222087.1234
       230.000         191.000
 114295384.94748  89061323.83748  21749701.2744   21749703.0594   21749700.9264
       241.000         213.000
 09  1  6  2  5 30.0000000  0  9G 5G28G 9G15G18G22G26G17G12
 129524103.64248  83135650.63248  22744692.8944   22744696.2054   22744693.7184
       233.000         189.000
 132677684.08648 103385196.60348  25247732.6784   25247734.0814   25247736.6284
       210.000         144.000
 105982038.97848  82583396.36548  20167719.5804   20167722.3624   20167719.8474
       252.000         228.000
  99759354.18848  95526763.18148  20886515.2254   20886517.1384   20886514.9474
       248.000         227.000
 127051004.03048  81208570.72248  22274067.5704   22274069.4914   22274068.2274
       236.000         194.000
 134419696.87948  86950411.36848  23676282.1974   23676282.3814   23676281.6324
       228.000         181.000
 117444205.24848  91514954.33348  22348897.8694   22348900.5864   22348898.0934
       236.000         196.000
 132041765.50748  85097472.81148  23223781.1534   23223783.2514   23223780.7974
       230.000         191.000
 114217587.58148  89000702.52748  21734896.9644   21734898.7094   21734896.7684
       241.000         213.000
 09  1  6  2  6  0.0000000  0  9G 5G28G 9G15G18G22G26G17G12
 129427339.91448  83060250.33748  22726279.2464   22726282.4914   22726279.6634
       232.000         189.000
 132774345.11248 103460516.86348  25266127.2914   25266128.3454   25266129.0424
       211.000         148.000
 105953896.00548  82561466.78548  20162364.1034   20162366.7604   20162364.1434
       252.000         228.000
  99811571.66548  95567452.10848  20896451.9394   20896453.7424   20896451.7764
       248.000         226.000
 127059287.62948  81215025.45448  22275643.6894   22275645.4874   22275644.3654
       235.000         194.000
 134374461.46848  86915163.00448  23667674.2254   23667674.1854   23667674.4574
       226.000         180.000
 117536035.51448  91586510.38348  22366372.6134   22366375.1524   22366372.7504
       238.000         196.000
 132051223.74948  85104842.86948  23225581.4344   23225583.2094   23225581.0724
       231.000         192.000
 114140169.30448  88940376.59648  21720164.6004   21720166.4384   21720164.1964
       241.000         213.000
 09  1  6  2  6 30.0000000  0  9G 5G28G 9G15G18G22G26G17G12
 129330845.76048  82985060.10148  22707917.1184   22707920.5684   22707917.4174
       234.000         189.000
 132871036.99148 103535861.20948  25284528.1954   25284528.4284   25284527.7184
       206.000         148.000
 105926088.08548  82539798.28248  20157072.4884   20157074.9514   20157072.7524
       251.000         228.000
  99864235.70748  95608489.01148  20906473.3854   20906475.3784   20906473.1704
       248.000         226.000
 127068139.88948  81221923.30248  22277328.3734   22277329.9764   22277328.9344
       234.000         193.000
 134329721.51448  86880300.72348  23659159.8854   23659160.2014   23659160.3284
       228.000         175.000
 117628142.68448  91658282.20848  22383899.8364   22383902.5794   22383899.9434
       237.000         194.000
 132061237.39748  85112645.71648  23227486.9704   23227488.8234   23227487.0124
       231.000         191.000
 114063131.37748  88880347.06148  21705504.7504   21705506.6274   21705504.7154
       242.000         214.000
 09  1  6  2  7  0.0000000  0 10G 5G28G30G 9G15G18G22G26G17G12
 129234622.49348  82910080.95648  22689606.4634   22689609.7124   22689607.3874
       232.000         189.000
 132967757.58048 103611227.89948  25302933.0454   25302933.2154   25302932.7544
       206.000         144.000
 131188294.30658 102224636.62358  24964307.8495   24964309.9555   24964308.3545
       213.000         151.000
 105898614.88348  82518390.59948  20151844.5874   20151846.9494   20151844.6184
       252.000         228.000
  99917345.56648  95649873.30448  20916579.8514   20916582.0344   20916579.5544
       248.000         226.000
 127077560.14548  81229263.76248  22279120.7844   22279122.5734   22279121.0914
       234.000         192.000
 134285478.19548  86845825.40548  23650740.9644   23650740.0394   23650741.7144
       225.000         178.000
 117720524.98248  91730268.41848  22401479.8814   22401482.4404   22401479.7624
       235.000         194.000
 132071806.61948  85120881.48448  23229497.9564   23229499.7734   23229497.6374
       230.000         190.000
 113986474.92248  88820614.76248  21690917.7464   21690919.3284   21690917.6674
       242.000         215.000
 09  1  6  2  7 30.0000000  0 10G 5G28G30G 9G15G18G22G26G17G12
 129138672.61148  82835314.83248  22671347.6734   22671350.7924   22671347.4074
       235.000         190.000
 133064506.15548 103686616.42148  25321342.9254   25321344.4584   25321344.6714
       203.000         143.000
 131076263.46648 102137339.90248  24942988.8584   24942991.5724   24942989.3634
       212.000         154.000
 105871477.45448  82497244.55448  20146680.5974   20146682.9614   20146680.7554
       253.000         229.000
  99970901.42748  95691605.13948  20926771.2984   20926773.2764   20926771.0374
       247.000         226.000
 127087548.50448  81237046.87448  22281021.4934   22281023.3204   22281021.2754
       235.000         193.000
 134241733.39148  86811738.59348  23642416.4164   23642417.4634   23642416.1224
       224.000         180.000
 117813182.05448  91802468.72348  22419111.7564   22419114.6004   22419111.9474
       235.000         195.000
 132082931.87848  85129550.53048  23231615.0084   23231616.8234   23231615.0084
       231.000         191.000
 113910202.15148  88761181.45148  21676403.4444   21676404.9944   21676403.3594
       241.000         214.000
 09  1  6  2  8  0.0000000  0 10G 5G28G30G 9G15G18G22G26G17G12
 129042997.58648  82760762.88948  22653141.5814   22653144.6284   22653142.2554
       236.000         193.000
 133161280.81748 103762025.23248  25339758.0754   25339760.7014   25339759.2404
       205.000         143.000
 130964315.64148 102050107.83448  24921685.8484   24921689.1684   24921684.9584
       209.000         154.000
 105844676.18648  82476360.45748  20141580.2534   20141582.9394   20141580.4624
       252.000         228.000
 100024902.42448  95733683.82348  20937047.2684   20937049.2434   20937046.7334
       248.000         226.000
 127098104.03548  81245271.94448  22283030.2894   22283032.4234   22283030.5634
       236.000         194.000
 134198488.38448  86778041.15848  23634187.0124   23634188.0384   23634187.1224
       222.000         175.000
 117906112.40848  91874881.97948  22436796.1114   22436799.0224   22436795.7494
       237.000         197.000
 132094613.11148  85138652.80148  23233837.7414   23233839.6464   23233837.5694
       230.000         191.000
 113834314.32648  88702048.10848  21661962.1154   21661964.4274   21661962.0464
       241.000         215.000
 09  1  6  2  8 30.0000000  0 10G 5G28G30G 9G15G18G22G26G17G12
 128947597.96048  82686425.54248  22634987.6864   22634990.7184   22634988.8004
       233.000         191.000
 133258078.90648 103837452.30548  25358178.6164   25358180.5694   25358178.8024
       202.000         142.000
 130852451.44048 101962940.91848  24900398.4384   24900402.2324   24900398.0214
       210.000         153.000
 105818210.61748  82455737.94348  20136544.1864   20136546.6154   20136544.4164
       253.000         228.000
 100079346.63348  95776107.87048  20947407.8964   20947409.5954   20947407.5834
       248.000         226.000
 127109224.65548  81253937.35448  22285146.7114   22285148.5744   22285147.2634
       237.000         195.000
 134155743.22248  86744733.23048  23626052.2054   23626052.9914   23626051.4964
       223.000         177.000
 117999313.45748  91947506.17048  22454531.5204   22454534.4874   22454531.5334
       234.000         195.000
 132106849.44448  85148187.59848  23236166.5174   23236168.4014   23236166.4094
       231.000         192.000
 113758811.63548  88643214.85548  21647594.5664   21647596.8304   21647594.0204
       241.000         215.000
 09  1  6  2  9  0.0000000  0 10G 5G28G30G 9G15G18G22G26G17G12
 128852476.30148  82612304.79148  22616886.2124   22616889.5304   22616886.5564
       233.000         191.000
 133354899.54648 103912896.94448  25376603.5814   25376605.0844   25376603.8684
       204.000         140.000
 130740673.22048 101875841.01248  24879127.4744   24879131.8794   24879127.2484
       210.000         155.000
 105792082.16448  82435378.10848  20131571.9244   20131574.5044   20131571.9074
       253.000         228.000
 100134234.59348  95818877.70248  20957852.6744   20957854.4944   20957852.4634
       247.000         226.000
 127120910.77848  81263043.41148  22287370.3914   22287372.4374   22287371.0154
       236.000         193.000
 134113500.40648  86711816.80648  23618014.5224   23618015.1464   23618013.2824
       225.000         178.000
 118092784.69548  92020340.89048  22472318.4244   22472321.2814   22472318.0424
       234.000         193.000
 132119641.80348  85158155.66148  23238601.0734   23238602.8054   23238600.8244
       232.000         191.000
 113683696.42248  88584683.54648  21633300.6834   21633302.8414   21633300.5424
       242.000         216.000
 09  1  6  2  9 30.0000000  0 10G 5G28G30G 9G15G18G22G26G17G12
 128757633.42648  82538401.27248  22598838.5014   22598841.4044   22598839.0794
       234.000         192.000
 133451740.52148 103988357.40148  25395030.8124   25395033.7554   25395033.0574
       202.000         142.000
 130628982.12448 101788808.99648  24857874.4204   24857877.4664   24857872.7624
       214.000         157.000
 105766290.47648  82415280.68648  20126664.0804   20126666.3964   20126664.4534
       252.000         228.000
 100189564.80348  95861992.14048  20968381.5764   20968383.5854   20968381.2014
       247.000         225.000
 127133161.00148  81272589.01648  22289701.4964   22289703.2054   22289701.6374
       236.000         193.000
 134071760.24348  86679291.98848  23610071.3514   23610071.6484   23610070.5924
       223.000         175.000
 118186524.03848  92093384.54648  22490156.4724   22490159.2174   22490156.7794
       234.000         193.000
 132132989.25448  85168556.27448  23241140.7954   23241142.6474   23241140.7854
       231.000         190.000
 113608969.01048  88526454.40848  21619080.6234   21619082.5814   21619080.3634
       242.000         216.000
 09  1  6  2 10  0.0000000  0 10G 5G28G30G 9G15G18G22G26G17G12
 128663071.38248  82464716.57648  22580843.7974   22580846.8334   22580844.1994
       234.000         192.000
 133548600.81948 104063832.97948  25413462.2934   25413465.8934   25413463.4964
       205.000         144.000
 130517380.33948 101701846.60148  24836637.2554   24836639.5544   24836638.0404
       216.000         157.000
 105740836.36748  82395446.30648  20121820.3334   20121822.7354   20121820.4764
       253.000         228.000
 100245336.99848  95905450.99648  20978994.7744   20978996.6474   20978994.3614
       248.000         225.000
 127145974.82748  81282573.79248  22292140.0404   22292141.5394   22292140.4694
       235.000         193.000
 134030524.78448  86647160.46648  23602223.8634   23602224.8174   23602223.2944
       223.000         177.000
 118280530.36848  92166636.23348  22508045.0844   22508048.0694   22508045.0114
       233.000         194.000
 132146892.67748  85179390.11348  23243786.4274   23243788.1914   23243786.1174
       231.000         190.000
 113534631.58848  88468529.15848  21604934.7564   21604936.5074   21604934.7114
       243.000         216.000
 09  1  6  2 10 30.0000000  0 10G 5G28G30G 9G15G18G22G26G17G12
 128568791.24848  82391251.55948  22562902.7714   22562906.0764   22562903.0654
       232.000         193.000
 133645478.23248 104139321.86848  25431898.3354   25431901.8224   25431898.6754
       204.000         142.000
 130405868.85148 101614954.56248  24815417.1114   24815419.9794   24815417.1394
       211.000         157.000
 105715719.46948  82375874.69748  20117040.7874   20117043.2394   20117041.0394
       253.000         228.000
 100301550.00748  95949253.33548  20989691.8904   20989693.6844   20989691.6994
       248.000         225.000
 127159350.74348  81292996.57748  22294685.3364   22294687.0124   22294685.5714
       237.000         193.000
 133989794.85148  86615422.87848  23594473.7564   23594474.3434   23594473.8664
       224.000         175.000
 118374801.73848  92240094.42748  22525984.1704   22525987.4624   22525983.9404
       233.000         192.000
 132161351.46148  85190656.70148  23246538.1334   23246539.5684   23246537.9624
       231.000         190.000
 113460684.81148  88410908.29448  21590863.2414   21590864.8194   21590863.0094
       243.000         216.000
