     2.11           OBSERVATION DATA    G (GPS)             RINEX VERSION / TYPE
teqc  2008Oct2      gpsops              20090129 00:05:47UTCPGM / RUN BY / DATE
    30.0000                                                 INTERVAL
     1     1                                                WAVELENGTH FACT L1/2
     7    L1    L2    P1    P2    C1    S1    S2            # / TYPES OF OBSERV
Linux 2.4.20-8|Pentium IV|gcc -static|Linux|486/DX+         COMMENT
     2.10           OBSERVATION DATA    GPS                 COMMENT
soc2rnx ver 1.20    gpsops              29-Jan-2009 00:05:44COMMENT
S1, if present, is the SNR for the C/A data stream on L1.   COMMENT
 SNR is mapped to RINEX snr flag value [1,4-9]              COMMENT
    SNR:   >316  >100  >31.6  >10  >3.2    >0 bad=0         COMMENT
L1 & L2:      9     8     7     6     5     4     1         COMMENT
                                                            COMMENT
This data is provided as a public service by NASA/JPL.      COMMENT
No warranty is expressed or implied regarding suitability   COMMENT
for use.  For further information, contact:                 COMMENT
Dave Stowers, NASA/JPL m/s 238-600                          COMMENT
4800 Oak Grove Drive, Pasadena CA 91109 USA                 COMMENT
                                                            COMMENT
Forced Modulo Decimation to 30 seconds                      COMMENT
  2009     1    28     0     0    0.0000000     GPS         TIME OF FIRST OBS
DSN                 JPL                                     OBSERVER / AGENCY
451-U               AOAD/M_T        NONE                    ANT # / TYPE
  4849202.3940  -360328.9929  4114913.1862                  APPROX POSITION XYZ
        0.0254        0.0000        0.0000                  ANTENNA: DELTA H/E/N
LP03574             ASHTECH Z-XII3      CC00                REC # / TYPE / VERS
MADR                                                        MARKER NAME
13407S012                                                   MARKER NUMBER
                                                            END OF HEADER
 09  1 28  0  0  0.0000000  0 10G 5G 9G26G18G10G15G17G12G27G28
 126950527.41748  98922473.37148  24157893.2534   24157896.2434   24157893.1514
       218.000         164.000
 108759048.39248  84747293.86548  20696172.2394   20696174.3804   20696172.6314
       247.000         218.000
 111786661.82948  87106477.86748  21272303.4994   21272305.8914   21272303.0814
       247.000         215.000
 118150570.09348  92065375.22948  22483308.4504   22483310.0004   22483309.2784
       236.000         193.000
 133001641.35348 103637628.09348  25309378.2614   25309384.6674   25309378.6424
       199.000         142.000
 107316647.25648  83623353.09248  20421685.8144   20421687.2894   20421685.5334
       251.000         236.000
 122806804.21248  95693605.42448  23369364.8854   23369366.5904   23369364.5024
       229.000         186.000
 120886891.98448  94197573.74848  23004013.4394   23004015.4344   23004013.2914
       230.000         188.000
 127601365.06548  99429620.43848  24281741.6434   24281745.7384   24281739.7404
       209.000         156.000
 126175720.35548  98318740.78048  24010443.1724   24010444.1494   24010444.3844
       223.000         166.000
 09  1 28  0  0 30.0000000  0 10G 5G 9G26G18G10G15G17G12G27G28
 126839200.21648  98835724.91048  24136708.8734   24136711.3644   24136709.2734
       221.000         168.000
 108708423.38448  84707845.80448  20686538.5944   20686540.8694   20686538.8924
       247.000         218.000
 111856091.20248  87160578.66348  21285515.4764   21285517.9804   21285515.3654
       248.000         215.000
 118116730.23848  92039006.50748  22476869.1354   22476870.7674   22476869.4684
       235.000         193.000
 133111037.50148 103722871.85548  25330198.1034   25330202.0294   25330196.9284
       202.000         143.000
 107338040.33648  83640023.01948  20425756.7034   20425758.2214   20425756.4424
       251.000         236.000
 122779180.95548  95672080.78348  23364108.1484   23364109.9374   23364108.0534
       229.000         186.000
 120785919.05648  94118893.55748  22984798.6024   22984800.6124   22984798.6474
       230.000         188.000
 127669637.05648  99482819.37648  24294733.5974   24294738.2674   24294732.9554
       207.000         157.000
 126265553.22248  98388740.40548  24027537.5874   24027539.1794   24027538.3874
       222.000         167.000
 09  1 28  0  1  0.0000000  0 10G 5G 9G26G18G10G15G17G12G27G28
 126728018.50348  98749089.82948  24115551.8764   24115554.0104   24115552.3194
       219.000         168.000
 108658102.95848  84668635.08648  20676962.8364   20676965.1714   20676962.6754
       248.000         218.000
 111925877.17948  87214957.34348  21298795.3844   21298797.8024   21298795.5134
       247.000         215.000
 118083442.77448  92013068.22648  22470534.9584   22470536.0734   22470535.6954
       237.000         193.000
 133220341.77148 103808044.01648  25350997.9094   25351002.7324   25350998.4454
       204.000         138.000
 107359888.25548  83657047.36748  20429914.2364   20429915.5734   20429914.0304
       251.000         236.000
 122752051.41448  95650940.90648  23358945.7824   23358947.2994   23358945.7824
       229.000         187.000
 120685199.06948  94040410.47148  22965632.3594   22965634.1794   22965632.2194
       231.000         189.000
 127737938.36648  99536041.17148  24307732.2674   24307735.2074   24307732.0364
       213.000         160.000
 126355553.65948  98458870.60248  24044664.1764   24044666.1384   24044664.6164
       222.000         166.000
 09  1 28  0  1 30.0000000  0 10G 5G 9G26G18G10G15G17G12G27G28
 126616984.38248  98662569.76448  24094422.2634   24094424.9754   24094422.1884
       220.000         168.000
 108608088.00248  84629662.39948  20667445.1384   20667447.7064   20667445.3924
       248.000         218.000
 111996019.20248  87269613.46048  21312142.7844   21312145.5054   21312142.6324
       247.000         215.000
 118050709.35448  91987561.65648  22464306.1144   22464307.0594   22464306.8424
       238.000         193.000
 133329552.43948 103893143.27448  25371780.0904   25371783.2504   25371779.8234
       205.000         139.000
 107382191.50348  83674426.51148  20434158.3654   20434159.7874   20434158.2264
       251.000         236.000
 122725417.68948  95630187.34948  23353877.1154   23353878.8354   23353876.8044
       229.000         187.000
 120584734.48048  93962126.38248  22946514.8944   22946516.2434   22946514.8544
       232.000         190.000
 127806269.59548  99589286.26248  24320734.8594   24320737.8984   24320736.1084
       213.000         158.000
 126445719.43948  98529129.63948  24061822.0104   24061824.3534   24061822.3244
       220.000         166.000
 09  1 28  0  2  0.0000000  0 10G 5G 9G26G18G10G15G17G12G27G28
 126506099.82348  98576166.22848  24073321.4114   24073324.7184   24073322.0094
       220.000         168.000
 108558378.94748  84590928.06848  20657986.1144   20657988.4114   20657986.4714
       249.000         218.000
 112066516.22048  87324546.19048  21325558.1534   21325560.6674   21325558.0724
       248.000         214.000
 118018530.44848  91962487.18148  22458182.6144   22458183.5564   22458183.2574
       236.000         194.000
 133438667.04848 103978167.66748  25392544.4704   25392547.9794   25392545.0894
       203.000         138.000
 107404950.16148  83692160.52948  20438489.1844   20438490.7714   20438488.9664
       251.000         236.000
 122699281.15348  95609821.21348  23348903.8564   23348905.2694   23348903.7504
       232.000         188.000
 120484527.24048  93884042.83848  22927445.9764   22927447.5174   22927446.2684
       231.000         190.000
 127874630.50948  99642554.50048  24333743.4364   24333746.5054   24333743.9054
       212.000         159.000
 126536048.02748  98599515.54748  24079011.0184   24079013.1104   24079011.1114
       221.000         165.000
 09  1 28  0  2 30.0000000  0 10G 5G 9G26G18G10G15G17G12G27G28
 126395366.85148  98489880.79348  24052250.0344   24052252.8724   24052251.0344
       220.000         169.000
 108508976.57948  84552432.72748  20648584.9724   20648587.3954   20648585.6684
       247.000         219.000
 112137367.69448  87379755.12748  21339040.6094   21339043.0164   21339040.7364
       246.000         213.000
 117986907.86348  91937846.19648  22452164.9054   22452166.1964   22452165.4584
       237.000         193.000
 133547682.93748 104063115.13148  25413289.6674   25413292.8054   25413291.2864
       204.000         139.000
 107428165.10748  83710250.08248  20442906.9244   20442908.4364   20442906.7574
       251.000         236.000
 122673643.70048  95589843.96848  23344025.4164   23344027.0504   23344025.6884
       232.000         189.000
 120384579.38848  93806161.39848  22908426.7614   22908427.9854   22908425.9364
       231.000         189.000
 127943021.19448  99695845.92148  24346757.4634   24346761.2534   24346757.3014
       209.000         157.000
 126626537.78048  98670027.01348  24096230.8894   24096233.2894   24096232.2704
       220.000         164.000
 09  1 28  0  3  0.0000000  0 10G 5G 9G26G18G10G15G17G12G27G28
 126284786.50048  98403714.29048  24031207.4444   24031210.1724   24031207.7984
       219.000         169.000
 108459880.19348  84514175.80348  20639242.4164   20639244.6784   20639242.5144
       247.000         219.000
 112208571.62948  87435238.70348  21352590.3454   21352592.7544   21352590.4564
       248.000         214.000
 117955841.59548  91913638.71748  22446252.8304   22446254.1654   22446253.7934
       236.000         193.000
 133656597.17748 104147983.35048  25434015.3584   25434018.3364   25434017.3494
       205.000         139.000
 107451835.39748  83728694.45248  20447411.2124   20447412.6544   20447411.0064
       251.000         235.000
 122648505.96848  95570256.12148  23339241.6584   23339243.4674   23339241.7384
       231.000         189.000
 120284892.06548  93728482.98948  22889456.3384   22889458.5864   22889456.2644
       231.000         189.000
 128011440.89848  99749159.95248  24359776.8274   24359781.0334   24359776.6204
       211.000         158.000
 126717185.87748  98740661.88448  24113480.1754   24113482.6894   24113480.6064
       218.000         163.000
 09  1 28  0  3 30.0000000  0 11G 5G 9G26G18G10G15G17G12G27G22G28
 126174360.74548  98317668.27148  24010193.7584   24010197.0864   24010194.3164
       222.000         172.000
 108411090.63548  84476157.96748  20629957.8604   20629960.3594   20629957.7394
       247.000         219.000
 112280127.36648  87490996.41348  21366207.1204   21366209.4684   21366207.3684
       246.000         213.000
 117925332.40648  91889865.32148  22440447.1924   22440448.4424   22440447.2924
       237.000         193.000
 133765407.49448 104232770.58048  25454721.1484   25454724.0534   25454722.1064
       207.000         140.000
 107475961.33648  83747493.87448  20452002.1774   20452003.6824   20452001.8434
       251.000         235.000
 122623869.52148  95551058.91048  23334553.2904   23334555.1234   23334553.0254
       230.000         188.000
 120185467.23048  93651009.11448  22870536.4264   22870538.4674   22870536.4394
       232.000         191.000
 128079889.65948  99802496.65148  24372803.3554   24372806.1204   24372802.8074
       213.000         158.000
 138252989.70558  89937398.74458  24405730.0325   24405729.2505   24405730.6445
       218.000         161.000
 126807989.92548  98811418.29148  24130759.1244   24130762.0504   24130759.0284
       220.000         163.000
 09  1 28  0  4  0.0000000  0 11G 5G 9G26G18G10G15G17G12G27G22G28
 126064092.16448  98231744.70048  23989210.3554   23989213.6624   23989211.4544
       222.000         171.000
 108362608.77548  84438379.89548  20620732.2174   20620734.6244   20620732.5374
       248.000         219.000
 112352034.72648  87547028.11548  21379890.3264   21379893.0484   21379890.1254
       246.000         213.000
 117895382.17848  91866527.46948  22434748.1524   22434749.4734   22434749.0044
       236.000         194.000
 133874112.12848 104317475.48548  25475405.4164   25475409.0004   25475406.6894
       203.000         140.000
 107500544.45848  83766649.54048  20456680.3154   20456681.6314   20456680.0824
       251.000         235.000
 122599736.62748  95532254.04248  23329961.1034   23329962.9444   23329960.9734
       231.000         189.000
 120086307.49548  93573741.79948  22851667.2074   22851668.8674   22851667.1624
       231.000         191.000
 128148368.19248  99855856.54448  24385834.1274   24385837.4504   24385833.9114
       210.000         160.000
 138179592.77848  89880206.27748  24391762.6144   24391761.9274   24391763.8324
       223.000         162.000
 126898948.72548  98882295.26348  24148068.7844   24148070.8254   24148069.0534
       221.000         164.000
 09  1 28  0  4 30.0000000  0 11G 5G 9G26G18G10G15G17G12G27G22G28
 125953982.89348  98145945.26748  23968257.1884   23968260.4224   23968258.5424
       220.000         170.000
 108314435.35448  84400842.17348  20611564.9624   20611567.7034   20611565.4544
       247.000         220.000
 112424292.79948  87603333.09748  21393640.7184   21393643.0984   21393640.8424
       245.000         212.000
 117865991.87648  91843625.93348  22429154.8304   22429156.5424   22429154.9284
       236.000         193.000
 133982709.12448 104402096.46248  25496071.9154   25496075.8144   25496072.4234
       202.000         137.000
 107525584.67248  83786161.38948  20461445.1274   20461446.6844   20461444.7724
       251.000         235.000
 122576108.93448  95513842.87148  23325465.0574   23325466.7754   23325464.8484
       232.000         188.000
 119987415.20448  93496682.88748  22832848.5854   22832850.1134   22832848.5024
       233.000         192.000
 128216876.77648  99909239.84248  24398870.5494   24398873.8094   24398869.2894
       213.000         160.000
 138106576.35148  89823310.33848  24377867.1534   24377867.7164   24377867.1714
       215.000         166.000
 126990060.17148  98953291.15448  24165406.8024   24165408.8794   24165408.2074
       218.000         163.000
 09  1 28  0  5  0.0000000  0 11G 5G 9G26G18G10G15G17G12G27G22G28
 125844035.57148  98060272.04148  23947334.8494   23947338.2694   23947335.1044
       222.000         170.000
 108266571.48648  84363545.64848  20602456.9904   20602459.3414   20602457.0264
       247.000         220.000
 112496901.42048  87659911.23748  21407457.4414   21407460.0394   21407457.1794
       245.000         212.000
 117837163.52648  91821162.27348  22423669.0624   22423670.5474   22423669.8054
       234.000         192.000
 134091197.11348 104486632.51448  25516717.1354   25516720.1054   25516717.8974
       201.000         136.000
 107551083.24648  83806030.39248  20466297.5334   20466298.9964   20466297.2544
       251.000         235.000
 122552988.64348  95495827.06148  23321065.0374   23321066.8394   23321065.0394
       230.000         188.000
 119888792.92448  93419834.37348  22814081.3394   22814083.1814   22814081.0834
       233.000         193.000
 128285416.35048  99962647.29448  24411913.3274   24411916.9264   24411913.7794
       213.000         158.000
 138033943.63248  89766713.46948  24364045.1924   24364046.3874   24364043.2924
       218.000         163.000
 127081322.93648  99024404.99048  24182773.4034   24182775.5344   24182773.3624
       221.000         165.000
 09  1 28  0  5 30.0000000  0 11G 5G 9G26G18G10G15G17G12G27G22G28
 125734251.58548  97974726.09048  23926443.3544   23926446.9714   23926444.6614
       219.000         170.000
 108219016.87548  84326490.11448  20593407.5914   20593410.1554   20593407.8834
       248.000         220.000
 112569859.40748  87716761.60148  21421341.1134   21421343.6114   21421341.1754
       245.000         212.000
 117808897.09548  91799136.48148  22418290.2294   22418291.9254   22418290.3834
       235.000         193.000
 134199573.58048 104571081.69948  25537339.6244   25537343.5344   25537342.1874
       200.000         135.000
 107577039.67548  83826256.17048  20471236.8304   20471238.2204   20471236.6564
       251.000         234.000
 122530376.64048  95478207.32648  23316762.2854   23316764.0714   23316761.5564
       231.000         189.000
 119790442.40748  93343197.60448  22795366.0764   22795367.9964   22795365.9084
       233.000         194.000
 128353986.20748 100016078.33048  24424962.2294   24424964.4024   24424962.0324
       211.000         158.000
 137961696.24548  89710416.71848  24350297.8504   24350298.6054   24350297.7724
       221.000         163.000
 127172734.41248  99095634.68848  24200168.5434   24200170.8394   24200169.5874
       218.000         164.000
 09  1 28  0  6  0.0000000  0 11G 5G 9G26G18G10G15G17G12G27G22G28
 125624632.49148  97889308.61548  23905584.0374   23905587.3774   23905583.7554
       224.000         172.000
 108171771.88348  84289675.82748  20584417.0904   20584419.5464   20584417.3264
       248.000         220.000
 112643165.13348  87773882.93748  21435290.8014   21435293.2464   21435290.8194
       245.000         212.000
 117781193.10748  91777548.95348  22413018.2784   22413020.0214   22413018.9874
       234.000         193.000
 134307835.65148 104655441.72448  25557940.2474   25557946.3414   25557941.9324
       195.000         134.000
 107603453.68648  83846838.50348  20476263.1714   20476264.6644   20476262.8944
       251.000         235.000
 122508274.16648  95460984.60248  23312556.2784   23312558.1544   23312556.0284
       230.000         188.000
 119692365.18448  93266773.80448  22776702.5564   22776704.3404   22776702.3014
       232.000         193.000
 128422586.01348 100069532.68848  24438016.3464   24438018.7444   24438015.9814
       211.000         159.000
 137889835.66248  89654421.47348  24336623.6844   24336622.6354   24336623.3074
       220.000         165.000
 127264291.93548  99166978.19748  24217591.6774   24217593.3764   24217590.8984
       216.000         162.000
 09  1 28  0  6 30.0000000  0 11G 5G 9G26G18G10G15G17G12G27G22G28
 125515180.02348  97804020.96148  23884756.3784   23884759.2644   23884757.6634
       224.000         173.000
 108124836.86948  84253103.09148  20575485.5324   20575488.0784   20575485.9294
       247.000         220.000
 112716817.75148  87831274.58648  21449306.2994   21449308.8464   21449306.1014
       245.000         211.000
 117754052.34848  91756400.30648  22407853.5264   22407854.8344   22407853.5824
       234.000         192.000
 134415980.46748 104739710.40748  25578520.5464   25578525.6584   25578520.4964
       202.000         137.000
 107630325.57748  83867777.61848  20481376.8554   20481378.2704   20481376.5204
       251.000         234.000
 122486682.26248  95444159.75848  23308447.7624   23308448.8704   23308447.1934
       233.000         190.000
 119594562.81948  93190564.19448  22758091.3684   22758093.2194   22758091.6724
       233.000         194.000
 128491215.54148 100123010.26048  24451075.9364   24451078.3524   24451076.1754
       210.000         156.000
 137818364.15748  89598729.38048  24323022.8904   24323023.0614   24323023.2274
       213.000         162.000
 127355993.28348  99238433.77748  24235041.3724   24235043.6614   24235041.4334
       218.000         161.000
 09  1 28  0  7  0.0000000  0 10G 5G 9G26G18G15G17G12G27G22G28
 125405895.66048  97718864.33848  23863959.8044   23863963.2864   23863960.4194
       219.000         172.000
 108078211.85948  84216771.93048  20566613.0034   20566615.7204   20566613.1454
       248.000         220.000
 112790815.76648  87888935.37648  21463387.5234   21463390.2514   21463387.4944
       244.000         211.000
 117727475.37348  91735690.97448  22402795.8094   22402797.5314   22402795.9934
       235.000         192.000
 107657655.41248  83889073.58848  20486577.4974   20486579.0164   20486577.2434
       251.000         235.000
 122465602.27448  95427733.79048  23304436.1334   23304437.9724   23304436.2994
       233.000         190.000
 119497037.03848  93114570.10548  22739532.9564   22739534.7234   22739532.9444
       233.000         195.000
 128559874.83648 100176510.99548  24464140.4764   24464143.8864   24464140.4684
       210.000         156.000
 137747283.46648  89543341.87248  24309496.6144   24309497.2564   24309495.8804
       218.000         171.000
 127447836.25348  99309999.69748  24252518.8924   24252520.7664   24252520.7024
       217.000         161.000
 09  1 28  0  7 30.0000000  0 10G 5G 9G26G18G15G17G12G27G22G28
 125296782.37748  97633841.01648  23843195.8054   23843199.5204   23843195.6084
       223.000         174.000
 108031898.33048  84180683.46748  20557800.0004   20557802.4374   20557800.1464
       248.000         221.000
 112865159.47748  87946865.53048  21477534.6624   21477537.3344   21477534.3084
       244.000         210.000
 117701463.83448  91715422.22648  22397846.4334   22397847.7474   22397846.9164
       234.000         193.000
 107685443.84648  83910726.90248  20491865.5764   20491867.0254   20491865.3374
       252.000         234.000
 122445036.38948  95411708.42948  23300522.4564   23300524.5234   23300522.2484
       234.000         191.000
 119399790.97048  93038793.95248  22721028.1074   22721029.3034   22721027.7554
       235.000         195.000
 128628564.81648 100230035.62548  24477212.3874   24477214.8314   24477212.4624
       212.000         159.000
 137676596.57048  89488261.20348  24296045.1604   24296045.8934   24296044.6194
       222.000         165.000
 127539819.42248  99381674.90148  24270022.3284   24270024.2684   24270024.0614
       218.000         160.000
 09  1 28  0  8  0.0000000  0 10G 5G 9G26G18G15G17G12G27G22G28
 125187841.31748  97548951.89148  23822465.6014   23822468.4854   23822465.9404
       222.000         174.000
 107985895.92248  84144837.44548  20549046.1924   20549048.5174   20549046.2444
       248.000         221.000
 112939847.02648  88005063.61948  21491747.1954   21491749.9264   21491747.0484
       244.000         211.000
 117676017.90948  91695594.23948  22393003.9624   22393005.5754   22393004.4024
       235.000         194.000
 107713690.48748  83932737.26848  20497240.7814   20497242.1074   20497240.6594
       251.000         235.000
 122424985.39748  95396084.29248  23296706.9644   23296708.8284   23296707.3084
       232.000         191.000
 119302825.65748  92963236.57948  22702575.8504   22702577.2944   22702576.3824
       233.000         195.000
 128697284.70648 100283583.57248  24490289.8624   24490292.2874   24490289.9784
       216.000         162.000
 137606305.12148  89433488.63248  24282669.5644   24282668.7634   24282670.8154
       219.000         164.000
 127631940.32848  99453457.38248  24287552.3104   24287554.4104   24287553.0804
       214.000         159.000
 09  1 28  0  8 30.0000000  0 10G 5G 9G26G18G15G17G12G27G22G28
 125079074.51448  97464198.54548  23801767.8134   23801770.9784   23801767.7034
       224.000         175.000
 107940205.11048  84109234.21848  20540351.5374   20540353.8684   20540351.5754
       248.000         221.000
 113014877.53148  88063528.93648  21506025.1054   21506027.8824   21506024.9444
       244.000         210.000
 117651138.50548  91676207.69648  22388270.1484   22388271.3584   22388270.3844
       237.000         194.000
 107742396.12848  83955105.29348  20502703.2004   20502704.5964   20502703.0664
       251.000         234.000
 122405450.52048  95380862.31148  23292989.8754   23292991.4544   23292989.5374
       234.000         192.000
 119206142.94448  92887899.41748  22684177.1574   22684179.0644   22684176.3504
       232.000         194.000
 128766034.78948 100337155.05548  24503372.4074   24503375.7004   24503372.7364
       216.000         163.000
 137536411.41748  89379025.91248  24269368.4774   24269368.6934   24269366.9584
       215.000         165.000
 127724196.92248  99525345.62348  24305107.8404   24305110.2184   24305107.7634
       213.000         158.000
 09  1 28  0  9  0.0000000  0 10G 5G 9G26G18G15G17G12G27G22G28
 124970484.60648  97379583.02748  23781103.9484   23781107.2994   23781105.2694
       223.000         176.000
 107894827.15248  84073874.77848  20531716.2954   20531718.6274   20531716.5204
       248.000         221.000
 113090250.91948  88122261.44548  21520368.2384   21520370.8924   21520368.2284
       243.000         210.000
 117626827.09948  91657263.73448  22383643.4984   22383645.1244   22383644.3524
       234.000         192.000
 107771561.20648  83977831.31748  20508253.1274   20508254.5574   20508252.9214
       251.000         234.000
 122386434.12748  95366044.35148  23289370.9444   23289372.8074   23289370.9574
       232.000         192.000
 119109745.73948  92812784.73348  22665833.3874   22665835.4704   22665833.2684
       233.000         195.000
 128834815.77748 100390750.64748  24516461.3954   24516463.7674   24516461.2314
       215.000         162.000
 137466918.20148  89324875.35948  24256144.5874   24256145.2634   24256145.5154
       223.000         165.000
 127816587.81348  99597338.48348  24322689.5694   24322691.8624   24322689.9074
       215.000         157.000
 09  1 28  0  9 30.0000000  0 10G 5G 9G26G18G15G17G12G27G22G28
 124862071.48048  97295105.26648  23760473.5084   23760476.8514   23760474.8264
       225.000         176.000
 107849760.39748  84038757.83148  20523140.4254   20523142.6794   20523140.6404
       248.000         221.000
 113165963.91448  88181258.57848  21534775.9274   21534778.5314   21534775.7494
       244.000         210.000
 117603082.21448  91638761.22548  22379124.8874   22379126.2344   22379125.3544
       235.000         192.000
 107801183.59548  84000913.68948  20513890.0184   20513891.5354   20513889.6804
       250.000         234.000
 122367935.43548  95351629.79048  23285850.4784   23285852.7314   23285850.4594
       233.000         193.000
 119013633.87448  92737892.38648  22647544.2714   22647545.8324   22647544.1434
       235.000         196.000
 128903625.74848 100444368.78548  24529554.4574   24529557.8634   24529555.1604
       216.000         162.000
 137397825.63948  89271037.02748  24242996.4304   24242997.3914   24242998.5104
       215.000         167.000
 127909109.08648  99669432.95948  24340296.0404   24340297.7144   24340298.5334
       211.000         152.000
 09  1 28  0 10  0.0000000  0 10G 5G 9G26G18G15G17G12G27G22G28
 124753838.72348  97210768.05548  23739877.6204   23739880.7284   23739878.1434
       222.000         175.000
 107805007.01948  84003885.07548  20514624.0844   20514626.3964   20514624.1454
       249.000         221.000
 113242017.44948  88240521.06948  21549248.2854   21549251.0284   21549248.0534
       243.000         209.000
 117579906.28848  91620702.05448  22374714.6494   22374716.2074   22374715.4914
       235.000         193.000
 107831265.47748  84024354.11148  20519614.3944   20519616.0154   20519614.1254
       250.000         234.000
 122349957.20948  95337620.78748  23282429.5604   23282431.4504   23282429.8624
       233.000         192.000
 118917811.18948  92663225.37248  22629309.9594   22629311.4354   22629309.9904
       235.000         197.000
 128972466.57348 100498010.98048  24542654.5664   24542658.5394   24542655.2194
       214.000         163.000
 137329137.74048  89217513.97048  24229926.0854   24229925.7844   24229923.9664
       214.000         165.000
 128001759.84548  99741628.34448  24357926.5434   24357928.0944   24357925.9504
       206.000         151.000
 09  1 28  0 10 30.0000000  0 10G 5G 9G26G18G15G17G12G27G22G28
 124645788.05648  97126572.74448  23719315.7704   23719318.9794   23719315.9414
       225.000         174.000
 107760567.53848  83969256.90948  20506167.6124   20506169.9704   20506168.1744
       248.000         222.000
 113318410.37248  88300048.01448  21563785.3924   21563788.2424   21563785.1384
       243.000         209.000
 117557299.81448  91603086.61248  22370413.1264   22370414.5824   22370413.6054
       236.000         194.000
 107861806.48748  84048152.29148  20525426.2914   20525427.7544   20525426.1104
       251.000         234.000
 122332500.67948  95324018.29648  23279107.7434   23279109.8824   23279107.6994
       231.000         192.000
 118822279.21548  92588784.88448  22611130.7084   22611132.4874   22611130.3954
       235.000         196.000
 129041338.17448 100551677.14948  24555760.7994   24555764.2984   24555760.9454
       217.000         163.000
 137260855.85848  89164307.31548  24216931.7804   24216933.0314   24216934.1964
       219.000         169.000
 128094538.54648  99813923.39848  24375581.1764   24375583.7774   24375581.1294
       208.000         151.000
 09  1 28  0 11  0.0000000  0 10G 5G 9G26G18G15G17G12G27G22G28
 124537921.25348  97042520.67648  23698789.7664   23698792.5734   23698790.6184
       224.000         176.000
 107716442.23748  83934873.56048  20497770.7524   20497773.2284   20497770.8794
       249.000         222.000
 113395141.25448  88359838.30548  21578386.9784   21578389.7504   21578386.7294
       244.000         209.000
 117535263.18048  91585915.21048  22366219.6534   22366220.7304   22366220.2394
       236.000         193.000
 107892807.21248  84072308.70048  20531325.3774   20531326.9324   20531325.2034
       250.000         233.000
 122315567.32648  95310823.48248  23275885.3654   23275887.2394   23275884.7384
       233.000         192.000
 118727039.85548  92514572.40848  22593006.9944   22593008.8494   22593006.7394
       234.000         196.000
 129110240.46648 100605367.23648  24568871.9904   24568875.5384   24568871.5394
       218.000         163.000
 137192982.41148  89111418.90448  24204016.3354   24204017.6954   24204017.2864
       220.000         171.000
 128187442.62448  99886316.13648  24393261.7234   24393263.5964   24393261.7854
       213.000         153.000
 09  1 28  0 11 30.0000000  0 10G 5G 9G26G18G15G17G12G27G22G28
 124430239.52248  96958612.84348  23678298.5914   23678301.4014   23678298.9124
       226.000         177.000
 107672630.96648  83900734.91548  20489433.6624   20489436.1894   20489434.2134
       248.000         222.000
 113472208.93448  88419891.03848  21593052.4584   21593055.2054   21593052.5074
       243.000         209.000
 117513796.88348  91569188.22348  22362134.7084   22362135.9644   22362135.1284
       236.000         193.000
 107924266.77348  84096822.63648  20537311.9614   20537313.5204   20537311.6124
       250.000         233.000
 122299157.36148  95298036.49848  23272762.7004   23272764.4574   23272763.0254
       233.000         191.000
 118632094.12048  92440588.72148  22574939.2514   22574941.2884   22574938.7984
       235.000         196.000
 129179172.92248 100659080.82648  24581990.0834   24581993.2904   24581989.6564
       218.000         163.000
 137125518.74848  89058849.82048  24191178.7164   24191179.0954   24191178.7694
       220.000         169.000
 128280469.56848  99958804.66548  24410964.3334   24410966.0354   24410966.2634
       216.000         155.000
 09  1 28  0 12  0.0000000  0 10G 5G 9G26G18G15G17G12G27G22G28
 124322745.40448  96874851.19948  23657843.2984   23657846.0504   23657844.0814
       226.000         177.000
 107629134.72048  83866841.74348  20481156.6894   20481159.1504   20481156.8004
       249.000         222.000
 113549612.65248  88480205.61948  21607781.8434   21607784.4604   21607781.7454
       243.000         209.000
 117492901.86948  91552906.37948  22358158.5974   22358160.1084   22358158.6924
       236.000         194.000
 107956185.57248  84121694.41948  20543385.9654   20543387.3464   20543385.7294
       250.000         233.000
 122283272.62648  95285658.77848  23269739.8964   23269741.8414   23269740.2624
       233.000         192.000
 118537444.56648  92366835.82748  22556927.9054   22556929.7674   22556927.9024
       234.000         196.000
 129248136.21148 100712818.45548  24595112.9634   24595115.6414   24595113.4524
       217.000         163.000
 137058467.51948  89006602.15448  24178419.1564   24178419.3744   24178420.2844
       222.000         169.000
 128373617.80848 100031387.70848  24428689.9674   24428691.3224   24428691.1404
       214.000         155.000
 09  1 28  0 12 30.0000000  0 10G 5G 9G26G18G15G17G12G27G22G28
 124215439.84648  96791236.49748  23637423.5124   23637426.2454   23637423.9724
       224.000         175.000
 107585952.94348  83833193.60648  20472939.3314   20472941.8994   20472939.3874
       249.000         222.000
 113627350.56848  88540780.61148  21622574.8974   21622577.5064   21622574.6634
       244.000         208.000
 117472577.75948  91537069.40848  22354291.1784   22354292.4524   22354291.8074
       236.000         194.000
 107988563.12048  84146923.67248  20549547.1034   20549548.7164   20549546.7674
       250.000         233.000
 122267913.28948  95273690.46848  23266817.0284   23266819.0764   23266816.7224
       232.000         192.000
 118443092.59648  92293314.81148  22538973.5424   22538975.3934   22538973.0144
       236.000         197.000
 129317129.59148 100766579.52348  24608242.0044   24608245.2424   24608242.7014
       215.000         162.000
 136991829.64248  88954676.48948  24165738.8064   24165739.2844   24165738.9194
       225.000         172.000
 128466884.53748 100104063.04648  24446437.4944   24446440.0574   24446437.4334
       216.000         155.000
 09  1 28  0 13  0.0000000  0 10G 5G 9G26G18G15G17G12G27G22G28
 124108326.20248  96707771.30848  23617040.3994   23617043.3864   23617040.9854
       225.000         178.000
 107543087.52848  83799791.98948  20464782.2824   20464784.8824   20464782.4494
       248.000         222.000
 113705423.23348  88601616.44748  21637431.7894   21637434.1444   21637431.8244
       243.000         208.000
 117452826.76548  91521679.01748  22350532.5264   22350534.1024   22350533.2294
       236.000         194.000
 108021400.72348  84172511.40848  20555796.0454   20555797.5324   20555795.7394
       251.000         233.000
 122253082.38948  95262133.91948  23263994.7644   23263996.4834   23263994.2484
       232.000         192.000
 118349041.17948  92220028.00548  22521076.1344   22521077.8324   22521076.3784
       236.000         198.000
 129386154.52148 100820365.17648  24621376.7294   24621379.6274   24621377.0984
       216.000         161.000
 136925608.91648  88903075.93048  24153137.6374   24153137.3454   24153139.3014
       222.000         169.000
 128560269.21248 100176830.28348  24464208.5594   24464210.4724   24464209.0174
       215.000         156.000
 09  1 28  0 13 30.0000000  0 10G 5G 9G26G18G15G17G12G27G22G28
 124001404.57348  96624455.74448  23596693.9634   23596696.7364   23596694.3664
       224.000         177.000
 107500537.35748  83766636.01048  20456685.5014   20456688.0284   20456685.6394
       250.000         223.000
 113783827.61048  88662710.76448  21652351.5834   21652354.0624   21652351.4014
       243.000         208.000
 117433647.56448  91506734.17348  22346882.7624   22346884.7084   22346883.2014
       235.000         195.000
 108054696.56148  84198456.20448  20562132.0894   20562133.4644   20562131.9074
       250.000         233.000
 122238778.92348  95250988.35448  23261273.0724   23261274.8194   23261272.7424
       232.000         193.000
 118255290.60648  92146975.61048  22503236.4384   22503237.9794   22503236.1944
       236.000         199.000
 129455209.48848 100874174.20648  24634518.2534   24634520.8154   24634518.7124
       216.000         161.000
 136859805.29748  88851800.38048  24140614.7454   24140614.7234   24140616.2354
       216.000         161.000
 128653768.01348 100249686.47748  24482000.7504   24482002.2184   24482002.0574
       214.000         153.000
 09  1 28  0 14  0.0000000  0 10G 5G 9G26G18G15G17G12G27G22G28
 123894678.51948  96541292.59648  23576384.5104   23576387.6124   23576385.1244
       224.000         177.000
 107458304.59148  83733727.35948  20448648.7844   20448651.1474   20448649.1334
       249.000         223.000
 113862564.52048  88724064.19048  21667335.0134   21667337.4044   21667335.2554
       244.000         208.000
 117415042.19948  91492236.47748  22343342.4614   22343344.2104   22343342.9514
       236.000         195.000
 108088452.34748  84224759.40348  20568555.6614   20568556.9984   20568555.3684
       250.000         233.000
 122225005.88548  95240256.12148  23258651.9104   23258654.0564   23258651.8834
       231.000         193.000
 118161844.31048  92074160.32648  22485454.1194   22485455.6424   22485454.0654
       235.000         199.000
 129524296.34348 100928008.11048  24647664.4104   24647667.3094   24647664.3874
       218.000         162.000
 136794423.24148  88800853.34248  24128172.7044   24128173.0564   24128172.8444
       219.000         163.000
 128747380.70748 100322631.40048  24499814.9254   24499815.8824   24499816.0524
       213.000         154.000
 09  1 28  0 14 30.0000000  0 10G 5G 9G26G18G15G17G12G27G22G28
 123788148.70048  96458282.36148  23556112.7094   23556115.6704   23556112.8654
       225.000         179.000
 107416388.19548  83701065.23148  20440672.5524   20440674.7584   20440672.5014
       249.000         223.000
 113941631.74348  88785675.00748  21682380.5534   21682383.4794   21682380.3914
       243.000         207.000
 117397010.17148  91478185.55348  22339910.9204   22339912.6824   22339911.7274
       235.000         195.000
 108122666.99648  84251420.16448  20575066.3764   20575067.8684   20575066.1754
       250.000         232.000
 122211763.28748  95229937.22648  23256132.0444   23256134.2044   23256131.9994
       231.000         193.000
 118068703.08248  92001582.76148  22467729.4904   22467731.5224   22467729.0664
       236.000         198.000
 129593413.92448 100981865.96248  24660817.4424   24660820.8504   24660817.8824
       217.000         165.000
 136729462.70648  88750234.72448  24115811.7974   24115811.2784   24115813.0134
       221.000         165.000
 128841104.31348 100395662.77648  24517649.9504   24517651.3144   24517651.1044
       214.000         153.000
 09  1 28  0 15  0.0000000  0 10G 5G 9G26G18G15G17G12G27G22G28
 123681817.95548  96375427.25548  23535878.5194   23535881.8154   23535879.4104
       225.000         179.000
 107374789.79748  83668650.89648  20432756.4454   20432758.7254   20432756.6294
       249.000         223.000
 114021028.92448  88847542.93548  21697489.2974   21697491.9904   21697489.3654
       242.000         207.000
 117379552.92848  91464582.49848  22336588.9204   22336590.7494   22336588.7494
       236.000         195.000
 108157341.41148  84278439.17748  20581664.6514   20581666.1214   20581664.4724
       249.000         232.000
 122199052.91548  95220033.02948  23253713.7294   23253715.4054   23253713.2454
       233.000         194.000
 117975869.37348  91929244.81148  22450063.7894   22450065.3794   22450063.8254
       237.000         198.000
 129662563.22548 101035748.51548  24673975.4924   24673980.4164   24673976.1834
       216.000         166.000
 136664926.39048  88699946.67948  24103530.4994   24103531.0634   24103529.5874
       215.000         164.000
 128934937.18348 100468779.29048  24535505.2254   24535506.7214   24535504.8964
       210.000         149.000
 09  1 28  0 15 30.0000000  0 10G 5G 9G26G18G15G17G12G27G22G28
 123575687.49448  96292728.20748  23515682.6284   23515685.6944   23515682.7604
       225.000         179.000
 107333509.29548  83636484.27848  20424900.9024   20424903.3714   20424901.1464
       249.000         223.000
 114100754.55448  88909666.79848  21712660.7524   21712663.0854   21712660.7254
       243.000         207.000
 117362670.14448  91451427.07248  22333376.3064   22333377.9144   22333376.8334
       237.000         195.000
 108192475.01348  84305816.00048  20588350.0984   20588351.8374   20588349.6814
       249.000         232.000
 122186875.34448  95210544.03348  23251396.1144   23251397.9214   23251395.9304
       233.000         193.000
 117883344.72648  91857147.69748  22432456.8654   22432458.4174   22432457.1404
       237.000         200.000
 129731743.72248 101089655.41748  24687140.0774   24687144.5344   24687140.9414
       215.000         163.000
 136600816.87048  88649991.16248  24091330.8354   24091331.4894   24091330.5104
       220.000         169.000
 129028877.08348 100541979.23248  24553381.3084   24553382.2394   24553381.4104
       212.000         149.000
 09  1 28  0 16  0.0000000  0 10G 5G 9G26G18G15G17G12G27G22G28
 123469759.29748  96210186.75348  23495525.0314   23495528.0684   23495525.0914
       226.000         178.000
 107292547.01648  83604565.61248  20417106.0534   20417108.5724   20417106.1794
       248.000         223.000
 114180807.52848  88972045.73348  21727894.5724   21727896.9324   21727894.5844
       243.000         207.000
 117346362.11248  91438719.51448  22330272.8314   22330274.7014   22330273.1184
       236.000         195.000
 108228067.70948  84333550.56048  20595123.3464   20595124.8804   20595123.0474
       250.000         232.000
 122175231.61448  95201470.99048  23249180.3984   23249182.1124   23249179.5464
       233.000         192.000
 117791130.81148  91785292.70148  22414909.4174   22414910.8874   22414908.8944
       238.000         201.000
 129800955.54348 101143586.63948  24700311.1384   24700315.2034   24700311.2914
       215.000         163.000
 136537135.41048  88600369.31848  24079213.4854   24079213.5514   24079214.4814
       221.000         172.000
 129122922.08148 100615261.04748  24571277.1814   24571278.3814   24571276.8474
       208.000         146.000
 09  1 28  0 16 30.0000000  0 10G 5G 9G26G18G15G17G12G27G22G28
 123364035.38748  96127804.49248  23475406.5314   23475409.4634   23475407.3594
       224.000         177.000
 107251903.82548  83572895.59048  20409371.9834   20409374.4474   20409372.1254
       249.000         223.000
 114261187.17248  89034679.20748  21743190.1194   21743192.6674   21743190.2074
       243.000         206.000
 117330629.71148  91426460.49548  22327279.2894   22327280.8274   22327280.0834
       236.000         194.000
 108264119.81048  84361643.09948  20601983.9034   20601985.3894   20601983.7724
       250.000         232.000
 122164123.26148  95192815.14048  23247066.7914   23247068.1924   23247066.7624
       233.000         192.000
 117699229.79348  91713681.53448  22397421.0134   22397422.6654   22397420.8934
       237.000         200.000
 129870199.26948 101197542.77248  24713487.1944   24713491.0374   24713486.2144
       216.000         165.000
 136473884.19348  88551082.63948  24067177.0604   24067176.5964   24067176.2884
       216.000         167.000
 129217070.60848 100688623.52648  24589192.7784   24589193.9004   24589193.1844
       208.000         145.000
 09  1 28  0 17  0.0000000  0 10G 5G 9G26G18G15G17G12G27G22G28
 123258516.96348  96045582.36248  23455327.0774   23455330.1364   23455327.8324
       226.000         179.000
 107211579.66448  83541474.16548  20401698.6664   20401701.0634   20401699.0144
       249.000         223.000
 114341891.58648  89097565.75748  21758547.6084   21758550.2134   21758547.3444
       242.000         206.000
 117315472.51448  91414649.69148  22324394.6404   22324396.3974   22324395.1034
       237.000         194.000
 108300630.35348  84390092.86748  20608931.6844   20608933.2354   20608931.3594
       250.000         232.000
 122153550.29248  95184576.45948  23245054.6374   23245056.5374   23245054.2424
       234.000         192.000
 117607643.08548  91642315.28548  22379992.7874   22379994.3874   22379992.7734
       237.000         200.000
 129939474.13548 101251523.18748  24726669.7484   24726673.2024   24726669.3554
       214.000         164.000
 136411064.75748  88502132.43348  24055222.1554   24055222.8064   24055221.7674
       219.000         170.000
 129311319.69248 100762064.37348  24607127.9214   24607128.8304   24607127.3474
       206.000         148.000
 09  1 28  0 17 30.0000000  0 10G 5G 9G26G18G15G17G12G27G22G28
 123153206.16048  95963521.99748  23435287.4104   23435289.7794   23435288.3474
       227.000         180.000
 107171574.86548  83510301.59748  20394085.9094   20394088.2734   20394086.1314
       249.000         223.000
 114422920.00548  89160704.77248  21773966.8304   21773969.4294   21773966.6564
       242.000         206.000
 117300891.20648  91403287.61848  22321620.1444   22321621.4844   22321620.4184
       236.000         194.000
 108337599.51948  84418900.00348  20615966.8554   20615968.2424   20615966.7314
       250.000         232.000
 122143514.00048  95176755.97348  23243144.9024   23243146.6544   23243144.7684
       234.000         193.000
 117516372.71348  91571195.51648  22362624.4944   22362626.2994   22362624.4034
       237.000         201.000
 130008780.85648 101305528.41748  24739859.1264   24739861.6924   24739858.6944
       220.000         164.000
 136348679.56348  88453520.59448  24043351.1954   24043351.7914   24043351.9064
       224.000         174.000
 129405667.99448 100835582.52648  24625081.2074   24625083.4754   24625080.8254
       205.000         146.000
 09  1 28  0 18  0.0000000  0 10G 5G 9G26G18G15G17G12G27G22G28
 123048104.02548  95881624.23248  23415287.1554   23415289.6224   23415287.6434
       227.000         181.000
 107131889.15348  83479377.66648  20386533.9634   20386536.4334   20386534.0924
       248.000         223.000
 114504270.41048  89224094.70148  21789447.3944   21789449.6974   21789447.3584
       242.000         205.000
 117286885.42948  91392374.02148  22318954.8784   22318956.2624   22318955.6464
       236.000         194.000
 108375026.62348  84448063.97348  20623088.8594   20623090.3464   20623088.5464
       250.000         231.000
 122134014.69848  95169353.92848  23241337.1604   23241338.8764   23241336.8604
       232.000         193.000
 117425419.23048  91500322.69548  22345316.7164   22345318.2844   22345316.6334
       239.000         202.000
 130078118.76748 101359557.94048  24753053.7344   24753056.5344   24753054.7554
       220.000         164.000
 136286729.41248  88405247.76448  24031562.5594   24031562.6454   24031563.1024
       221.000         170.000
 129500112.60348 100909175.69048  24643053.7204   24643056.1674   24643055.1954
       209.000         147.000
 09  1 28  0 18 30.0000000  0 10G 5G 9G26G18G15G17G12G27G22G28
 122943212.36748  95799890.49848  23395326.8474   23395329.8724   23395328.1754
       226.000         180.000
 107092523.35848  83448703.01748  20379042.8514   20379045.2954   20379042.8134
       249.000         223.000
 114585941.75548  89287734.70248  21804988.6844   21804991.3464   21804988.6144
       242.000         205.000
 117273455.20348  91381908.91048  22316399.0884   22316400.7014   22316400.3274
       235.000         194.000
 108412911.40848  84477584.57748  20630297.9444   20630299.5274   20630297.6544
       250.000         231.000
 122125053.05048  95162370.83348  23239632.0814   23239633.5304   23239632.0754
       233.000         193.000
 117334784.74748  91429698.43148  22328069.9134   22328070.9934   22328069.7994
       240.000         203.000
 130147487.82248 101413611.75848  24766253.9114   24766257.3984   24766254.9424
       217.000         163.000
 136225216.13248  88357315.34648  24019856.5514   24019856.4534   24019856.2684
       222.000         170.000
 129594651.41448 100982842.30748  24661044.6754   24661045.8904   24661044.2924
       205.000         147.000
 09  1 28  0 19  0.0000000  0 10G 5G 9G26G18G15G17G12G27G22G28
 122838534.04548  95718322.98648  23375406.7714   23375409.8834   23375407.1814
       224.000         179.000
 107053478.68548  83418278.60348  20371612.9474   20371615.4704   20371613.2654
       250.000         224.000
 114667933.98548  89351624.74748  21820591.5604   21820593.9964   21820591.6314
       242.000         204.000
 117260602.23748  91371893.59248  22313953.0864   22313954.8784   22313953.3224
       236.000         194.000
 108451255.05048  84507462.73148  20637594.4494   20637596.0974   20637594.2944
       249.000         231.000
 122116630.88448  95155808.10148  23238029.3694   23238030.7724   23238028.9674
       234.000         193.000
 117244471.99148  91359324.85748  22310883.9664   22310884.9404   22310883.8304
       240.000         203.000
 130216889.19148 101467690.71848  24779460.0394   24779463.9674   24779460.5414
       218.000         164.000
 136164142.87348  88309725.79248  24008235.9254   24008234.9894   24008236.6454
       220.000         170.000
 129689283.68848 101056581.74448  24679051.5344   24679054.9274   24679050.8954
       206.000         148.000
 09  1 28  0 19 30.0000000  0 10G 5G 9G26G18G15G17G12G27G22G28
 122734071.06048  95636923.27548  23355527.7184   23355531.2624   23355528.1804
       224.000         179.000
 107014755.55748  83388104.73348  20364244.2404   20364246.5544   20364244.5614
       249.000         224.000
 114750246.09348  89415764.04848  21836254.7734   21836257.4724   21836254.8904
       240.000         204.000
 117248327.10748  91362328.55448  22311617.4154   22311618.9874   22311618.0214
       236.000         194.000
 108490057.23548  84537698.19448  20644978.2024   20644980.0854   20644977.8644
       249.000         231.000
 122108749.69448  95149666.92448  23236529.3644   23236531.1324   23236528.7904
       234.000         193.000
 117154482.74348  91289203.37748  22293759.1284   22293760.6894   22293759.1614
       239.000         202.000
 130286323.12248 101521795.04648  24792673.8134   24792676.9064   24792673.4684
       215.000         163.000
 136103511.17648  88262480.33248  23996696.6214   23996697.7504   23996697.9514
       221.000         164.000
 129784007.63248 101130392.55148  24697077.5894   24697080.3124   24697078.4904
       209.000         148.000
 09  1 28  0 20  0.0000000  0 10G 5G 9G26G18G15G17G12G27G22G28
 122629824.51248  95555692.20648  23335690.6454   23335693.8154   23335691.0424
       227.000         180.000
 106976354.15748  83358181.56448  20356936.8034   20356939.0994   20356936.8504
       249.000         224.000
 114832876.04248  89480151.00648  21851978.9234   21851981.5994   21851978.6324
       241.000         205.000
 117236628.75248  91353212.95248  22309391.4864   22309392.6534   22309392.1684
       236.000         194.000
 108529317.15348  84568290.33248  20652449.2954   20652450.8934   20652448.9334
       249.000         231.000
 122101409.37048  95143947.18948  23235132.6914   23235134.3644   23235132.2874
       232.000         194.000
 117064818.14448  91219334.88048  22276696.2024   22276698.3704   22276695.9164
       239.000         202.000
 130355789.20248 101575924.43448  24805892.1064   24805895.8394   24805892.5954
       213.000         163.000
 136043322.88048  88215580.29448  23985242.6504   23985243.5294   23985242.9914
       219.000         167.000
 129878820.55848 101204272.73348  24715119.8744   24715122.2114   24715122.4784
       207.000         150.000
 09  1 28  0 21  0.0000000  0 10G 5G 9G26G18G15G17G12G27G22G28
 122421988.67448  95393742.22548  23296140.6784   23296143.8824   23296141.5244
       226.000         179.000
 106900518.01548  83299088.47248  20342505.5354   20342507.8614   20342505.7804
       249.000         224.000
 114999086.13248  89609665.35748  21883607.6504   21883610.3114   21883607.3854
       241.000         204.000
 117214964.95648  91336332.05748  22305268.7834   22305270.2054   22305269.6324
       236.000         194.000
 108609210.59648  84630544.95148  20667652.6154   20667654.1794   20667652.3294
       250.000         231.000
 122088355.54548  95133775.37648  23232648.8454   23232650.3314   23232648.9214
       234.000         194.000
 116886470.80048  91080362.95448  22242758.3834   22242760.0284   22242758.2054
       240.000         205.000
 130494818.64848 101684259.01148  24832348.6754   24832352.6734   24832348.6314
       218.000         162.000
 135924283.65748  88122822.47848  23962591.0924   23962591.8644   23962590.7224
       216.000         168.000
 130068706.78548 101352236.03448  24751254.5084   24751256.7984   24751254.4654
       207.000         151.000
 09  1 28  0 21 30.0000000  0 10G 5G 9G26G18G15G17G12G27G22G28
 122318402.72248  95313025.92148  23276428.6504   23276432.1394   23276428.9754
       224.000         178.000
 106863084.13748  83269919.21548  20335382.1334   20335384.5824   20335382.1374
       249.000         224.000
 115082663.62648  89674790.66848  21899511.9804   21899514.5254   21899512.1594
       241.000         203.000
 117204999.13048  91328566.47148  22303372.5594   22303373.9604   22303372.8104
       238.000         196.000
 108649843.04348  84662206.59348  20675384.7204   20675386.2044   20675384.3974
       249.000         230.000
 122082643.28548  95129324.26248  23231561.5704   23231563.2674   23231561.4904
       231.000         192.000
 116797791.33648  91011262.07948  22225883.4664   22225884.6164   22225883.2614
       240.000         205.000
 130564382.23548 101738464.38548  24845586.4004   24845589.4324   24845587.2214
       215.000         162.000
 135865436.14948  88076967.27948  23951392.5154   23951393.3014   23951393.2954
       219.000         169.000
 130163775.96748 101426315.87248  24769344.9144   24769348.1714   24769346.3284
       207.000         152.000
 09  1 28  0 22  0.0000000  0 10G 5G 9G26G18G15G17G12G27G22G28
 122215039.82648  95232483.41148  23256759.8744   23256762.8344   23256759.5264
       228.000         180.000
 106825973.01148  83241001.46148  20328319.9844   20328322.4984   20328320.3224
       249.000         224.000
 115166553.91148  89740159.71948  21915475.6924   21915477.9154   21915475.5614
       242.000         202.000
 117195610.29648  91321250.49648  22301586.3064   22301587.2044   22301586.9994
       237.000         195.000
 108690931.74148  84694223.75648  20683203.5164   20683205.0874   20683203.2304
       250.000         230.000
 122077474.47048  95125296.61848  23230577.8684   23230579.8454   23230578.4774
       231.000         194.000
 116709442.87648  90942419.13848  22209071.1964   22209072.5144   22209071.1514
       239.000         205.000
 130633977.97748 101792694.83948  24858830.1964   24858833.5194   24858830.3024
       214.000         159.000
 135807038.27148  88031462.48848  23940280.6674   23940279.9304   23940281.7224
       220.000         170.000
 130258925.91448 101500458.67648  24787451.7474   24787454.4644   24787452.2684
       209.000         154.000
 09  1 28  0 22 30.0000000  0 10G 5G 9G26G18G15G17G12G27G22G28
 122111902.75248  95152116.88848  23237133.3544   23237136.8024   23237134.8784
       228.000         181.000
 106789185.74348  83212336.05848  20321319.6444   20321322.0174   20321319.7504
       251.000         224.000
 115250756.62548  89805772.22048  21931498.9964   21931501.1904   21931499.0854
       241.000         203.000
 117186799.49948  91314384.93648  22299909.2154   22299910.4184   22299909.5834
       236.000         195.000
 108732477.40348  84726596.99548  20691109.4324   20691111.0574   20691109.1044
       250.000         230.000
 122072850.73348  95121693.71948  23229698.0224   23229700.1424   23229698.2524
       229.000         192.000
 116621428.19148  90873836.28148  22192322.1324   22192323.8584   22192321.8384
       240.000         204.000
 130703606.79748 101846951.04548  24872080.0364   24872082.4924   24872080.1184
       213.000         159.000
 135749093.05848  87986310.36848  23929253.6504   23929254.1634   23929253.0704
       220.000         173.000
 130354155.44948 101574663.49748  24805573.1644   24805576.2194   24805573.3474
       204.000         153.000
 09  1 28  0 23  0.0000000  0 10G 5G 9G26G18G15G17G12G27G22G28
 122008993.26248  95071927.66948  23217550.4774   23217553.6194   23217550.9624
       226.000         181.000
 106752723.19948  83183923.68248  20314381.1514   20314383.5234   20314381.4644
       251.000         225.000
 115335270.73148  89871627.35348  21947581.4874   21947583.9314   21947581.5054
       242.000         203.000
 117178567.06748  91307970.04348  22298342.6024   22298344.2534   22298343.0134
       236.000         195.000
 108774479.58848  84759325.96248  20699102.1204   20699103.9374   20699101.8544
       249.000         230.000
 122068773.04448  95118516.30348  23228921.8334   23228923.7924   23228921.4824
       232.000         191.000
 116533749.00848  90805514.85848  22175636.9964   22175639.0414   22175636.9154
       240.000         204.000
 130773268.88448 101901233.19848  24885336.9924   24885339.3334   24885336.7304
       214.000         159.000
 135691602.37248  87941512.42148  23918313.4224   23918313.6964   23918312.2634
       224.000         174.000
 130449463.24248 101648929.25448  24823709.2264   24823712.9104   24823707.5224
       202.000         154.000
 09  1 28  0 23 30.0000000  0 10G 5G 9G26G18G15G17G12G27G22G28
 121906312.33748  94991916.59548  23198010.6354   23198014.4174   23198010.8794
       228.000         182.000
 106716584.91948  83155763.99448  20307504.0744   20307506.5484   20307504.4494
       251.000         225.000
 115420094.08148  89937723.47448  21963723.0184   21963725.2614   21963723.1494
       241.000         203.000
 117170911.98648  91302005.04448  22296886.1044   22296887.7894   22296886.7274
       236.000         196.000
 108816937.84548  84792410.31248  20707181.7154   20707183.4424   20707181.5554
       248.000         230.000
 122065241.05748  95115764.11348  23228250.1544   23228251.5084   23228250.3464
       233.000         193.000
 116446405.73648  90737455.16748  22159016.5934   22159018.0724   22159016.3034
       239.000         205.000
 130842963.66548 101955540.80748  24898598.6204   24898602.4404   24898598.5704
       213.000         160.000
 135634566.96848  87897069.27148  23907460.3464   23907459.7944   23907462.2454
       225.000         173.000
 130544846.19748 101723253.62648  24841860.0884   24841863.3004   24841858.8704
       205.000         156.000
 09  1 28  0 24  0.0000000  0 10G 5G 9G26G18G15G17G12G27G22G28
 121803862.07448  94912085.23348  23178515.3094   23178518.6994   23178515.6714
       230.000         183.000
 106680771.38748  83127857.33948  20300689.0764   20300691.5794   20300689.0084
       252.000         225.000
 115505225.78048  90004059.85548  21979923.0924   21979925.5124   21979923.2534
       241.000         203.000
 117163834.58048  91296490.17648  22295539.2614   22295540.6874   22295539.4634
       236.000         196.000
 108859851.88448  84825849.82148  20715347.8684   20715349.6434   20715347.4724
       248.000         229.000
 122062255.98348  95113438.07548  23227681.9094   23227683.6184   23227682.1864
       231.000         192.000
 116359400.92748  90669659.22548  22142460.2644   22142461.6294   22142459.9824
       241.000         206.000
 130912691.52448 102009874.20048  24911867.8334   24911870.8894   24911867.7244
       218.000         162.000
 135577989.11248  87852982.61748  23896693.8854   23896693.6984   23896696.1044
       222.000         173.000
 130640302.86148 101797635.39948  24860024.7374   24860028.4254   24860024.2524
       208.000         157.000
 09  1 28  0 24 30.0000000  0 10G 5G 9G26G18G15G17G12G27G22G28
 121701644.59548  94832435.25748  23159063.9864   23159067.1804   23159064.9614
       227.000         182.000
 106645283.65648  83100204.55948  20293936.0224   20293938.5184   20293936.4584
       251.000         225.000
 115590665.04948  90070635.90048  21996181.5974   21996184.0594   21996181.6054
       241.000         202.000
 117157335.28448  91291425.78248  22294302.5794   22294304.0644   22294303.1014
       236.000         195.000
 108903221.65148  84859644.44148  20723600.8714   20723602.5064   20723600.5494
       248.000         229.000
 122059818.61248  95111538.82948  23227217.7944   23227219.8914   23227217.2354
       231.000         192.000
 116272736.39848  90602128.43648  22125968.5524   22125970.0444   22125968.5584
       241.000         207.000
 130982453.04548 102064233.84448  24925142.0744   24925145.7644   24925142.8204
       217.000         160.000
 135521870.36948  87809253.72348  23886014.3934   23886014.9524   23886013.8304
       226.000         177.000
 130735831.61348 101872073.35848  24878203.8704   24878206.4564   24878203.2864
       208.000         155.000
 09  1 28  0 25  0.0000000  0 10G 5G 9G26G18G15G17G12G27G22G28
 121599661.21348  94752967.69948  23139657.2664   23139660.1774   23139657.5724
       227.000         180.000
 106610121.50548  83072805.48248  20287244.8904   20287247.2624   20287245.0904
       252.000         225.000
 115676410.12548  90137450.24348  22012498.1774   22012500.7484   22012498.2384
       239.000         201.000
 117151413.31248  91286811.24448  22293175.4344   22293177.1204   22293175.6154
       237.000         195.000
 108947046.35448  84893793.55148  20731940.5454   20731942.1834   20731940.1574
       249.000         229.000
 122057929.16748  95110066.54748  23226858.5954   23226860.2314   23226857.9134
       232.000         193.000
 116186413.27348  90534863.68248  22109541.6174   22109543.2554   22109541.7414
       239.000         206.000
 131052247.80848 102118619.35948  24938424.3814   24938427.4494   24938425.5854
       217.000         163.000
 135466212.95448  87765884.29948  23875423.8204   23875423.5454   23875423.9754
       223.000         170.000
 130831430.30948 101946565.82048  24896395.2594   24896397.9344   24896396.1664
       209.000         156.000
 09  1 28  0 25 30.0000000  0 10G 5G 9G26G18G15G17G12G27G22G28
 121497913.58648  94673683.85048  23120294.9584   23120298.2774   23120295.8484
       228.000         182.000
 106575285.46248  83045660.50448  20280615.8484   20280618.1854   20280615.9084
       252.000         225.000
 115762459.74948  90204501.89248  22028872.9874   22028875.2904   22028872.5214
       241.000         202.000
 117146068.86548  91282646.73248  22292158.2914   22292160.1974   22292159.0244
       235.000         195.000
 108991325.45148  84928296.73448  20740366.6544   20740368.2474   20740366.3774
       249.000         229.000
 122056588.05848  95109021.51948  23226603.2374   23226605.5314   23226603.4214
       229.000         193.000
 116100433.19948  90467866.23148  22093180.0254   22093181.5234   22093179.9524
       239.000         205.000
 131122076.02348 102173030.92648  24951712.3974   24951715.4584   24951712.9724
       218.000         163.000
 135411018.02448  87722875.27148  23864919.9004   23864919.6704   23864921.0364
       224.000         172.000
 130927097.05648 102021111.30348  24914600.6414   24914602.9164   24914600.6644
       212.000         159.000
 09  1 28  0 26  0.0000000  0 10G 5G 9G26G18G15G17G12G27G22G28
 121396403.71348  94594585.24948  23100978.6534   23100981.8844   23100979.3084
       229.000         183.000
 106540776.21348  83018770.17648  20274049.1004   20274051.2994   20274049.2974
       252.000         225.000
 115848812.88748  90271790.05348  22045305.5664   22045307.9464   22045305.5214
       241.000         203.000
 117141301.97148  91278932.27548  22291251.3474   22291253.0724   22291252.0994
       236.000         195.000
 109036059.01948  84963154.05548  20748879.0534   20748880.7484   20748878.8304
       249.000         229.000
 122055796.04148  95108404.38248  23226452.5164   23226454.7794   23226452.3234
       231.000         193.000
 116014797.98248  90401137.50348  22076884.2854   22076885.5544   22076884.2264
       239.000         205.000
 131191937.88148 102227468.70748  24965006.2494   24965009.9584   24965006.2134
       218.000         163.000
 135356287.28648  87680227.95648  23854504.8134   23854505.2434   23854505.2984
       222.000         175.000
 131022830.05448 102095708.42248  24932817.9314   24932819.6744   24932818.7644
       211.000         157.000
 09  1 28  0 26 30.0000000  0 10G 5G 9G26G18G15G17G12G27G22G28
 121295133.01448  94515673.03748  23081707.0534   23081710.8184   23081707.6434
       228.000         183.000
 106506593.77148  82992134.50748  20267544.2354   20267546.7074   20267544.4934
       252.000         226.000
 115935467.88048  90339313.41748  22061795.3814   22061798.2614   22061795.2704
       240.000         201.000
 117137112.29948  91275667.57848  22290453.8864   22290455.6054   22290454.4884
       236.000         194.000
 109081246.14448  84998364.79548  20757477.8554   20757479.5574   20757477.5214
       249.000         229.000
 122055553.49748  95108215.40148  23226406.3644   23226408.3864   23226406.0604
       230.000         192.000
 115929509.02348  90334678.58048  22060654.2654   22060655.4594   22060654.0474
       239.000         206.000
 131261833.50548 102281932.82048  24978307.3194   24978310.4854   24978307.2554
       216.000         163.000
 135302022.22948  87637943.47648  23844178.9884   23844179.4294   23844178.4614
       221.000         172.000
 131118627.06948 102170355.43348  24951047.5204   24951049.2284   24951048.3354
       211.000         158.000
 09  1 28  0 27  0.0000000  0 10G 5G 9G26G18G15G17G12G27G22G28
 121194104.76148  94436949.73448  23062482.0264   23062485.7894   23062483.2524
       227.000         184.000
 106472739.94848  82965754.90448  20261102.1524   20261104.5454   20261102.4034
       252.000         226.000
 116022425.12548  90407072.31148  22078342.7074   22078345.3884   22078342.5784
       241.000         201.000
 117133501.26248  91272853.77748  22289766.5824   22289768.4294   22289767.1144
       236.000         194.000
 109126888.05648  85033929.91748  20766163.2864   20766164.9884   20766163.1594
       248.000         229.000
 122055862.42348  95108456.12348  23226464.6904   23226467.1744   23226464.2134
       231.000         192.000
 115844569.37048  90268491.85148  22044490.7994   22044492.1674   22044490.4624
       240.000         207.000
 131331764.31248 102336424.32248  24991614.4624   24991617.8064   24991614.5634
       216.000         161.000
 135248225.57848  87596024.04548  23833941.2984   23833941.7114   23833941.8154
       222.000         173.000
 131214488.09048 102245052.32548  24969289.5344   24969290.9234   24969290.3314
       213.000         159.000
 09  1 28  0 27 30.0000000  0 10G 5G 9G26G18G15G17G12G27G22G28
 121093319.76348  94358415.97748  23043303.3834   23043307.2374   23043303.3304
       228.000         185.000
 106439214.30548  82939631.02148  20254722.3894   20254724.8794   20254722.6854
       252.000         226.000
 116109682.34248  90475064.93148  22094947.1504   22094949.7904   22094947.2214
       238.000         201.000
 117130467.55148  91270489.84648  22289189.7674   22289190.9084   22289190.1324
       237.000         196.000
 109172983.62548  85069848.53648  20774934.8224   20774936.8004   20774934.3264
       249.000         228.000
 122056722.59748  95109126.37548  23226628.6344   23226630.5874   23226628.3264
       232.000         192.000
 115759979.94048  90202578.01848  22028394.0904   22028395.6254   22028393.8054
       240.000         207.000
 131401729.53948 102390942.67748  25004928.6814   25004931.2424   25004929.2294
       219.000         163.000
 135194899.02048  87554470.88048  23823794.7704   23823793.6114   23823794.9884
       224.000         176.000
 131310410.27148 102319796.86248  24987543.0964   24987544.0184   24987544.3884
       210.000         158.000
 09  1 28  0 28  0.0000000  0 10G 5G 9G26G18G15G17G12G27G22G28
 120992777.43248  94280071.31248  23024170.8234   23024174.5094   23024171.3614
       227.000         184.000
 106406015.38048  82913761.72448  20248404.7454   20248407.1684   20248404.9014
       252.000         225.000
 116197235.97348  90543288.52748  22111608.0354   22111610.5694   22111607.5744
       240.000         200.000
 117128008.90848  91268574.01648  22288722.1314   22288723.2544   22288722.5854
       237.000         196.000
 109219529.89548  85106118.34148  20783792.5874   20783794.3254   20783792.3064
       249.000         229.000
 122058132.00748  95110224.61548  23226896.7014   23226898.9324   23226897.3364
       231.000         191.000
 115675739.52048  90136936.14748  22012363.6164   22012365.2744   22012363.6434
       240.000         207.000
 131471727.07648 102445486.18348  25018248.2814   25018251.5464   25018248.8354
       215.000         159.000
 135142041.27248  87513283.03448  23813735.4624   23813735.9094   23813736.9154
       219.000         175.000
 131406389.20748 102394585.58948  25005806.7484   25005808.4184   25005807.0854
       210.000         157.000
 09  1 28  0 28 30.0000000  0 10G 5G 9G26G18G15G17G12G27G22G28
 120892482.09348  94201919.12148  23005085.0764   23005088.7164   23005085.9404
       228.000         183.000
 106373145.85948  82888149.10948  20242149.8704   20242152.3394   20242150.0494
       252.000         226.000
 116285087.39648  90611744.18948  22128325.7114   22128328.0884   22128325.8314
       238.000         199.000
 117126127.63448  91267108.08148  22288363.9054   22288365.4154   22288364.5224
       235.000         195.000
 109266529.23248  85142741.20048  20792736.1664   20792737.9174   20792735.9744
       248.000         228.000
 122060093.58748  95111753.12348  23227270.1014   23227271.9464   23227269.9764
       231.000         192.000
 115591852.60148  90071569.72148  21996400.3244   21996401.8424   21996399.9034
       240.000         207.000
 131541759.76848 102500057.10148  25031575.3414   25031578.2344   25031576.0004
       213.000         157.000
 135089656.54248  87472463.78148  23803766.4914   23803767.2914   23803766.1434
       226.000         177.000
 131502425.89048 102469419.36248  25024081.8274   25024083.8024   25024081.5684
       208.000         157.000
 09  1 28  0 29  0.0000000  0 10G 5G 9G26G18G15G17G12G27G22G28
 120792434.17748  94123959.71248  22986046.9954   22986049.8654   22986047.3684
       229.000         183.000
 106340605.30748  82862792.83048  20235957.7794   20235960.0234   20235958.2594
       252.000         226.000
 116373234.14348  90680429.95848  22145099.3434   22145102.1424   22145099.1884
       238.000         199.000
 117124822.22948  91266090.86848  22288115.2864   22288116.7774   22288115.5954
       236.000         194.000
 109313979.90448  85179715.73648  20801765.6784   20801767.3914   20801765.4264
       248.000         228.000
 122062606.75048  95113711.42848  23227748.7564   23227750.3124   23227748.1584
       232.000         193.000
 115508319.46548  90006478.97448  21980504.3174   21980506.1444   21980504.2224
       240.000         208.000
 131611826.60448 102554654.63248  25044907.9524   25044912.2924   25044908.4174
       214.000         158.000
 135037745.48848  87432013.58648  23793888.7854   23793888.7854   23793889.2834
       226.000         178.000
 131598517.23048 102544295.70248  25042367.2654   25042370.6424   25042366.7514
       211.000         158.000
 09  1 28  0 29 30.0000000  0 10G 5G 9G26G18G15G17G12G27G22G28
 120692636.21448  94046195.07148  22967056.4584   22967058.8084   22967057.1294
       230.000         184.000
 106308394.32448  82837693.36048  20229828.0584   20229830.4994   20229827.9574
       252.000         226.000
 116461675.34048  90749345.16948  22161929.0614   22161931.9704   22161928.9804
       240.000         200.000
 117124093.28348  91265522.86348  22287976.7744   22287977.8644   22287977.1834
       238.000         194.000
 109361881.98548  85217042.02148  20810881.1264   20810883.0934   20810880.8334
       248.000         228.000
 122065672.42748  95116100.25548  23228332.1194   23228333.9624   23228331.3274
       231.000         193.000
 115425142.48548  89941665.75748  21964676.6634   21964678.2274   21964676.4884
       240.000         209.000
 131681928.24448 102609279.26348  25058248.3224   25058250.9004   25058248.6144
       214.000         159.000
 134986310.16648  87391934.15548  23784100.4024   23784101.3004   23784099.7284
       226.000         178.000
 131694662.17648 102619213.81048  25060663.2254   25060665.9414   25060665.8104
       211.000         156.000
 09  1 28  0 30  0.0000000  0 10G 5G 9G26G18G15G17G12G27G22G28
 120593089.78748  93968626.43548  22948113.2644   22948115.7304   22948113.5114
       230.000         184.000
 106276513.59148  82812851.23648  20223761.3764   20223763.8304   20223761.7484
       252.000         226.000
 116550409.81048  90818488.90848  22178814.8364   22178817.4494   22178815.0034
       238.000         198.000
 117123940.53548  91265403.82948  22287947.8544   22287949.1324   22287948.3724
       236.000         194.000
 109410235.10848  85254719.77348  20820082.4374   20820084.2684   20820082.0884
       248.000         228.000
 122069290.72748  95118919.71948  23229020.4214   23229022.6334   23229020.6604
       228.000         192.000
 115342322.99048  89877131.10048  21948916.3794   21948918.0774   21948915.9534
       240.000         209.000
 131752064.90048 102663931.18648  25071594.7414   25071598.9594   25071595.8014
       213.000         160.000
 134935352.17848  87352226.61048  23774404.4044   23774403.9094   23774404.0164
       228.000         181.000
 131790858.83448 102694172.20048  25078968.9324   25078971.8674   25078970.4014
       209.000         157.000
 09  1 28  0 30 30.0000000  0 10G 5G 9G26G18G15G17G12G27G22G28
 120493795.50248  93891254.28948  22929217.5424   22929220.6694   22929218.2614
       229.000         184.000
 106244962.63748  82788266.07348  20217757.5324   20217760.0114   20217757.4134
       252.000         226.000
 116639435.28348  90887859.40648  22195755.7244   22195758.3444   22195755.6174
       237.000         198.000
 117124362.30448  91265732.47448  22288027.6544   22288029.6284   22288028.6764
       235.000         195.000
 109459037.72448  85292747.77348  20829369.3664   20829370.9374   20829369.2154
       248.000         227.000
 122073461.25648  95122169.49048  23229813.4224   23229816.0514   23229813.1214
       228.000         191.000
 115259861.54748  89812875.43148  21933224.8374   21933226.0814   21933224.6364
       240.000         209.000
 131822235.51148 102718609.57548  25084948.5834   25084951.0754   25084948.8154
       216.000         160.000
 134884872.10748  87312891.49948  23764798.0244   23764798.2134   23764797.7394
       223.000         178.000
 131887104.53348 102769168.80748  25097283.8204   25097287.1204   25097285.1724
       209.000         157.000
 09  1 28  0 31  0.0000000  0 10G 5G 9G26G18G15G17G12G27G22G28
 120394757.10548  93814081.53348  22910371.2664   22910374.2104   22910372.1734
       229.000         185.000
 106213743.41648  82763939.40848  20211816.6174   20211819.0434   20211816.8514
       253.000         226.000
 116728752.27748  90957457.05448  22212752.0704   22212754.9244   22212752.0454
       237.000         198.000
 117125360.46048  91266510.24048  22288217.8724   22288219.2914   22288218.2574
       236.000         194.000
 109508291.27748  85331127.15948  20838741.8214   20838743.6134   20838741.4914
       247.000         227.000
 122078186.40848  95125851.42748  23230712.6654   23230715.3354   23230712.3734
       228.000         190.000
 115177761.29948  89748901.22748  21917601.7064   21917602.8514   21917601.7694
       242.000         209.000
 131892442.45948 102773316.25948  25098307.9834   25098311.9754   25098308.2724
       211.000         158.000
 134834873.38348  87273931.46948  23755283.1664   23755283.5294   23755281.3364
       226.000         179.000
 131983399.33948 102844203.66948  25115608.3154   25115611.0034   25115610.4164
       211.000         154.000
 09  1 28  0 31 30.0000000  0 10G 5G 9G26G18G15G17G12G27G22G28
 120295974.71848  93737108.26748  22891573.6204   22891576.4194   22891574.4474
       228.000         186.000
 106182854.99248  82739870.50148  20205938.9044   20205941.3644   20205939.0804
       252.000         226.000
 116818358.05948  91027279.72848  22229803.6284   22229806.3634   22229803.7384
       238.000         198.000
 117126932.61348  91267735.28548  22288517.1374   22288518.6024   22288517.4744
       236.000         195.000
 109557993.79048  85369856.38148  20848199.9164   20848201.6164   20848199.6474
       247.000         227.000
 122083465.01148  95129964.62848  23231717.3784   23231719.4784   23231716.7304
       230.000         190.000
 115096022.65648  89685208.78848  21902047.1714   21902048.5054   21902046.9884
       241.000         209.000
 131962684.35148 102828050.24348  25111674.9804   25111677.6484   25111674.3414
       213.000         155.000
 134785356.09348  87235346.54848  23745860.8344   23745860.3884   23745860.9854
       226.000         176.000
 132079740.04548 102919274.32548  25133941.1964   25133943.8734   25133942.7034
       210.000         155.000
 09  1 28  0 32  0.0000000  0 11G 5G 9G26G30G18G15G17G12G27G22G28
 120197449.62448  93660335.48048  22872825.0554   22872828.0244   22872825.4494
       231.000         187.000
 106152297.28648  82716059.30348  20200124.0084   20200126.3144   20200124.1234
       253.000         227.000
 116908250.72948  91097325.95748  22246909.7604   22246912.1104   22246909.6494
       239.000         197.000
 142196770.75558  93010461.22958  25156217.0635   25156219.3665   25156215.5385
       207.000         144.000
 117129078.53548  91269407.42248  22288925.6724   22288926.9654   22288926.1234
       236.000         195.000
 109608144.14048  85408934.56348  20857743.3174   20857745.0234   20857742.9124
       248.000         227.000
 122089296.76448  95134508.83248  23232827.5324   23232829.3154   23232827.2514
       231.000         189.000
 115014646.65348  89621798.93948  21886561.7064   21886563.5014   21886561.8014
       242.000         210.000
 132032961.01648 102882811.25148  25125047.6944   25125050.9844   25125047.7284
       214.000         157.000
 134736321.19948  87197137.53848  23736529.3064   23736529.1414   23736528.9964
       225.000         175.000
 132176124.21848 102994378.83148  25152282.4104   25152284.8844   25152282.1614
       208.000         153.000
 09  1 28  0 32 30.0000000  0 11G 5G 9G26G30G18G15G17G12G27G22G28
 120099183.55848  93583764.53948  22854125.5744   22854128.7484   22854126.3624
       231.000         187.000
 106122071.07848  82692506.41748  20194372.0984   20194374.5794   20194372.2954
       253.000         227.000
 116998429.13248  91167594.84848  22264070.3464   22264072.4774   22264070.2794
       239.000         198.000
 142084009.86748  92922595.59948  25134760.0894   25134762.5634   25134761.1984
       207.000         146.000
 117131797.78048  91271526.29948  22289442.9164   22289444.1504   22289443.4624
       236.000         194.000
 109658741.97048  85448361.43048  20867371.7084   20867373.5894   20867371.3694
       248.000         227.000
 122095681.92248  95139484.28348  23234042.5574   23234044.0774   23234042.6464
       230.000         189.000
 114933634.94248  89558672.94348  21871145.8204   21871147.3764   21871145.9754
       241.000         210.000
 132103272.50148 102937599.41148  25138427.5324   25138431.0874   25138427.3304
       213.000         156.000
 134687770.20648  87159305.57048  23727290.5334   23727290.3274   23727291.3904
       223.000         176.000
 132272550.16248 103069515.90948  25170631.4964   25170634.5214   25170630.7964
       208.000         154.000
 09  1 28  0 33  0.0000000  0 11G 5G 9G26G30G18G15G17G12G27G22G28
 120001178.43548  93507396.92048  22835475.7114   22835479.1114   22835476.5404
       229.000         185.000
 106092176.98948  82669212.32448  20188683.4874   20188685.7694   20188683.6884
       253.000         227.000
 117088892.26248  91238085.58748  22281284.8094   22281287.1704   22281284.5564
       238.000         197.000
 141971315.76748  92834782.00148  25113316.0654   25113316.7344   25113315.0554
       213.000         148.000
 117135089.92648  91274091.60348  22290069.3384   22290070.6654   22290069.8944
       237.000         194.000
 109709786.80648  85488136.62548  20877085.2124   20877086.9684   20877084.8264
       248.000         226.000
 122102620.83548  95144891.23948  23235362.6184   23235364.6824   23235362.4624
       230.000         190.000
 114852989.07348  89495832.01548  21855799.3584   21855800.7124   21855799.1674
       242.000         210.000
 132173619.37548 102992415.14148  25151813.6994   25151817.6164   25151814.1004
       210.000         154.000
 134639704.97848  87121852.16848  23718143.5294   23718144.6674   23718143.9694
       220.000         173.000
 132369016.78148 103144684.68348  25188988.2334   25188991.1514   25188988.9804
       210.000         152.000
 09  1 28  0 33 30.0000000  0 11G 5G 9G26G30G18G15G17G12G27G22G28
 119903436.93648  93431234.73248  22816875.8104   22816879.5124   22816875.9124
       230.000         187.000
 106062616.61848  82646178.26848  20183058.3154   20183060.6504   20183058.5094
       253.000         227.000
 117179639.63048  91308797.80348  22298553.3954   22298555.5954   22298553.2754
       237.000         196.000
 141858691.20748  92747022.67748  25091883.7804   25091885.1634   25091883.2144
       213.000         145.000
 117138955.93148  91277104.06148  22290805.1634   22290806.3374   22290805.9084
       235.000         194.000
 109761279.11148  85528260.48048  20886883.9524   20886885.8644   20886883.6314
       248.000         227.000
 122110114.94548  95150730.79048  23236788.6844   23236790.9364   23236788.4744
       231.000         190.000
 114772711.55448  89433278.10048  21840522.9814   21840524.4394   21840522.7274
       241.000         210.000
 132244002.68348 103047259.24848  25165207.5294   25165210.1424   25165207.2254
       211.000         153.000
 134592128.29448  87084779.44748  23709090.0394   23709090.4564   23709090.4954
       224.000         175.000
 132465523.06948 103219884.31648  25207353.9234   25207356.1144   25207355.3374
       206.000         151.000
 09  1 28  0 34  0.0000000  0 11G 5G 9G26G30G18G15G17G12G27G22G28
 119805959.86248  93355278.58848  22798326.4504   22798330.2974   22798327.2154
       231.000         187.000
 106033389.28648  82623403.71848  20177496.5594   20177498.9114   20177496.4774
       253.000         227.000
 117270668.80748  91379729.63548  22315875.7004   22315877.8144   22315875.6444
       238.000         196.000
 141746137.03248  92659318.13548  25070464.8974   25070467.1114   25070465.0474
       209.000         146.000
 117143393.94148  91280562.23748  22291649.4934   22291650.8864   22291649.7094
       235.000         193.000
 109813217.52248  85568731.95648  20896767.6944   20896769.4394   20896767.5184
       249.000         227.000
 122118163.71148  95157002.56548  23238320.3344   23238322.2964   23238320.0714
       229.000         189.000
 114692802.83748  89371011.58148  21825316.7914   21825318.3854   21825316.8254
       240.000         209.000
 132314421.79248 103102131.28648  25178607.7304   25178611.0394   25178607.7144
       211.000         153.000
 134545040.35648  87048087.52848  23700129.3314   23700129.7654   23700129.4924
       222.000         174.000
 132562066.50948 103295112.95148  25225725.1714   25225726.8384   25225726.3754
       206.000         148.000
 09  1 28  0 34 30.0000000  0 11G 5G 9G26G30G18G15G17G12G27G22G28
 119708749.37748  93279530.16648  22779828.2304   22779831.9124   22779828.6714
       231.000         188.000
 106004496.02448  82600889.49348  20171998.2034   20172000.6224   20171998.4754
       252.000         227.000
 117361979.31448  91450880.67348  22333251.3364   22333253.9814   22333251.6574
       236.000         196.000
 141633655.44148  92571670.15848  25049059.5684   25049062.7244   25049059.8464
       209.000         147.000
 117148404.24048  91284466.34748  22292603.0464   22292604.3754   22292603.2244
       236.000         193.000
 109865602.02348  85609551.04248  20906736.1254   20906737.8164   20906736.0094
       248.000         226.000
 122126767.65648  95163706.95448  23239957.7964   23239959.9044   23239957.4224
       230.000         190.000
 114613265.08948  89309034.11848  21810181.2114   21810182.8424   21810180.7944
       241.000         210.000
 132384877.22148 103157031.60648  25192016.4084   25192017.8734   25192015.3984
       215.000         151.000
 134498442.92948  87011777.86948  23691261.9374   23691262.8694   23691262.1724
       225.000         177.000
 132658645.92448 103370369.63248  25244103.1574   25244104.5764   25244101.5674
       196.000         145.000
 09  1 28  0 35  0.0000000  0 11G 5G 9G26G30G18G15G17G12G27G22G28
 119611805.99848  93203989.87648  22761380.5724   22761383.8364   22761381.7444
       231.000         188.000
 105975936.00048  82578634.93448  20166563.3454   20166566.0064   20166563.5994
       251.000         227.000
 117453568.48748  91522248.85348  22350680.2224   22350682.7274   22350679.8494
       236.000         195.000
 141521246.98448  92484079.18748  25027668.5474   25027671.6434   25027667.6174
       217.000         152.000
 117153985.23348  91288815.16948  22293664.5614   22293666.4494   22293664.8934
       237.000         193.000
 109918430.86548  85650716.36648  20916788.9184   20916790.8674   20916788.5294
       247.000         226.000
 122135925.90548  95170843.25148  23241700.7324   23241702.6964   23241700.6614
       230.000         190.000
 114534098.54648  89247345.91548  21795116.5664   21795117.9244   21795116.6594
       241.000         210.000
 132455367.92948 103211959.43348  25205428.5884   25205432.9194   25205428.9054
       209.000         150.000
 134452336.51348  86975850.78248  23682489.0004   23682489.1694   23682490.4384
       226.000         180.000
 132755258.35948 103445652.02948  25262487.6744   25262489.4814   25262485.2434
       205.000         145.000
 09  1 28  0 35 30.0000000  0 11G 5G 9G26G30G18G15G17G12G27G22G28
 129515134.31058  83128661.96858  22742984.0255   22742987.2635   22742983.8625
       231.000         189.000
 115947739.87758  72556669.55758  20161192.0295   20161194.5775   20161192.2045
       251.000         227.000
 127545444.98758  81593843.12458  22368161.9665   22368164.3215   22368162.2135
       237.000         195.000
 121408915.27758 112396546.43158  25006292.9785   25006295.5635   25006291.2665
       211.000         153.000
 127160109.15858  81293582.08858  22294835.0325   22294837.5945   22294835.4705
       235.000         194.000
 119971712.19958  75692236.26658  20926926.4145   20926928.1495   20926926.0125
       248.000         226.000
 132145655.37758  85178428.41458  23243549.0515   23243550.5245   23243549.1095
       231.000         190.000
 124455290.79558  79185935.20258  21780122.2765   21780123.8925   21780122.5615
       241.000         210.000
 142525898.45158  93266921.16158  25218849.9135   25218853.2615   25218850.8915
       212.000         150.000
 114406714.30258 106940298.23358  23673809.1735   23673808.5335   23673809.5985
       227.000         179.000
 132851902.29148 103520958.97948  25280878.8484   25280880.3754   25280880.1394
       208.000         146.000
 09  1 28  0 36  0.0000000  0 11G 5G 9G26G30G18G15G17G12G27G22G28
 109418723.08458 103053534.58058  22724639.0955   22724642.4175   22724640.1115
       232.000         190.000
 115919848.94848  72534936.37148  20155884.6564   20155887.0334   20155884.9084
       251.000         227.000
 127637588.27348  81665643.10548  22385696.1294   22385698.3744   22385696.2364
       236.000         194.000
 121296659.17848 112309074.15648  24984931.2784   24984934.2564   24984929.4304
       208.000         153.000
 127166830.85248  81298819.75648  22296114.5534   22296116.7274   22296114.9524
       235.000         194.000
 120025428.46748  75734093.08848  20937148.2344   20937150.0114   20937147.9104
       248.000         225.000
 132155923.42148  85186429.49048  23245502.8544   23245504.4594   23245502.3604
       231.000         188.000
 124376871.96548  79124829.62548  21765199.8834   21765201.3324   21765199.6774
       240.000         210.000
 142596462.05948  93321905.80648  25232278.1464   25232281.1124   25232278.9414
       215.000         153.000
 114361594.85848 106905140.24248  23665222.9264   23665222.8224   23665223.3704
       225.000         179.000
 132948576.71448 103596289.67548  25299275.5644   25299277.1104   25299279.4074
       209.000         145.000
 09  1 28  0 36 30.0000000  0 11G 5G 9G26G30G18G15G17G12G27G22G28
 109322592.16248 102978627.39248  22706346.0594   22706349.1664   22706346.8674
       233.000         189.000
 115892292.72148  72513463.99148  20150640.9864   20150643.1894   20150641.0214
       252.000         227.000
 127730006.47748  81737657.28348  22403282.8164   22403285.3314   22403282.6814
       233.000         193.000
 121184481.65448 112221663.11848  24963583.9704   24963587.6204   24963583.6554
       212.000         152.000
 127174121.67048  81304500.90148  22297501.8924   22297503.6744   22297502.1184
       236.000         194.000
 120079586.86348  75776294.42848  20947454.2644   20947456.0184   20947453.9124
       248.000         226.000
 132166746.29348  85194862.89048  23247562.1944   23247563.7684   23247562.0834
       229.000         189.000
 124298828.82748  79064016.80048  21750348.6444   21750350.0084   21750348.2404
       241.000         210.000
 142667061.99748  93376918.68548  25245711.6654   25245716.0024   25245712.8094
       209.000         151.000
 114316970.73248 106870368.18848  23656731.2574   23656730.4294   23656731.2644
       228.000         175.000
 133045278.98448 103671642.10848  25317677.9214   25317678.2174   25317679.8504
       205.000         144.000
 09  1 28  0 37  0.0000000  0 11G 5G 9G26G30G18G15G17G12G27G22G28
 109226735.41548 102903933.82548  22688105.1464   22688108.0704   22688105.9734
       233.000         190.000
 115865072.05648  72492253.08648  20145461.1054   20145463.3374   20145461.3354
       252.000         227.000
 127822698.41848  81809884.75448  22420921.4204   22420923.9984   22420921.3944
       237.000         196.000
 121072384.72548 112134314.85848  24942253.3734   24942255.7484   24942253.2394
       216.000         154.000
 127181981.13448  81310625.14148  22298997.7164   22298999.2944   22298998.3714
       235.000         193.000
 120134187.83148  75818840.62648  20957844.4784   20957846.1214   20957844.2914
       248.000         225.000
 132178124.42548  85203728.96948  23249727.5764   23249729.1654   23249727.4654
       231.000         190.000
 124221163.04448  79003498.01748  21735569.2314   21735570.5424   21735569.2144
       240.000         210.000
 142737698.87748  93431960.42348  25259154.5544   25259158.0334   25259153.9254
       209.000         153.000
 114272843.73448 106835983.52348  23648334.3574   23648333.5234   23648335.3084
       225.000         179.000
 133142008.54748 103747015.78948  25336084.5084   25336086.0044   25336085.3294
       203.000         144.000
 09  1 28  0 37 30.0000000  0 11G 5G 9G26G30G18G15G17G12G27G22G28
 109131153.92848 102829454.76448  22669916.3974   22669919.6794   22669916.9004
       232.000         190.000
 115838187.06248  72471303.74648  20140344.9354   20140347.5024   20140345.2204
       251.000         227.000
 127915662.00348  81882323.90148  22438612.1044   22438614.7384   22438612.3954
       235.000         196.000
 120960369.41048 112047030.21048  24920937.1724   24920940.0214   24920937.6434
       216.000         156.000
 127190408.42848  81317191.85448  22300601.0164   22300602.7314   22300601.4984
       235.000         192.000
 120189229.71448  75861730.38648  20968318.5534   20968320.3074   20968318.2854
       248.000         225.000
 132190056.95348  85213027.04148  23251998.5014   23251999.9424   23251998.7854
       231.000         190.000
 124143875.40748  78943273.88448  21720861.9454   21720863.3974   21720861.7484
       242.000         211.000
 142808372.18348  93487030.48448  25272602.8124   25272605.8064   25272602.3964
       212.000         153.000
 114229214.22348 106801986.51448  23640031.3234   23640032.6824   23640031.0544
       224.000         179.000
 133238762.70448 103822408.63548  25354496.2124   25354498.1964   25354497.5894
       205.000         146.000
 09  1 28  0 38  0.0000000  0 11G 5G 9G26G30G18G15G17G12G27G22G28
 109035850.24448 102755192.17348  22651780.7254   22651783.8284   22651781.4784
       234.000         191.000
 115811638.92548  72450616.88548  20135293.0264   20135295.3894   20135293.0744
       252.000         227.000
 128008896.85448  81954974.43848  22456354.1814   22456356.4984   22456353.8344
       236.000         194.000
 120848438.38048 111959811.22948  24899636.9474   24899640.5944   24899636.8984
       213.000         155.000
 127199403.74048  81324201.17348  22302313.2324   22302314.4644   22302313.4214
       236.000         193.000
 120244712.67148  75904963.84748  20978876.6904   20978878.3894   20978876.4254
       248.000         225.000
 132202544.99848  85222757.98848  23254374.9784   23254376.3874   23254374.9704
       232.000         190.000
 124066968.33748  78883346.30548  21706227.2814   21706228.7904   21706227.2904
       241.000         212.000
 142879082.89248  93542129.76848  25286057.9574   25286063.0574   25286058.9204
       208.000         151.000
 114186084.69248 106768379.03348  23631824.2194   23631824.0874   23631824.2004
       223.000         172.000
 133335540.78248 103897820.08548  25372912.5594   25372914.4044   25372914.0484
       203.000         143.000
 09  1 28  0 38 30.0000000  0 11G 5G 9G26G30G18G15G17G12G27G22G28
 108940825.72548 102681147.10048  22633698.3714   22633701.2014   22633699.0974
       234.000         191.000
 115785427.83348  72430192.65848  20130305.1774   20130307.6214   20130305.4114
       251.000         227.000
 128102401.35648  82027835.07848  22474147.2494   22474149.9374   22474146.9724
       235.000         193.000
 120736593.04848 111872659.03248  24878353.5574   24878357.2504   24878352.1354
       209.000         156.000
 127208965.76948  81331652.08748  22304132.5724   22304134.1974   22304132.8574
       236.000         194.000
 120300635.99348  75948540.45248  20989518.6124   20989520.1984   20989518.3134
       248.000         225.000
 132215588.55248  85232921.80748  23256856.9584   23256858.4634   23256856.8084
       231.000         190.000
 123990442.94348  78823716.13548  21691664.8824   21691666.5384   21691664.5204
       240.000         212.000
 142949831.13248  93597258.26248  25299522.1734   25299526.4224   25299521.6794
       209.000         154.000
 114143456.19948 106735162.01248  23623712.4034   23623712.0594   23623710.5574
       223.000         177.000
 133432340.89548 103973248.72248  25391332.4044   25391334.2134   25391332.8424
       203.000         142.000
 09  1 28  0 39  0.0000000  0 11G 5G 9G26G30G18G15G17G12G27G22G28
 108846082.18248 102607320.97948  22615668.8244   22615671.9244   22615669.6434
       234.000         191.000
 115759554.61448  72410031.71148  20125381.7234   20125383.8634   20125381.8944
       252.000         227.000
 128196174.25648  82100904.87548  22491991.6004   22491994.1324   22491991.4894
       236.000         194.000
 120624835.42648 111785575.16248  24857086.6834   24857090.6224   24857086.8814
       218.000         157.000
 127219093.76348  81339544.03348  22306060.0184   22306061.4584   22306060.7364
       236.000         194.000
 120356998.81948  75992459.52348  21000243.9704   21000245.7544   21000243.7214
       247.000         225.000
 132229187.36948  85243518.30248  23259444.7664   23259446.2774   23259444.9014
       231.000         191.000
 123914300.65948  78764384.49848  21677175.2064   21677177.0394   21677175.1974
       240.000         212.000
 143020617.10748  93652416.12848  25312990.9284   25312996.0264   25312990.9214
       206.000         153.000
 114101330.18248 106702336.58848  23615696.0944   23615696.2744   23615695.7114
       224.000         176.000
 133529161.43948 104048693.30048  25409757.3864   25409758.8594   25409756.4734
       204.000         142.000
 09  1 28  0 39 30.0000000  0 11G 5G 9G26G30G18G15G17G12G27G22G28
 108751620.19348 102533714.25648  22597693.3984   22597696.7034   22597694.4704
       235.000         192.000
 115734018.46748  72390133.41348  20120522.3684   20120524.6304   20120522.5724
       252.000         227.000
 128290213.21548  82174181.97848  22509886.5034   22509889.1444   22509886.9224
       232.000         193.000
 120513166.10548 111698560.11748  24835837.9334   24835840.3334   24835837.9174
       217.000         158.000
 127229786.52448  81347876.04048  22308094.9334   22308096.3024   22308095.3044
       236.000         194.000
 120413799.39348  76036719.70048  21011052.7514   21011054.6434   21011052.3424
       248.000         225.000
 132243340.42248  85254546.65248  23262138.2544   23262139.4514   23262138.0954
       231.000         190.000
 123838541.99148  78705351.78448  21662758.8254   21662760.7504   21662758.6184
       242.000         213.000
 143091440.16148  93707602.96148  25326468.6524   25326472.5364   25326468.5924
       207.000         151.000
 114059706.83448 106669902.77048  23607775.1834   23607774.5344   23607773.7894
       221.000         170.000
 133625999.94148 104124151.88448  25428185.4864   25428187.4024   25428185.2834
       203.000         141.000
 09  1 28  0 40  0.0000000  0 11G 5G 9G26G30G18G15G17G12G27G22G28
 108657442.96448 102460329.42448  22579772.3164   22579775.0644   22579773.3394
       234.000         192.000
 115708821.13548  72370499.12648  20115727.5744   20115729.7554   20115727.8414
       252.000         227.000
 128384518.28748  82247666.43348  22527832.0284   22527834.8624   22527831.2264
       232.000         191.000
 120401588.42048 111611616.50348  24814605.4114   24814608.0094   24814605.9564
       215.000         159.000
 127241044.66748  81356648.61048  22310237.2624   22310238.7944   22310237.5534
       237.000         193.000
 120471038.70748  76081321.74348  21021945.1534   21021946.9744   21021945.0034
       248.000         224.000
 132258049.48248  85266008.26248  23264937.1884   23264938.4564   23264936.5404
       231.000         189.000
 123763169.65548  78646620.09348  21648416.1704   21648417.8174   21648415.9974
       242.000         213.000
 143162302.04348  93762819.96148  25339953.3134   25339958.2134   25339953.9264
       207.000         153.000
 114018589.35248 106637863.20648  23599950.2304   23599950.8814   23599949.4414
       223.000         176.000
 133722856.27048 104199624.32948  25446616.2304   25446618.9534   25446616.3744
       202.000         142.000
 09  1 28  0 40 30.0000000  0 11G 5G 9G26G30G18G15G17G12G27G22G28
 108563549.20348 102387165.46648  22561905.0194   22561907.8264   22561905.8474
       236.000         193.000
 115683960.69848  72351127.36448  20110996.6244   20110999.1874   20110996.8574
       252.000         228.000
 128479085.18248  82321354.91048  22545827.3444   22545830.4544   22545827.1224
       233.000         191.000
 120290101.10848 111524743.29648  24793389.2934   24793392.1024   24793389.7664
       214.000         157.000
 127252864.97448  81365859.22748  22312486.4374   22312488.0564   22312487.2674
       235.000         193.000
 120528713.03148  76126262.77148  21032920.1794   21032921.9434   21032919.9894
       247.000         224.000
 132273311.67948  85277900.88548  23267841.4144   23267842.8174   23267841.5734
       232.000         188.000
 123688182.24748  78588188.35048  21634146.4744   21634147.9024   21634146.3124
       241.000         213.000
 143233200.33148  93818065.35748  25353444.6604   25353449.0474   25353444.8484
       211.000         153.000
 113977975.56048 106606216.10748  23592222.2744   23592222.4374   23592222.3774
       221.000         173.000
 133819726.13948 104275107.31348  25465050.9404   25465053.5124   25465051.4494
       203.000         141.000
 09  1 28  0 41  0.0000000  0 11G 5G 9G26G30G18G15G17G12G27G22G28
 108469942.77148 102314225.41048  22544092.1234   22544095.0524   22544093.3764
       234.000         193.000
 115659439.63148  72332020.04148  20106330.5094   20106333.0984   20106330.6254
       252.000         228.000
 128573914.71448  82395248.06348  22563873.1204   22563875.6734   22563872.8074
       233.000         190.000
 120178708.40748 111437943.79748  24772191.9384   24772194.8044   24772191.5484
       210.000         156.000
 127265248.46248  81375508.67748  22314843.1004   22314844.4044   22314843.0534
       236.000         193.000
 120586823.66648  76171543.77148  21043978.2194   21043980.2124   21043977.9474
       247.000         224.000
 132289128.64848  85290225.81548  23270850.9004   23270852.7814   23270850.9404
       232.000         190.000
 123613583.11048  78530059.16648  21619950.7504   21619952.0604   21619950.7944
       240.000         213.000
 143304137.17248  93873340.85448  25366943.9444   25366947.5124   25366944.9394
       211.000         156.000
 113937869.16248 106574964.35148  23584590.1024   23584589.9034   23584589.0824
       228.000         177.000
 133916609.78348 104350601.02048  25483487.0364   25483489.2484   25483487.5484
       207.000         144.000
 09  1 28  0 41 30.0000000  0 11G 5G 9G26G30G18G15G17G12G27G22G28
 108376623.44548 102241509.07348  22526333.9444   22526337.2904   22526334.7694
       234.000         193.000
 115635256.53548  72313176.06148  20101728.6054   20101731.1054   20101728.9164
       251.000         228.000
 128669003.91148  82469343.54948  22581967.9264   22581970.3514   22581968.0614
       233.000         191.000
 120067410.06948 111351217.84248  24751012.3684   24751015.9414   24751011.5194
       212.000         156.000
 127278192.42648  81385594.86448  22317306.3194   22317307.5654   22317306.5834
       236.000         193.000
 120645368.39648  76217163.02748  21055118.9164   21055120.7484   21055118.6274
       247.000         224.000
 132305498.76448  85302981.75248  23273966.4874   23273968.1114   23273966.3994
       233.000         192.000
 123539372.06748  78472232.38848  21605828.7414   21605830.1414   21605828.3594
       242.000         213.000
 143375110.99848  93928645.09748  25380449.4224   25380453.8324   25380449.3674
       210.000         155.000
 113898269.95248 106544107.80948  23577055.3484   23577055.3934   23577055.5944
       222.000         179.000
 134013504.37248 104426103.29248  25501925.0344   25501927.0554   25501925.7454
       208.000         142.000
 09  1 28  0 42  0.0000000  0 11G 5G 9G26G30G18G15G17G12G27G22G28
 108283593.99348 102169018.61648  22508630.7734   22508633.9354   22508631.7104
       236.000         193.000
 115611413.31448  72294596.92848  20097191.4654   20097193.8014   20097191.4554
       252.000         227.000
 128764352.36148  82543641.02848  22600112.1694   22600114.8064   22600112.1704
       232.000         191.000
 119956209.19048 111264567.78548  24729852.8724   24729854.5554   24729852.3804
       214.000         156.000
 127291697.47348  81396118.27848  22319876.2014   22319877.2574   22319876.9734
       235.000         193.000
 120704347.54748  76263120.80048  21066342.4394   21066344.0204   21066342.3044
       247.000         223.000
 132322423.11148  85316169.54148  23277187.1354   23277188.3044   23277186.5914
       234.000         191.000
 123465551.33748  78414709.75448  21591781.3074   21591782.6204   21591781.2184
       242.000         214.000
 143446123.34848  93983979.42948  25393962.5934   25393967.0844   25393962.0914
       210.000         152.000
 113859179.70848 106513647.89448  23569615.9854   23569616.7874   23569615.9274
       227.000         180.000
 134110409.27048 104501613.61848  25520365.2964   25520367.9284   25520365.0684
       207.000         141.000
 09  1 28  0 42 30.0000000  0 11G 5G 9G26G30G18G15G17G12G27G22G28
 108190855.21348 102096754.63148  22490983.5534   22490986.4634   22490984.3434
       237.000         195.000
 115587909.57248  72276282.31748  20092718.6534   20092721.1044   20092718.7614
       252.000         227.000
 128859957.65848  82618138.64848  22618305.5294   22618307.9254   22618305.3184
       233.000         190.000
 119845106.47748 111177994.23348  24708710.4854   24708711.8834   24708710.9054
       218.000         158.000
 127305761.90648  81407077.55848  22322552.2254   22322553.7874   22322552.6264
       236.000         192.000
 120763759.50048  76309415.82348  21077648.0124   21077649.7164   21077647.5744
       247.000         223.000
 132339900.82448  85329788.54648  23280512.9554   23280514.0984   23280513.3534
       233.000         190.000
 123392121.54548  78357491.74248  21577808.1274   21577809.3664   21577808.2024
       241.000         214.000
 143517173.49048  94039343.17048  25407483.8934   25407486.5834   25407483.8134
       209.000         148.000
 113820598.49548 106483584.59448  23562274.8994   23562275.1584   23562274.9444
       227.000         181.000
 134207322.19748 104577130.20848  25538806.0014   25538809.8944   25538806.7714
       205.000         136.000
 09  1 28  0 43  0.0000000  0 11G 5G 9G26G30G18G15G17G12G27G22G28
 108098406.81948 102024716.94048  22473391.0894   22473394.1764   22473392.1994
       236.000         195.000
 115564743.67148  72258230.96448  20088310.5204   20088312.7994   20088310.7984
       251.000         227.000
 128955816.71248  82692834.01248  22636546.9774   22636549.1814   22636547.0114
       234.000         191.000
 119734101.78148 111091497.06248  24687586.6334   24687588.5644   24687585.9614
       215.000         159.000
 127320382.95748  81418470.57348  22325334.9184   22325335.7914   22325335.3174
       237.000         192.000
 120823601.74648  76356046.13148  21089035.6534   21089037.3874   21089035.5254
       246.000         223.000
 132357929.80748  85343837.09448  23283943.4224   23283945.0924   23283943.4294
       233.000         189.000
 123319082.20948  78300577.97948  21563909.0304   21563910.6964   21563908.7424
       243.000         215.000
 143588259.94248  94094735.21848  25421010.5294   25421014.7194   25421011.0384
       207.000         145.000
 113782526.03448 106453917.74948  23555029.9004   23555030.5214   23555028.7654
       228.000         182.000
 134304240.00348 104652650.61348  25557249.8164   25557251.8634   25557249.8454
       201.000         136.000
 09  1 28  0 43 30.0000000  0 10G 5G 9G26G30G18G15G17G12G27G22
 108006252.58948 101952908.45848  22455854.8994   22455857.9674   22455855.9854
       237.000         196.000
 115541918.30048  72240444.95548  20083966.9414   20083969.3044   20083967.0654
       251.000         227.000
 129051930.16248  82767727.60748  22654836.8844   22654839.2574   22654837.2794
       233.000         190.000
 119623199.03948 111005079.36248  24666482.5684   24666484.9824   24666482.0034
       218.000         160.000
 127335562.11748  81430298.48548  22328223.4784   22328224.4184   22328224.5584
       237.000         193.000
 120883875.15248  76403012.40348  21100505.2364   21100507.3124   21100504.6934
       246.000         223.000
 132376512.00448  85358316.73448  23287479.7524   23287481.0684   23287480.0034
       234.000         189.000
 123246436.78848  78243971.16948  21550085.2164   21550086.9584   21550085.1194
       243.000         215.000
 143659385.05748  94150157.38348  25434546.0934   25434548.6984   25434545.8704
       207.000         139.000
 113744965.82348 106424650.03248  23547882.4134   23547882.6994   23547883.7924
       226.000         178.000
 09  1 28  0 44  0.0000000  0 10G 5G 9G26G30G18G15G17G12G27G22
 107914394.37648 101881330.64348  22438374.9914   22438377.6914   22438376.0324
       237.000         197.000
 115519434.59348  72222925.18448  20079688.4564   20079690.8514   20079688.6384
       252.000         228.000
 129148297.11948  82842818.74648  22673174.7244   22673177.4114   22673174.6274
       231.000         190.000
 119512400.28948 110918742.67248  24645398.6184   24645400.5564   24645398.2604
       221.000         160.000
 127351298.38748  81442560.51148  22331217.7484   22331219.4204   22331218.2964
       236.000         194.000
 120944579.80148  76450314.71948  21112057.0514   21112058.9434   21112056.9044
       247.000         223.000
 132395647.62548  85373227.60948  23291120.8974   23291122.3414   23291120.6354
       231.000         187.000
 123174187.08548  78187672.70648  21536336.4094   21536338.1824   21536336.4404
       242.000         215.000
 143730549.36848  94205610.09548  25448087.0774   25448090.7874   25448088.3484
       193.000         131.000
 113707919.96148 106395783.12248  23540832.0104   23540832.6104   23540831.5554
       227.000         179.000
 09  1 28  0 44 30.0000000  0  9G 5G 9G26G30G18G15G17G12G22
 107822834.96348 101809985.66648  22420951.6994   22420954.5914   22420952.8524
       237.000         197.000
 115497293.80448  72205672.61948  20075475.0714   20075477.5954   20075475.2754
       251.000         227.000
 129244917.16548  82918107.07148  22691560.9624   22691563.7294   22691560.7744
       230.000         189.000
 119401708.53448 110832489.33048  24624334.5174   24624336.5734   24624334.9844
       216.000         158.000
 127367592.07848  81455256.87148  22334318.2864   22334320.0644   22334318.6944
       235.000         193.000
 121005715.56848  76497952.97248  21123690.8064   21123692.6154   21123690.5794
       246.000         223.000
 132415337.20848  85388570.13248  23294867.5374   23294869.3324   23294866.7784
       234.000         189.000
 123102335.22948  78131684.25048  21522663.4764   21522664.9634   21522663.2704
       243.000         215.000
 113671389.70348 106367318.00448  23533881.6444   23533881.3594   23533882.1044
       224.000         176.000
 09  1 28  0 45  0.0000000  0  9G 5G 9G26G30G18G15G17G12G22
 107731574.76048 101738873.83448  22403585.4974   22403588.2714   22403586.6844
       237.000         198.000
 115475495.27048  72188686.74448  20071326.9364   20071329.4224   20071327.1734
       251.000         227.000
 129341787.79048  82993590.66448  22709994.5854   22709997.3544   22709994.2804
       230.000         190.000
 119291124.21048 110746319.72348  24603290.8034   24603293.0944   24603290.4904
       218.000         160.000
 127384441.18748  81468386.03348  22337524.7214   22337526.2704   22337524.9644
       234.000         193.000
 121067280.69648  76545925.79148  21135406.2644   21135408.1294   21135406.0854
       246.000         223.000
 132435579.71348  85404343.51248  23298720.4874   23298721.2444   23298720.4574
       232.000         189.000
 123030881.20948  78076005.80448  21509066.2364   21509067.7484   21509066.1004
       243.000         215.000
 113635375.16948 106339254.72448  23527027.0004   23527027.3684   23527025.8414
       224.000         175.000
 09  1 28  0 45 30.0000000  0  9G 5G 9G26G30G18G15G17G12G22
 107640614.17748 101667995.46848  22386276.1444   22386279.0354   22386276.5284
       237.000         197.000
 115454038.56848  72171967.22848  20067243.8444   20067246.3804   20067243.9714
       252.000         228.000
 129438906.27548  83069267.40148  22728475.6134   22728478.1454   22728475.4934
       231.000         189.000
 119180647.80848 110660234.19748  24582267.8414   24582269.7584   24582268.4574
       218.000         160.000
 127401843.54648  81481946.31148  22340836.0104   22340837.8624   22340836.5484
       235.000         193.000
 121129273.02648  76594231.49548  21147202.8924   21147205.0104   21147202.6254
       246.000         223.000
 132456373.44348  85420546.42448  23302676.7594   23302678.1294   23302676.8014
       227.000         187.000
 122959824.96448  78020637.30348  21495544.6314   21495546.1934   21495544.4234
       244.000         216.000
 113599876.01948 106311593.03448  23520272.3164   23520272.9124   23520272.3314
       226.000         179.000
 09  1 28  0 46  0.0000000  0  9G 5G 9G26G30G18G15G17G12G22
 107549955.84448 101597352.63348  22369024.0434   22369027.3304   22369024.7734
       235.000         196.000
 115432925.29048  72155515.32448  20063226.3544   20063228.6064   20063226.5574
       252.000         228.000
 129536272.29648  83145137.03648  22747003.6824   22747006.5584   22747003.7884
       230.000         187.000
 119070282.15848 110574235.02248  24561265.6674   24561268.1424   24561265.6244
       217.000         159.000
 127419799.21948  81495937.72348  22344252.9364   22344254.8124   22344253.2604
       236.000         193.000
 121191692.69348  76642870.18748  21159081.1564   21159083.0894   21159080.8504
       247.000         223.000
 132477719.09948  85437179.41948  23306738.1824   23306740.0324   23306737.7744
       229.000         188.000
 122889168.95748  77965580.68248  21482099.4214   21482100.8034   21482099.5474
       244.000         216.000
 113564894.80548 106284334.96848  23513615.1674   23513616.8654   23513615.6284
       227.000         180.000
 09  1 28  0 46 30.0000000  0  9G 5G 9G26G30G18G15G17G12G22
 107459600.29248 101526945.73148  22351829.6884   22351833.1384   22351829.9584
       236.000         198.000
 115412154.84448  72139330.55348  20059273.9434   20059276.1624   20059274.1054
       252.000         228.000
 129633883.54148  83221197.74448  22765578.3314   22765581.2794   22765578.5624
       230.000         186.000
 118960028.09748 110488322.76148  24540285.5184   24540287.2404   24540285.8634
       219.000         161.000
 127438306.16948  81510358.70948  22347774.8064   22347776.6144   22347775.3654
       235.000         192.000
 121254538.15848  76691840.67448  21171040.2104   21171042.2184   21171039.9444
       247.000         222.000
 132499615.74548  85454241.73748  23310905.4204   23310907.0474   23310904.8654
       232.000         189.000
 122818913.58348  77910836.24248  21468730.0924   21468731.7194   21468729.9494
       243.000         216.000
 113530431.57748 106257480.50148  23507058.1504   23507058.3504   23507058.0404
       228.000         181.000
 09  1 28  0 47  0.0000000  0  9G 5G 9G26G30G18G15G17G12G22
 107369549.17748 101456776.04248  22334693.9174   22334697.2114   22334694.5504
       236.000         199.000
 115391727.58248  72123413.19848  20055386.8454   20055388.9224   20055387.1484
       251.000         228.000
 129731738.68948  83297448.50948  22784199.6774   22784202.1874   22784199.2834
       228.000         186.000
 118849887.44848 110402498.90848  24519326.4464   24519328.1944   24519326.7314
       214.000         160.000
 127457363.55848  81525208.61248  22351401.2264   22351402.6114   22351402.0304
       236.000         192.000
 121317807.96248  76741141.81548  21183080.1034   21183081.7474   21183079.8094
       246.000         222.000
 132522062.86248  85471732.98648  23315177.3364   23315178.3534   23315177.3704
       232.000         187.000
 122749059.98648  77856404.88048  21455437.3684   21455439.0914   21455437.1604
       244.000         216.000
 113496487.22448 106231030.37448  23500598.4974   23500598.9084   23500597.8414
       227.000         182.000
 09  1 28  0 47 30.0000000  0  9G 5G 9G26G30G18G15G17G12G22
 107279804.23348 101386844.93148  22317615.8324   22317619.3134   22317616.4254
       237.000         198.000
 115371644.54148  72107764.07048  20051565.0214   20051567.2344   20051565.1984
       251.000         227.000
 129829836.09248  83373888.02648  22802867.0934   22802869.6714   22802866.7724
       231.000         188.000
 118739862.01048 110316764.79848  24498388.9684   24498390.9724   24498387.0884
       212.000         159.000
 127476970.41148  81540486.68748  22355132.5134   22355133.8944   22355133.2074
       235.000         192.000
 121381501.58548  76790773.19448  21195200.4064   21195202.3214   21195200.1754
       246.000         222.000
 132545060.23248  85489653.02348  23319552.9114   23319554.6794   23319553.1454
       231.000         187.000
 122679609.79048  77802287.84748  21442221.6114   21442223.0174   21442221.4854
       245.000         217.000
 113463063.04448 106204985.53948  23494238.3344   23494238.3124   23494238.4204
       228.000         181.000
 09  1 28  0 48  0.0000000  0  9G 5G 9G26G30G18G15G17G12G22
 107190366.16248 101317152.94648  22300596.4924   22300599.4604   22300596.9684
       237.000         198.000
 115351905.15548  72092382.72648  20047808.6434   20047810.9254   20047808.8304
       252.000         227.000
 129928173.85448  83450514.85948  22821580.0884   22821582.7034   22821580.5824
       230.000         189.000
 118629953.06848 110231121.45348  24477473.8564   24477476.1824   24477473.2904
       211.000         155.000
 127497125.12848  81556191.64248  22358967.6654   22358969.3074   22358968.5264
       236.000         192.000
 121445617.81348  76840733.89248  21207401.5384   21207403.1684   21207401.3734
       246.000         221.000
 132568606.69648  85508000.91348  23324034.0624   23324035.2084   23324033.6314
       233.000         189.000
 122610563.15548  77748485.28348  21429082.4924   21429083.7564   21429082.5444
       244.000         217.000
 113430159.17248 106179346.15448  23487976.8804   23487977.1624   23487978.0614
       230.000         182.000
 09  1 28  0 48 30.0000000  0  9G 5G 9G26G30G18G15G17G12G22
 107101236.06048 101247700.91448  22283635.8584   22283638.7604   22283636.7324
       238.000         199.000
 115332509.46748  72077269.19748  20044117.7134   20044120.0404   20044117.9864
       251.000         227.000
 130026749.95048  83527327.39048  22840338.5434   22840341.3204   22840338.4764
       231.000         188.000
 118520161.75848 110145569.76648  24456580.6014   24456583.9224   24456581.6274
       212.000         158.000
 127517825.20348  81572321.55448  22362906.8684   22362908.6764   22362907.6914
       236.000         194.000
 121510154.90148  76891022.51948  21219682.4974   21219684.2754   21219682.2814
       246.000         221.000
 132592701.52748  85526776.08248  23328619.4954   23328620.3474   23328619.6344
       228.000         186.000
 122541920.52848  77694997.53748  21416020.0734   21416021.5444   21416019.9284
       243.000         217.000
 113397776.17548 106154112.65048  23481814.8964   23481814.3724   23481816.0944
       231.000         182.000
 09  1 28  0 49  0.0000000  0  9G 5G 9G26G30G18G15G17G12G22
 107012415.54248 101178490.12848  22266733.7834   22266736.4724   22266734.4004
       238.000         199.000
 115313458.19548  72062424.04348  20040492.4924   20040494.7484   20040492.6614
       252.000         228.000
 130125563.19048  83604324.70248  22859142.0694   22859144.8414   22859142.4844
       229.000         186.000
 118410489.68448 110060111.01948  24435711.0654   24435714.3084   24435711.6234
       214.000         158.000
 127539070.44548  81588876.27148  22366949.9334   22366951.5694   22366950.1654
       236.000         195.000
 121575111.93948  76941638.38348  21232043.3714   21232045.1984   21232043.1394
       246.000         221.000
 132617344.02548  85545978.07348  23333307.2094   23333309.9304   23333306.9834
       228.000         186.000
 122473683.67848  77641825.98448  21403034.6984   21403036.2514   21403034.4434
       243.000         216.000
 113365914.99148 106129285.77648  23475751.8634   23475751.4824   23475753.1644
       232.000         181.000
 09  1 28  0 49 30.0000000  0  9G 5G 9G26G30G18G15G17G12G22
 106923907.58248 101109522.89848  22249891.0894   22249894.1274   22249891.8484
       239.000         200.000
 115294753.07748  72047848.63048  20036933.0324   20036935.3204   20036933.3014
       251.000         228.000
 130224613.18848  83681506.51948  22877990.5164   22877993.3294   22877990.2924
       227.000         186.000
 118300940.04248 109974747.69548  24414864.2524   24414867.7984   24414863.6034
       216.000         160.000
 127560861.13148  81605856.01448  22371096.3774   22371098.1354   22371096.8894
       235.000         193.000
 121640489.64348  76992582.03848  21244484.1764   21244486.2424   21244484.0284
       245.000         220.000
 132642535.84548  85565608.04048  23338102.6194   23338103.6384   23338102.4494
       233.000         189.000
 122405854.95148  77588972.43848  21390127.6844   21390128.9094   21390127.4874
       245.000         217.000
 113334578.23748 106104867.49448  23469788.8804   23469788.2994   23469788.4974
       230.000         182.000
 09  1 28  0 50  0.0000000  0  9G 5G 9G26G30G18G15G17G12G22
 106835712.41748 101040799.41248  22233108.1824   22233111.3664   22233108.9134
       238.000         200.000
 115276393.56348  72033542.51548  20033439.3594   20033441.6244   20033439.4344
       251.000         228.000
 130323897.41148  83758870.83648  22896883.7674   22896886.8784   22896883.0804
       228.000         185.000
 118191513.37248 109889480.15748  24394041.4634   24394044.6274   24394042.0054
       220.000         165.000
 127583194.47148  81623258.60748  22375346.0314   22375347.8734   22375346.1334
       235.000         191.000
 121706285.43748  77043851.47748  21257004.9134   21257006.7804   21257004.5834
       246.000         221.000
 132668274.78948  85585664.35948  23343000.8224   23343001.9844   23343001.5314
       228.000         187.000
 122338434.32848  77536436.89348  21377297.9204   21377299.3624   21377297.6784
       245.000         218.000
 113303765.36148 106080857.45848  23463924.7444   23463924.3934   23463923.7874
       229.000         180.000
 09  1 28  0 50 30.0000000  0  9G 5G 9G26G30G18G15G17G12G22
 106747832.08248 100972321.23748  22216384.9884   22216388.1734   22216385.4524
       239.000         201.000
 115258380.51448  72019506.37448  20030011.5594   20030013.8364   20030011.8464
       251.000         228.000
 130423415.05648  83836417.06348  22915821.2654   22915824.4374   22915821.1894
       228.000         187.000
 118082211.80748 109804310.11748  24373242.5204   24373245.4334   24373242.5534
       221.000         168.000
 127606070.01848  81641083.70948  22379699.0754   22379700.7084   22379699.1954
       234.000         190.000
 121772499.00348  77095446.45648  21269604.9824   21269606.8934   21269604.7074
       246.000         221.000
 132694560.88548  85606147.05448  23348000.8624   23348003.7824   23348000.1264
       228.000         185.000
 122271423.53348  77484220.69348  21364546.0404   21364547.5644   21364545.8944
       244.000         218.000
 113273477.82548 106057256.78148  23458161.6094   23458160.8964   23458160.9354
       229.000         180.000
 09  1 28  0 51  0.0000000  0  9G 5G 9G26G30G18G15G17G12G22
 106660268.27248 100904089.70348  22199722.2274   22199725.2044   22199723.1394
       238.000         201.000
 115240714.60548  72005740.72948  20026649.9084   20026652.2674   20026650.0204
       251.000         228.000
 130523164.70648  83914144.04948  22934803.1524   22934806.0374   22934802.2704
       228.000         187.000
 117973037.36848 109719239.12448  24352467.5094   24352470.1944   24352466.1424
       222.000         167.000
 127629486.94648  81659330.65548  22384155.4674   22384156.9274   22384156.0314
       235.000         190.000
 121839129.60548  77147366.40048  21282284.5504   21282286.1214   21282284.1974
       245.000         220.000
 132721393.90748  85627055.89048  23353108.5604   23353109.8484   23353107.7344
       232.000         187.000
 122204823.69848  77432324.72048  21351872.4794   21351874.1934   21351872.1674
       245.000         219.000
 113243716.57448 106034066.19148  23452497.7534   23452497.9574   23452497.8024
       228.000         181.000
 09  1 28  0 51 30.0000000  0  9G 5G 9G26G30G18G15G17G12G22
 106573020.51348 100836104.44748  22183119.3404   22183122.2834   22183120.0364
       239.000         201.000
 115223394.39548  71992244.45548  20023353.8024   20023356.3674   20023353.9284
       250.000         228.000
 130623142.76748  83992049.03848  22953828.5664   22953831.0924   22953828.4774
       230.000         185.000
 117863989.70348 109634266.88448  24331716.7694   24331718.7364   24331716.2514
       223.000         163.000
 127653441.58548  81677996.59948  22388713.6204   22388715.7224   22388714.1034
       236.000         191.000
 121906174.28548  77199608.99348  21295042.3314   21295044.3004   21295041.8514
       245.000         220.000
 132748771.45048  85648389.04348  23358318.5224   23358319.5544   23358318.4704
       231.000         185.000
 122138634.04148  77380748.36848  21339277.2184   21339278.8184   21339276.9414
       246.000         219.000
 113214480.60048 106011284.90748  23446934.6684   23446935.3394   23446934.4544
       230.000         184.000
 09  1 28  0 52  0.0000000  0  9G 5G 9G26G30G18G15G17G12G22
 106486089.95848 100768366.35848  22166577.1164   22166580.0464   22166577.7514
       240.000         202.000
 115206420.48248  71979018.03048  20020123.7314   20020126.1224   20020123.8754
       250.000         228.000
 130723347.58848  84070130.72048  22972896.7154   22972899.3324   22972897.3494
       228.000         185.000
 117755070.55548 109549394.81048  24310989.5974   24310992.0214   24310989.4024
       221.000         161.000
 127677932.65048  81697080.53148  22393374.4084   22393376.0944   22393374.6364
       236.000         191.000
 121973631.47548  77252173.03448  21307879.0834   21307880.9494   21307878.8014
       244.000         219.000
 132776692.62948  85670145.79248  23363631.2954   23363632.7794   23363631.3264
       230.000         184.000
 122072855.28348  77329492.19848  21326759.7994   21326761.4544   21326759.7294
       245.000         219.000
 113185770.47448 105988913.39148  23441470.7314   23441471.7484   23441472.1634
       230.000         184.000
 09  1 28  0 52 30.0000000  0  9G 5G 9G26G30G18G15G17G12G22
 106399478.83648 100700877.18148  22150095.6164   22150098.5264   22150096.1264
       241.000         203.000
 115189793.75948  71966062.14348  20016959.7544   20016962.2954   20016959.8004
       251.000         228.000
 130823778.55048  84148388.59048  22992007.9184   22992010.8574   22992007.2334
       227.000         184.000
 117646282.29048 109464624.70348  24290288.0094   24290290.2244   24290288.4524
       217.000         160.000
 127702959.58748  81716582.03748  22398136.8904   22398138.4694   22398137.3624
       235.000         191.000
 122041500.95848  77305058.33248  21320794.3364   21320796.1804   21320793.9114
       245.000         219.000
 132805157.50048  85692326.21548  23369048.0054   23369049.3734   23369047.9794
       228.000         183.000
 122007489.24248  77278557.62148  21314321.2344   21314322.5744   21314321.0484
       246.000         219.000
 113157587.70448 105966952.80548  23436107.9004   23436108.7574   23436108.7544
       228.000         185.000
 09  1 28  0 53  0.0000000  0  9G 5G 9G26G30G18G15G17G12G22
 106313189.56648 100633638.79748  22133675.4314   22133678.2244   22133676.1744
       241.000         203.000
 115173515.35248  71953377.66348  20013862.2084   20013864.6184   20013862.3154
       251.000         228.000
 130924434.92548  84226822.11348  23011162.6734   23011165.4414   23011162.5744
       228.000         185.000
 117537627.26148 109379958.47448  24269611.1284   24269614.3154   24269610.9234
       210.000         159.000
 127728521.98248  81736500.76648  22403000.9784   22403002.7564   22403001.6624
       233.000         190.000
 122109783.13948  77358265.21948  21333787.9014   21333789.7664   21333787.7304
       245.000         219.000
 132834166.49548  85714930.65148  23374567.5414   23374569.8964   23374567.5144
       228.000         185.000
 121942537.77148  77227946.09048  21301961.4714   21301962.6134   21301961.3574
       247.000         219.000
 113129933.89248 105945404.40148  23430845.2484   23430846.2484   23430845.4274
       231.000         185.000
 09  1 28  0 53 30.0000000  0  9G 5G 9G26G30G18G15G17G12G22
 106227222.85248 100566651.75748  22117316.6894   22117319.5944   22117317.3544
       241.000         204.000
 115157585.33948  71940964.66648  20010831.0024   20010833.1814   20010831.2754
       251.000         228.000
 131025314.57548  84305429.61648  23030359.4184   23030362.3844   23030359.3594
       229.000         186.000
 117429106.62048 109295396.97048  24248959.7384   24248962.9524   24248958.7354
       214.000         160.000
 127754617.64548  81756835.02748  22407966.9224   22407968.5254   22407967.1874
       234.000         190.000
 122178475.83548  77411791.98548  21346859.9664   21346861.5154   21346859.9054
       245.000         219.000
 132863718.35648  85737958.07948  23380191.5194   23380193.5944   23380191.1784
       232.000         189.000
 121878001.63948  77177658.19648  21289680.6474   21289681.7794   21289680.4714
       247.000         219.000
 113102809.27948 105924268.33448  23425684.2974   23425684.6354   23425685.8094
       230.000         185.000
 09  1 28  0 54  0.0000000  0  9G 5G 9G26G30G18G15G17G12G22
 106141579.98548 100499917.06648  22101019.1284   22101022.2004   22101019.8134
       239.000         203.000
 115142004.22648  71928823.53748  20007865.9304   20007868.1904   20007866.3374
       251.000         228.000
 131126415.79748  84384209.78748  23049598.5744   23049600.9464   23049598.5904
       228.000         184.000
 117320722.03448 109210941.45748  24228335.2044   24228338.5354   24228335.8754
       218.000         163.000
 127781245.23748  81777583.79448  22413034.2104   22413035.3164   22413034.6894
       235.000         188.000
 122247577.68948  77465637.57748  21360009.5394   21360011.1374   21360009.2514
       245.000         219.000
 132893812.04648  85761407.69548  23385919.0034   23385919.8364   23385918.7834
       235.000         189.000
 121813881.43948  77127694.40548  21277479.0984   21277480.0974   21277478.9804
       247.000         219.000
 113076214.42848 105903545.07548  23420622.8944   23420623.5724   23420622.6994
       230.000         182.000
 09  1 28  0 54 30.0000000  0  9G 5G 9G26G30G18G15G17G12G22
 106056261.66148 100433435.26448  22084783.5584   22084786.6844   22084784.3764
       241.000         205.000
 115126771.71148  71916954.04448  20004967.2034   20004969.6164   20004967.4074
       251.000         228.000
 131227736.18748  84463160.74248  23068878.8094   23068881.5864   23068878.0124
       230.000         185.000
 117212474.25548 109126592.55548  24207736.5864   24207739.1704   24207737.2004
       219.000         163.000
 127808402.44848  81798745.25448  22418201.7904   22418203.4684   22418202.5724
       232.000         188.000
 122317087.07748  77519800.72848  21373236.8244   21373238.3954   21373236.6114
       244.000         219.000
 132924446.21048  85785278.46848  23391748.2174   23391749.7694   23391749.0634
       229.000         186.000
 121750177.00548  77078054.59248  21265356.3224   21265357.4954   21265356.1694
       246.000         220.000
 113050149.28048 105883234.54248  23415663.6064   23415662.8474   23415663.1764
       229.000         181.000
 09  1 28  0 55  0.0000000  0  9G 5G 9G26G30G18G15G17G12G22
 105971270.12548 100367208.10248  22068610.3404   22068613.4614   22068610.6364
       240.000         205.000
 115111888.54548  71905356.77148  20002134.9714   20002137.4654   20002135.2054
       251.000         228.000
 131329275.44848  84542282.24848  23088201.0104   23088203.6334   23088201.4274
       228.000         183.000
 117104365.63848 109042352.08148  24187164.2754   24187166.1144   24187163.6014
       219.000         164.000
 127836089.09448  81820319.23648  22423470.2714   22423471.9654   22423470.7564
       232.000         188.000
 122387003.54148  77574281.07948  21386541.4414   21386543.1164   21386541.0714
       245.000         218.000
 132955621.02348  85809570.53048  23397679.8474   23397682.1434   23397679.3834
       227.000         183.000
 121686890.91848  77028740.76948  21253313.2754   21253314.7304   21253313.3594
       247.000         221.000
 113024615.44448 105863338.05048  23410803.9284   23410804.1474   23410804.7004
       227.000         180.000
 09  1 28  0 55 30.0000000  0  9G 5G 9G26G30G18G15G17G12G22
 105886606.48948 100301236.45548  22052499.0924   22052502.4914   22052499.5694
       241.000         205.000
 115097355.06648  71894031.97848  19999369.4334   19999371.8284   19999369.6944
       251.000         228.000
 131431031.34348  84621572.54848  23107564.2684   23107567.0854   23107564.2234
       228.000         183.000
 116996397.88848 108958221.34348  24166618.9024   24166620.6494   24166618.5624
       222.000         164.000
 127864303.03848  81842304.10348  22428839.2114   22428841.0234   22428839.6714
       232.000         189.000
 122457325.43748  77629077.35748  21399922.9804   21399924.9264   21399922.5954
       244.000         218.000
 132987335.30648  85834282.97348  23403714.3534   23403717.0244   23403714.1774
       226.000         185.000
 121624023.51848  76979753.19048  21241350.0724   21241351.5934   21241350.0304
       247.000         221.000
 112999613.25348 105843855.81148  23406046.3024   23406046.8404   23406045.6904
       226.000         179.000
 09  1 28  0 56  0.0000000  0  9G 5G 9G26G30G18G15G17G12G22
 105802272.17048 100235521.40548  22036451.1514   22036454.1324   22036451.8614
       242.000         205.000
 115083172.00848  71882980.24148  19996670.4074   19996672.8454   19996670.5124
       250.000         228.000
 131533002.52548  84701030.60048  23126969.0914   23126971.4554   23126969.0864
       226.000         183.000
 116888572.71448 108874201.73048  24146100.3394   24146102.4104   24146100.4264
       222.000         165.000
 127893042.86448  81864698.76548  22434308.3824   22434310.2344   22434308.9984
       235.000         190.000
 122528052.17248  77684189.08548  21413381.7094   21413383.7604   21413381.2094
       244.000         217.000
 133019588.64348  85859415.44448  23409852.6724   23409854.9344   23409852.1094
       228.000         187.000
 121561575.84448  76931092.66948  21229466.7594   21229468.2954   21229466.7204
       248.000         221.000
 112975143.22548 105824788.29048  23401388.8094   23401390.1954   23401389.2144
       227.000         180.000
 09  1 28  0 56 30.0000000  0  9G 5G 9G26G30G18G15G17G12G22
 105718267.52948 100170063.25848  22020465.3744   22020468.3384   22020466.2654
       241.000         205.000
 115069338.88148  71872201.18348  19994038.0084   19994040.6034   19994038.2134
       250.000         228.000
 131635186.38948  84780654.38648  23146413.9254   23146416.5064   23146413.6594
       227.000         182.000
 116780890.63848 108790293.60048  24125609.0384   24125611.4304   24125609.0224
       220.000         166.000
 127922306.52948  81887501.61848  22439877.5354   22439878.9974   22439878.1774
       235.000         191.000
 122599181.35848  77739614.41848  21426917.3674   21426919.3274   21426916.9594
       245.000         218.000
 133052379.24448  85884966.52848  23416092.9454   23416094.9334   23416092.7324
       231.000         188.000
 121499547.95348  76882759.25348  21217663.3364   21217664.8204   21217663.1704
       248.000         222.000
 112951204.94348 105806135.10848  23396834.1664   23396835.0434   23396834.0714
       229.000         182.000
 09  1 28  0 57  0.0000000  0  9G 5G 9G26G30G18G15G17G12G22
 105634593.70248 100104862.88648  22004542.8914   22004545.8314   22004543.4014
       242.000         205.000
 115055855.92348  71861694.97948  19991472.2084   19991474.8594   19991472.4324
       250.000         228.000
 131737581.23948  84860442.55648  23165899.0284   23165901.7144   23165899.2504
       225.000         182.000
 116673353.27448 108706498.24448  24105145.3134   24105148.0704   24105144.6394
       221.000         166.000
 127952092.02748  81910711.07748  22445545.3414   22445547.1294   22445545.8984
       233.000         191.000
 122670711.56348  77795352.22948  21440529.2684   21440531.2054   21440529.1934
       244.000         218.000
 133085705.64948  85910935.14748  23422434.7234   23422436.2844   23422434.5154
       228.000         185.000
 121437940.16448  76834753.18948  21205939.7104   21205941.0664   21205939.4514
       247.000         221.000
 112927798.65448 105787896.42248  23392381.0754   23392380.0134   23392381.0754
       231.000         182.000
 09  1 28  0 57 30.0000000  0  9G 5G 9G26G30G18G15G17G12G22
 105551252.82948 100039921.96648  21988683.4374   21988686.5044   21988684.0984
       241.000         205.000
 115042724.18748  71851462.45448  19988973.3204   19988975.9554   19988973.5264
       250.000         228.000
 131840186.18348  84940394.44548  23185423.7214   23185426.7884   23185423.7744
       227.000         183.000
 116565962.87148 108622817.42148  24084710.0634   24084712.2074   24084710.5414
       220.000         165.000
 127982398.44548  81934326.45848  22451312.4284   22451314.1884   22451312.7454
       235.000         191.000
 122742642.01648  77851401.93548  21454217.1054   21454218.9624   21454216.7534
       244.000         217.000
 133119568.10848  85937321.51348  23428878.1944   23428880.1694   23428878.2914
       228.000         186.000
 121376754.40048  76787075.97948  21194296.4144   21194297.7464   21194296.2244
       248.000         222.000
 112904925.77348 105770073.38348  23388028.1124   23388027.8664   23388028.6954
       228.000         182.000
 09  1 28  0 58  0.0000000  0  9G 5G 9G26G30G18G15G17G12G22
 105468245.30948  99975240.81048  21972887.4754   21972890.6764   21972887.9574
       241.000         207.000
 115029943.32948  71841503.34148  19986541.2014   19986544.0014   19986541.2114
       251.000         228.000
 131942998.68948  85020508.07348  23204988.5994   23204991.4244   23204988.2624
       230.000         183.000
 116458719.97348 108539251.55148  24064302.2044   24064304.6124   24064301.7794
       218.000         165.000
 128013223.15648  81958345.69948  22457178.2524   22457179.9354   22457179.1474
       233.000         188.000
 122814971.01848  77907762.18148  21467980.8064   21467982.6524   21467980.8264
       243.000         216.000
 133153965.01648  85964124.29048  23435423.3394   23435426.2504   23435423.3784
       228.000         186.000
 121315990.52848  76739727.51148  21182733.5164   21182734.8904   21182733.2994
       247.000         222.000
 112882586.19848 105752665.89748  23383777.2884   23383777.2704   23383777.3304
       229.000         182.000
 09  1 28  0 58 30.0000000  0  9G 5G 9G26G30G18G15G17G12G22
 105385573.11348  99910820.93648  21957155.6214   21957158.7914   21957156.1124
       242.000         207.000
 115017514.41348  71831818.47148  19984176.1724   19984178.7104   19984176.3414
       250.000         228.000
 132046017.82648  85100782.72948  23224592.4174   23224595.4234   23224592.8904
       228.000         184.000
 116351627.19548 108455802.64248  24043923.2784   24043925.4494   24043923.1304
       222.000         164.000
 128044565.59148  81982768.35348  22463142.2584   22463143.8864   22463142.6614
       233.000         187.000
 122887698.00348  77964432.55248  21481820.2644   21481822.1534   21481819.8714
       244.000         216.000
 133188895.86748  85991343.13348  23442070.8334   23442072.9094   23442070.8484
       230.000         185.000
 121255650.18348  76692709.06948  21171250.8304   21171252.4404   21171250.7004
       248.000         222.000
 112860780.89548 105735674.76748  23379627.5344   23379627.2704   23379628.4734
       228.000         180.000
 09  1 28  0 59  0.0000000  0  9G 5G 9G26G30G18G15G17G12G22
 105303237.38448  99846663.23248  21941488.0394   21941490.7234   21941488.7634
       241.000         208.000
 115005437.51148  71822407.89448  19981878.1324   19981880.3574   19981878.3364
       251.000         228.000
 132149241.89548  85181217.05848  23244235.4904   23244238.3974   23244235.4054
       229.000         182.000
 116244685.89448 108372471.74348  24023573.0254   24023575.0864   24023573.2724
       218.000         161.000
 128076423.71248  82007592.85548  22469204.5784   22469206.1474   22469204.8494
       233.000         187.000
 122960821.29248  78021411.73448  21495735.3994   21495736.8174   21495735.1704
       244.000         216.000
 133224359.77748  86018977.34148  23448819.8934   23448821.0714   23448819.8954
       231.000         185.000
 121195733.98148  76646021.11848  21159849.2044   21159850.6944   21159848.9284
       248.000         222.000
 112839510.16948 105719100.18748  23375580.1014   23375579.9234   23375579.6584
       230.000         181.000
 09  1 28  0 59 30.0000000  0  9G 5G 9G26G30G18G15G17G12G22
 105221239.80148  99782769.02748  21925884.2184   21925887.0044   21925884.8554
       241.000         207.000
 114993713.53048  71813272.33248  19979647.0854   19979649.4734   19979647.3864
       251.000         228.000
 132252669.74648  85261810.18048  23263917.1714   23263919.8454   23263916.9224
       228.000         181.000
 116137897.95448 108289260.36248  24003251.6164   24003254.2414   24003250.9084
       219.000         164.000
 128108796.44448  82032818.35448  22475365.2054   22475366.7104   22475365.8744
       233.000         187.000
 123034340.14748  78078699.14648  21509725.4504   21509727.1284   21509725.0714
       244.000         216.000
 133260355.96048  86047026.31248  23455669.6404   23455670.8404   23455669.7884
       228.000         183.000
 121136242.99948  76599664.51248  21148528.6474   21148529.9374   21148528.6344
       248.000         222.000
 112818774.99548 105702942.90448  23371634.9414   23371633.9854   23371635.0054
       231.000         185.000
 09  1 28  1  0  0.0000000  0  9G 5G 9G26G30G18G15G17G12G22
 105139580.19648  99719138.18648  21910344.8374   21910347.5564   21910345.3124
       242.000         208.000
 114982341.95748  71804411.35648  19977483.1684   19977485.4814   19977483.4064
       250.000         228.000
 132356298.08648  85342559.54348  23283636.8214   23283639.7484   23283636.9354
       228.000         180.000
 116031263.28948 108206168.42948  23982959.6504   23982962.3814   23982959.5384
       220.000         165.000
 128141680.90248  82058442.59848  22481622.4104   22481624.6084   22481623.0774
       232.000         187.000
 123108251.81848  78136292.64948  21523790.3624   21523792.1604   21523790.2054
       243.000         216.000
 133296882.19748  86075488.30948  23462619.7624   23462621.8104   23462619.9924
       227.000         182.000
 121077176.91548  76553638.99448  21137288.7434   21137289.9254   21137288.7094
       248.000         223.000
 112798574.15648 105687201.98448  23367790.4994   23367790.3224   23367790.5894
       229.000         181.000
 09  1 28  1  0 30.0000000  0  9G 5G 9G26G30G18G15G17G12G22
 105058261.79748  99655773.20948  21894870.4654   21894873.2044   21894871.0454
       242.000         207.000
 114971324.40448  71795826.25048  19975386.5264   19975388.9404   19975386.5704
       250.000         228.000
 132460127.45848  85423465.54848  23303395.0574   23303397.7444   23303395.1714
       227.000         178.000
 115924785.66948 108123198.86648  23962697.5444   23962700.5244   23962697.6914
       221.000         167.000
 128175076.90348  82084465.44548  22487977.9094   22487979.8234   22487977.9454
       233.000         188.000
 123182556.97748  78194192.76148  21537930.1634   21537932.1324   21537929.8244
       244.000         216.000
 133333938.99248  86104363.75048  23469671.6544   23469673.4564   23469671.2844
       228.000         183.000
 121018538.45248  76507946.69548  21126130.1244   21126131.5414   21126129.8194
       248.000         223.000
 112778909.85748 105671879.13248  23364047.8814   23364047.2494   23364048.8604
       227.000         178.000
 09  1 28  1  1  0.0000000  0  9G 5G 9G26G30G18G15G17G12G22
 104977285.08048  99592674.48348  21879460.8424   21879463.9524   21879461.4934
       241.000         208.000
 114960660.48748  71787516.70448  19973357.3264   19973359.6534   19973357.5134
       250.000         228.000
 132564155.41748  85504526.28748  23323190.9674   23323193.2754   23323191.0894
       225.000         178.000
 115818466.13948 108040352.48648  23942465.5094   23942468.4754   23942465.1604
       218.000         167.000
 128208981.95948  82110884.95848  22494429.8754   22494431.7704   22494430.6834
       233.000         187.000
 123257253.36948  78252397.74148  21552144.3934   21552146.0664   21552143.8984
       243.000         215.000
 133371525.24248  86133651.72748  23476823.9354   23476825.9704   23476824.1744
       228.000         183.000
 120960327.27148  76462587.34048  21115052.9514   21115054.3394   21115052.8544
       248.000         223.000
 112759781.81948 105656974.19048  23360407.5554   23360407.6494   23360406.5104
       225.000         179.000
 09  1 28  1  1 30.0000000  0  9G 5G 9G26G30G18G15G17G12G22
 104896650.64748  99529842.47748  21864116.4694   21864119.6994   21864116.9474
       241.000         208.000
 114950350.33448  71779482.82048  19971395.3614   19971397.8684   19971395.6284
       251.000         228.000
 132668379.53948  85585739.88248  23343023.6864   23343026.3754   23343023.2754
       223.000         176.000
 115712305.57248 107957629.97448  23922263.6644   23922267.0414   23922263.6844
       220.000         169.000
 128243393.91148  82137699.45848  22500978.1614   22500980.1104   22500978.8344
       233.000         187.000
 123332339.04648  78310906.05648  21566432.7674   21566434.3754   21566432.6494
       243.000         215.000
 133409639.18548  86163350.88748  23484077.2124   23484078.9704   23484077.2664
       228.000         183.000
 120902543.52148  76417561.04848  21104057.0164   21104058.4724   21104056.9384
       248.000         223.000
 112741189.75348 105642486.85248  23356870.5404   23356870.0844   23356870.2134
       230.000         182.000
 09  1 28  1  2  0.0000000  0  9G 5G 9G26G30G18G15G17G12G22
 104816359.95148  99467278.31848  21848837.5924   21848840.9254   21848838.0374
       241.000         208.000
 114940394.66248  71771725.15848  19969500.8314   19969503.3514   19969501.0184
       251.000         228.000
 132772798.48948  85667105.28848  23362894.2914   23362896.6974   23362893.5574
       223.000         178.000
 115606305.58448 107875032.58148  23902092.3754   23902095.8374   23902091.9794
       219.000         168.000
 128278311.32248  82164907.79848  22507623.2014   22507624.4284   22507623.8274
       231.000         187.000
 123407812.66248  78369716.65948  21580794.8864   21580796.7184   21580794.2754
       243.000         215.000
 133448279.65148  86193460.35048  23491430.1804   23491431.9464   23491429.8734
       226.000         182.000
 120845188.38548  76372868.74048  21093142.7524   21093144.1344   21093142.4364
       249.000         224.000
 112723134.61148 105628417.89448  23353434.7194   23353434.6344   23353434.6544
       230.000         183.000
 09  1 28  1  2 30.0000000  0  9G 5G 9G26G30G18G15G17G12G22
 104736413.50848  99404982.39848  21833624.5644   21833627.8344   21833625.1704
       241.000         209.000
 114930793.08048  71764243.40448  19967673.6584   19967676.2404   19967673.8354
       250.000         228.000
 132877409.85048  85748620.61248  23382801.1534   23382803.7784   23382800.7764
       224.000         178.000
 115500466.98748 107792560.96448  23881952.3204   23881955.0694   23881951.9214
       223.000         168.000
 128313731.40548  82192507.85948  22514363.2024   22514364.4774   22514363.6434
       232.000         187.000
 123483672.54448  78428828.24548  21595230.5874   21595232.4234   21595230.2734
       244.000         215.000
 133487444.82448  86223978.66848  23498883.0004   23498884.4734   23498882.6414
       226.000         181.000
 120788261.70048  76328510.29148  21082309.9644   21082311.3854   21082309.8304
       249.000         224.000
 112705615.38748 105614766.52548  23350101.3224   23350100.7214   23350101.3984
       232.000         183.000
 09  1 28  1  3  0.0000000  0  9G 5G 9G26G30G18G15G17G12G22
 104656813.50448  99342956.43348  21818477.3444   21818480.2704   21818477.8354
       242.000         209.000
 114921546.61948  71757038.36548  19965914.1254   19965916.5534   19965914.2904
       251.000         228.000
 132982212.95448  85830285.35148  23402744.6984   23402747.4154   23402743.9874
       225.000         180.000
 115394792.63748 107710217.31748  23861843.0594   23861845.5274   23861843.7764
       221.000         166.000
 128349653.12648  82220498.79548  22521198.6224   22521200.1084   22521199.5624
       230.000         185.000
 123559918.40048  78488240.59048  21609739.7184   21609741.6164   21609739.6534
       243.000         215.000
 133527134.79148  86254905.91648  23506435.3584   23506436.9244   23506434.7394
       227.000         180.000
 120731765.10548  76284486.97848  21071558.9344   21071560.4134   21071558.8134
       249.000         224.000
 112688633.47948 105601533.89548  23346868.9654   23346869.1694   23346869.9304
       230.000         183.000
 09  1 28  1  3 30.0000000  0  9G 5G 9G26G30G18G15G17G12G22
 104577560.10348  99281200.55148  21803395.8024   21803398.7314   21803396.3234
       241.000         208.000
 114912654.84548  71750109.70648  19964222.1664   19964224.5234   19964222.4044
       251.000         228.000
 133087205.14948  85912097.44548  23422723.9004   23422726.8494   23422723.9174
       228.000         183.000
 115289282.93548 107628001.96248  23841765.1744   23841767.4544   23841764.4054
       218.000         162.000
 128386074.33548  82248878.93248  22528128.9374   22528130.9434   22528129.1884
       230.000         185.000
 123636547.12748  78547951.28948  21624321.9444   21624323.5854   21624321.8374
       244.000         216.000
 133567347.37548  86286240.39848  23514087.8554   23514089.3254   23514086.9194
       228.000         181.000
 120675698.67448  76240798.85448  21060889.7754   21060891.3144   21060889.5754
       248.000         224.000
 112672188.43448 105588719.55248  23343740.0064   23343739.6464   23343739.3354
       231.000         184.000
 09  1 28  1  4  0.0000000  0  9G 5G 9G26G30G18G15G17G12G22
 104498655.39548  99219716.37448  21788380.8134   21788383.7184   21788381.3134
       243.000         209.000
 114904119.13348  71743458.50648  19962597.7374   19962600.3084   19962597.9464
       251.000         228.000
 133192385.69348  85994056.30548  23442739.1594   23442741.9434   23442739.3054
       228.000         184.000
 115183940.20148 107545916.73248  23821718.5494   23821721.0674   23821718.0994
       219.000         163.000
 128422993.59548  82277647.17348  22535155.0704   22535156.5094   22535155.4204
       232.000         186.000
 123713558.91548  78607960.46648  21638976.6194   21638978.4474   21638976.4264
       243.000         215.000
 133608082.50548  86317982.04448  23521839.6054   23521841.6614   23521839.5254
       228.000         182.000
 120620063.61748  76197446.86948  21050302.6344   21050304.0884   21050302.4064
       249.000         224.000
 112656280.94548 105576324.11148  23340712.9384   23340712.7784   23340714.3374
       232.000         183.000
 09  1 28  1  4 30.0000000  0  9G 5G 9G26G30G18G15G17G12G22
 104420099.33248  99158503.87848  21773432.2864   21773435.1834   21773433.2144
       242.000         209.000
 114895938.82448  71737084.23148  19961041.1224   19961043.6894   19961041.2614
       250.000         228.000
 133297751.65348  86076159.64048  23462789.5104   23462792.2074   23462788.7944
       228.000         185.000
 115078764.90448 107463961.94948  23801704.6104   23801707.0644   23801704.6604
       219.000         166.000
 128460407.83648  82306801.11848  22542274.6814   22542276.1414   22542275.3544
       233.000         186.000
 123790950.97748  78668265.96248  21653703.7884   21653705.7524   21653703.2864
       243.000         214.000
 133649337.45848  86350128.75548  23529690.4854   23529691.5684   23529690.1564
       227.000         182.000
 120564859.48348  76154430.66948  21039797.8404   21039799.0544   21039797.7134
       249.000         224.000
 112640910.15948 105564346.86248  23337787.9454   23337787.4834   23337788.9334
       230.000         181.000
 09  1 28  1  5  0.0000000  0  9G 5G 9G26G30G18G15G17G12G22
 104341893.90448  99097564.57848  21758550.1364   21758552.9874   21758550.3984
       243.000         210.000
 114888115.14948  71730987.86448  19959552.2634   19959554.9134   19959552.3654
       250.000         228.000
 133403302.03448  86158406.67548  23482875.4784   23482878.1474   23482875.7244
       231.000         185.000
 114973759.35048 107382139.47048  23781722.9584   23781725.5384   23781722.3284
       223.000         171.000
 128498315.91148  82336339.87348  22549488.4084   22549489.9414   22549489.0714
       233.000         187.000
 123868722.52848  78728867.16348  21668503.1384   21668505.0854   21668502.7394
       243.000         213.000
 133691112.10048  86382680.42448  23537639.4844   23537641.0964   23537639.5394
       226.000         182.000
 120510087.47448  76111751.18448  21029374.9624   21029376.1034   21029374.8044
       249.000         224.000
 112626077.24048 105552788.72248  23334964.9624   23334965.2904   23334964.8354
       230.000         182.000
 09  1 28  1  5 30.0000000  0  9G 5G 9G26G30G18G15G17G12G22
 104264040.26848  99036899.41948  21743735.1034   21743737.8414   21743736.0344
       241.000         210.000
 114880647.95448  71725169.27148  19958131.3094   19958133.8264   19958131.3534
       251.000         228.000
 133509035.47748  86240796.36748  23502995.8214   23502998.6114   23502996.0174
       230.000         185.000
 114868925.16348 107300450.48548  23761774.6194   23761776.4344   23761774.7774
       226.000         173.000
 128536716.19848  82366262.15948  22556795.7234   22556797.4914   22556796.4594
       231.000         186.000
 123946871.89248  78789762.77148  21683374.5464   21683376.3034   21683374.3354
       242.000         214.000
 133733405.13948  86415636.05048  23545687.4694   23545689.6374   23545687.1864
       226.000         182.000
 120455748.45048  76069409.09548  21019034.7014   21019035.9904   21019034.5524
       249.000         225.000
 112611782.37648 105541649.86248  23332244.9564   23332244.8984   23332244.6364
       230.000         184.000
 09  1 28  1  6  0.0000000  0  9G 5G 9G26G30G18G15G17G12G22
 104186539.14648  98976508.94748  21728986.9254   21728989.9104   21728987.3814
       242.000         209.000
 114873537.50048  71719628.66448  19956778.2624   19956780.8424   19956778.6424
       250.000         228.000
 133614949.56748  86323326.81448  23523150.5814   23523153.1494   23523150.9284
       230.000         183.000
 114764263.15848 107218895.69448  23741857.8504   23741860.1134   23741858.1824
       224.000         171.000
 128575606.25448  82396566.08348  22564196.2094   22564198.1124   22564196.4644
       232.000         186.000
 124025397.57448  78850951.60748  21698317.4324   21698319.2824   21698317.1574
       242.000         213.000
 133776215.04948  86448994.42748  23553834.0394   23553836.0434   23553833.4854
       227.000         181.000
 120401842.31148  76027404.31848  21008776.6784   21008778.1764   21008776.7374
       249.000         225.000
 112598024.94248 105530929.80548  23329626.9074   23329627.4674   23329626.5264
       230.000         183.000
 09  1 28  1  6 30.0000000  0  9G 5G 9G26G30G18G15G17G12G22
 104109392.01848  98916394.31048  21714306.2534   21714309.0664   21714306.9134
       241.000         209.000
 114866784.48548  71714366.57548  19955493.0944   19955495.7474   19955493.1304
       251.000         228.000
 133721043.13348  86405997.12848  23543339.2694   23543341.8954   23543339.0674
       230.000         184.000
 114659775.38948 107137476.66148  23721974.4904   23721976.4294   23721974.3464
       225.000         170.000
 128614984.40848  82427250.34048  22571689.5374   22571691.2694   22571690.3514
       233.000         186.000
 124104298.47948  78912432.82248  21713331.6614   21713333.8354   21713331.4924
       241.000         213.000
 133819540.84548  86482754.79848  23562078.8364   23562080.3874   23562078.9174
       229.000         181.000
 120348370.53748  75985738.01048  20998601.4004   20998602.8494   20998601.1484
       249.000         225.000
 112584805.70348 105520629.07348  23327111.6194   23327111.0184   23327111.3824
       229.000         181.000
 09  1 28  1  7  0.0000000  0  9G 5G 9G26G30G18G15G17G12G22
 104032599.47248  98856555.96148  21699693.2744   21699696.0524   21699693.7694
       243.000         210.000
 114860388.74348  71709382.89048  19954276.0844   19954278.6024   19954276.2184
       251.000         228.000
 133827313.77448  86488805.40048  23563562.3644   23563564.7794   23563562.5924
       231.000         184.000
 114555462.86848 107056194.16648  23702124.3884   23702126.2194   23702122.9054
       224.000         168.000
 128654847.86448  82458312.76948  22579275.6154   22579277.1844   22579276.4694
       232.000         187.000
 124183572.29148  78974204.61548  21728417.0304   21728419.1754   21728416.3724
       241.000         213.000
 133863380.58548  86516915.62248  23570421.2784   23570422.8014   23570421.0364
       227.000         180.000
 120295332.97748  75944410.04948  20988508.6644   20988509.8544   20988508.5894
       249.000         225.000
 112572123.82748 105510747.10948  23324697.8354   23324697.8494   23324697.8994
       231.000         184.000
 09  1 28  1  7 30.0000000  0  9G 5G 9G26G30G18G15G17G12G22
 103956163.24848  98796995.27848  21685147.8634   21685150.9244   21685148.5114
       243.000         211.000
 114854351.21348  71704678.31948  19953127.2514   19953129.7984   19953127.4844
       251.000         229.000
 133933760.55448  86571750.94448  23583818.6994   23583821.2554   23583819.0734
       230.000         181.000
 114451327.55048 106975049.75948  23682307.9824   23682309.6044   23682308.8794
       223.000         168.000
 128695195.74748  82489752.65948  22586953.3454   22586955.1604   22586954.0544
       231.000         186.000
 124263218.31148  79036266.43448  21743573.1084   21743575.2104   21743572.8604
       241.000         212.000
 133907733.91248  86551476.64348  23578861.0594   23578862.6154   23578860.5564
       227.000         179.000
 120242730.86948  75903421.39848  20978498.8044   20978500.1124   20978498.6604
       250.000         225.000
 112559980.38048 105501284.67048  23322387.2434   23322387.8994   23322387.6034
       229.000         184.000
 09  1 28  1  8  0.0000000  0  9G 5G 9G26G30G18G15G17G12G22
 103880084.50048  98737713.13848  21670670.7954   21670673.7374   21670671.4084
       244.000         211.000
 114848672.37748  71700253.25848  19952046.6344   19952049.1314   19952046.7904
       251.000         228.000
 134040381.61548  86654832.27348  23604107.3644   23604110.2074   23604107.3494
       229.000         179.000
 114347370.88848 106894044.58848  23662525.1664   23662527.5084   23662525.5054
       224.000         168.000
 128736025.84448  82521568.29948  22594723.1754   22594724.9944   22594723.5384
       232.000         187.000
 124343235.10848  79098617.17948  21758799.9134   21758801.9344   21758799.5794
       241.000         213.000
 133952599.33248  86586436.70348  23587398.3294   23587400.8024   23587398.2444
       226.000         177.000
 120190564.41448  75862772.21048  20968571.7564   20968573.2194   20968571.5954
       249.000         225.000
 112548374.96348 105492241.46048  23320178.7114   23320179.1314   23320178.0714
       230.000         183.000
 09  1 28  1  8 30.0000000  0  9G 5G 9G26G30G18G15G17G12G22
 103804363.65348  98678709.88648  21656261.3434   21656264.4434   21656262.0454
       243.000         211.000
 114843351.98148  71696107.49148  19951034.1224   19951036.6784   19951034.2814
       251.000         229.000
 134147174.87148  86738047.79748  23624429.6804   23624432.0194   23624429.6384
       224.000         175.000
 114243594.27248 106813179.69048  23642777.6914   23642779.7684   23642777.1924
       226.000         174.000
 128777335.65348  82553757.74648  22602584.1534   22602585.8154   22602584.6904
       231.000         185.000
 124423620.42648  79161255.07748  21774096.8284   21774098.7214   21774096.6024
       241.000         212.000
 133997974.76948  86621794.20448  23596033.0434   23596034.3814   23596033.1684
       225.000         176.000
 120138833.86248  75822462.69748  20958727.7554   20958729.1874   20958727.5724
       250.000         226.000
 112537307.24648 105483617.25748  23318072.0374   23318073.0784   23318072.1154
       231.000         184.000
 09  1 28  1  9  0.0000000  0  9G 5G 9G26G30G18G15G17G12G22
 103729002.20548  98619986.68548  21641920.6934   21641923.6214   21641921.2024
       244.000         211.000
 114838390.69648  71692241.55648  19950090.0544   19950092.5924   19950090.1814
       251.000         229.000
 134254138.79248  86821396.29548  23644783.9434   23644786.8654   23644783.8024
       224.000         173.000
 114139999.58748 106732456.57548  23623064.1884   23623066.7304   23623063.9204
       226.000         173.000
 128819123.41048  82586319.62348  22610536.0104   22610537.8084   22610536.5884
       232.000         186.000
 124504373.16948  79224179.28548  21789463.5524   21789465.4614   21789462.9594
       242.000         211.000
 134043859.64348  86657548.62848  23604764.9044   23604766.2174   23604764.5544
       227.000         178.000
 120087540.03448  75782493.49048  20948967.0734   20948968.1804   20948967.0724
       250.000         226.000
 112526777.62048 105475412.34848  23316069.2444   23316069.0684   23316069.5274
       230.000         183.000
 09  1 28  1  9 30.0000000  0  9G 5G 9G26G30G18G15G17G12G22
 103654000.74848  98561544.00148  21627648.4104   21627651.1344   21627649.2524
       243.000         211.000
 114833788.38948  71688655.34048  19949214.2364   19949216.7904   19949214.3574
       251.000         228.000
 134361271.29148  86904876.16348  23665170.3574   23665174.0634   23665170.0984
       223.000         172.000
 114036587.57048 106651875.79848  23603385.2844   23603388.0384   23603385.6674
       226.000         172.000
 128861386.58148  82619251.94648  22618578.6314   22618580.5884   22618579.0984
       232.000         185.000
 124585491.47948  79287388.35148  21804900.0014   21804901.4344   21804899.9194
       241.000         211.000
 134090252.06848  86693698.57048  23613593.3614   23613595.4464   23613593.5884
       226.000         180.000
 120036683.05448  75742864.67448  20939289.1494   20939290.3164   20939289.0554
       249.000         226.000
 112516785.67648 105467626.42148  23314167.3514   23314167.7814   23314166.8414
       231.000         184.000
 09  1 28  1 10  0.0000000  0  9G 5G 9G26G30G18G15G17G12G22
 103579360.51348  98503382.78448  21613444.8544   21613447.4414   21613445.3064
       244.000         211.000
 114829545.81648  71685349.43648  19948407.0604   19948409.3954   19948407.3174
       251.000         229.000
 134468570.65248  86988486.03548  23685589.4214   23685592.0994   23685589.4014
       223.000         168.000
 113933359.78848 106571438.57948  23583741.4344   23583744.4474   23583741.5014
       222.000         172.000
 128904123.00248  82652553.03448  22626711.0144   22626712.9454   22626711.7104
       231.000         183.000
 124666973.68748  79350880.97648  21820405.3564   21820407.1954   21820405.0374
       241.000         211.000
 134137150.70748  86730242.97748  23622517.9954   23622520.4434   23622517.6614
       228.000         181.000
 119986263.50048  75703576.70748  20929694.5484   20929695.9214   20929694.3124
       249.000         226.000
 112507331.46648 105460259.46448  23312368.8744   23312369.1644   23312368.5464
       229.000         185.000
 09  1 28  1 10 30.0000000  0  9G 5G 9G26G30G18G15G17G12G22
 103505081.69748  98445503.19348  21599309.8584   21599312.4944   21599310.6634
       242.000         210.000
 114825662.17348  71682323.22148  19947667.9584   19947670.3644   19947668.1504
       250.000         229.000
 134576034.42048  87072224.04348  23706038.3844   23706041.4314   23706038.6204
       222.000         166.000
 113830317.20948 106491145.67248  23564133.5504   23564135.9174   23564132.3174
       224.000         171.000
 128947330.00748  82686220.83248  22634933.1914   22634934.4664   22634933.5464
       230.000         183.000
 124748817.67348  79414655.49848  21835979.5434   21835981.5894   21835979.2254
       241.000         210.000
 134184553.19048  86767179.98248  23631538.2674   23631540.6534   23631538.9224
       228.000         181.000
 119936281.02948  75664629.33248  20920183.1384   20920184.6484   20920183.0104
       250.000         227.000
 112498413.73448 105453310.59048  23310671.1024   23310671.9154   23310671.4314
       228.000         185.000
 09  1 28  1 11  0.0000000  0  9G 5G 9G26G30G18G15G17G12G22
 103431166.39348  98387906.86348  21585244.1664   21585247.1204   21585244.6634
       242.000         211.000
 114822139.04048  71679577.91248  19946997.3604   19947000.0714   19946997.4164
       250.000         229.000
 134683662.05148  87156089.71648  23726519.7114   23726522.1524   23726520.2694
       219.000         164.000
 113727462.23648 106410998.95648  23544560.6524   23544562.8724   23544560.5434
       222.000         170.000
 128991006.51548  82720254.44448  22643244.2544   22643246.0854   22643244.8594
       229.000         181.000
 124831022.63448  79478711.30448  21851622.8364   21851624.7454   21851622.4794
       240.000         210.000
 134232459.26548  86804509.38648  23640654.6544   23640656.6974   23640654.8824
       227.000         181.000
 119886737.11648  75626023.68548  20910755.5484   20910756.8834   20910755.3604
       252.000         227.000
 112490033.67648 105446780.67348  23309076.9074   23309077.5974   23309077.2404
       227.000         186.000
 09  1 28  1 11 30.0000000  0  9G 5G 9G26G30G18G15G17G12G22
 103357615.48548  98330594.47148  21571247.9254   21571250.7764   21571248.7184
       242.000         211.000
 114818976.77148  71677113.80948  19946395.7084   19946398.3124   19946395.8214
       251.000         229.000
 134791451.62048  87240081.58548  23747031.2894   23747033.9154   23747030.6074
       218.000         161.000
 113624796.25648 106330999.49248  23525024.0084   23525026.0464   23525023.6724
       226.000         172.000
 129035150.28348  82754652.18348  22651644.5754   22651646.1994   22651645.2384
       229.000         180.000
 124913586.92148  79543047.11348  21867334.2624   21867336.0434   21867334.1384
       240.000         210.000
 134280867.34948  86842229.97948  23649866.0734   23649867.7734   23649866.0984
       227.000         178.000
 119837631.93148  75587759.91048  20901411.1904   20901412.2474   20901411.2254
       252.000         227.000
 112482191.13048 105440669.59148  23307584.2134   23307585.3284   23307583.5684
       230.000         187.000
 09  1 28  1 12  0.0000000  0  9G 5G 9G26G30G18G15G17G12G22
 103284429.65248  98273566.55548  21557321.0224   21557324.0714   21557321.5604
       243.000         212.000
 114816174.98248  71674930.59448  19945862.5534   19945865.1594   19945862.7114
       251.000         229.000
 134899400.88048  87324197.88848  23767574.0624   23767576.2454   23767574.2794
       217.000         157.000
 113522320.10648 106251147.95648  23505523.3534   23505525.7454   23505523.1194
       225.000         173.000
 129079758.70148  82789411.97748  22660133.1224   22660134.4334   22660133.8974
       229.000         179.000
 124996508.67948  79607661.45348  21883113.7064   21883115.7274   21883113.3064
       241.000         210.000
 134329775.67748  86880340.36948  23659173.1934   23659174.8904   23659173.6534
       225.000         176.000
 119788965.88148  75549838.32248  20892150.2284   20892151.4984   20892150.0394
       252.000         227.000
 112474885.47848 105434976.86048  23306194.4614   23306195.0794   23306194.3454
       231.000         186.000
 09  1 28  1 12 30.0000000  0  9G 5G 9G26G30G18G15G17G12G22
 103211610.06148  98216824.02148  21543464.1794   21543467.1044   21543464.9104
       243.000         212.000
 114813734.16048  71673028.65648  19945398.0824   19945400.6554   19945398.2084
       250.000         229.000
 135007508.48048  87408437.54748  23788145.8274   23788148.6714   23788144.4614
       214.000         155.000
 113420035.56948 106171445.72548  23486059.1984   23486061.6804   23486059.3444
       224.000         174.000
 129124829.98948  82824532.45448  22668709.9324   22668711.5614   22668710.4394
       228.000         180.000
 125079786.21548  79672553.03848  21898961.1654   21898962.9854   21898960.7014
       240.000         210.000
 134379182.83548  86918839.45748  23668575.1104   23668576.1804   23668574.7894
       225.000         174.000
 119740739.13748  75512259.04848  20882972.8914   20882974.2304   20882972.7874
       251.000         227.000
 112468116.62848 105429702.43348  23304906.2604   23304906.6194   23304907.2954
       230.000         186.000
 09  1 28  1 13  0.0000000  0  9G 5G 9G26G30G18G15G17G12G22
 103139157.27348  98160367.31148  21529676.8034   21529680.0054   21529677.0854
       243.000         213.000
 114811654.62248  71671408.23148  19945002.3054   19945004.9574   19945002.4084
       251.000         229.000
 135115771.96348  87492798.69748  23808747.6964   23808749.9794   23808746.7404
       212.000         150.000
 113317943.93548 106091893.81548  23466631.6444   23466634.4834   23466631.5044
       223.000         175.000
 129170361.25748  82860011.33948  22677374.7384   22677376.1314   22677375.1234
       229.000         179.000
 125163417.53348  79737720.29048  21914875.7074   21914877.5604   21914875.4184
       241.000         210.000
 134429086.90548  86957725.72548  23678070.9514   23678071.6924   23678071.2424
       224.000         173.000
 119692951.90148  75475022.24748  20873879.2374   20873880.6334   20873879.1844
       252.000         227.000
 112461884.18048 105424845.96048  23303720.6294   23303720.4014   23303720.7724
       230.000         185.000
 09  1 28  1 13 30.0000000  0  9G 5G 9G26G30G18G15G17G12G22
 103067072.65448  98104197.48648  21515959.5824   21515962.7294   21515960.2814
       243.000         213.000
 114809937.07948  71670069.88648  19944675.4294   19944677.9574   19944675.7704
       251.000         228.000
 135224189.93448  87577280.23348  23829378.7064   23829381.5134   23829378.6804
       211.000         147.000
 113216046.78248 106012493.46248  23447241.4034   23447243.9914   23447240.7944
       225.000         176.000
 129216350.45148  82895847.06448  22686125.8004   22686127.4924   22686127.0254
       228.000         179.000
 125247401.67248  79803162.45948  21930857.2594   21930859.0664   21930857.0744
       240.000         209.000
 134479486.93348  86996998.47048  23687661.8184   23687664.4334   23687660.9784
       227.000         176.000
 119645605.04848  75438128.59648  20864869.5774   20864870.8804   20864869.3514
       251.000         227.000
 112456188.09648 105420407.44148  23302636.2544   23302636.8014   23302636.2254
       229.000         183.000
 09  1 28  1 14  0.0000000  0  9G 5G 9G26G30G18G15G17G12G22
 102995357.52948  98048315.58748  21502312.1744   21502315.6484   21502312.9864
       242.000         213.000
 114808582.05748  71669014.02948  19944417.6094   19944420.0934   19944417.8244
       250.000         228.000
 135332761.19248  87661881.17648  23850039.3544   23850042.9154   23850038.9074
       211.000         146.000
 113114345.95048 105933246.08148  23427888.7484   23427891.0324   23427888.6164
       224.000         174.000
 129262795.82548  82932038.26048  22694963.8524   22694965.8154   22694963.8464
       228.000         180.000
 125331736.94148  79868878.25848  21946905.6924   21946907.3104   21946905.5554
       239.000         208.000
 134530381.55948  87036656.65448  23697347.6454   23697350.3364   23697347.5844
       227.000         177.000
 119598698.96648  75401578.40348  20855943.5024   20855944.8304   20855943.3654
       251.000         227.000
 112451028.69048 105416387.10248  23301654.5284   23301654.9024   23301654.2794
       229.000         183.000
 09  1 28  1 14 30.0000000  0  9G 5G 9G26G30G18G15G17G12G22
 102924011.96948  97992721.66048  21488735.5424   21488738.9694   21488736.0754
       243.000         213.000
 114807588.76648  71668240.03048  19944228.6894   19944231.1034   19944228.8264
       250.000         228.000
 135441483.00548  87746599.49748  23870729.4034   23870731.5254   23870728.6634
       208.000         144.000
 113012841.70648 105854151.87448  23408572.9794   23408575.0794   23408573.1534
       227.000         177.000
 129309694.43948  82968582.62348  22703888.4234   22703890.5144   22703889.2104
       227.000         179.000
 125416420.91748  79934865.76948  21963020.4804   21963022.1614   21963019.9254
       240.000         209.000
 134581768.51848  87076698.43048  23707126.0084   23707127.1114   23707126.7634
       225.000         173.000
 119552233.34048  75365371.41948  20847101.3764   20847102.6074   20847101.1494
       252.000         227.000
 112446404.52048 105412783.85048  23300774.0874   23300774.8264   23300774.3004
       228.000         182.000
 09  1 28  1 15  0.0000000  0  9G 5G 9G26G30G18G15G17G12G22
 102853036.58548  97937416.16448  21475229.8424   21475232.6354   21475230.4634
       243.000         213.000
 114806957.19548  71667747.89148  19944108.4604   19944110.9944   19944108.5224
       250.000         228.000
 135550353.28748  87831433.44648  23891445.5374   23891447.9594   23891444.4564
       206.000         142.000
 112911535.50348 105775211.98648  23389295.4774   23389297.1324   23389295.2034
       227.000         175.000
 129357043.84948  83005478.27448  22712898.5054   22712900.5964   22712898.7524
       228.000         180.000
 125501451.83948  80001123.62248  21979201.3114   21979203.3974   21979201.2144
       240.000         209.000
 134633645.70548  87117122.18048  23716997.4324   23716998.1114   23716998.0794
       223.000         174.000
 119506207.94748  75329507.47548  20838343.1414   20838344.3654   20838342.8634
       252.000         228.000
 112442314.99648 105409597.21248  23299996.1134   23299996.8784   23299995.9844
       228.000         183.000
 09  1 28  1 15 30.0000000  0  9G 5G 9G26G30G18G15G17G12G22
 102782433.55348  97882400.81948  21461794.4374   21461797.3974   21461794.9424
       244.000         214.000
 114806689.14748  71667539.01548  19944057.4474   19944059.9794   19944057.5944
       250.000         228.000
 135659371.53248  87916382.75548  23912191.4244   23912193.8304   23912191.1754
       206.000         136.000
 112810429.84948 105696428.38948  23370055.2194   23370057.1404   23370055.1684
       226.000         174.000
 129404842.83448  83042724.22248  22721994.9774   22721996.3724   22721995.1024
       230.000         182.000
 125586829.14848  80067651.38048  21995448.1584   21995450.1644   21995448.0804
       239.000         209.000
 134686013.04948  87157927.90048  23726962.6174   23726965.8534   23726962.3784
       225.000         177.000
 119460624.51248  75293987.91948  20829668.9054   20829670.1544   20829668.7904
       251.000         228.000
 112438761.41148 105406828.16048  23299319.4994   23299320.7124   23299320.1064
       228.000         183.000
 09  1 28  1 16  0.0000000  0  9G 5G 9G26G30G18G15G17G12G22
 102712203.86548  97827676.40248  21448430.1834   21448433.2954   21448430.9714
       244.000         214.000
 114806785.15348  71667613.82448  19944075.7174   19944078.2334   19944075.9854
       250.000         228.000
 135768535.95348  88001445.91348  23932964.4774   23932966.6334   23932966.7914
       195.000         135.000
 112709526.56748 105617802.46248  23350854.3694   23350855.8464   23350853.5784
       228.000         177.000
 129453089.01248  83080318.63548  22731175.8034   22731177.5634   22731176.2604
       229.000         183.000
 125672551.13948  80134447.73048  22011760.4674   22011762.4834   22011760.1704
       239.000         209.000
 134738868.70048  87199114.20048  23737020.4054   23737024.9024   23737020.0944
       223.000         174.000
 119415483.36048  75258812.99748  20821078.7724   20821079.8884   20821078.8634
       251.000         228.000
 112435743.15948 105404476.26448  23298746.0104   23298746.2414   23298745.3464
       231.000         186.000
 09  1 28  1 16 30.0000000  0  9G 5G 9G26G30G18G15G17G12G22
 102642347.36548  97773242.77548  21435136.9474   21435139.9374   21435137.4344
       244.000         213.000
 114807244.44848  71667971.70948  19944163.1374   19944165.5484   19944163.3614
       250.000         228.000
 135877843.91748  88086620.93548  23953764.7314   23953767.6764   23953763.3294
       202.000         132.000
 112608825.70448 105539334.27348  23331691.3124   23331693.2154   23331691.8334
       224.000         176.000
 129501779.23148  83118259.04548  22740441.3074   22740443.0964   22740441.8634
       230.000         182.000
 125758615.07648  80201510.52848  22028138.1634   22028139.9814   22028137.9604
       240.000         208.000
 134792210.13048  87240678.95248  23747171.0894   23747173.9194   23747170.7904
       221.000         170.000
 119370784.11448  75223982.41448  20812572.6704   20812573.9224   20812572.4384
       251.000         228.000
 112433258.84248 105402540.43148  23298273.0934   23298273.9674   23298273.8474
       228.000         185.000
 09  1 28  1 17  0.0000000  0  9G 5G 9G26G30G18G15G17G12G22
 102572865.09948  97719100.75448  21421914.9634   21421917.9194   21421915.4004
       243.000         214.000
 114808067.25748  71668612.85748  19944319.8294   19944322.0074   19944319.9814
       250.000         228.000
 135987293.35948  88171906.21148  23974591.7434   23974596.4144   23974593.8654
       198.000         131.000
 112508329.00948 105461025.16148  23312567.1224   23312569.7294   23312566.1844
       225.000         177.000
 129550911.14048  83156543.63548  22749790.9264   22749792.6524   22749791.5744
       230.000         183.000
 125845019.19848  80268838.40248  22044580.1514   22044582.0624   22044579.7594
       240.000         207.000
 134846035.94948  87282621.11748  23757413.7884   23757414.2274   23757412.8504
       224.000         170.000
 119326526.83148  75189496.22648  20804151.0054   20804152.2124   20804150.9014
       252.000         229.000
 112431308.28448 105401020.49448  23297901.9024   23297902.4124   23297901.2814
       230.000         184.000
 09  1 28  1 17 30.0000000  0  9G 5G 9G26G30G18G15G17G12G22
 102503757.74748  97665250.87748  21408763.9844   21408767.2564   21408764.4294
       244.000         214.000
 114809253.82748  71669537.45148  19944545.5374   19944547.9744   19944545.6074
       250.000         228.000
 136096882.78248  88257300.51848  23995444.7654   23995449.7084   23995445.9404
       197.000         130.000
 112408037.07248 105382875.64048  23293481.9764   23293485.4024   23293481.7704
       226.000         178.000
 129600482.04048  83195170.29448  22759224.0824   22759225.7424   22759224.6934
       229.000         181.000
 125931761.62648  80336429.90248  22061086.7204   22061088.1344   22061086.5974
       238.000         206.000
 134900343.95248  87324939.01848  23767748.6044   23767749.2494   23767748.6134
       223.000         173.000
 119282711.60948  75155354.50348  20795813.2024   20795814.5704   20795812.9984
       251.000         229.000
 112429890.63848 105399915.84648  23297631.6724   23297632.9624   23297632.8774
       229.000         184.000
 09  1 28  1 18  0.0000000  0  9G 5G 9G26G30G18G15G17G12G22
 102435026.31648  97611693.93348  21395684.8154   21395688.1344   21395685.3254
       243.000         214.000
 114810804.77848  71670745.96548  19944840.7314   19944843.1054   19944840.8624
       250.000         228.000
 136206610.16948  88342802.36948  24016327.9324   24016329.1084   24016328.1814
       199.000         128.000
 112307952.03148 105304887.29748  23274436.8794   23274439.6754   23274437.7214
       226.000         178.000
 129650490.14948  83234137.63348  22768740.0354   22768741.8084   22768740.9314
       228.000         179.000
 126018840.92048  80404283.89148  22077657.0434   22077658.7504   22077656.4924
       238.000         206.000
 134955132.92748  87367631.71548  23778174.4584   23778176.1624   23778173.5414
       224.000         174.000
 119239338.71948  75121557.45348  20787559.3104   20787560.9844   20787559.2094
       250.000         229.000
 112429005.43548 105399226.06048  23297463.5604   23297464.1214   23297463.2964
       229.000         184.000
 09  1 28  1 18 30.0000000  0  9G 5G 9G26G30G18G15G17G12G22
 102366671.44048  97558430.40948  21382677.3784   21382680.5854   21382677.8974
       244.000         215.000
 114812719.98448  71672238.31848  19945205.1974   19945207.4394   19945205.3334
       250.000         228.000
 136316473.59948  88428410.33548  24037233.6934   24037233.6234   24037233.2374
       196.000         125.000
 112208074.79148 105227060.90048  23255430.4624   23255433.5694   23255430.1254
       225.000         178.000
 129700932.19048  83273443.10848  22778338.5404   22778340.6004   22778339.0164
       227.000         179.000
 126106255.02048  80472398.76348  22094291.5714   22094293.4224   22094291.3114
       238.000         206.000
 135010400.72948  87410697.55248  23788691.0654   23788694.0724   23788691.5904
       221.000         175.000
 119196408.25448  75088105.14448  20779390.0744   20779391.4414   20779389.8054
       251.000         229.000
 112428652.37048 105398950.90648  23297396.6634   23297396.8994   23297396.7074
       230.000         184.000
 09  1 28  1 19  0.0000000  0  8G 5G 9G30G18G15G17G12G22
 102298695.46348  97505462.12248  21369742.4104   21369745.1184   21369743.1264
       245.000         215.000
 114815001.07648  71674015.78748  19945639.3354   19945641.6164   19945639.4984
       250.000         227.000
 112108408.51048 105149398.88248  23236464.9314   23236467.5254   23236464.2834
       228.000         178.000
 129751807.55148  83313086.24948  22788019.6264   22788021.9194   22788020.1164
       229.000         179.000
 126194003.77448  80540774.42148  22110989.6794   22110991.4584   22110989.5354
       238.000         206.000
 135066147.25848  87454136.43548  23799299.2064   23799303.1874   23799298.3944
       222.000         176.000
 119153921.71348  75054998.75348  20771305.4024   20771306.4534   20771305.3814
       251.000         229.000
 112428832.29048 105399091.09748  23297430.8624   23297431.0614   23297431.5114
       230.000         183.000
 09  1 28  1 19 30.0000000  0  8G 5G 9G30G18G15G17G12G22
 102231097.55948  97452788.43648  21356878.8214   21356881.5564   21356879.2914
       245.000         215.000
 114817646.53348  71676077.18148  19946142.5604   19946145.0634   19946142.8914
       250.000         227.000
 112008952.82448 105071900.94948  23217539.0134   23217541.0414   23217539.0944
       226.000         175.000
 129803112.45648  83353064.08048  22797783.1784   22797784.9954   22797783.6564
       228.000         179.000
 126282083.69148  80609408.11048  22127750.2174   22127752.5304   22127749.7364
       237.000         206.000
 135122369.21648  87497945.74448  23809998.1324   23810001.9214   23809997.9504
       220.000         174.000
 119111877.92848  75022237.36948  20763304.7024   20763305.7974   20763304.6794
       252.000         229.000
 112429542.97748 105399644.87048  23297565.8534   23297566.4834   23297566.0004
       231.000         182.000
 09  1 28  1 20  0.0000000  0  8G 5G 9G30G18G15G17G12G22
 102163879.36448  97400410.63148  21344087.4514   21344090.3944   21344088.0694
       245.000         215.000
 114820657.54348  71678423.41948  19946715.5694   19946718.0734   19946715.6074
       249.000         227.000
 111909709.75948 104994568.71048  23198653.3604   23198655.5544   23198653.0364
       224.000         176.000
 129854845.12048  83393375.23448  22807627.8274   22807629.0834   22807628.6154
       231.000         180.000
 126370493.55648  80678298.90348  22144574.4534   22144576.3474   22144574.3324
       238.000         205.000
 135179065.33648  87542124.55148  23820787.4734   23820789.5544   23820787.0254
       222.000         172.000
 119070277.83048  74989821.71648  20755388.4034   20755389.4654   20755388.2554
       252.000         229.000
 112430784.64048 105400612.39148  23297802.6254   23297802.8854   23297803.0204
       230.000         184.000
 09  1 28  1 20 30.0000000  0  9G 5G 9G26G30G18G15G17G12G22
 102097041.30048  97348329.03548  21331368.4094   21331371.7094   21331368.9294
       244.000         216.000
 114824034.57148  71681054.86848  19947358.1854   19947360.6824   19947358.4114
       250.000         227.000
 116757218.44458 108771841.69658  24121111.6075   24121114.9485   24121110.8885
       198.000         132.000
 111810680.14148 104917402.79448  23179808.6594   23179810.9594   23179808.4554
       226.000         178.000
 129907002.40048  83434017.26548  22817553.0674   22817554.1874   22817553.9514
       230.000         181.000
 126459231.39248  80747445.26148  22161460.9564   22161462.5674   22161460.8264
       240.000         206.000
 135236233.78148  87586671.38148  23831666.2644   23831667.2304   23831666.4904
       221.000         169.000
 119029120.85648  74957751.35048  20747556.4814   20747557.6614   20747556.2624
       251.000         230.000
 112432556.47348 105401993.02448  23298139.5514   23298139.7974   23298139.7634
       230.000         184.000
 09  1 28  1 21  0.0000000  0  9G 5G 9G26G30G18G15G17G12G22
 102030584.14948  97296544.25248  21318721.8974   21318725.2194   21318722.4614
       245.000         215.000
 114827777.32748  71683971.30148  19948070.3674   19948072.9744   19948070.6244
       249.000         227.000
 116867737.58748 108857960.55748  24142143.2774   24142144.6784   24142141.2354
       206.000         135.000
 111711865.60548 104840404.46248  23161005.0804   23161007.4034   23161004.6044
       226.000         180.000
 129959581.90548  83474988.30848  22827558.2354   22827559.9424   22827558.5624
       230.000         180.000
 126548295.44548  80816845.82048  22178409.0044   22178410.9334   22178408.5784
       237.000         204.000
 135293872.89748  87631584.95648  23842634.8574   23842635.4594   23842634.7034
       225.000         170.000
 118988407.44448  74926026.61948  20739808.8794   20739810.2274   20739808.9474
       250.000         230.000
 112434857.86748 105403786.31448  23298577.4244   23298577.8374   23298577.4484
       229.000         182.000
 09  1 28  1 21 30.0000000  0  9G 5G 9G26G30G18G15G17G12G22
 101964508.94448  97245057.09348  21306148.4404   21306151.5284   21306149.0654
       245.000         216.000
 114831886.54348  71687173.28148  19948852.5244   19948854.9064   19948852.6084
       250.000         227.000
 116978382.28048 108944177.13048  24163199.3134   24163201.5634   24163199.4144
       203.000         137.000
 111613267.60348 104763574.86548  23142242.6174   23142245.1624   23142242.0134
       226.000         180.000
 130012581.64848  83516286.78948  22837644.1464   22837645.6604   22837644.4814
       229.000         180.000
 126637683.96048  80886499.19648  22195419.3304   22195421.1054   22195418.6994
       239.000         205.000
 135351980.74648  87676863.77648  23853692.1164   23853693.4934   23853691.9524
       223.000         171.000
 118948137.97448  74894647.81348  20732145.8304   20732147.2374   20732145.4944
       250.000         230.000
 112437688.42548 105405991.92048  23299115.5254   23299115.8824   23299115.7784
       229.000         182.000
 09  1 28  1 22  0.0000000  0  9G 5G 9G26G30G18G15G17G12G22
 101898815.68248  97193867.54748  21293647.6404   21293650.3944   21293647.9494
       246.000         216.000
 114836361.67848  71690660.39848  19949704.1344   19949706.4264   19949704.3454
       250.000         227.000
 117089150.12948 109030489.68148  24184277.1584   24184280.4704   24184278.0784
       203.000         136.000
 111514886.70448 104686914.44848  23123521.1884   23123523.9444   23123520.6604
       228.000         181.000
 130065998.21848  83557910.07548  22847808.3754   22847810.2084   22847809.5324
       227.000         179.000
 126727394.36748  80956403.39548  22212490.9334   22212492.5214   22212490.8274
       238.000         206.000
 135410554.77548  87722505.88648  23864838.8064   23864840.5234   23864838.6684
       224.000         172.000
 118908311.65048  74863614.32148  20724567.1044   20724568.4634   20724567.1014
       250.000         230.000
 112441046.72748 105408608.79748  23299754.9724   23299755.4894   23299755.2554
       231.000         182.000
 09  1 28  1 22 30.0000000  0  9G 5G 9G26G30G18G15G17G12G22
 101833505.58448  97142976.57748  21281219.3784   21281222.2644   21281219.9274
       246.000         216.000
 114841203.41748  71694433.18048  19950625.3684   19950627.8314   19950625.5784
       250.000         227.000
 117200039.48448 109116896.96048  24205378.5714   24205382.4924   24205379.2384
       198.000         132.000
 111416724.44748 104610424.39448  23104841.6034   23104844.3054   23104841.3354
       227.000         179.000
 130119829.60948  83599856.59148  22858052.0954   22858054.3464   22858052.0694
       227.000         179.000
 126817425.25948  81026557.33148  22229623.0714   22229624.8334   22229623.0344
       238.000         204.000
 135469593.64148  87768510.21148  23876073.2634   23876075.8734   23876073.5564
       221.000         174.000
 118868928.93748  74832926.49548  20717072.9714   20717074.2244   20717072.7684
       251.000         230.000
 112444932.46548 105411636.63148  23300494.6074   23300494.3484   23300495.4364
       230.000         182.000
 09  1 28  1 23  0.0000000  0  9G 5G 9G26G30G18G15G17G12G22
 101768580.16848  97092385.35148  21268864.5704   21268867.3214   21268865.2104
       246.000         216.000
 114846412.70348  71698492.36048  19951616.6224   19951619.1184   19951616.7744
       249.000         227.000
 117311049.55948 109203398.34048  24226501.5714   24226503.4294   24226500.4974
       199.000         127.000
 111318783.25848 104534106.58648  23086204.0544   23086207.0294   23086203.3014
       228.000         180.000
 130174073.92648  83642124.89948  22868374.8014   22868376.7104   22868375.3734
       227.000         179.000
 126907775.71548  81096960.28148  22246816.1444   22246817.5634   22246815.6694
       238.000         204.000
 135529096.40848  87814876.02848  23887396.4274   23887399.2554   23887396.5234
       221.000         174.000
 118829990.68448  74802585.00148  20709663.2294   20709664.3824   20709663.2414
       250.000         230.000
 112449345.80348 105415075.56648  23301334.3994   23301333.9334   23301334.2844
       228.000         180.000
 09  1 28  1 23 30.0000000  0  9G 5G 9G26G30G18G15G17G12G22
 101704039.18148  97042093.67348  21256582.6974   21256585.6014   21256583.2864
       246.000         217.000
 114851989.00048  71702837.52348  19952677.8034   19952680.2494   19952677.9924
       249.000         227.000
 117422177.16048 109289991.25048  24247652.1104   24247650.8214   24247653.4184
       192.000         126.000
 111221063.44348 104457961.29748  23067608.4044   23067611.6264   23067608.6724
       228.000         180.000
 130228727.65148  83684712.19948  22878775.2454   22878777.4664   22878776.0924
       227.000         180.000
 126998442.69348  81167609.86048  22264069.3844   22264071.3314   22264068.9564
       238.000         204.000
 135589060.01448  87861600.92448  23898806.8904   23898809.2784   23898806.9444
       221.000         175.000
 118791495.93748  74772589.10048  20702337.9764   20702339.1224   20702337.8914
       251.000         230.000
 112454285.11448 105418924.36848  23302274.0534   23302273.9074   23302274.4604
       229.000         181.000
 09  1 28  1 24  0.0000000  0  9G 5G 9G26G30G18G15G17G12G22
 101639883.53248  96992102.26948  21244374.4314   21244377.4994   21244375.1704
       246.000         217.000
 114857932.58548  71707468.88348  19953808.8094   19953811.2404   19953809.0314
       250.000         227.000
 117533420.98248 109376674.78448  24268819.4494   24268820.4514   24268818.3024
       188.000         128.000
 111123566.43548 104381989.62248  23049055.4174   23049058.3264   23049054.3424
       230.000         182.000
 130283788.17448  83727616.48448  22889252.6424   22889254.7884   22889253.1534
       227.000         179.000
 127089424.61948  81238504.86448  22281382.8314   22281384.6434   22281383.0644
       238.000         204.000
 135649482.88848  87908683.68248  23910305.1494   23910306.7264   23910304.5434
       223.000         175.000
 118753445.23948  74742939.21548  20695096.9354   20695098.3314   20695096.7614
       250.000         231.000
 112459749.55848 105423182.37048  23303314.2374   23303313.8124   23303314.6314
       230.000         182.000
 09  1 28  1 24 30.0000000  0  9G 5G 9G26G30G18G15G17G12G22
 101576114.31148  96942411.97548  21232239.4394   21232242.4624   21232239.9164
       246.000         216.000
 114864244.20448  71712387.02048  19955009.9664   19955012.3494   19955010.3434
       250.000         227.000
 117644779.26548 109463447.43348  24290010.4644   24290013.4614   24290012.2844
       186.000         122.000
 111026293.80848 104306192.77948  23030544.8954   23030547.5954   23030544.7154
       227.000         181.000
 130339253.76448  83770836.41748  22899807.3614   22899809.2594   22899808.0154
       228.000         178.000
 127180719.92948  81309644.05348  22298755.4754   22298757.6584   22298755.2034
       237.000         203.000
 135710363.46648  87956123.07348  23921890.1604   23921892.0974   23921890.1124
       221.000         173.000
 118715838.80548  74713635.49948  20687941.0214   20687942.2144   20687940.9064
       251.000         231.000
 112465738.98148 105427849.44348  23304454.1344   23304453.6294   23304453.5414
       230.000         182.000
 09  1 28  1 25  0.0000000  0  8G 5G 9G30G18G15G17G12G22
 101512732.79648  96893023.77948  21220178.3894   21220181.0084   21220178.9584
       246.000         216.000
 114870924.34848  71717592.31748  19956281.1184   19956283.5964   19956281.1734
       250.000         228.000
 110929247.48548 104230572.27848  23012077.9404   23012080.3804   23012076.7114
       228.000         182.000
 130395122.18048  83814370.23248  22910438.8734   22910440.5374   22910438.9424
       226.000         178.000
 127272327.11548  81381026.26548  22316187.6524   22316189.3914   22316187.0834
       238.000         202.000
 135771700.45048  88003918.13448  23933562.7424   23933563.8914   23933561.9314
       224.000         174.000
 118678677.28548  74684678.47148  20680869.2894   20680870.5454   20680869.3364
       250.000         231.000
 112472253.31048 105432925.53448  23305693.3454   23305693.9004   23305693.9114
       228.000         182.000
 09  1 28  1 25 30.0000000  0  9G 5G 9G26G30G18G15G17G12G22
 101449738.59848  96843937.40548  21208190.7424   21208193.7394   21208191.2224
       246.000         216.000
 114877972.65548  71723084.50448  19957622.5004   19957624.8734   19957622.8114
       250.000         227.000
 137867808.20858  89637226.70358  24332453.9925   24332459.9305   24332460.1685
       198.000         124.000
 110832427.91148 104155128.49048  22993653.7654   22993656.0054   22993653.9064
       230.000         183.000
 130451389.82748  83858215.13448  22921146.2064   22921147.7444   22921146.6964
       228.000         178.000
 127364243.23948  81452649.22648  22333678.8624   22333680.6034   22333678.9724
       237.000         201.000
 135833490.72148  88052066.39048  23945320.8344   23945322.7604   23945320.9334
       223.000         174.000
 118641959.56048  74656067.26548  20673881.9704   20673883.3134   20673881.9294
       251.000         231.000
 112479290.62248 105438409.15948  23307032.1924   23307032.5284   23307032.3994
       229.000         182.000
 09  1 28  1 26  0.0000000  0  9G 5G 9G26G30G18G15G17G12G22
 101387131.64748  96795152.77548  21196277.0374   21196279.9324   21196277.6984
       247.000         216.000
 114885388.43448  71728863.03048  19959033.5794   19959035.9874   19959033.7364
       250.000         227.000
 137979498.13548  89724257.74948  24353711.5134   24353711.7474   24353711.6504
       191.000         123.000
 110735835.67648 104079861.83348  22975273.0404   22975274.8414   22975273.2064
       231.000         182.000
 130508053.02748  83902368.26748  22931929.2004   22931930.5044   22931929.7604
       228.000         178.000
 127456466.07748  81524511.15848  22351228.0484   22351230.0324   22351227.6704
       236.000         201.000
 135895731.75648  88100565.89948  23957164.8044   23957166.4334   23957164.8344
       225.000         173.000
 118605684.73648  74627801.16948  20666979.1774   20666980.4254   20666979.0444
       251.000         232.000
 112486849.04948 105444298.83748  23308470.9954   23308471.1324   23308471.0344
       229.000         179.000
 09  1 28  1 26 30.0000000  0  9G 5G 9G26G30G18G15G17G12G22
 101324915.02048  96746672.29848  21184437.6654   21184440.6724   21184438.3074
       247.000         217.000
 114893174.44148  71734930.04448  19960515.2314   19960517.6464   19960515.4334
       250.000         227.000
 138091296.48148  89811373.34748  24374984.5464   24374988.7624   24374981.6594
       196.000         127.000
 110639474.27248 104004775.03648  22956936.2614   22956937.9744   22956936.1434
       229.000         182.000
 130565111.56248  83946829.46948  22942787.0054   22942788.5534   22942788.0204
       228.000         178.000
 127548995.69048  81596612.15048  22368836.1344   22368838.1894   22368835.7294
       236.000         202.000
 135958424.02448  88149417.00948  23969095.5334   23969096.2964   23969095.4264
       223.000         173.000
 118569855.19248  74599882.04448  20660161.0564   20660162.3794   20660161.0034
       250.000         232.000
 112494930.09948 105450595.75448  23310008.6654   23310008.8284   23310008.8844
       229.000         179.000
 09  1 28  1 27  0.0000000  0  9G 5G 9G26G30G18G15G17G12G22
 101263087.66548  96698495.14248  21172672.5304   21172675.3134   21172672.9384
       247.000         217.000
 114901329.01448  71741284.24948  19962067.1244   19962069.4154   19962067.2564
       250.000         228.000
 138203199.48548  89898570.47548  24396279.2144   24396280.6044   24396280.0954
       194.000         130.000
 110543343.08348 103929867.64448  22938643.0214   22938644.7874   22938643.0954
       229.000         182.000
 130622561.43948  83991595.60148  22953718.8654   22953721.0214   22953719.4494
       228.000         178.000
 127641828.70648  81668949.56748  22386501.6574   22386503.7974   22386500.9634
       238.000         202.000
 136021563.60248  88198616.68648  23981110.3024   23981111.3904   23981110.3254
       220.000         172.000
 118534469.14648  74572308.50648  20653427.2174   20653428.5954   20653427.1974
       250.000         232.000
 112503531.29348 105457297.97848  23311645.6844   23311645.3434   23311645.5574
       228.000         180.000
 09  1 28  1 27 30.0000000  0  9G 5G 9G26G30G18G15G17G12G22
 101201650.51548  96650622.04048  21160981.3264   21160984.0464   21160981.7444
       247.000         217.000
 114909852.76348  71747926.12348  19963689.0904   19963691.4714   19963689.3404
       251.000         227.000
 138315205.82048  89985848.17348  24417595.3144   24417594.4004   24417593.1164
       207.000         133.000
 110447443.86748 103855140.99848  22920393.3834   22920395.7984   22920393.3984
       228.000         180.000
 130680400.11248  84036664.67748  22964725.5044   22964727.5114   22964726.2754
       227.000         179.000
 127734963.29448  81741521.96148  22404224.5864   22404226.5314   22404224.6544
       237.000         201.000
 136085148.85448  88248163.62748  23993209.3534   23993211.2524   23993209.4924
       219.000         170.000
 118499526.96948  74545080.83848  20646777.9334   20646779.2584   20646777.9644
       251.000         231.000
 112512652.13848 105464405.12748  23313381.4834   23313381.3244   23313381.8574
       228.000         181.000
 09  1 28  1 28  0.0000000  0  9G 5G 9G26G30G18G15G17G12G22
 101140603.67248  96603053.07848  21149364.5414   21149367.2724   21149365.3234
       246.000         217.000
 114918745.34948  71754855.40248  19965381.2404   19965383.6714   19965381.4944
       250.000         227.000
 138427313.15748  90073204.50048  24438926.2644   24438928.8254   24438928.4514
       207.000         136.000
 110351777.08748 103780595.46148  22902188.5814   22902190.7784   22902188.2974
       229.000         183.000
 130738624.52748  84082034.34348  22975805.7114   22975807.6064   22975806.0824
       228.000         179.000
 127828397.00848  81814327.44748  22422004.4834   22422006.3684   22422004.3084
       236.000         201.000
 136149177.51148  88298056.10648  24005393.3634   24005395.7774   24005392.8754
       218.000         172.000
 118465027.71148  74518198.30248  20640213.0914   20640214.2704   20640213.0484
       251.000         232.000
 112522291.03048 105471915.92448  23315215.0234   23315215.6574   23315215.3194
       229.000         183.000
 09  1 28  1 28 30.0000000  0 10G 5G 9G26G30G18G14G15G17G12G22
 101079948.63148  96555789.42248  21137822.1034   21137824.9924   21137822.5044
       246.000         216.000
 114928007.65148  71762072.77648  19967143.6414   19967146.1404   19967143.8074
       250.000         227.000
 138539520.46048  90160638.72048  24460277.5824   24460279.2724   24460279.6404
       210.000         139.000
 110256345.11848 103706232.91348  22884028.7174   22884031.1594   22884028.4614
       230.000         185.000
 130797232.83348  84127703.13448  22986958.2604   22986960.2724   22986958.6204
       228.000         177.000
 138947148.82458  90478285.59458  24537836.1645   24537839.7865   24537837.6565
       203.000         152.000
 127922128.45748  81887364.93148  22439841.0514   22439842.5074   22439840.5644
       237.000         202.000
 136213648.35148  88348293.11548  24017662.1074   24017663.9204   24017662.0534
       218.000         170.000
 118430972.78148  74491661.99748  20633732.6674   20633733.8734   20633732.3384
       251.000         232.000
 112532448.02648 105479830.46248  23317147.9794   23317148.8354   23317148.2084
       228.000         181.000
 09  1 28  1 29  0.0000000  0 10G 5G 9G26G30G18G14G15G17G12G22
 101019685.45348  96508831.11048  21126354.3384   21126357.1714   21126355.1914
       247.000         216.000
 114937639.68148  71769578.23848  19968976.6534   19968979.2504   19968976.7194
       251.000         228.000
 138651824.84348  90248148.64048  24481649.3734   24481650.8824   24481650.1914
       206.000         144.000
 110161148.74248 103632053.92748  22865912.9684   22865915.6404   22865913.1954
       227.000         181.000
 130856221.69248  84173668.46748  22998183.5864   22998185.1114   22998184.0364
       226.000         176.000
 138842922.18848  90397070.00048  24518003.2284   24518006.5554   24518003.4534
       212.000         153.000
 128016155.80148  81960632.98648  22457733.9284   22457735.8014   22457733.5244
       237.000         201.000
 136278558.51748  88398872.48248  24030013.7074   24030015.4914   24030013.0124
       218.000         170.000
 118397361.40748  74465471.32148  20627336.5804   20627337.8164   20627336.5174
       251.000         232.000
 112543121.62648 105488147.53948  23319179.5224   23319179.6274   23319179.5144
       229.000         182.000
 09  1 28  1 29 30.0000000  0 10G 5G 9G26G30G18G14G15G17G12G22
 100959816.21848  96462179.76648  21114961.6834   21114964.5104   21114962.0204
       247.000         216.000
 114947642.84348  71777372.90248  19970880.3654   19970882.9114   19970880.6654
       251.000         228.000
 138764226.36248  90335734.21848  24503037.7554   24503040.7524   24503038.1074
       211.000         145.000
 110066190.52748 103558060.53148  22847842.7514   22847845.8614   22847842.2314
       228.000         182.000
 130915589.75048  84219929.28748  23009480.7094   23009482.6314   23009481.3954
       225.000         177.000
 138738801.44348  90315936.92648  24498189.4244   24498191.9834   24498190.2134
       207.000         154.000
 128110478.32348  82034131.05548  22475683.0334   22475684.8784   22475683.5324
       237.000         200.000
 136343907.81848  88449793.99648  24042449.9324   24042451.0814   24042448.7934
       221.000         169.000
 118364194.66048  74439627.10048  20621025.2544   20621026.2884   20621025.0874
       251.000         232.000
 112554312.08448 105496867.37948  23321308.6124   23321308.8204   23321308.5704
       229.000         180.000
 09  1 28  1 30  0.0000000  0 10G 5G 9G26G30G18G14G15G17G12G22
 100900340.10448  96415834.74148  21103643.7254   21103646.5124   21103644.1974
       248.000         216.000
 114958016.11448  71785455.96348  19972854.2814   19972856.8804   19972854.5614
       250.000         228.000
 138876721.56048  90423392.78448  24524445.4414   24524447.0384   24524446.0864
       211.000         149.000
 109971470.26148 103484252.53548  22829818.4354   22829821.0304   22829818.2104
       230.000         184.000
 130975332.89848  84266482.36748  23020849.5934   23020851.3514   23020849.7724
       227.000         174.000
 138634787.27048  90234886.93448  24478396.1504   24478398.5364   24478397.2314
       209.000         153.000
 128205092.27648  82107856.19848  22493687.1874   22493689.0524   22493687.2414
       235.000         200.000
 136409692.49348  88501054.78548  24054968.2144   24054969.5604   24054968.6674
       220.000         167.000
 118331470.89348  74414128.06848  20614797.9624   20614799.1564   20614797.8124
       251.000         232.000
 112566017.34748 105505988.35348  23323535.9074   23323536.2994   23323536.4614
       226.000         180.000
 09  1 28  1 30 30.0000000  0 10G 5G 9G26G30G18G14G15G17G12G22
 100841258.30248  96369796.97548  21092400.9414   21092403.7374   21092401.5514
       248.000         217.000
 114968760.29548  71793828.04648  19974898.8914   19974901.2874   19974899.0924
       250.000         227.000
 138989309.39148  90511123.55748  24545870.4474   24545871.8134   24545870.8574
       213.000         152.000
 109876989.72848 103410631.36448  22811839.7164   22811842.0974   22811839.5434
       230.000         185.000
 131035449.30248  84313326.30548  23032289.0284   23032290.7104   23032289.3824
       223.000         174.000
 138530882.82748  90153922.44748  24458624.3054   24458625.8834   24458624.7044
       214.000         153.000
 128299996.61548  82181807.62948  22511747.0084   22511748.8494   22511746.5334
       235.000         200.000
 136475911.28948  88552653.82648  24067569.6344   24067570.7054   24067569.8074
       217.000         166.000
 118299190.70148  74388974.67248  20608655.1864   20608656.5414   20608655.1334
       250.000         233.000
 112578236.81548 105515509.98848  23325861.5564   23325862.0654   23325861.3904
       228.000         182.000
 09  1 28  1 31  0.0000000  0 10G 5G 9G26G30G18G14G15G17G12G22
 100782571.29748  96324066.85448  21081233.2974   21081236.1324   21081233.9504
       248.000         217.000
 114979875.40948  71802489.17148  19977014.0214   19977016.3064   19977014.1014
       251.000         227.000
 139101987.57548  90598924.72648  24567311.7574   24567314.4754   24567312.7164
       218.000         154.000
 109782750.21748 103337198.01448  22793906.6914   22793908.9204   22793906.5054
       230.000         186.000
 131095935.78348  84360458.62948  23043799.4294   23043800.8054   23043799.9314
       226.000         174.000
 138427090.37548  90073045.12148  24438873.2884   24438875.6854   24438872.9144
       209.000         156.000
 128395188.72148  82255983.28948  22529861.3304   22529863.2494   22529860.8824
       236.000         200.000
 136542561.93648  88604589.35448  24080252.4294   24080253.7664   24080251.4144
       214.000         164.000
 118267354.05548  74364166.90648  20602596.8104   20602598.2404   20602596.5434
       251.000         233.000
 112590968.90648 105525431.09548  23328284.2484   23328284.4134   23328284.4204
       227.000         179.000
 09  1 28  1 31 30.0000000  0 10G 5G 9G26G30G18G14G15G17G12G22
 100724279.51448  96278644.69148  21070140.5784   21070143.5124   21070141.2524
       248.000         217.000
 114991361.67848  71811439.50948  19979199.7574   19979202.0874   19979200.0664
       250.000         227.000
 139214754.38348  90686794.97048  24588771.2124   24588773.1424   24588771.5194
       219.000         158.000
 109688752.85848 103263953.33848  22776019.8264   22776021.7984   22776019.8904
       231.000         185.000
 131156789.86148  84407877.39648  23055379.5704   23055381.2954   23055380.3474
       226.000         174.000
 138323411.97248  89992256.84748  24419143.9304   24419145.2254   24419143.5834
       210.000         156.000
 128490667.39648  82330382.24648  22548030.2904   22548032.3174   22548030.5174
       233.000         198.000
 136609642.17248  88656859.68648  24093017.8304   24093019.1184   24093018.0604
       218.000         166.000
 118235960.58848  74339704.47348  20596622.8854   20596624.2114   20596623.0034
       251.000         233.000
 112604213.04748 105535751.19848  23330804.3234   23330804.6614   23330804.7464
       227.000         180.000
 09  1 28  1 32  0.0000000  0 10G 5G 9G26G30G18G14G15G17G12G22
 100666383.30648  96233530.76548  21059123.3184   21059126.0884   21059123.8524
       248.000         217.000
 115003219.26248  71820679.17348  19981456.2074   19981458.5104   19981456.3004
       250.000         227.000
 139327607.60248  90774732.57648  24610246.6534   24610248.3854   24610246.5444
       217.000         159.000
 109594998.28148 103190897.84448  22758178.9874   22758180.8884   22758178.1574
       231.000         186.000
 131218008.27348  84455580.03548  23067028.8474   23067030.8474   23067029.3724
       223.000         175.000
 138219850.02348  89911559.23248  24399436.9984   24399439.1464   24399437.9954
       209.000         155.000
 128586429.81648  82405002.30548  22566253.1364   22566255.1174   22566252.7504
       235.000         198.000
 136677149.89548  88709463.10648  24105864.0164   24105866.0384   24105863.9654
       216.000         164.000
 118205009.69048  74315586.89548  20590733.2724   20590734.5734   20590733.1354
       251.000         234.000
 112617967.61148 105546469.01948  23333422.3174   23333422.1374   23333421.6084
       231.000         182.000
 09  1 28  1 32 30.0000000  0 10G 5G 9G26G30G18G14G15G17G12G22
 100608882.93448  96188725.28148  21048181.3904   21048184.0714   21048181.8544
       247.000         216.000
 115015447.63948  71830207.78148  19983783.0734   19983785.5274   19983783.0994
       250.000         227.000
 139440545.10848  90862735.79148  24631737.5864   24631740.6344   24631738.2434
       217.000         162.000
 109501488.17448 103118032.84048  22740384.4304   22740386.5554   22740384.7864
       230.000         186.000
 131279587.97748  84503564.20548  23078747.5094   23078749.3684   23078748.0694
       227.000         176.000
 138116406.40248  89830953.80848  24379751.7754   24379753.3714   24379751.8884
       211.000         153.000
 128682473.66548  82479841.67548  22584529.9014   22584531.6284   22584529.5164
       234.000         198.000
 136745082.54548  88762397.64848  24118790.8124   24118792.7884   24118790.3654
       215.000         161.000
 118174501.10448  74291813.97448  20584927.6574   20584928.9504   20584927.5954
       252.000         233.000
 112632231.32948 105557583.60848  23336136.5824   23336136.1654   23336137.3964
       229.000         179.000
 09  1 28  1 33  0.0000000  0 10G 5G 9G26G30G18G14G15G17G12G22
 100551779.75848  96144229.30848  21037314.8494   21037317.7464   21037315.3484
       248.000         217.000
 115028048.00548  71840026.24548  19986180.9714   19986183.3284   19986181.1664
       251.000         227.000
 139553565.81348  90950803.83848  24653244.5244   24653247.3554   24653244.8424
       215.000         161.000
 109408224.07248 103045359.53448  22722636.7484   22722639.2154   22722636.2124
       230.000         186.000
 131341527.18648  84551828.51948  23090533.9524   23090536.0134   23090534.6424
       227.000         176.000
 138013084.47048  89750443.19348  24360089.8444   24360091.0964   24360089.6214
       207.000         150.000
 128778798.17548  82554899.72948  22602859.7384   22602861.5444   22602858.8204
       235.000         198.000
 136813439.12448  88815662.52448  24131798.8524   24131800.3724   24131798.5894
       214.000         161.000
 118144435.36148  74268386.12748  20579206.3144   20579207.4584   20579206.1504
       251.000         233.000
 112647003.81348 105569094.62548  23338947.6304   23338948.1824   23338947.8804
       229.000         181.000
 09  1 28  1 33 30.0000000  0 10G 5G 9G26G30G18G14G15G17G12G22
 100495074.08048  96100043.06748  21026524.2684   21026527.1464   21026524.8584
       249.000         217.000
 115041020.66448  71850134.80948  19988649.6044   19988652.0344   19988649.9774
       250.000         227.000
 139666667.69848  91038935.17448  24674767.7024   24674769.4414   24674768.3424
       215.000         160.000
 109315206.84948 102972878.59248  22704935.6804   22704938.3324   22704935.1864
       232.000         187.000
 131403822.65348  84600370.44148  23102388.4094   23102390.5054   23102388.6124
       225.000         174.000
 137909886.48248  89670029.14148  24340452.6194   24340453.0864   24340452.0534
       207.000         152.000
 128875400.86148  82630174.55448  22621242.5884   22621244.7474   22621242.4844
       234.000         197.000
 136882216.95948  88869255.62248  24144887.3634   24144887.7004   24144887.6414
       216.000         159.000
 118114812.16548  74245303.11348  20573569.2414   20573570.3484   20573569.1224
       252.000         234.000
 112662284.08648 105581001.32248  23341855.5224   23341855.6194   23341855.6014
       230.000         182.000
 09  1 28  1 34  0.0000000  0 10G 5G 9G26G30G18G14G15G17G12G22
 100438765.82448  96056166.51248  21015809.1414   21015812.0434   21015809.6574
       248.000         218.000
 115054364.66048  71860532.72248  19991188.9284   19991191.3234   19991189.0714
       250.000         227.000
 139779848.12348  91127127.70848  24696304.3014   24696307.2254   24696303.6164
       213.000         159.000
 109222437.09948 102900590.49848  22687282.4974   22687284.9254   22687282.1634
       231.000         186.000
 131466471.23348  84649187.50548  23114310.0334   23114311.9944   23114310.5414
       225.000         173.000
 137806814.36348  89589713.23848  24320838.2724   24320839.9464   24320837.3844
       208.000         153.000
 128972278.85748  82705663.87548  22639677.7094   22639679.9784   22639677.5824
       234.000         197.000
 136951413.46148  88923174.96248  24158055.4054   24158055.3894   24158056.0524
       217.000         162.000
 118085630.48548  74222564.14648  20568016.2604   20568017.3464   20568016.2084
       251.000         234.000
 112678069.85148 105593301.91048  23344859.5314   23344859.5104   23344859.8614
       229.000         183.000
 09  1 28  1 34 30.0000000  0 10G 5G 9G26G30G18G14G15G17G12G22
 100382855.70048  96012600.18148  21005169.8734   21005172.7394   21005170.3394
       248.000         218.000
 115068080.79448  71871220.62248  19993798.9244   19993801.3484   19993799.0624
       250.000         227.000
 139893105.61048  91215380.30248  24717856.6274   24717859.1514   24717857.1394
       210.000         156.000
 109129916.61048 102828496.61448  22669676.5234   22669678.9354   22669676.6164
       232.000         186.000
 131529470.27148  84698277.66648  23126297.9134   23126300.3714   23126298.0104
       225.000         173.000
 137703870.43448  89509497.22248  24301248.7134   24301250.9674   24301248.9114
       202.000         155.000
 129069430.39548  82781366.37448  22658165.3554   22658167.2504   22658164.9564
       235.000         198.000
 137021026.80448  88977419.09148  24171301.6804   24171303.5044   24171302.1874
       214.000         162.000
 118056890.18848  74200169.11548  20562546.9744   20562548.2414   20562546.4084
       251.000         234.000
 112694360.08648 105605995.59148  23347959.2314   23347959.6614   23347958.8874
       227.000         182.000
 09  1 28  1 35  0.0000000  0 10G 5G 9G26G30G18G14G15G17G12G22
 100327345.34048  95969345.35648  20994606.3254   20994609.5114   20994606.8964
       248.000         218.000
 115082170.29648  71882199.45348  19996480.1044   19996482.3824   19996480.2664
       250.000         227.000
 140006439.32148  91303692.25848  24739423.1984   24739426.5124   24739422.1574
       208.000         156.000
 109037647.27248 102756598.45248  22652117.7384   22652120.3654   22652117.3314
       230.000         186.000
 131592817.78048  84747639.35448  23138352.0584   23138355.0504   23138352.7364
       223.000         172.000
 137601058.27148  89429383.85348  24281684.4024   24281687.2404   24281682.0174
       213.000         160.000
 129166854.86848  82857281.53148  22676704.8134   22676706.4834   22676704.4964
       235.000         197.000
 137091055.80748  89031987.16148  24184628.0424   24184629.4074   24184627.4364
       214.000         160.000
 118028592.63248  74178119.07248  20557162.1934   20557163.3904   20557161.9514
       251.000         234.000
 112711154.88148 105619082.41248  23351155.1854   23351155.5044   23351155.8794
       228.000         181.000
 09  1 28  1 35 30.0000000  0 10G 5G 9G26G30G18G14G15G17G12G22
 100272234.05448  95926401.50648  20984119.2514   20984121.9964   20984119.9474
       248.000         218.000
 115096632.31648  71893468.55248  19999232.0094   19999234.4064   19999232.1284
       249.000         227.000
 140119846.28848  91392061.34548  24761004.2354   24761007.2144   24761003.3754
       213.000         154.000
 108945629.22848 102684896.09048  22634607.5664   22634609.9034   22634606.9424
       231.000         187.000
 131656510.34048  84797269.90648  23150473.0124   23150475.0134   23150473.3394
       224.000         171.000
 137498378.86748  89349373.94048  24262145.0864   24262147.2144   24262145.1214
       206.000         156.000
 129264549.03048  82933406.85748  22695295.5294   22695297.1914   22695295.3024
       235.000         197.000
 137161496.82848  89086876.27248  24198032.1104   24198033.9674   24198032.2424
       211.000         158.000
 118000735.96948  74156412.59348  20551861.2544   20551862.3454   20551860.8924
       252.000         234.000
 112728451.92048 105632560.63748  23354446.8454   23354446.7114   23354446.9864
       231.000         181.000
 09  1 28  1 36  0.0000000  0 10G 5G 9G26G30G18G14G15G17G12G22
 100217522.39448  95883769.04548  20973708.0384   20973710.6424   20973708.5524
       248.000         217.000
 115111467.13348  71905028.14248  20002054.9624   20002057.4544   20002055.0524
       249.000         227.000
 140233324.63848  91480486.05348  24782598.4674   24782601.0934   24782599.0574
       209.000         149.000
 108853863.85448 102613390.62348  22617145.1394   22617147.5794   22617144.7494
       233.000         188.000
 131720544.97948  84847167.01948  23162658.7034   23162660.3534   23162658.9374
       224.000         172.000
 137395835.42948  89269469.97948  24242631.2984   24242633.5084   24242629.8914
       207.000         151.000
 129362510.64848  83009740.58548  22713936.9354   22713938.9734   22713937.0474
       235.000         197.000
 137232348.45848  89142085.33548  24211513.9624   24211516.3734   24211513.0944
       212.000         160.000
 117973320.16348  74135049.62648  20546644.2004   20546645.3244   20546644.1314
       252.000         234.000
 112746250.04048 105646429.28648  23357834.0444   23357833.8434   23357834.5834
       231.000         183.000
 09  1 28  1 36 30.0000000  0 10G 5G 9G26G30G18G14G15G17G12G22
 100163210.64448  95841448.21048  20963372.6014   20963375.4434   20963372.9154
       248.000         218.000
 115126674.37048  71916877.93448  20004948.9394   20004951.2644   20004949.1044
       250.000         226.000
 140346872.35348  91568964.77548  24804205.4314   24804208.9194   24804204.8714
       206.000         144.000
 108762352.22248 102542082.86548  22599731.1064   22599733.3974   22599730.7794
       232.000         188.000
 131784918.46848  84897328.18448  23174908.9014   23174910.3104   23174909.5554
       225.000         173.000
 137293429.88548  89189673.42648  24223144.7724   24223146.6134   24223144.5514
       212.000         155.000
 129460737.67148  83086281.11548  22732628.7804   22732630.8744   22732628.7464
       233.000         196.000
 137303608.09648  89197612.34248  24225074.8004   24225077.3554   24225074.3724
       210.000         160.000
 117946344.41248  74114029.56748  20541510.9104   20541512.1004   20541510.8024
       251.000         235.000
 112764547.54248 105660687.05948  23361315.7494   23361316.1664   23361315.9304
       228.000         181.000
 09  1 28  1 37  0.0000000  0 10G 5G 9G26G30G18G14G15G17G12G22
 100109299.75748  95799439.73748  20953113.7234   20953116.7314   20953114.5134
       249.000         218.000
 115142254.85048  71929018.56248  20007913.8604   20007916.0874   20007914.0954
       250.000         227.000
 140460488.15648  91657496.56748  24825825.6164   24825829.8424   24825824.6404
       207.000         143.000
 108671095.85548 102470974.01948  22582365.7114   22582367.8474   22582365.0204
       233.000         188.000
 131849628.66848  84947751.70248  23187222.6414   23187224.2244   23187223.0204
       228.000         174.000
 137191165.19848  89109986.68048  24203684.1564   24203686.2544   24203683.6874
       208.000         153.000
 129559228.30648  83163027.04948  22751370.9104   22751372.9594   22751370.8824
       231.000         196.000
 137375273.83148  89253455.74748  24238711.8034   24238715.2704   24238711.0744
       205.000         161.000
 117919809.21148  74093352.78948  20536461.3794   20536462.7244   20536461.3144
       252.000         235.000
 112783343.99048 105675333.64348  23364892.4374   23364892.6194   23364892.6134
       229.000         180.000
 09  1 28  1 37 30.0000000  0 10G 5G 9G26G30G18G14G15G17G12G22
 100055790.16748  95757743.95148  20942931.2764   20942934.0244   20942931.9334
       248.000         218.000
 115158208.73448  71941450.15348  20010949.8224   20010952.0204   20010950.1114
       250.000         226.000
 140574170.04648  91746079.82648  24847458.7404   24847462.3474   24847458.9244
       212.000         146.000
 108580096.03148 102400065.08948  22565049.0814   22565051.6334   22565049.6374
       234.000         190.000
 131914672.80348  84998435.42548  23199600.2964   23199601.9734   23199600.8474
       225.000         173.000
 137089044.06748  89030411.80248  24184250.8634   24184252.5804   24184251.9574
       212.000         155.000
 129657980.77848  83239977.02148  22770162.8924   22770164.8304   22770162.5504
       232.000         195.000
 137447343.45848  89309613.89448  24252426.9474   24252429.2074   24252425.7624
       210.000         161.000
 117893714.02248  74073018.87748  20531495.7414   20531496.8254   20531495.8384
       251.000         234.000
 112802638.36648 105690368.20648  23368564.0334   23368564.0994   23368564.3174
       228.000         180.000
 09  1 28  1 38  0.0000000  0 10G 5G 9G26G30G18G14G15G17G12G22
 100002681.14948  95716360.30248  20932824.8924   20932827.6964   20932825.3164
       247.000         218.000
 115174535.08948  71954171.98748  20014056.5894   20014058.8174   20014056.7214
       250.000         227.000
 140687915.12248  91834712.31548  24869104.1294   24869106.6854   24869103.7734
       209.000         149.000
 108489352.65548 102329355.95948  22547781.5014   22547783.5964   22547780.9174
       233.000         190.000
 131980046.65848  85049376.05748  23212040.3424   23212042.3154   23212041.4574
       222.000         172.000
 136987067.75648  88950949.70348  24164846.3234   24164847.8404   24164845.8704
       213.000         160.000
 129756991.77848  83317128.46248  22789003.8334   22789005.6924   22789003.1364
       232.000         194.000
 137519813.82348  89366084.28248  24266217.3054   24266219.5734   24266216.7014
       206.000         160.000
 117868057.87648  74053027.08548  20526613.2654   20526614.6354   20526613.1304
       251.000         235.000
 112822427.67048 105705788.43548  23372329.8644   23372329.9964   23372329.9664
       228.000         181.000
 09  1 28  1 38 30.0000000  0 10G 5G 9G26G30G18G14G15G17G12G22
  99949974.16548  95675289.93048  20922794.9834   20922798.0244   20922795.7454
       247.000         218.000
 115191235.09448  71967184.97348  20017234.4934   20017236.6844   20017234.6724
       250.000         226.000
 140801722.38948  91923393.31748  24890760.2884   24890763.8734   24890759.8304
       204.000         147.000
 108398867.91148 102258848.38848  22530562.4074   22530565.0074   22530562.1654
       233.000         189.000
 132045748.49048  85100572.27448  23224542.8704   23224545.0404   23224543.0424
       226.000         173.000
 136885239.09448  88871602.72748  24145467.8914   24145470.6434   24145468.3764
       208.000         156.000
 129856260.42048  83394480.64148  22807894.0764   22807895.9484   22807894.0274
       230.000         194.000
 137592683.51348  89422865.80348  24280083.8324   24280086.1534   24280082.7424
       211.000         164.000
 117842841.07848  74033377.63248  20521814.7584   20521816.0724   20521814.7894
       252.000         235.000
 112842711.30748 105721593.86548  23376189.7984   23376189.8844   23376189.5744
       230.000         183.000
 09  1 28  1 39  0.0000000  0 10G 5G 9G26G30G18G14G15G17G12G22
  99897669.52748  95634533.07748  20912841.6454   20912844.7644   20912842.0824
       247.000         219.000
 115208308.97448  71980489.28948  20020483.3644   20020485.7594   20020483.5214
       249.000         226.000
 140915590.00048  92012121.26048  24912428.3284   24912432.4174   24912427.2074
       206.000         149.000
 108308642.87148 102188543.17148  22513393.1684   22513395.8914   22513392.7644
       233.000         192.000
 132111775.10048  85152021.59548  23237107.1764   23237109.6514   23237108.0534
       222.000         171.000
 136783561.21848  88792373.23948  24126118.8244   24126121.8384   24126118.3204
       207.000         153.000
 129955784.66248  83472031.98748  22826832.8244   22826834.8224   22826832.2044
       230.000         194.000
 137665950.48648  89479956.93848  24294026.8474   24294028.5954   24294027.4624
       214.000         165.000
 117818063.44048  74014070.38548  20517099.8354   20517100.9144   20517099.6314
       251.000         235.000
 112863488.35148 105737783.75748  23380143.6214   23380143.7724   23380144.0664
       227.000         180.000
 09  1 28  1 39 30.0000000  0 10G 5G 9G26G30G18G14G15G17G12G22
  99845767.62248  95594090.04348  20902965.3564   20902968.1924   20902965.9784
       247.000         219.000
 115225756.82248  71994085.00548  20023803.4684   20023806.0264   20023803.6684
       249.000         226.000
 141029515.80348  92100894.62548  24934107.6134   24934111.5644   24934107.4534
       206.000         150.000
 108218678.60548 102118441.14648  22496273.7684   22496276.3274   22496273.3004
       235.000         191.000
 132178124.04248  85203722.06848  23249732.4694   23249735.0084   23249733.1504
       224.000         170.000
 136682036.18548  88713262.82648  24106799.6404   24106801.8854   24106799.9944
       210.000         155.000
 130055561.99248  83549780.55748  22845820.0134   22845821.5474   22845819.1344
       231.000         193.000
 137739612.23648  89537355.69948  24308043.6314   24308046.1334   24308044.9484
       214.000         166.000
 117793724.35548  73995104.87448  20512468.0084   20512469.5264   20512467.7034
       252.000         235.000
 112884757.11548 105754356.80048  23384190.5904   23384191.3504   23384190.7484
       226.000         180.000
 09  1 28  1 40  0.0000000  0 10G 5G 9G26G30G18G14G15G17G12G22
  99794268.45448  95553960.82948  20893165.3264   20893168.0624   20893165.7914
       248.000         219.000
 115243578.19548  72007971.78648  20027194.7374   20027197.4834   20027194.8434
       250.000         226.000
 141143497.93648  92189711.88048  24955798.1134   24955802.0014   24955798.6234
       209.000         155.000
 108128975.74648 102048542.84048  22479203.2254   22479206.1904   22479203.2274
       234.000         190.000
 132244791.80248  85255670.96248  23262418.9944   23262421.4954   23262419.2604
       223.000         171.000
 136580666.79248  88634273.68748  24087510.0784   24087512.0994   24087509.6764
       212.000         157.000
 130155590.01448  83627724.44848  22864854.3824   22864856.4654   22864854.0324
       231.000         194.000
 137813666.35348  89595060.21548  24322135.8134   24322137.5174   24322134.9454
       212.000         167.000
 117769823.10148  73976480.52348  20507919.8944   20507921.1454   20507919.8574
       251.000         235.000
 112906515.87848 105771311.65748  23388330.6594   23388331.5164   23388330.2634
       226.000         179.000
 09  1 28  1 40 30.0000000  0 10G 5G 9G26G30G18G14G15G17G12G22
  99743172.73748  95514145.99248  20883442.2024   20883444.9624   20883443.0154
       248.000         219.000
 115261773.79848  72022150.17948  20030657.3574   20030659.9964   20030657.5364
       249.000         227.000
 141257534.60448  92278571.67248  24977499.1834   24977502.5454   24977499.7934
       206.000         152.000
 108039535.71648 101978849.32248  22462183.4084   22462186.0054   22462183.3624
       232.000         191.000
 132311775.82948  85307866.30548  23275166.3184   23275168.3804   23275167.0944
       225.000         171.000
 136479455.25148  88555407.58148  24068250.4114   24068251.7624   24068251.1174
       216.000         157.000
 130255866.79748  83705862.19548  22883936.8784   22883938.7274   22883936.4534
       232.000         195.000
 137888110.69248  89653068.76848  24336301.7804   24336304.0934   24336301.2714
       210.000         163.000
 117746359.60248  73958197.28448  20503454.8544   20503456.2684   20503454.5864
       252.000         235.000
 112928763.57248 105788647.52548  23392564.9644   23392564.9854   23392565.6944
       226.000         179.000
 09  1 28  1 41  0.0000000  0 10G 5G 9G26G30G18G14G15G17G12G22
  99692480.27248  95474645.36548  20873795.7644   20873798.4474   20873796.6034
       248.000         219.000
 115280343.10448  72036619.74548  20034191.1234   20034193.6474   20034191.3094
       250.000         227.000
 141371623.42548  92367472.02148  24999208.8454   24999213.3254   24999208.3654
       204.000         150.000
 107950359.31748 101909361.23648  22445213.9184   22445216.2184   22445213.5214
       233.000         191.000
 132379072.73448  85360305.42048  23287972.7104   23287974.3144   23287973.1084
       224.000         172.000
 136378403.65148  88476666.03148  24049021.5604   24049021.9964   24049021.7784
       214.000         161.000
 130356389.94248  83784191.91248  22903065.5584   22903067.5824   22903064.8924
       232.000         192.000
 137962942.50648  89711379.23248  24350541.9574   24350543.7984   24350542.6204
       212.000         164.000
 117723332.62048  73940254.18348  20499073.0794   20499074.3274   20499072.8994
       252.000         235.000
 112951498.12748 105806362.75048  23396891.0584   23396891.6594   23396890.9604
       225.000         177.000
 09  1 28  1 41 30.0000000  0 10G 5G 9G26G30G18G14G15G17G12G22
  99642192.56548  95435460.14748  20864226.2404   20864228.9794   20864226.9334
       248.000         219.000
 115299287.54248  72051381.64848  20037796.2134   20037798.5694   20037796.5984
       250.000         226.000
 141485763.69348  92456412.42848  25020929.7014   25020932.6354   25020929.3654
       209.000         146.000
 107861448.67948 101840080.23648  22428294.7124   22428296.9874   22428294.7114
       232.000         191.000
 132446680.43048  85412986.74348  23300838.0154   23300839.3324   23300838.7014
       224.000         172.000
 136277515.57448  88398051.98048  24029822.8854   24029824.3854   24029821.6064
       213.000         161.000
 130457158.38448  83862712.77748  22922241.3664   22922242.8234   22922240.9804
       230.000         191.000
 138038160.74348  89769990.81348  24364855.4764   24364857.6364   24364855.1944
       212.000         161.000
 117700743.30348  73922652.12848  20494774.3914   20494775.7724   20494774.0254
       252.000         236.000
 112974719.32648 105824457.17248  23401309.3794   23401310.6914   23401309.1854
       225.000         180.000
 09  1 28  1 42  0.0000000  0 10G 5G 9G26G30G18G14G15G17G12G22
  99592308.85848  95396589.73348  20854733.7424   20854736.6094   20854734.3964
       247.000         219.000
 115318605.91048  72066434.90748  20041472.3054   20041474.7734   20041472.4414
       249.000         227.000
 141599952.29048  92545390.61548  25042659.5464   25042660.4494   25042659.2144
       212.000         146.000
 107772804.01648 101771006.49948  22411426.0454   22411428.3574   22411425.2244
       233.000         192.000
 132514595.51048  85465907.56048  23313762.0514   23313763.5114   23313762.4564
       224.000         174.000
 136176792.55948  88319566.50348  24010655.6814   24010657.1364   24010654.4084
       214.000         159.000
 130558168.87948  83941422.25248  22941463.0014   22941464.6654   22941462.4074
       231.000         191.000
 138113761.97248  89828900.86748  24379241.8214   24379243.7734   24379240.1314
       212.000         159.000
 117678590.03548  73905389.84048  20490558.8574   20490560.1174   20490558.7234
       252.000         235.000
 112998424.37948 105842928.61748  23405820.7664   23405821.1694   23405820.3904
       225.000         178.000
 09  1 28  1 42 30.0000000  0 10G 5G 9G26G30G18G14G15G17G12G22
  99542830.21148  95358034.95348  20845318.1884   20845321.0324   20845318.6444
       248.000         220.000
 115338299.37948  72081780.46948  20045219.7024   20045222.4234   20045219.7484
       250.000         227.000
 141714188.33548  92634405.68248  25064397.0974   25064401.8824   25064396.6214
       203.000         141.000
 107684426.96148 101702141.28348  22394608.5754   22394610.9374   22394608.6984
       234.000         193.000
 132582815.22048  85519065.75648  23326743.5284   23326745.4544   23326744.0144
       224.000         172.000
 136076237.88148  88241212.22548  23991520.4404   23991522.6264   23991519.2234
       209.000         161.000
 130659420.10348  84020319.30248  22960730.3634   22960732.2534   22960730.1134
       231.000         191.000
 138189744.53648  89888108.06148  24393701.7674   24393702.7054   24393700.7584
       214.000         157.000
 117656873.22348  73888467.64748  20486426.2154   20486427.4604   20486425.9604
       252.000         235.000
 113022612.42348 105861776.42948  23410423.0864   23410423.8074   23410423.3854
       222.000         178.000
 09  1 28  1 43  0.0000000  0 10G 5G 9G26G30G18G14G15G17G12G22
  99493756.71148  95319795.87048  20835979.7044   20835982.6674   20835980.0904
       248.000         219.000
 115358367.70948  72097418.11348  20049038.5914   20049041.3074   20049038.7454
       249.000         227.000
 141828469.47948  92723455.89048  25086144.4194   25086146.6524   25086143.2784
       197.000         142.000
 107596318.17148 101633485.09748  22377842.3524   22377844.4484   22377842.2484
       235.000         194.000
 132651336.20648  85572458.74948  23339782.5724   23339784.5234   23339783.5894
       223.000         174.000
 135975853.77448  88162990.85448  23972417.9414   23972420.6934   23972416.2154
       213.000         162.000
 130760909.76848  84099402.15148  22980043.1204   22980045.4124   22980043.1594
       229.000         191.000
 138266105.90248  89947610.42548  24408232.6054   24408233.3854   24408233.4674
       208.000         158.000
 117635591.87248  73871884.77648  20482376.7284   20482377.7094   20482376.5184
       252.000         235.000
 113047281.53548 105880999.10748  23415117.8314   23415118.0814   23415117.6974
       225.000         176.000
 09  1 28  1 43 30.0000000  0 10G 5G 9G26G30G18G14G15G17G12G22
  99445088.40448  95281872.52548  20826718.3364   20826721.3494   20826718.8314
       248.000         219.000
 115378810.72748  72113347.73548  20052928.7804   20052931.4104   20052928.7934
       251.000         227.000
 141942793.80348  92812539.73948  25107898.6394   25107902.2974   25107896.9504
       193.000         141.000
 107508478.77648 101565038.82748  22361126.7614   22361129.1824   22361126.4374
       235.000         192.000
 132720156.05548  85626084.57848  23352878.4594   23352880.7274   23352878.9064
       224.000         174.000
 135875642.72848  88084904.31348  23953349.1614   23953350.4374   23953349.7224
       212.000         160.000
 130862635.23748  84178668.74848  22999400.7644   22999403.1024   22999400.1074
       229.000         192.000
 138342843.67048  90007406.05848  24422834.5184   24422837.1364   24422832.7384
       212.000         161.000
 117614745.37548  73855640.75948  20478409.7144   20478410.7424   20478409.4114
       252.000         235.000
 113072430.03548 105900595.31548  23419903.3844   23419903.8424   23419903.2924
       224.000         176.000
 09  1 28  1 44  0.0000000  0 10G 5G 9G26G30G18G14G15G17G12G22
  99396825.96848  95244265.42848  20817534.4134   20817537.1334   20817535.1154
       249.000         220.000
 115399628.85848  72129569.64848  20056890.5504   20056892.9364   20056890.7814
       249.000         227.000
 142057159.44648  92901655.86748  25129661.9964   25129665.2584   25129660.6534
       206.000         147.000
 107420910.12248 101496803.51248  22344463.1864   22344465.4854   22344463.3384
       235.000         194.000
 132789271.50848  85679940.77448  23366030.7714   23366032.7114   23366031.7314
       220.000         170.000
 135775607.49548  88006954.79748  23934312.9864   23934314.6124   23934312.7664
       217.000         164.000
 130964594.85348  84258117.78348  23018803.0414   23018805.3144   23018802.2994
       229.000         192.000
 138419955.58548  90067493.27748  24437509.2524   24437511.3964   24437508.3754
       209.000         158.000
 117594333.66848  73839735.52648  20474525.5464   20474526.3784   20474525.5464
       252.000         235.000
 113098056.96448 105920564.34348  23424780.0344   23424780.7674   23424780.4504
       223.000         177.000
 09  1 28  1 44 30.0000000  0 10G 5G 9G26G30G18G14G15G17G12G22
  99348969.99748  95206975.06948  20808427.5844   20808430.5144   20808428.2724
       247.000         219.000
 115420822.66748  72146084.29948  20060923.5664   20060925.9304   20060923.5514
       251.000         227.000
 142171565.05248  92990803.10848  25151432.0234   25151436.4494   25151431.7404
       204.000         144.000
 107333613.46048 101428780.16048  22327851.0194   22327853.5344   22327851.1004
       235.000         194.000
 132858680.28448  85734025.52348  23379237.9524   23379240.7134   23379238.2864
       220.000         168.000
 135675750.67848  87929144.29148  23915310.7294   23915312.8744   23915311.9194
       212.000         163.000
 131066786.92948  84337747.98248  23038249.3254   23038251.6174   23038249.0444
       230.000         191.000
 138497439.92748  90127870.68148  24452253.7554   24452255.5954   24452254.0144
       208.000         154.000
 117574356.49648  73824168.91048  20470723.9734   20470725.0894   20470723.8794
       252.000         236.000
 113124161.14948 105940905.25148  23429747.4744   23429748.3074   23429748.0434
       224.000         177.000
 09  1 28  1 45  0.0000000  0 10G 5G 9G26G30G18G14G15G17G12G22
  99301520.21648  95170001.21448  20799398.1664   20799401.1894   20799398.8984
       247.000         219.000
 115442391.66548  72162891.31148  20065027.9884   20065030.3504   20065028.3014
       250.000         226.000
 142286008.14448  93079979.53948  25173211.1094   25173214.0174   25173210.5084
       208.000         145.000
 107246589.52448 101360969.30648  22311291.1284   22311293.4274   22311290.4934
       235.000         194.000
 132928378.86948  85788336.08648  23392501.1654   23392504.1434   23392501.3234
       221.000         171.000
 135576074.60848  87851474.66548  23896342.4764   23896344.5344   23896342.2734
       214.000         163.000
 131169208.46948  84417556.95948  23057739.8744   23057741.7504   23057739.6254
       228.000         191.000
 138575293.62248  90188535.88748  24467068.9454   24467071.3634   24467069.2724
       206.000         154.000
 117554812.34748  73808939.70448  20467004.8984   20467005.9854   20467004.6694
       253.000         236.000
 113150740.13648 105961616.13348  23434805.2594   23434806.2824   23434804.9584
       225.000         177.000
 09  1 28  1 45 30.0000000  0 10G 5G 9G26G30G18G14G15G17G12G22
  99254476.44448  95133343.73448  20790446.0764   20790448.9384   20790446.5984
       248.000         220.000
 115464335.29648  72179990.23948  20069203.7684   20069206.0134   20069203.9264
       251.000         226.000
 142400486.50748  93169183.47748  25194994.9934   25194997.4824   25194993.8874
       199.000         141.000
 107159839.10048 101293371.57748  22294782.7194   22294785.2394   22294782.6544
       234.000         193.000
 132998363.62648  85842869.66048  23405819.7984   23405821.8364   23405820.6494
       222.000         171.000
 135476581.46448  87773947.53648  23877410.1374   23877412.2394   23877411.0904
       216.000         164.000
 131271857.01348  84497542.83148  23077273.5654   23077275.2924   23077272.8314
       228.000         189.000
 138653514.10948  90249486.90948  24481954.1034   24481955.9024   24481953.7394
       206.000         153.000
 117535701.16848  73794047.87848  20463368.1664   20463369.1124   20463368.1484
       253.000         236.000
 113177792.12148 105982695.59448  23439953.7454   23439953.2754   23439954.6804
       224.000         175.000
 09  1 28  1 46  0.0000000  0 10G 5G 9G26G30G18G14G15G17G12G22
  99207838.71548  95097002.64648  20781571.3304   20781574.1894   20781572.3414
       248.000         220.000
 115486653.93448  72197381.38948  20073450.9234   20073453.2154   20073451.4814
       250.000         227.000
 142514997.96848  93258413.15448  25216786.0184   25216789.7434   25216783.8024
       200.000         143.000
 107073362.61448 101225987.31648  22278326.7694   22278329.3514   22278326.3534
       235.000         193.000
 133068631.47548  85897623.84048  23419191.5134   23419193.3304   23419191.6114
       224.000         173.000
 135377273.29648  87696564.54648  23858512.1084   23858514.1774   23858512.0514
       216.000         162.000
 131374730.01348  84577703.60548  23096849.5164   23096851.4344   23096848.9034
       228.000         188.000
 138732098.72148  90310721.64248  24496907.5184   24496909.7874   24496907.8104
       201.000         153.000
 117517021.96148  73779492.65448  20459813.6214   20459814.4894   20459813.4784
       252.000         235.000
 113205315.04748 106004142.00848  23445190.7874   23445191.2334   23445190.2104
       225.000         177.000
 09  1 28  1 46 30.0000000  0 10G 5G 9G26G30G18G14G15G17G12G22
  99161608.65648  95060979.23048  20772774.0874   20772776.9124   20772774.7514
       249.000         221.000
 115509348.90948  72215065.77448  20077769.6794   20077772.1444   20077769.9004
       250.000         227.000
 142629541.89448  93347668.12548  25238582.9114   25238586.5164   25238582.3644
       204.000         145.000
 106987162.58448 101158818.47848  22261923.6694   22261925.8024   22261923.7194
       235.000         194.000
 133139180.76848  85952597.30148  23432616.3444   23432618.6164   23432616.8814
       225.000         172.000
 135278154.28748  87619328.94048  23839650.8194   23839652.3364   23839650.4344
       214.000         165.000
 131477826.78048  84658038.72648  23116467.7364   23116470.1974   23116467.5894
       226.000         188.000
 138811046.38848  90372239.26948  24511930.0364   24511932.9344   24511930.1204
       193.000         148.000
 117498775.30248  73765274.48148  20456341.2224   20456342.2294   20456341.3014
       252.000         235.000
 113233308.38048 106025954.97548  23450517.9184   23450518.0114   23450518.5224
       226.000         177.000
 09  1 28  1 47  0.0000000  0 10G 5G 9G26G30G18G14G15G17G12G22
  99115785.98848  95025273.25748  20764054.4974   20764057.1114   20764055.1764
       250.000         222.000
 115532419.66248  72233042.97848  20082159.9254   20082162.3784   20082159.9854
       250.000         227.000
 142744115.92048  93436946.60148  25260386.1034   25260389.5774   25260385.0784
       206.000         149.000
 106901239.59048 101091865.49848  22245572.7964   22245575.0624   22245572.6504
       235.000         193.000
 133210008.00448  86007787.35348  23446094.5694   23446096.5364   23446095.2154
       223.000         171.000
 135179226.30948  87542242.23048  23820825.4144   23820827.3944   23820823.4194
       213.000         163.000
 131581144.89548  84738546.32948  23136129.0054   23136131.0884   23136128.4804
       229.000         189.000
 138890354.32748  90434037.60848  24527021.6254   24527024.7254   24527022.5424
       194.000         145.000
 117480959.77548  73751392.25348  20452950.9994   20452952.1434   20452950.9254
       252.000         235.000
 113261770.23548 106048133.04348  23455934.1504   23455933.8314   23455934.3564
       226.000         177.000
 09  1 28  1 47 30.0000000  0 10G 5G 9G26G30G18G14G15G17G12G22
  99070370.38548  94989884.47748  20755412.2024   20755414.8664   20755412.8714
       249.000         221.000
 115555865.77748  72251312.66948  20086621.4174   20086624.0124   20086621.4324
       250.000         226.000
 142858717.67348  93526246.69048  25282194.1804   25282198.3964   25282193.5874
       203.000         146.000
 106815594.07048 101025128.73548  22229275.2064   22229277.4254   22229274.9594
       237.000         195.000
 133281109.91748  86063191.42848  23459624.6294   23459626.8374   23459625.1414
       221.000         172.000
 135080491.56148  87465306.04748  23802037.1584   23802038.0684   23802036.2354
       218.000         166.000
 131684681.49148  84819224.19848  23155831.3184   23155833.3664   23155830.7664
       229.000         190.000
 138970019.44348  90496114.31448  24542181.0704   24542185.0874   24542181.2914
       195.000         145.000
 117463574.62948  73737845.38648  20449642.7114   20449643.9034   20449642.4604
       253.000         236.000
 113290698.48848 106070674.51448  23461439.0204   23461438.9174   23461438.7884
       224.000         176.000
 09  1 28  1 48  0.0000000  0 10G 5G 9G26G30G18G14G15G17G12G22
  99025362.28148  94954813.23448  20746847.3564   20746850.1234   20746847.9234
       249.000         222.000
 115579687.48448  72269875.03148  20091154.4844   20091157.2514   20091154.7124
       250.000         226.000
 142973345.31448  93615566.93948  25304006.8764   25304010.2664   25304006.0294
       197.000         142.000
 106730226.96848 100958608.91948  22213030.0924   22213032.6634   22213030.1934
       234.000         194.000
 133352483.21148  86118806.94948  23473206.3844   23473208.4334   23473207.0164
       221.000         170.000
 134981952.91248  87388522.70348  23783286.0844   23783287.3154   23783285.9254
       216.000         167.000
 131788434.54348  84900070.74048  23175574.8954   23175576.6424   23175574.0384
       230.000         190.000
 139050039.81848  90558467.84848  24557408.6124   24557412.4614   24557407.5294
       197.000         140.000
 117446619.82648  73724633.85048  20446416.4844   20446417.6504   20446416.5764
       252.000         236.000
 113320091.36148 106093578.05348  23467032.4554   23467032.4044   23467032.4764
       225.000         176.000
 09  1 28  1 48 30.0000000  0  9G 5G 9G30G18G14G15G17G12G22
  98980761.85048  94920059.65848  20738360.0434   20738363.0194   20738360.8014
       249.000         221.000
 115603885.03748  72288730.26348  20095759.0484   20095761.8114   20095759.1134
       249.000         226.000
 106645139.66648 100892307.14548  22196838.3694   22196841.4364   22196838.0104
       234.000         194.000
 133424125.25948  86174631.94448  23486839.1714   23486841.2844   23486839.4194
       222.000         170.000
 134883612.83248  87311894.06448  23764572.4164   23764573.6004   23764572.6394
       219.000         167.000
 131892401.80448  84981084.17848  23195359.2474   23195361.3404   23195359.6934
       230.000         189.000
 139130412.77748  90621096.10448  24572704.1844   24572706.8124   24572703.9164
       193.000         135.000
 117430094.67648  73711757.11348  20443271.6964   20443272.9444   20443271.5044
       252.000         236.000
 113349947.05948 106116842.21448  23472713.3544   23472713.1424   23472713.8554
       226.000         176.000
 09  1 28  1 49  0.0000000  0 10G 5G 9G26G30G18G14G15G17G12G22
  98936569.22248  94885623.85248  20729950.4334   20729953.2824   20729950.7174
       250.000         221.000
 115628458.14448  72307878.13048  20100435.1734   20100437.8914   20100435.3714
       249.000         226.000
 123202702.50258 113794293.59458  25347645.5365   25347650.1735   25347643.8785
       200.000         139.000
 106560332.87048 100826223.93848  22180700.3964   22180703.0104   22180699.6324
       236.000         196.000
 133496033.06548  86230663.98948  23500523.2474   23500525.0044   23500523.8534
       223.000         169.000
 134785473.86448  87235422.18148  23745896.6704   23745898.2324   23745896.8574
       216.000         164.000
 131996581.03048  85062262.79048  23215183.7374   23215185.8564   23215183.8174
       229.000         186.000
 139211135.84348  90683997.20348  24588064.4474   24588068.6784   24588060.9554
       194.000         131.000
 117413998.33048  73699214.50348  20440208.6694   20440209.9064   20440208.3214
       253.000         236.000
 113380263.80648 106140465.64548  23478483.3174   23478483.1134   23478483.2064
       226.000         179.000
 09  1 28  1 49 30.0000000  0 10G 5G 9G26G30G18G14G15G17G12G22
  98892785.02948  94851506.30148  20721618.6824   20721621.3694   20721619.4654
       250.000         221.000
 115653407.65548  72327319.29648  20105182.8414   20105185.4434   20105183.0474
       249.000         225.000
 123317397.22848 113883666.15948  25369471.8864   25369474.5274   25369470.0324
       204.000         143.000
 106475808.14048 100760360.52948  22164615.9504   22164618.3554   22164615.8664
       238.000         196.000
 133568203.84948  86286900.92848  23514256.9584   23514258.7254   23514257.6794
       224.000         169.000
 134687538.98948  87159109.27348  23727259.9664   23727261.6464   23727260.0624
       217.000         167.000
 132100970.61848  85143605.32848  23235048.7094   23235050.3484   23235048.1934
       228.000         187.000
 139292207.33348  90747169.82748  24603492.5374   24603496.0014   24603492.9364
       186.000         126.000
 117398330.26748  73687005.62548  20437227.2014   20437228.2944   20437227.2344
       252.000         236.000
 113411040.29848 106164447.31348  23484339.3774   23484339.7234   23484340.0864
       225.000         176.000
 09  1 28  1 50  0.0000000  0  9G 5G 9G26G30G18G14G15G12G22
  98849408.50248  94817706.41448  20713364.4484   20713367.0484   20713365.2214
       250.000         222.000
 115678732.41148  72347052.87048  20110002.0714   20110004.5944   20110002.3424
       249.000         225.000
 123432110.07948 113973052.80148  25391301.4844   25391304.0494   25391301.3544
       198.000         139.000
 106391565.80748 100694717.14948  22148585.3604   22148587.2894   22148585.1184
       237.000         196.000
 133640633.43448  86343339.57148  23528039.8764   23528041.3364   23528040.7104
       220.000         165.000
 134589810.01648  87082956.80848  23708663.4164   23708664.9154   23708663.4774
       217.000         169.000
 132205567.39248  85225109.29848  23254953.0024   23254954.7364   23254952.4504
       229.000         188.000
 117383089.50248  73675129.70948  20434326.8054   20434328.1314   20434326.6384
       252.000         236.000
 113442273.88548 106188785.13548  23490282.7004   23490282.7564   23490282.3834
       222.000         175.000
 09  1 28  1 50 30.0000000  0  9G 5G 9G26G30G18G14G15G12G22
  98806440.21748  94784224.63848  20705187.8634   20705190.5124   20705188.4424
       251.000         223.000
 115704433.22848  72367079.46648  20114892.8854   20114895.2884   20114892.9554
       249.000         225.000
 123546839.44548 114062452.26248  25413133.3804   25413136.5634   25413132.7484
       194.000         138.000
 106307606.90648 100629294.63748  22132608.5304   22132610.5514   22132608.3434
       236.000         196.000
 133713319.67548  86399978.21248  23541871.3644   23541872.7384   23541871.5724
       221.000         166.000
 134492289.94748  87006967.12748  23690104.9504   23690106.9684   23690104.8664
       216.000         165.000
 132310369.43048  85306773.20448  23274895.7304   23274897.9914   23274895.6984
       228.000         186.000
 117368275.82048  73663586.58948  20431507.7414   20431509.3094   20431507.3394
       253.000         236.000
 113473963.06848 106213477.99748  23496313.0554   23496313.2024   23496312.6784
       225.000         177.000
 09  1 28  1 51  0.0000000  0  9G 5G 9G26G30G18G14G15G12G22
  98763879.53848  94751060.47848  20697088.8554   20697091.5444   20697089.8444
       250.000         222.000
 115730509.15348  72387398.36548  20119854.9924   20119857.4174   20119855.3414
       249.000         225.000
 123661582.56948 114151862.50548  25434968.4244   25434971.5074   25434967.2104
       200.000         140.000
 106223931.60648 100564093.11348  22116685.6974   22116687.5344   22116685.1654
       238.000         196.000
 133786258.50348  86456813.64948  23555751.1964   23555752.8534   23555752.3924
       220.000         166.000
 134394980.58148  86931141.65548  23671587.8114   23671590.2724   23671587.7944
       219.000         169.000
 132415373.71548  85388594.72148  23294877.7444   23294879.1444   23294877.5814
       227.000         185.000
 117353887.39848  73652374.82848  20428769.9884   20428771.1054   20428770.0394
       252.000         237.000
 113506105.33148 106238523.91848  23502430.3424   23502429.3774   23502431.0914
       226.000         176.000
 09  1 28  1 51 30.0000000  0  9G 5G 9G26G30G18G14G15G12G22
  98721727.32348  94718214.60848  20689067.3434   20689070.1064   20689068.0434
       250.000         222.000
 115756960.95048  72408010.14548  20124888.5414   20124891.1274   20124888.5594
       250.000         225.000
 123776338.30348 114241282.55648  25456805.3484   25456808.9324   25456805.2824
       198.000         135.000
 106140541.96848 100499114.18948  22100817.1354   22100819.0594   22100817.0174
       238.000         197.000
 133859447.86848  86513844.31248  23569678.6734   23569680.4414   23569679.5074
       219.000         165.000
 134297885.38848  86855483.05248  23653111.5144   23653113.3564   23653111.7724
       219.000         170.000
 132520578.86548  85470572.74748  23314897.4314   23314899.2004   23314897.4344
       225.000         184.000
 117339924.28348  73641494.48148  20426112.8454   20426114.1994   20426112.5944
       252.000         237.000
 113538699.44848 106263921.90248  23508631.7894   23508632.1864   23508631.8884
       223.000         176.000
 09  1 28  1 52  0.0000000  0  9G 5G 9G26G30G18G14G15G12G22
  98679986.78348  94685689.52048  20681124.4064   20681127.1234   20681124.9474
       250.000         223.000
 115783791.92348  72428917.38948  20129994.4184   20129996.9634   20129994.7084
       248.000         225.000
 123891107.74748 114330713.31948  25478645.4254   25478646.4524   25478644.0914
       205.000         130.000
 106057441.88348 100434360.88548  22085003.7044   22085005.6794   22085003.5844
       236.000         197.000
 133932887.43848  86571069.93448  23583654.0804   23583655.7554   23583653.9074
       222.000         165.000
 134201009.98348  86779995.71548  23634676.9794   23634678.7284   23634676.9524
       218.000         170.000
 132625985.77948  85552707.99248  23334955.6994   23334957.4054   23334955.1844
       226.000         183.000
 117326389.32248  73630947.76348  20423537.2074   20423538.4704   20423537.1454
       253.000         237.000
 113571746.43448 106289672.78548  23514920.3764   23514921.2034   23514920.2194
       222.000         178.000
 09  1 28  1 52 30.0000000  0  9G 5G 9G26G30G18G14G15G12G22
  98638655.24748  94653483.13348  20673259.4774   20673262.0564   20673260.1754
       251.000         223.000
 115810999.22948  72450117.88348  20135171.7284   20135174.4144   20135171.7244
       250.000         225.000
 124005886.61048 114420151.46348  25500487.0774   25500488.1254   25500487.9224
       205.000         137.000
 105974629.00548 100369831.38948  22069244.6094   22069246.9484   22069243.9904
       237.000         198.000
 134006571.58848  86628486.14248  23597675.5274   23597677.7104   23597676.4244
       222.000         167.000
 134104354.13648  86704679.47148  23616284.0294   23616285.6764   23616283.9814
       218.000         170.000
 132731589.57048  85634996.65548  23355051.1264   23355052.7464   23355049.9194
       226.000         183.000
 117313278.90648  73620731.85948  20421042.4064   20421043.6384   20421042.4724
       252.000         236.000
 113605241.77848 106315773.04148  23521294.6824   23521295.7434   23521294.7664
       223.000         177.000
 09  1 28  1 53  0.0000000  0  9G 5G 9G26G30G18G14G15G12G22
  98597732.51048  94621595.29148  20665472.1184   20665474.8114   20665472.5864
       252.000         224.000
 115838582.30848  72471611.18248  20140420.6124   20140423.2104   20140420.8524
       248.000         225.000
 124120672.43548 114509594.86948  25522330.7884   25522333.0474   25522329.5104
       203.000         144.000
 105892104.60548 100305526.67248  22053540.7044   22053543.3204   22053540.8294
       237.000         199.000
 134080497.02748  86686090.38048  23611743.1294   23611744.6784   23611743.3424
       222.000         167.000
 134007920.39948  86629536.30448  23597933.5364   23597934.9404   23597933.2104
       220.000         169.000
 132837387.37148  85717436.48948  23375184.0544   23375185.2674   23375183.3474
       227.000         184.000
 117300592.01348  73610845.96648  20418628.1314   20418629.3594   20418628.1654
       253.000         237.000
 113639183.42048 106342221.04248  23527753.6714   23527754.2464   23527753.6284
       224.000         177.000
 09  1 28  1 53 30.0000000  0  9G 5G 9G26G30G18G14G15G12G22
  98557218.34148  94590025.81148  20657762.5144   20657765.1554   20657763.2824
       250.000         223.000
 115866541.36648  72493397.45248  20145741.1034   20145743.7654   20145741.2344
       250.000         225.000
 124235462.87448 114599041.92448  25544172.9914   25544176.3674   25544172.9774
       197.000         140.000
 105809869.19948 100241447.15348  22037891.6274   22037894.4824   22037891.3904
       237.000         199.000
 134154660.16248  86743879.83148  23625855.4044   23625857.5714   23625856.5044
       217.000         166.000
 133911710.76848  86554567.74648  23579625.4474   23579626.6214   23579625.7184
       219.000         170.000
 132943376.95448  85800025.77348  23395353.2514   23395354.5904   23395353.8614
       226.000         182.000
 117288327.05748  73601288.85948  20416294.2784   20416295.4004   20416293.8984
       252.000         237.000
 113673569.07248 106369015.06548  23534297.3484   23534297.4584   23534297.5634
       223.000         176.000
 09  1 28  1 54  0.0000000  0  9G 5G 9G26G30G18G14G15G12G22
  98517112.15348  94558774.24748  20650130.3934   20650133.2654   20650130.9394
       251.000         224.000
 115894875.63048  72515476.09348  20151133.1194   20151135.3374   20151133.4024
       249.000         225.000
 124350255.70648 114688490.92648  25566018.9144   25566020.0814   25566020.4864
       193.000         133.000
 105727923.04748 100177593.02648  22022297.9494   22022300.5544   22022297.5274
       239.000         198.000
 134229057.62848  86801851.87148  23640012.4074   23640014.8134   23640012.5814
       217.000         164.000
 133815727.43648  86479775.51048  23561360.5194   23561361.6144   23561360.5354
       220.000         172.000
 133049555.25448  85882762.09048  23415557.9434   23415559.8534   23415557.8434
       226.000         183.000
 117276483.42248  73592060.05248  20414040.5074   20414041.6364   20414040.1454
       252.000         237.000
 113708395.99948 106396152.92148  23540924.1564   23540924.4854   23540924.1494
       222.000         174.000
 09  1 28  1 54 30.0000000  0  9G 5G 9G26G30G18G14G15G12G22
  98477415.67748  94527841.92748  20642576.6644   20642579.3714   20642577.6424
       250.000         224.000
 115923586.68048  72537848.33548  20156596.5644   20156598.8184   20156596.6354
       249.000         225.000
 124465050.36248 114777941.32548  25587862.8624   25587866.6404   25587862.5094
       198.000         130.000
 105646268.42848 100113966.05448  22006759.7494   22006761.8464   22006759.5414
       240.000         199.000
 134303687.53448  86860005.04148  23654214.0644   23654216.3154   23654214.8494
       218.000         163.000
 133719974.50148  86405162.87848  23543138.5114   23543140.6794   23543138.9304
       220.000         170.000
 133155921.74548  85965645.04648  23435799.0914   23435801.2734   23435798.8274
       226.000         182.000
 117265061.81948  73583160.10848  20411866.9904   20411868.3244   20411866.8824
       252.000         237.000
 113743663.93648 106423634.40848  23547635.6284   23547636.1474   23547636.0054
       221.000         174.000
 09  1 28  1 55  0.0000000  0  9G 5G 9G26G30G18G14G15G12G22
  98438129.21448  94497229.11048  20635100.4474   20635103.3624   20635101.0384
       251.000         224.000
 115952675.00148  72560514.54048  20162131.8974   20162134.0714   20162132.0674
       249.000         225.000
 124579845.58948 114867392.07748  25609707.1674   25609710.1044   25609706.1764
       205.000         136.000
 105564906.81148 100050567.39548  21991277.3124   21991279.2954   21991277.2994
       239.000         199.000
 134378547.75348  86918337.66148  23668459.5914   23668461.9814   23668459.8304
       217.000         162.000
 133624455.12648  86330732.16948  23524961.9884   23524963.6314   23524961.8144
       217.000         170.000
 133262474.43148  86048673.11648  23456074.9824   23456076.7584   23456074.7904
       225.000         181.000
 117254061.82248  73574588.68248  20409773.7304   20409774.9784   20409773.7794
       252.000         236.000
 113779371.48548 106451458.43248  23554430.5014   23554430.5194   23554430.8094
       223.000         175.000
 09  1 28  1 55 30.0000000  0  9G 5G 9G26G30G18G14G15G12G22
  98399252.42148  94466935.50848  20627702.8584   20627705.3724   20627703.6574
       251.000         224.000
 115982139.92248  72583474.22048  20167738.7204   20167741.2764   20167738.9474
       248.000         224.000
 124694638.62448 114956841.21448  25631552.5134   25631553.4064   25631551.4424
       204.000         138.000
 105483838.58548  99987397.37148  21975850.4254   21975852.6244   21975850.2474
       238.000         200.000
 134453634.42648  86976846.76148  23682748.0564   23682750.4434   23682748.6524
       218.000         162.000
 133529171.19148  86256484.94248  23506829.9714   23506831.9214   23506829.5644
       223.000         174.000
 133369210.41848  86131844.00648  23476386.1644   23476388.0694   23476385.8304
       226.000         182.000
 117243481.93448  73566344.61748  20407760.4484   20407761.6214   20407760.1094
       252.000         237.000
 113815515.83848 106479622.85648  23561308.8154   23561308.4084   23561309.0934
       225.000         175.000
 09  1 28  1 56  0.0000000  0  9G 5G 9G26G30G18G14G15G12G22
  98360784.48048  94436960.49748  20620382.2584   20620385.1114   20620383.0694
       251.000         223.000
 116011980.50348  72606726.61648  20173416.9714   20173419.6374   20173416.9764
       249.000         224.000
 124809427.17548 115046286.83148  25653395.7674   25653399.2074   25653395.3454
       190.000         133.000
 105403063.88848  99924456.06848  21960479.2574   21960481.6394   21960478.9184
       239.000         200.000
 134528943.52748  87035529.19548  23697079.7174   23697081.1644   23697080.0384
       218.000         163.000
 133434124.68648  86182422.74248  23488743.4654   23488745.4074   23488743.9014
       223.000         175.000
 133476126.98148  86215155.61448  23496732.0414   23496733.7744   23496731.5544
       227.000         180.000
 117233321.07648  73558427.06148  20405827.0364   20405828.1044   20405826.8384
       253.000         237.000
 113852094.17448 106508125.45048  23568269.4484   23568269.4504   23568269.6354
       226.000         177.000
 09  1 28  1 56 30.0000000  0  9G 5G 9G26G30G18G14G15G12G22
  98322725.82648  94407304.40748  20613139.9654   20613142.6954   20613140.9224
       250.000         223.000
 116042197.47848  72630272.30748  20179167.0834   20179170.1674   20179167.2724
       249.000         225.000
 124924209.62348 115135727.63348  25675238.4594   25675242.5194   25675237.9874
       192.000         134.000
 105322583.71648  99861744.25948  21945164.4684   21945166.9444   21945164.2584
       239.000         200.000
 134604472.37448  87094382.81548  23711452.4664   23711453.9194   23711452.9464
       221.000         164.000
 133339318.89448  86108548.06848  23470702.8874   23470703.7464   23470703.5554
       221.000         171.000
 133583222.21148  86298606.43248  23517111.5874   23517113.6504   23517111.7964
       225.000         181.000
 117223578.29548  73550835.28848  20403973.0094   20403974.0104   20403973.0394
       252.000         236.000
 113889104.96248 106536965.01748  23575312.5744   23575312.2214   23575312.6794
       225.000         176.000
 09  1 28  1 57  0.0000000  0  9G 5G 9G26G30G18G14G15G12G22
  98285075.90348  94377966.80848  20605975.5714   20605978.1684   20605976.1634
       251.000         223.000
 116072790.07248  72654110.67548  20184988.7314   20184991.7404   20184988.8204
       249.000         224.000
 125038983.44448 115225161.74048  25697078.1754   25697081.9384   25697078.1984
       198.000         137.000
 105242398.70948  99799262.45148  21929905.8834   21929908.2154   21929905.7474
       239.000         201.000
 134680217.66748  87153405.10948  23725866.5344   23725867.9814   23725867.1314
       224.000         165.000
 133244755.53648  86034862.33848  23452708.1644   23452709.6084   23452708.9164
       221.000         174.000
 133690493.03048  86382194.07248  23537524.6504   23537526.5354   23537523.9964
       225.000         181.000
 117214252.36948  73543568.33648  20402198.3194   20402199.4614   20402198.1744
       252.000         237.000
 113926545.54348 106566139.48248  23582437.0694   23582437.3334   23582437.7344
       222.000         174.000
 09  1 28  1 57 30.0000000  0  9G 5G 9G26G30G18G14G15G12G22
  98247835.36348  94348948.21448  20598888.6294   20598891.5194   20598889.0834
       250.000         223.000
 116103759.08148  72678242.37348  20190882.1364   20190884.5544   20190882.3764
       249.000         224.000
 125153747.29948 115314588.11248  25718916.6954   25718920.8314   25718916.5804
       203.000         139.000
 105162510.35148  99737011.79048  21914703.8004   21914705.8044   21914703.2984
       239.000         201.000
 134756176.80048  87212594.00748  23740321.2474   23740322.5414   23740321.9204
       222.000         164.000
 133150438.11748  85961368.25948  23434760.0264   23434761.7874   23434760.2244
       224.000         175.000
 133797937.76748  86465917.22048  23557970.7064   23557972.7424   23557970.3324
       224.000         180.000
 117205343.57648  73536626.42448  20400502.9744   20400504.1114   20400502.8544
       253.000         237.000
 113964414.49548 106595647.74348  23589643.3344   23589643.6004   23589642.3764
       222.000         173.000
 09  1 28  1 58  0.0000000  0  9G 5G 9G26G30G18G14G15G12G22
  98211004.01648  94320248.46948  20591879.9674   20591882.5874   20591880.5954
       250.000         223.000
 116135104.03148  72702666.99848  20196846.9514   20196849.7094   20196847.2174
       250.000         224.000
 125268499.35148 115404005.27248  25740754.0294   25740757.4084   25740754.9274
       198.000         134.000
 105082919.36048  99674992.85548  21899557.9864   21899560.2604   21899557.9304
       239.000         202.000
 134832346.51248  87271947.01848  23754814.7464   23754817.2734   23754815.6304
       217.000         162.000
 133056369.28448  85888067.85548  23416859.6784   23416861.0754   23416860.6304
       225.000         176.000
 133905554.32448  86549774.28048  23578449.6064   23578451.6014   23578448.8814
       224.000         179.000
 117196850.67548  73530008.58248  20398886.9754   20398888.0784   20398886.7334
       252.000         237.000
 114002709.49748 106625487.99148  23596930.2024   23596931.0914   23596930.3024
       219.000         173.000
 09  1 28  1 58 30.0000000  0  9G 5G 9G26G30G18G14G15G12G22
  98174582.58448  94291868.13948  20584949.1694   20584951.9954   20584949.8994
       249.000         223.000
 116166825.52848  72727385.03948  20202883.3714   20202885.5424   20202883.6914
       249.000         224.000
 125383238.43948 115493412.33248  25762589.9264   25762590.9394   25762589.2934
       202.000         135.000
 105003627.25048  99613206.80448  21884469.3274   21884471.5304   21884469.1464
       240.000         202.000
 134908724.32648  87331462.17548  23769349.0434   23769351.8764   23769349.2314
       215.000         161.000
 132962552.14848  85814963.61748  23399006.2834   23399008.4744   23399006.4344
       223.000         176.000
 134013341.17148  86633764.01448  23598960.8574   23598962.3144   23598960.5224
       224.000         179.000
 117188773.40148  73523714.60148  20397349.8364   20397350.8994   20397349.4554
       253.000         237.000
 114041429.08648 106655659.09048  23604298.1544   23604299.1514   23604298.9524
       222.000         172.000
 09  1 28  1 59  0.0000000  0  9G 5G 9G26G30G18G14G15G12G22
  98138570.66748  94263806.91048  20578096.2194   20578098.9924   20578096.3074
       250.000         223.000
 116198923.52548  72752396.45148  20208991.5374   20208993.8914   20208991.6514
       250.000         224.000
 125497962.32648 115582807.57348  25784419.0214   25784422.6174   25784420.8534
       196.000         134.000
 104924634.25848  99551653.84748  21869437.3414   21869439.5624   21869437.3264
       239.000         202.000
 134985306.75548  87391136.80548  23783922.0144   23783924.6704   23783922.2834
       215.000         161.000
 132868989.15248  85742057.37148  23381201.8534   23381204.0434   23381201.8934
       222.000         176.000
 134121295.36048  86717884.15148  23619503.5934   23619504.9134   23619503.4134
       222.000         175.000
 117181110.67648  73517743.65348  20395891.5814   20395892.6634   20395891.3874
       253.000         236.000
 114080570.89748 106686159.19448  23611747.0674   23611747.6804   23611747.6324
       221.000         172.000
 09  1 28  1 59 30.0000000  0  9G 5G 9G26G30G18G14G15G12G22
  98102968.33148  94236064.82748  20571321.3704   20571324.1204   20571321.9904
       250.000         223.000
 116231397.93148  72777701.17148  20215171.2864   20215173.4214   20215171.5454
       250.000         224.000
 125612669.16348 115672189.50048  25806246.9544   25806251.4584   25806245.6874
       200.000         138.000
 104845941.70848  99490334.97948  21854462.6994   21854464.7944   21854461.9764
       240.000         201.000
 135062091.15648  87450968.81048  23798533.6694   23798536.4734   23798533.9734
       218.000         161.000
 132775683.07648  85669351.35648  23363445.8114   23363448.5204   23363445.9984
       223.000         176.000
 134229414.99448  86802133.21248  23640078.1234   23640079.6424   23640077.9224
       223.000         175.000
 117173861.97648  73512095.31348  20394512.2984   20394513.3644   20394512.4044
       252.000         236.000
 114120133.03048 106716986.79148  23619275.6254   23619275.3344   23619275.9484
       221.000         171.000
 09  1 28  2  0  0.0000000  0  8G 5G 9G30G18G14G15G12G22
  98067774.87848  94208641.36748  20564624.2494   20564627.0614   20564624.9264
       249.000         223.000
 116264248.11748  72803298.71448  20221422.4424   20221424.5364   20221422.5794
       250.000         224.000
 104767549.80048  99429250.38548  21839545.0204   21839547.0624   21839545.1994
       239.000         202.000
 135139073.67148  87510955.22948  23813183.0574   23813185.9064   23813184.1644
       220.000         162.000
 132682635.89848  85596847.03948  23345740.0394   23345741.6534   23345740.3434
       223.000         175.000
 134337696.82148  86886508.64048  23660683.0214   23660685.4494   23660682.8934
       223.000         179.000
 117167025.78848  73506768.42048  20393211.3424   20393212.3104   20393211.3014
       252.000         236.000
 114160112.58648 106748139.69048  23626882.9994   23626883.4434   23626882.8354
       222.000         171.000
 09  1 28  2  0 30.0000000  0  8G 5G 9G30G18G14G15G12G22
  98032991.48648  94181537.43148  20558005.1614   20558008.0714   20558005.5514
       250.000         223.000
 116297475.36348  72829190.06248  20227745.2984   20227747.7474   20227745.3734
       250.000         224.000
 104689460.38448  99368401.50548  21824685.1294   21824687.3784   21824684.6504
       238.000         201.000
 135216252.39648  87571094.47748  23827870.2564   23827872.7144   23827870.5214
       219.000         163.000
 132589851.33748  85524547.40848  23328083.1954   23328085.7604   23328083.7954
       223.000         174.000
 134446140.15048  86971009.92948  23681319.5844   23681321.7544   23681319.0994
       226.000         181.000
 117160602.21148  73501763.04148  20391989.0474   20391989.9544   20391989.0054
       252.000         236.000
 114200508.61448 106779617.10448  23634570.2924   23634570.5564   23634571.0574
       223.000         172.000
 09  1 28  2  1  0.0000000  0  8G 5G 9G30G18G14G15G12G22
  97998616.61348  94154751.81548  20551463.9864   20551466.6334   20551464.3174
       250.000         223.000
 116331077.83248  72855373.80348  20234139.6384   20234141.9364   20234139.8144
       250.000         224.000
 104611672.74348  99307787.77748  21809882.5464   21809884.9914   21809882.3104
       240.000         202.000
 135293622.61348  87631382.95648  23842593.3954   23842595.5014   23842594.1384
       220.000         163.000
 132497330.88748  85452453.53348  23310477.4914   23310478.8844   23310478.2964
       224.000         176.000
 134554740.99248  87055633.94648  23701986.0284   23701987.9024   23701986.2384
       223.000         176.000
 117154588.82648  73497077.28748  20390844.7154   20390845.8474   20390844.5144
       252.000         237.000
 114241317.51748 106811416.22648  23642336.3084   23642336.1284   23642336.5934
       222.000         172.000
 09  1 28  2  1 30.0000000  0  8G 5G 9G30G18G14G15G12G22
  97964650.44248  94128284.66848  20545000.3974   20545003.2914   20545000.8924
       250.000         224.000
 116365055.88948  72881850.20448  20240605.4734   20240607.7844   20240605.7224
       250.000         224.000
 104534188.17248  99247410.19448  21795137.8544   21795139.8654   21795137.8404
       240.000         202.000
 135371181.66348  87691818.58448  23857352.2734   23857354.4974   23857352.1314
       219.000         161.000
 132405077.45748  85380567.74748  23292922.8014   23292923.9214   23292924.0794
       225.000         177.000
 134663497.48948  87140379.24448  23722681.2484   23722683.1154   23722681.0264
       223.000         175.000
 117148985.53048  73492711.08948  20389778.2984   20389779.5504   20389777.9974
       252.000         237.000
 114282537.75248 106843535.89148  23650179.5744   23650180.2464   23650179.7304
       222.000         170.000
 09  1 28  2  2  0.0000000  0  8G 5G 9G30G18G14G15G12G22
  97931093.18548  94102136.15248  20538614.8734   20538617.6084   20538615.6834
       250.000         224.000
 116399409.88548  72908619.54548  20247142.7304   20247145.0974   20247142.8604
       250.000         224.000
 104457007.81548  99187269.66148  21780450.7254   21780452.9344   21780450.3634
       240.000         202.000
 135448926.78548  87752399.15448  23872146.7024   23872148.3924   23872147.4164
       216.000         161.000
 132313093.76148  85308892.14548  23275418.5224   23275419.9344   23275419.8134
       222.000         176.000
 134772407.47248  87225244.17448  23743406.6434   23743407.7764   23743406.2714
       223.000         176.000
 117143791.62248  73488663.89248  20388789.9784   20388791.2424   20388789.7504
       252.000         237.000
 114324166.79548 106875974.08748  23658101.4434   23658101.8584   23658102.2454
       220.000         172.000
 09  1 28  2  2 30.0000000  0  8G 5G 9G30G18G14G15G12G22
  97897944.82648  94076306.26148  20532306.7114   20532309.6114   20532307.3944
       250.000         224.000
 116434139.75448  72935681.76748  20253751.6124   20253753.9724   20253751.6744
       250.000         224.000
 104380132.50648  99127366.82148  21765822.0494   21765824.3094   21765821.7994
       240.000         203.000
 135526855.02548  87813122.44748  23886975.7414   23886977.4444   23886976.3714
       220.000         160.000
 132221382.81748  85237429.06948  23257965.9864   23257967.6654   23257966.7394
       224.000         175.000
 134881469.10448  87310227.25648  23764160.3204   23764161.6004   23764160.9594
       222.000         176.000
 117139006.12748  73484934.93448  20387879.3924   20387880.4734   20387879.4854
       252.000         236.000
 114366202.91748 106908729.48548  23666100.8654   23666101.4494   23666101.2684
       220.000         172.000
 09  1 28  2  3  0.0000000  0  8G 5G 9G30G18G14G15G12G22
  97865205.70848  94050795.26548  20526076.7544   20526079.6134   20526077.1434
       250.000         223.000
 116469245.99248  72963037.27848  20260432.1554   20260434.6364   20260432.3784
       250.000         224.000
 104303563.23948  99067702.47948  21751251.4784   21751253.6134   21751251.3604
       240.000         204.000
 135604963.37048  87873986.07848  23901839.4114   23901841.4824   23901840.1924
       217.000         157.000
 132129947.61848  85166180.87448  23240566.7674   23240568.7074   23240567.2374
       224.000         176.000
 134990680.10448  87395326.74048  23784941.9214   23784944.4434   23784940.9344
       221.000         176.000
 117134628.46348  73481523.77148  20387046.2684   20387047.3654   20387046.4424
       252.000         236.000
 114408644.41048 106941800.74848  23674177.3554   23674178.0574   23674177.5264
       220.000         173.000
 09  1 28  2  3 30.0000000  0  8G 5G 9G30G18G14G15G12G22
  97832876.43048  94025603.62548  20519924.6534   20519927.2514   20519925.1274
       249.000         223.000
 116504729.05448  72990686.41848  20267184.3944   20267186.8954   20267184.5864
       251.000         224.000
 104227301.79648  99008277.99748  21736739.0104   21736741.5544   21736738.4094
       240.000         204.000
 135683249.53748  87934988.28048  23916736.4334   23916738.5234   23916736.6134
       215.000         156.000
 132038791.69348  85095150.27148  23223220.3604   23223222.4414   23223220.1064
       224.000         177.000
 135100039.18948  87480541.60248  23805752.0844   23805754.6264   23805751.7344
       222.000         176.000
 117130658.31548  73478430.15548  20386290.7114   20386292.1014   20386290.6974
       252.000         237.000
 114451489.85848 106975186.78748  23682329.9154   23682330.9524   23682329.9554
       218.000         170.000
 09  1 28  2  4  0.0000000  0  8G 5G 9G30G18G14G15G12G22
  97800955.04248  94000729.81748  20513850.2404   20513852.9134   20513850.1814
       250.000         224.000
 116540586.78648  73018627.49548  20274007.8804   20274010.4464   20274008.1654
       250.000         224.000
 104151347.24148  98949092.64048  21722285.7364   21722287.8144   21722285.4174
       241.000         205.000
 135761708.80648  87996125.39448  23931667.0404   23931668.4364   23931667.1064
       215.000         157.000
 131947915.68248  85024337.80748  23205927.0244   23205929.4864   23205926.5764
       222.000         176.000
 135209542.06148  87565868.48048  23826589.7524   23826592.7444   23826589.8824
       216.000         173.000
 117127093.48848  73475652.36848  20385612.4654   20385613.5954   20385612.5934
       253.000         236.000
 114494734.23348 107008883.65748  23690559.3884   23690560.2804   23690558.9564
       218.000         171.000
 09  1 28  2  4 30.0000000  0  8G 5G 9G30G18G14G15G12G22
  97769443.15348  93976175.09848  20507853.7714   20507856.5494   20507854.4444
       250.000         224.000
 116576821.41048  73046862.25648  20280902.9914   20280905.6424   20280903.1294
       250.000         224.000
 104075702.00248  98890148.30348  21707890.9264   21707892.6454   21707890.7334
       242.000         205.000
 135840340.10448  88057396.53948  23946630.4274   23946631.6704   23946630.7704
       217.000         158.000
 131857324.31648  84953747.10448  23188688.5254   23188690.0814   23188687.8424
       223.000         178.000
 135319188.30548  87651307.09548  23847454.8164   23847457.3814   23847453.5984
       218.000         173.000
 117123934.64348  73473190.92648  20385011.4564   20385012.5314   20385011.7014
       252.000         236.000
 114538377.73948 107042891.56948  23698864.5584   23698865.2974   23698865.0614
       219.000         170.000
 09  1 28  2  5  0.0000000  0  8G 5G 9G30G18G14G15G12G22
  97738338.63448  93951937.81448  20501934.7894   20501937.5284   20501935.3624
       250.000         224.000
 116613430.63248  73075388.92648  20287869.4844   20287872.0764   20287869.5934
       250.000         224.000
 104000364.52348  98831443.78548  21693554.5764   21693556.5274   21693554.3984
       241.000         205.000
 135919138.16148  88118797.59848  23961624.8184   23961626.7504   23961625.3304
       220.000         158.000
 131767018.22648  84883378.74448  23171503.4954   23171505.6694   23171504.2764
       223.000         175.000
 135428973.55248  87736854.06048  23868346.4494   23868348.3254   23868346.5114
       220.000         172.000
 117121178.80648  73471043.52248  20384486.8894   20384488.0864   20384486.8164
       252.000         236.000
 114582416.05148 107077207.12548  23707245.4134   23707244.7204   23707245.3574
       221.000         171.000
 09  1 28  2  5 30.0000000  0  6G30G18G14G15G12G22
 103925336.09248  98772980.08348  21679277.0264   21679279.0964   21679277.1424
       240.000         204.000
 135998099.92348  88180326.23848  23976650.5874   23976652.4724   23976651.3574
       214.000         155.000
 131677000.26548  84813234.86648  23154373.5464   23154375.4074   23154373.7844
       223.000         176.000
 135538895.75148  87822507.71048  23889264.0274   23889265.9904   23889263.5784
       220.000         172.000
 117118825.24548  73469209.57448  20384039.0284   20384040.2014   20384038.8064
       252.000         236.000
 114626847.16948 107111828.75248  23715699.7884   23715700.1364   23715700.4544
       222.000         171.000
 09  1 28  2  6  0.0000000  0  8G 5G 9G30G18G14G15G12G22
  97677352.52548  93904416.17548  20490329.4704   20490332.2504   20490330.0874
       251.000         224.000
 116687773.38548  73133318.32248  20302016.5434   20302019.0644   20302016.7424
       251.000         225.000
 103850618.41648  98714758.52348  21665058.4594   21665060.6784   21665058.1924
       239.000         204.000
 136077223.06948  88241980.61948  23991707.1054   23991709.5334   23991707.5304
       215.000         155.000
 131587274.01148  84743318.31948  23137299.3014   23137301.2254   23137299.4384
       222.000         177.000
 135648953.46148  87908266.97448  23910206.7774   23910209.0854   23910205.5784
       216.000         168.000
 117116873.88048  73467689.03048  20383667.6904   20383668.9354   20383667.5324
       252.000         236.000
 114671669.64248 107146755.33948  23724229.7654   23724229.8364   23724230.1714
       222.000         173.000
 09  1 28  2  6 30.0000000  0  8G 5G 9G30G18G14G15G12G22
  97647471.88148  93881132.55848  20484643.4254   20484646.0774   20484644.1304
       250.000         224.000
 116725508.24448  73162722.10148  20309197.2974   20309199.8094   20309197.5744
       250.000         225.000
 103776212.20048  98656779.66848  21650899.6344   21650901.7874   21650899.4634
       240.000         205.000
 136156505.03448  88303758.78148  24006794.1244   24006796.1244   24006794.7964
       212.000         153.000
 131497842.38948  84673631.32848  23120281.1024   23120282.9814   23120281.3244
       225.000         177.000
 135759144.56648  87994130.17548  23931175.3814   23931177.7574   23931174.8564
       214.000         170.000
 117115324.12448  73466481.43048  20383372.7184   20383373.9784   20383372.6594
       252.000         237.000
 114716881.21848 107181985.13048  23732833.0514   23732833.5834   23732833.0694
       223.000         173.000
 09  1 28  2  7  0.0000000  0  8G 5G 9G30G18G14G15G12G22
  97617997.94648  93858165.85848  20479034.6514   20479037.3754   20479035.3954
       250.000         224.000
 116763617.15948  73192417.35048  20316449.1114   20316451.8114   20316449.2084
       251.000         225.000
 103702116.90548  98599043.08848  21636799.7324   21636802.0084   21636799.6774
       240.000         206.000
 136235941.19248  88365657.10648  24021910.4774   24021912.6124   24021910.9334
       210.000         150.000
 131408706.76148  84604175.00148  23103319.1084   23103320.6814   23103319.8094
       223.000         177.000
 135869465.44648  88080094.48248  23952168.9684   23952171.5424   23952168.5224
       218.000         172.000
 117114172.54348  73465584.09248  20383153.6154   20383154.9154   20383153.2624
       251.000         237.000
 114762478.36648 107217515.35848  23741509.9754   23741510.3644   23741509.7064
       223.000         173.000
 09  1 28  2  7 30.0000000  0  8G 5G 9G30G18G14G15G12G22
  97588930.74448  93835516.10048  20473503.2254   20473506.0114   20473504.0324
       250.000         224.000
 116802100.00748  73222403.97448  20323772.2574   20323774.8184   20323772.4824
       250.000         224.000
 103628333.42748  98541549.47848  21622759.2364   21622761.2064   21622759.0004
       241.000         206.000
 136315528.68048  88427673.28648  24037055.0204   24037057.9814   24037055.5144
       213.000         152.000
 131319869.97948  84534951.54148  23086413.9704   23086416.0154   23086414.0624
       226.000         177.000
 135979914.25948  88166158.48148  23973187.3074   23973188.9474   23973187.3544
       223.000         171.000
 117113420.17148  73464997.82648  20383010.4924   20383011.7554   20383009.9684
       252.000         237.000
 114808458.92448 107253344.34448  23750259.9014   23750260.4234   23750260.2104
       220.000         172.000
 09  1 28  2  8  0.0000000  0  8G 5G 9G30G18G14G15G12G22
  97560270.97448  93813183.80848  20468049.5584   20468052.2144   20468050.1554
       250.000         224.000
 116840957.73548  73252682.71748  20331166.5324   20331169.1284   20331166.6054
       250.000         224.000
 103554863.43948  98484300.16048  21608778.2974   21608780.6144   21608778.3054
       241.000         206.000
 136395265.53448  88489805.90148  24052229.0014   24052230.9504   24052230.0274
       217.000         155.000
 131231335.82248  84465963.86948  23069567.0884   23069568.4594   23069567.4524
       226.000         179.000
 136090489.53248  88252321.03648  23994229.0674   23994230.6414   23994229.7994
       221.000         170.000
 117113066.32248  73464722.10348  20382943.1004   20382944.4474   20382942.8314
       252.000         237.000
 114854821.31148 107289470.85848  23759081.7224   23759082.2094   23759081.1914
       221.000         172.000
 09  1 28  2  8 30.0000000  0  8G 5G 9G30G18G14G15G12G22
  97532018.04448  93791168.54248  20462673.1944   20462675.9414   20462673.6334
       250.000         224.000
 116880189.81748  73283253.16048  20338632.1904   20338634.7864   20338632.5334
       250.000         224.000
 103481707.20348  98427295.31248  21594856.9464   21594859.4694   21594856.7394
       243.000         206.000
 136475148.31348  88552052.24548  24067430.2714   24067432.1024   24067430.7734
       214.000         153.000
 131143106.24048  84397213.55448  23052777.2354   23052779.0234   23052777.1724
       225.000         179.000
 136201188.30648  88338579.83148  24015294.2074   24015295.7084   24015294.5524
       221.000         169.000
 117113109.30348  73464755.59148  20382951.3904   20382952.5274   20382950.8434
       252.000         237.000
 114901562.77048 107325892.74448  23767976.6004   23767977.5214   23767976.2754
       220.000         171.000
 09  1 28  2  9  0.0000000  0  8G 5G 9G30G18G14G15G12G22
  97504172.44748  93769470.68048  20457374.3304   20457377.1554   20457374.8094
       250.000         224.000
 116919797.02648  73314115.91448  20346169.1414   20346171.7274   20346169.3924
       249.000         224.000
 103408866.58548  98370536.39948  21580996.1504   21580998.1824   21580995.9744
       243.000         207.000
 136555174.70748  88614410.45848  24082658.6944   24082660.5614   24082658.4914
       213.000         150.000
 131055184.94048  84328703.44948  23036046.4164   23036048.1134   23036046.2324
       227.000         179.000
 136312008.99248  88424933.61148  24036382.5674   24036385.0134   24036382.6944
       219.000         169.000
 117113548.93448  73465098.16048  20383034.9504   20383036.1664   20383034.6184
       252.000         237.000
 114948681.83848 107362608.89248  23776943.2754   23776943.5124   23776943.6934
       221.000         170.000
 09  1 28  2  9 30.0000000  0  8G 5G 9G30G18G14G15G12G22
  97476732.97348  93748089.26848  20452152.9224   20452155.5144   20452153.3214
       250.000         224.000
 116959778.07248  73345269.96548  20353777.3474   20353779.9984   20353777.3794
       250.000         224.000
 103336341.00648  98314022.95748  21567195.2254   21567197.1104   21567194.8864
       243.000         208.000
 136635340.06148  88676876.97648  24097912.5014   24097915.4254   24097914.3264
       212.000         152.000
 130967573.62648  84260434.89648  23019374.4994   23019376.3094   23019375.2304
       229.000         180.000
 136422948.57248  88511380.00248  24057493.8124   24057496.0354   24057494.1714
       216.000         169.000
 117114383.15148  73465748.19548  20383193.8844   20383194.9924   20383193.7894
       252.000         237.000
 114996174.93648 107399616.45748  23785980.9624   23785980.7964   23785980.2454
       222.000         169.000
 09  1 28  2 10  0.0000000  0  8G 5G 9G30G18G14G15G12G22
  97449700.23048  93727024.80148  20447008.6884   20447011.3994   20447009.2304
       250.000         224.000
 117000133.59948  73376715.82248  20361456.8824   20361459.4294   20361457.1194
       250.000         224.000
 103264132.15848  98257756.33848  21553454.2754   21553456.3144   21553454.3224
       243.000         208.000
 136715642.69848  88739450.41948  24113194.2974   24113195.9464   24113194.9734
       217.000         154.000
 130880275.77648  84192410.60148  23002762.1354   23002764.0024   23002763.8514
       229.000         181.000
 136534005.57348  88597917.90748  24078627.0394   24078629.4734   24078627.1204
       216.000         169.000
 117115612.00248  73466705.74748  20383427.5544   20383428.8664   20383427.2934
       253.000         238.000
 115044040.37248 107436914.22148  23795089.4254   23795089.8724   23795090.7754
       220.000         170.000
 09  1 28  2 10 30.0000000  0  8G 5G 9G30G18G14G15G12G22
  97423072.56748  93706275.97548  20441941.5004   20441944.2434   20441942.0584
       250.000         224.000
 117040862.15648  73408452.35248  20369207.1774   20369209.7724   20369207.4174
       249.000         224.000
 103192239.38448  98201736.00548  21539773.5994   21539775.5414   21539773.2644
       243.000         208.000
 136796077.72848  88802127.05348  24128500.8084   24128501.9274   24128501.3454
       212.000         150.000
 130793292.76848  84124631.63148  22986209.9754   22986211.5694   22986211.4514
       229.000         180.000
 136645176.09548  88684544.28848  24099782.3624   24099784.8024   24099781.9704
       220.000         171.000
 117117232.99648  73467968.85348  20383736.1554   20383737.3264   20383735.9914
       252.000         238.000
 115092274.69548 107474499.40148  23804268.2894   23804268.5354   23804268.0544
       222.000         168.000
 09  1 28  2 11  0.0000000  0  8G 5G 9G30G18G14G15G12G22
  97396851.95148  93685844.33048  20436951.8644   20436954.6364   20436952.9244
       251.000         224.000
 117081965.84548  73440481.19548  20377028.8724   20377031.4784   20377028.9494
       250.000         223.000
 103120665.20848  98145963.94548  21526153.2224   21526155.6204   21526153.3524
       243.000         208.000
 136876644.19448  88864906.15448  24143831.5934   24143832.8724   24143832.1824
       207.000         146.000
 130706629.26848  84057101.63948  22969718.0214   22969719.6784   22969718.7414
       227.000         179.000
 136756459.98048  88771258.97648  24120958.9084   24120960.9044   24120958.6364
       213.000         163.000
 117119247.01348  73469538.22648  20384119.2544   20384120.6084   20384118.8504
       253.000         238.000
 115140877.53848 107512371.74448  23813516.6254   23813517.8144   23813517.5434
       221.000         168.000
 09  1 28  2 11 30.0000000  0  9G 5G 9G30G18G14G15G12G29G22
  97371036.48248  93665728.37848  20432039.5454   20432042.2224   20432040.5364
       250.000         225.000
 117123442.78248  73472800.87548  20384921.7074   20384924.2374   20384921.9894
       249.000         223.000
 103049408.58248  98090439.31748  21512593.2814   21512595.6974   21512593.2134
       243.000         208.000
 136957337.47848  88927784.03148  24159187.1244   24159188.7254   24159187.3264
       208.000         146.000
 130620286.40348  83989821.50048  22953287.5064   22953289.5144   22953287.7914
       224.000         180.000
 136867853.47948  88858059.10048  24142156.8004   24142157.2924   24142155.2274
       213.000         161.000
 117121651.45348  73471411.81348  20384576.9694   20384578.0824   20384576.8914
       253.000         238.000
 139421355.64358  90847802.81558  24628071.3075   24628072.7345   24628071.2095
       215.000         156.000
 115189844.74248 107550527.99048  23822835.0164   23822835.8724   23822835.2554
       219.000         165.000
 09  1 28  2 12  0.0000000  0  9G 5G 9G30G18G14G15G12G29G22
  97345626.72648  93645928.57348  20427204.0934   20427206.9174   20427204.6334
       250.000         224.000
 117165293.71248  73505411.98548  20392885.6834   20392888.2744   20392885.6344
       249.000         223.000
 102978471.09448  98035163.36148  21499094.4524   21499096.4644   21499094.1064
       242.000         208.000
 137038155.85448  88990759.40248  24174566.4444   24174568.2554   24174568.1184
       211.000         151.000
 130534268.00148  83922794.17348  22936919.0024   22936920.6054   22936919.9604
       228.000         180.000
 136979354.64748  88944943.12348  24163374.5854   24163375.7774   24163374.2204
       215.000         164.000
 117124446.89648  73473590.08048  20385108.8934   20385110.0714   20385109.0764
       253.000         238.000
 139308033.89448  90759500.14048  24606506.9424   24606506.3694   24606506.6184
       213.000         151.000
 115239174.80648 107588967.01748  23832222.5834   23832222.8504   23832223.4204
       218.000         163.000
 09  1 28  2 12 30.0000000  0  9G 5G 9G30G18G14G15G12G29G22
  97320621.14148  93626443.70548  20422445.6584   20422448.5454   20422446.0224
       250.000         225.000
 117207517.01848  73538313.25948  20400920.3784   20400923.0594   20400920.6114
       248.000         223.000
 102907852.36848  97980135.79948  21485656.0764   21485658.2054   21485655.5414
       244.000         209.000
 137119094.81348  89053828.68548  24189968.6864   24189970.8784   24189968.8294
       212.000         154.000
 130448575.35148  83856020.68048  22920612.4034   22920613.5874   22920613.3524
       229.000         180.000
 137090960.58548  89031908.79048  24184612.5174   24184614.3164   24184612.6994
       219.000         171.000
 117127630.45248  73476070.77048  20385714.6214   20385715.8134   20385714.9414
       253.000         237.000
 139194720.34948  90671203.84748  24584943.8944   24584943.3284   24584943.2734
       217.000         156.000
 115288864.08148 107627685.89248  23841677.9804   23841678.1774   23841676.5334
       216.000         161.000
 09  1 28  2 13  0.0000000  0  9G 5G 9G30G18G14G15G12G29G22
  97296020.91848  93607274.70248  20417764.4954   20417767.3094   20417765.1554
       250.000         225.000
 117250114.20948  73571505.87348  20409026.3684   20409028.9414   20409026.4664
       250.000         223.000
 102837554.47648  97925358.22648  21472278.9774   21472281.2354   21472278.7714
       244.000         209.000
 137200152.54748  89116990.52848  24205393.7164   24205395.9954   24205393.6814
       212.000         153.000
 130363212.32848  83789504.03748  22904368.3104   22904369.8534   22904368.2544
       228.000         181.000
 137202670.29348  89118955.31948  24205870.3404   24205872.0784   24205870.1014
       221.000         174.000
 117131202.47648  73478854.16348  20386394.3194   20386395.5724   20386394.1694
       252.000         237.000
 139081419.31348  90582917.37748  24563383.2534   24563385.3914   24563384.2634
       219.000         160.000
 115338911.24948 107666683.63448  23851201.1244   23851202.6044   23851202.5044
       209.000         156.000
 09  1 28  2 13 30.0000000  0  9G 5G 9G30G18G14G15G12G29G22
  97271825.48648  93588421.12348  20413160.2094   20413163.0244   20413160.7634
       250.000         225.000
 117293084.50848  73604989.21348  20417203.5094   20417206.0384   20417203.7654
       249.000         223.000
 102767577.61148  97870830.80648  21458962.8174   21458964.8844   21458962.7634
       244.000         210.000
 137281325.79248  89180242.41848  24220840.5354   24220841.9584   24220841.3984
       210.000         149.000
 130278181.51948  83723246.26948  22888187.4334   22888189.1474   22888186.5434
       228.000         181.000
 137314480.89148  89206080.43148  24227146.9094   24227149.2654   24227146.7564
       214.000         167.000
 117135161.46448  73481939.09048  20387147.7034   20387148.9384   20387147.6084
       253.000         238.000
 138968132.62148  90494642.04948  24541825.9274   24541827.7154   24541827.0224
       218.000         161.000
 115389313.59548 107705958.19248  23860792.7154   23860792.4924   23860792.3064
       212.000         157.000
