     2.11           OBSERVATION DATA    G (GPS)             RINEX VERSION / TYPE
teqc  2008Oct2      gpsops              20090106 00:05:40UTCPGM / RUN BY / DATE
    30.0000                                                 INTERVAL
     1     1                                                WAVELENGTH FACT L1/2
     7    L1    L2    P1    P2    C1    S1    S2            # / TYPES OF OBSERV
Linux 2.4.20-8|Pentium IV|gcc -static|Linux|486/DX+         COMMENT
     2.10           OBSERVATION DATA    GPS                 COMMENT
soc2rnx ver 1.20    gpsops               6-Jan-2009 00:05:38COMMENT
S1, if present, is the SNR for the C/A data stream on L1.   COMMENT
 SNR is mapped to RINEX snr flag value [1,4-9]              COMMENT
    SNR:   >316  >100  >31.6  >10  >3.2    >0 bad=0         COMMENT
L1 & L2:      9     8     7     6     5     4     1         COMMENT
                                                            COMMENT
This data is provided as a public service by NASA/JPL.      COMMENT
No warranty is expressed or implied regarding suitability   COMMENT
for use.  For further information, contact:                 COMMENT
Dave Stowers, NASA/JPL m/s 238-600                          COMMENT
4800 Oak Grove Drive, Pasadena CA 91109 USA                 COMMENT
                                                            COMMENT
Forced Modulo Decimation to 30 seconds                      COMMENT
  2009     1     5     0     0    0.0000000     GPS         TIME OF FIRST OBS
DSN                 JPL                                     OBSERVER / AGENCY
451-U               AOAD/M_T        NONE                    ANT # / TYPE
  4849202.3940  -360328.9929  4114913.1862                  APPROX POSITION XYZ
        0.0254        0.0000        0.0000                  ANTENNA: DELTA H/E/N
LP03574             ASHTECH Z-XII3      CC00                REC # / TYPE / VERS
MADR                                                        MARKER NAME
13407S012                                                   MARKER NUMBER
                                                            END OF HEADER
 09  1  5  0  0  0.0000000  0  9G24G26G 9G28G21G10G15G 8G27
 127563283.64448  99399942.37348  24274500.8434   24274506.0754   24274501.1754
       215.000         160.000
 105564785.96548  82258257.26348  20088325.4144   20088327.7684   20088325.4994
       251.000         229.000
 123191396.07448  95993265.10348  23442569.2714   23442571.8754   23442569.9404
       225.000         172.000
 114609979.96348  89306471.66048  21809558.8654   21809560.9024   21809560.0964
       242.000         209.000
 128469807.61048 100106366.99448  24446973.0104   24446974.6354   24446972.9854
       215.000         158.000
 113917821.95648  88767117.48348  21677853.5164   21677857.2944   21677854.1234
       243.000         209.000
 110609711.05748  86189376.74248  21048334.9484   21048336.3764   21048334.4554
       250.000         228.000
 121305426.30748  94523699.98048  23083662.6474   23083665.3964   23083662.3694
       228.000         183.000
 121244348.35248  94476094.78048  23072049.7614   23072052.2614   23072050.6104
       233.000         193.000
 09  1  5  0  0 30.0000000  0  9G24G26G 9G28G21G10G15G 8G27
 127630612.07348  99452406.07448  24287313.5754   24287317.6944   24287313.5904
       214.000         161.000
 105561474.48048  82255676.88548  20087695.2934   20087697.6844   20087695.1084
       252.000         229.000
 123093524.09348  95917001.24348  23423945.1794   23423948.4444   23423945.2984
       225.000         172.000
 114630248.72048  89322265.51048  21813415.6804   21813417.7844   21813416.0704
       241.000         210.000
 128478498.05948 100113138.74348  24448626.6164   24448628.3474   24448627.0874
       216.000         159.000
 114001109.67248  88832016.98948  21693702.8614   21693706.4424   21693703.2154
       241.000         209.000
 110561333.38048  86151679.84948  21039128.7504   21039130.5074   21039128.3364
       249.000         228.000
 121391679.45348  94590910.22048  23100075.6104   23100079.2324   23100076.5014
       227.000         183.000
 121315215.10248  94531315.62248  23085535.3974   23085537.8984   23085535.6974
       233.000         194.000
 09  1  5  0  1  0.0000000  0  9G24G26G 9G28G21G10G15G 8G27
 127698154.48148  99505036.52448  24300166.1954   24300170.2894   24300166.3494
       215.000         161.000
 105558525.77048  82253379.17948  20087134.2454   20087136.5314   20087134.2854
       251.000         228.000
 122995831.11948  95840876.86048  23405355.0704   23405358.1154   23405355.3274
       226.000         172.000
 114651039.80448  89338466.35848  21817372.1494   21817374.2334   21817372.8714
       241.000         209.000
 128487673.44348 100120288.36048  24450373.0004   24450374.5334   24450373.8944
       210.000         156.000
 114084767.49848  88897204.88948  21709622.4164   21709625.9724   21709623.0374
       243.000         209.000
 110513196.87948  86114170.88648  21029968.6384   21029970.6594   21029968.1674
       250.000         228.000
 121478036.36048  94658201.30048  23116509.0584   23116512.5374   23116509.2634
       227.000         183.000
 121386135.71048  94586578.42848  23099031.1934   23099033.8804   23099031.8584
       232.000         193.000
 09  1  5  0  1 30.0000000  0  9G24G26G 9G28G21G10G15G 8G27
 127765909.59048  99557832.69148  24313059.7934   24313063.1184   24313059.8644
       217.000         159.000
 105555941.57048  82251365.50748  20086642.4354   20086644.7534   20086642.3284
       251.000         228.000
 122898319.49048  95764893.78848  23386798.8854   23386802.0334   23386799.2474
       226.000         172.000
 114672353.57248  89355074.49148  21821428.2834   21821430.1984   21821428.6074
       242.000         210.000
 128497334.27648 100127816.26148  24452210.5554   24452212.2894   24452210.7604
       210.000         153.000
 114168794.61848  88962680.55948  21725612.0244   21725615.7974   21725613.1164
       241.000         208.000
 110465303.98348  86076851.75148  21020855.0684   21020856.7084   21020854.8254
       250.000         228.000
 121564496.99448  94725573.22648  23132962.1004   23132965.1754   23132962.9544
       227.000         183.000
 121457110.55848  94641883.49248  23112537.1504   23112540.1304   23112537.0744
       234.000         192.000
 09  1  5  0  2  0.0000000  0  9G24G26G 9G28G21G10G15G 8G27
 127833874.13348  99610792.06548  24325992.8704   24325996.8294   24325993.2194
       217.000         159.000
 105553722.50548  82249636.36048  20086220.2594   20086222.4584   20086220.0644
       251.000         228.000
 122800989.89248  95689052.55348  23368278.3734   23368280.3284   23368278.8224
       228.000         173.000
 114694188.89248  89372089.03048  21825583.1964   21825585.3744   21825583.8474
       241.000         209.000
 128507479.31348 100135721.46048  24454141.4214   24454142.9834   24454140.2004
       211.000         155.000
 114253188.74848  89028442.20248  21741671.6594   21741675.4864   21741672.2884
       241.000         208.000
 110417655.83448  86039723.33148  21011787.9654   21011789.5324   21011787.8124
       250.000         229.000
 121651059.63548  94793024.62148  23149434.3674   23149437.7344   23149434.2044
       227.000         184.000
 121528138.67148  94697230.06248  23126053.3374   23126056.2154   23126053.7854
       231.000         192.000
 09  1  5  0  2 30.0000000  0  9G24G26G 9G28G21G10G15G 8G27
 127902045.01948  99663912.22648  24338965.3324   24338969.1484   24338965.0174
       215.000         157.000
 105551869.11848  82248192.15648  20085867.5734   20085869.8634   20085867.5114
       251.000         228.000
 122703843.63348  95613354.16748  23349792.0144   23349793.9744   23349791.8744
       229.000         172.000
 114716544.86648  89389509.26748  21829837.6094   21829839.5154   21829837.9184
       242.000         209.000
 128518107.06748 100144002.81348  24456164.6564   24456165.5384   24456163.8774
       210.000         154.000
 114337947.85648  89094488.25348  21757800.9634   21757804.7354   21757801.5344
       241.000         207.000
 110370253.86848  86002786.73348  21002767.7444   21002769.3674   21002767.5054
       250.000         229.000
 121737723.09848  94860554.57748  23165925.9684   23165929.4254   23165927.1144
       228.000         183.000
 121599218.93848  94752617.29148  23139579.4694   23139582.0454   23139580.0894
       231.000         191.000
 09  1  5  0  3  0.0000000  0  9G24G26G 9G28G21G10G15G 8G27
 127970419.24248  99717190.81548  24351976.2154   24351980.4844   24351976.9634
       209.000         153.000
 105550381.78948  82247033.20848  20085584.6004   20085586.8754   20085584.5364
       252.000         229.000
 122606881.39348  95537799.20048  23331340.7214   23331343.0124   23331341.3294
       228.000         176.000
 114739420.69848  89407334.59848  21834190.6584   21834192.5734   21834191.2874
       240.000         209.000
 128529216.49748 100152659.51848  24458277.8914   24458280.0354   24458278.1874
       210.000         154.000
 114423069.14048  89160816.51248  21773998.8524   21774002.5364   21773999.2004
       241.000         207.000
 110323098.91948  85966042.61948  20993794.3534   20993796.1824   20993793.9434
       250.000         229.000
 121824485.42448  94928161.57448  23182436.3304   23182439.5504   23182436.5794
       228.000         182.000
 121670350.12648  94808044.18448  23153115.2874   23153117.9064   23153115.5664
       232.000         191.000
 09  1  5  0  3 30.0000000  0  9G24G26G 9G28G21G10G15G 8G27
 128038994.02748  99770625.68348  24365025.3954   24365029.4384   24365024.9774
       215.000         154.000
 105549260.88348  82246159.77548  20085371.3064   20085373.6434   20085371.4794
       251.000         229.000
 122510103.76448  95462388.10148  23312924.1454   23312927.4024   23312924.1804
       227.000         176.000
 114762815.19748  89425564.08248  21838642.3034   21838644.3454   21838642.8334
       241.000         209.000
 128540806.59448 100161690.75248  24460484.1854   24460485.8304   24460485.5294
       210.000         156.000
 114508550.33848  89227425.21748  21790265.3814   21790269.0104   21790266.2684
       241.000         206.000
 110276192.44848  85929492.11948  20984868.2624   20984869.9904   20984867.9534
       250.000         229.000
 121911345.23948  94995844.54148  23198965.0114   23198967.8604   23198965.5744
       228.000         180.000
 121741531.65648  94863510.29148  23166660.4894   23166663.6564   23166660.8564
       229.000         191.000
 09  1  5  0  4  0.0000000  0  9G24G26G 9G28G21G10G15G 8G27
 128107766.29348  99824214.44948  24378113.1334   24378116.6704   24378113.7094
       213.000         154.000
 105548506.74648  82245572.12548  20085227.7544   20085230.0924   20085227.7694
       251.000         228.000
 122413511.28048  95387121.23148  23294543.3034   23294546.4124   23294543.4384
       228.000         175.000
 114786727.47948  89444197.02848  21843192.7914   21843194.6284   21843193.0644
       242.000         209.000
 128552875.27648 100171094.86648  24462780.5864   24462781.8974   24462781.6614
       218.000         160.000
 114594388.67048  89294312.21748  21806599.7294   21806603.5414   21806600.9504
       241.000         207.000
 110229535.29648  85893135.90048  20975989.7444   20975991.3334   20975989.5284
       250.000         229.000
 121998300.67848  95063602.02548  23215511.8444   23215515.0744   23215512.6764
       227.000         180.000
 121812762.36548  94919014.73948  23180214.9254   23180218.2294   23180215.1364
       229.000         189.000
 09  1  5  0  4 30.0000000  0  9G24G26G 9G28G21G10G15G 8G27
 128176733.63948  99877955.21348  24391237.9644   24391240.9704   24391237.8894
       212.000         156.000
 105548120.17948  82245270.90148  20085154.1164   20085156.4274   20085154.0114
       251.000         229.000
 122317105.29548  95311999.71648  23276197.6684   23276201.0654   23276198.0864
       226.000         176.000
 114811157.07948  89463233.09248  21847841.6684   21847843.5184   21847842.0834
       241.000         209.000
 128565421.83648 100180871.40648  24465168.1844   24465169.6054   24465171.0764
       214.000         161.000
 114680582.41448  89361476.16048  21823002.2244   21823005.6734   21823003.0934
       241.000         207.000
 110183129.11948  85856975.24448  20967159.0814   20967160.6254   20967158.8304
       250.000         229.000
 122085350.50748  95131433.03748  23232077.1354   23232080.6224   23232077.4674
       229.000         180.000
 121884041.37848  94974556.81548  23193779.0964   23193782.0524   23193779.0344
       231.000         189.000
 09  1  5  0  5  0.0000000  0  9G24G26G 9G28G21G10G15G 8G27
 128245893.56248  99931846.03348  24404397.7484   24404401.4874   24404397.6314
       210.000         152.000
 105548102.30048  82245256.95748  20085150.8264   20085153.0714   20085150.7714
       251.000         228.000
 122220887.32848  95237024.68648  23257887.8274   23257891.3534   23257887.8944
       227.000         176.000
 114836102.61248  89482671.16848  21852588.7614   21852590.5834   21852589.1364
       244.000         209.000
 128578445.41448 100191019.65048  24467645.6044   24467647.2464   24467643.9354
       202.000         149.000
 114767129.56948  89428915.49448  21839471.6214   21839474.9894   21839472.3704
       241.000         206.000
 110136975.67348  85821011.51148  20958376.4174   20958377.8884   20958376.0914
       250.000         229.000
 122172493.99748  95199337.04148  23248659.8944   23248663.9854   23248660.4464
       226.000         178.000
 121955368.21348  95030136.16048  23207351.8154   23207355.3114   23207352.1744
       229.000         189.000
 09  1  5  0  5 30.0000000  0  9G24G26G 9G28G21G10G15G 8G27
 128315243.63548  99985885.07648  24417594.9994   24417598.1304   24417595.0044
       210.000         155.000
 105548454.03448  82245531.04548  20085217.5134   20085219.9204   20085217.4194
       251.000         229.000
 122124858.84748  95162197.30448  23239614.5654   23239617.4634   23239614.6734
       228.000         176.000
 114861564.27248  89502511.42748  21857433.9264   21857435.3754   21857434.5714
       242.000         208.000
 128591945.71248 100201539.32248  24470214.5364   24470217.2334   24470213.8694
       206.000         151.000
 114854028.70148  89496629.09248  21856007.8304   21856011.3714   21856008.6134
       240.000         206.000
 110091077.24948  85785246.51048  20949642.1334   20949643.7964   20949642.0974
       249.000         229.000
 122259730.39348  95267313.46148  23265260.4544   23265263.8614   23265260.3044
       228.000         177.000
 122026742.55948  95085752.52448  23220933.9894   23220937.5594   23220934.4264
       228.000         189.000
 09  1  5  0  6  0.0000000  0  9G24G26G 9G28G21G10G15G 8G27
 128384779.39648 100040068.77148  24430826.8794   24430830.2824   24430826.3924
       213.000         152.000
 105549174.58848  82246092.50748  20085354.6584   20085357.1134   20085354.5854
       251.000         229.000
 122029019.29048  95087517.13648  23221377.2094   23221380.1524   23221378.3814
       226.000         176.000
 114887539.57148  89522751.92448  21862376.6004   21862378.5154   21862377.0864
       241.000         208.000
 128605919.58848 100212428.02948  24472874.0174   24472876.0664   24472874.9214
       212.000         155.000
 114941275.94348  89564613.94348  21872610.2064   21872613.9574   21872611.0404
       240.000         205.000
 110045433.19148  85749679.72148  20940956.2224   20940958.1104   20940956.0744
       249.000         230.000
 122347056.52748  95335359.77448  23281878.0714   23281881.2204   23281878.7854
       226.000         176.000
 122098162.07748  95141404.08648  23234524.9394   23234528.0744   23234525.1054
       229.000         189.000
 09  1  5  0  6 30.0000000  0  9G24G26G 9G28G21G10G15G 8G27
 128454498.64548 100094395.42048  24444093.3344   24444098.2794   24444093.6834
       207.000         151.000
 105550264.76648  82246941.99448  20085562.1364   20085564.6414   20085562.1064
       251.000         229.000
 121933369.64748  95012984.96548  23203175.6864   23203178.3844   23203176.1874
       227.000         176.000
 114914027.56048  89543391.93048  21867416.7954   21867418.9454   21867417.2994
       241.000         207.000
 128620366.32148 100223685.20848  24475623.4844   24475625.0794   24475624.4264
       214.000         157.000
 115028869.67248  89632868.78148  21889278.9614   21889282.4774   21889279.7524
       241.000         205.000
 110000045.36548  85714312.58348  20932319.3394   20932321.0204   20932318.9684
       250.000         230.000
 122434471.47048  95403475.30248  23298512.7234   23298515.9294   23298512.5344
       227.000         175.000
 122169626.22948  95197090.43348  23248124.3994   23248127.1104   23248124.3834
       230.000         188.000
 09  1  5  0  7  0.0000000  0  9G24G26G 9G28G21G10G15G 8G27
 128524398.55748 100148862.88848  24457394.5974   24457399.1554   24457394.9404
       207.000         149.000
 105551725.47748  82248080.20548  20085840.2814   20085842.6274   20085840.1984
       251.000         229.000
 121837911.57748  94938602.06048  23185010.4604   23185013.4224   23185010.7934
       225.000         177.000
 114941027.81548  89564431.09448  21872555.0594   21872557.1264   21872555.7414
       241.000         208.000
 128635284.98848 100235310.16748  24478462.4344   24478464.0274   24478461.1354
       214.000         157.000
 115116807.20948  89701391.52848  21906012.8594   21906016.6454   21906013.6884
       240.000         205.000
 109954915.46448  85679146.42848  20923731.3534   20923733.0804   20923731.1004
       249.000         230.000
 122521974.44348  95471659.43348  23315164.2134   23315167.4054   23315164.7624
       228.000         176.000
 122241134.71548  95252811.31548  23261731.8254   23261734.7854   23261732.3094
       227.000         187.000
 09  1  5  0  7 30.0000000  0  9G24G26G 9G28G21G10G15G 8G27
 128594476.21848 100203468.81648  24470729.6294   24470734.7884   24470729.5214
       208.000         151.000
 105553556.83448  82249507.23848  20086188.6704   20086191.0894   20086188.4504
       252.000         229.000
 121742645.52048  94864368.81048  23166881.1694   23166884.8214   23166881.0974
       222.000         177.000
 114968539.00648  89585868.38648  21877790.2664   21877791.9884   21877790.9524
       242.000         208.000
 128650673.83048 100247301.46248  24481390.9394   24481391.9674   24481392.0094
       216.000         156.000
 115205086.45048  89770180.53648  21922812.0344   21922815.8384   21922812.6154
       240.000         205.000
 109910044.41848  85644181.97948  20915192.6684   20915194.3414   20915192.3534
       250.000         230.000
 122609563.96548  95539911.02048  23331832.0654   23331834.9504   23331832.8024
       228.000         173.000
 122312686.42748  95308565.87448  23275347.3834   23275350.5734   23275347.2574
       226.000         187.000
 09  1  5  0  8  0.0000000  0  9G24G26G 9G28G21G10G15G 8G27
 128664728.55948 100258210.90448  24484099.0574   24484104.1974   24484099.1694
       214.000         153.000
 105555759.37748  82251223.50248  20086607.7404   20086610.2944   20086607.6314
       251.000         229.000
 121647572.00648  94790285.60048  23148788.7284   23148793.1014   23148788.8424
       225.000         177.000
 114996560.04648  89607702.97048  21883122.8984   21883124.2054   21883123.3444
       242.000         209.000
 128666531.16548 100259657.84448  24484408.0164   24484409.4784   24484410.2804
       211.000         153.000
 115293704.59948  89839233.63548  21939675.6594   21939679.1254   21939676.4164
       241.000         204.000
 109865433.30748  85609420.07948  20906703.4884   20906705.1794   20906703.2724
       250.000         230.000
 122697238.12048  95608228.53148  23348515.5534   23348518.7744   23348516.0814
       225.000         172.000
 122384280.16348  95364353.20548  23288971.4074   23288974.2964   23288971.8404
       229.000         188.000
 09  1  5  0  8 30.0000000  0  9G24G26G 9G28G21G10G15G 8G27
 128735153.04848 100313087.11248  24497500.4784   24497505.1004   24497500.9464
       210.000         152.000
 105558333.94448  82253229.65448  20087097.7164   20087100.1554   20087097.5774
       251.000         229.000
 121552692.74348  94716353.72048  23130734.4814   23130737.3394   23130734.5994
       227.000         178.000
 115025090.16748  89629934.23548  21888551.9814   21888553.3544   21888552.3774
       244.000         209.000
 128682856.37748 100272378.76748  24487514.8684   24487516.7104   24487514.4314
       213.000         156.000
 115382660.24748  89908549.70648  21956603.4024   21956606.6014   21956604.3514
       241.000         204.000
 109821084.23848  85574862.36548  20898264.0564   20898265.7514   20898263.7214
       250.000         230.000
 122784995.79248  95676611.11348  23365214.8264   23365218.8774   23365214.9964
       225.000         172.000
 122455915.51948  95420172.96148  23302603.1524   23302605.8724   23302603.0784
       229.000         188.000
 09  1  5  0  9  0.0000000  0  9G24G26G 9G28G21G10G15G 8G27
 128805746.93848 100368095.33948  24510934.3074   24510938.7074   24510934.5914
       214.000         154.000
 105561281.33048  82255526.30948  20087658.6044   20087661.0154   20087658.5434
       251.000         229.000
 121458008.50948  94642573.81748  23112717.3384   23112720.0064   23112717.3914
       228.000         180.000
 115054128.19848  89652561.27748  21894077.9984   21894079.2854   21894078.7814
       241.000         209.000
 128699648.10648 100285463.21848  24490710.2914   24490712.1224   24490711.1534
       211.000         152.000
 115471950.83748  89978126.78748  21973594.8914   21973598.1274   21973595.8414
       241.000         204.000
 109776998.56648  85540509.89348  20889874.8874   20889876.5774   20889874.5934
       250.000         230.000
 122872835.98248  95745057.99948  23381930.4894   23381934.6284   23381931.2034
       227.000         173.000
 122527591.76848  95476024.57248  23316242.8964   23316245.6774   23316243.0574
       228.000         189.000
 09  1  5  0  9 30.0000000  0  9G24G26G 9G28G21G10G15G 8G27
 128876506.73448 100423232.82848  24524399.2174   24524403.7084   24524399.4324
       214.000         153.000
 105564601.32148  82258113.30848  20088290.3914   20088292.7044   20088290.2204
       251.000         229.000
 121363519.67948  94568946.18048  23094736.5034   23094739.3844   23094736.4554
       228.000         180.000
 115083672.45048  89675582.77448  21899699.7284   21899701.4414   21899700.1974
       241.000         209.000
 128716904.11748 100298909.44348  24493993.8174   24493995.9884   24493994.7564
       207.000         150.000
 115561573.17448  90047962.35848  21990649.5354   21990652.9494   21990650.5944
       240.000         204.000
 109733177.06548  85506363.27148  20881535.8934   20881537.5834   20881535.6974
       250.000         230.000
 122960756.84448  95813567.74748  23398661.5354   23398665.1184   23398661.6764
       228.000         172.000
 122599307.62748  95531907.06548  23329890.1294   23329892.8394   23329890.0954
       228.000         188.000
 09  1  5  0 10  0.0000000  0  9G24G26G 9G28G21G10G15G 8G27
 128947429.91548 100478497.63148  24537895.4534   24537899.9384   24537895.5474
       215.000         156.000
 105568295.06148  82260991.54448  20088993.2014   20088995.6744   20088993.1654
       251.000         229.000
 121269227.38948  94495471.68048  23076793.4714   23076796.2914   23076793.5394
       229.000         181.000
 115113722.41548  89698998.33148  21905417.8094   21905419.6254   21905418.4654
       240.000         208.000
 128734623.80648 100312716.99148  24497365.3214   24497368.3074   24497364.7504
       211.000         148.000
 115651525.56148  90118055.11948  22007766.7644   22007770.2854   22007767.4854
       240.000         203.000
 109689621.46748  85472423.84048  20873247.6464   20873249.1974   20873247.3914
       250.000         231.000
 123048757.28148  95882139.52748  23415407.7474   23415410.2294   23415408.4224
       228.000         170.000
 122671062.71748  95587820.09948  23343544.2364   23343547.3104   23343544.4354
       226.000         185.000
 09  1  5  0 10 30.0000000  0  9G24G26G 9G28G21G10G15G 8G27
 129018513.42148 100533887.38348  24551422.6274   24551426.4284   24551422.7804
       215.000         158.000
 105572362.62948  82264161.06448  20089767.2504   20089769.7944   20089767.1274
       251.000         229.000
 121175132.20748  94422150.78248  23058887.8314   23058890.7004   23058888.5794
       227.000         182.000
 115144276.83448  89722806.97848  21911231.8624   21911233.9044   21911232.3034
       241.000         208.000
 128752805.33148 100326884.44748  24500825.8384   24500826.4964   24500827.8724
       208.000         147.000
 115741805.48948  90188403.09948  22024946.4144   22024949.9104   22024947.0064
       239.000         203.000
 109646332.60648  85438692.25748  20865010.0844   20865011.6244   20865009.8204
       251.000         231.000
 123136835.93548  95950772.23348  23432168.3644   23432170.8944   23432169.0794
       226.000         169.000
 122742855.96048  95643762.87748  23357205.5894   23357209.2804   23357205.6634
       226.000         186.000
 09  1  5  0 11  0.0000000  0  9G24G26G 9G28G21G10G15G 8G27
 129089754.67448 100589400.02748  24564979.0974   24564983.3764   24564979.5344
       217.000         158.000
 105576804.94648  82267622.60248  20090612.5904   20090615.1934   20090612.3194
       251.000         229.000
 121081235.63648  94348984.64948  23041019.0554   23041022.4274   23041019.1264
       224.000         180.000
 115175334.76548  89747007.96748  21917142.1144   21917144.1534   21917142.9574
       241.000         208.000
 128771447.24748 100341410.56248  24504373.9594   24504374.4564   24504372.5504
       212.000         148.000
 115832410.76648  90259004.60048  22042187.9214   22042191.4894   22042188.8434
       239.000         201.000
 109603312.58448  85405170.16448  20856823.5824   20856825.1704   20856823.2894
       251.000         231.000
 123224991.76748  96019465.07948  23448943.5904   23448947.3854   23448944.0724
       225.000         171.000
 122814686.97048  95699735.05148  23370875.1024   23370878.4244   23370875.1884
       229.000         187.000
 09  1  5  0 11 30.0000000  0  9G24G26G 9G28G21G10G15G 8G27
 129161150.89748 100645033.43948  24578565.7714   24578569.9404   24578565.7484
       213.000         160.000
 105581622.38248  82271376.44148  20091529.3634   20091531.8754   20091529.2404
       252.000         229.000
 120987538.74648  94275974.11248  23023189.0474   23023192.8144   23023188.5474
       226.000         179.000
 115206894.82348  89771600.22748  21923147.8894   21923149.7034   21923148.0614
       241.000         207.000
 128790548.05148 100356294.32748  24508008.5724   24508008.7644   24508010.4414
       211.000         148.000
 115923338.81248  90329857.61348  22059490.6934   22059494.4024   22059491.6334
       238.000         201.000
 109560562.72948  85371858.58648  20848688.5454   20848690.0834   20848688.2974
       251.000         231.000
 123313223.55348  96088217.07548  23465733.7704   23465737.4154   23465734.0324
       228.000         172.000
 122886554.77548  95755735.95048  23384551.7734   23384554.0504   23384552.2764
       230.000         188.000
 09  1  5  0 12  0.0000000  0 10G24G26G 9G28G21G10G15G 8G17G27
 129232698.41848 100700784.74348  24592179.8944   24592184.7144   24592181.0064
       210.000         156.000
 105586814.78548  82275422.45448  20092517.5154   20092519.9344   20092517.4744
       251.000         229.000
 120894041.44248  94203119.08348  23005397.1144   23005400.7064   23005397.5604
       226.000         181.000
 115238955.14248  89796582.29548  21929248.8264   21929250.6634   21929249.5404
       241.000         208.000
 128810105.81748 100371534.10748  24511729.3134   24511729.9914   24511732.1414
       210.000         143.000
 116014587.04248  90400960.12248  22076854.8874   22076858.4504   22076855.4774
       240.000         202.000
 109518083.50048  85338757.88348  20840605.0954   20840606.6064   20840604.7394
       250.000         231.000
 123401528.74348  96157026.30348  23482538.5414   23482540.4634   23482539.1474
       228.000         170.000
 142381535.50758  93154429.51758  25191378.5615   25191380.4825   25191377.8945
       217.000         157.000
 122958457.84048  95811764.31448  23398234.2654   23398236.6734   23398234.8054
       229.000         186.000
 09  1  5  0 12 30.0000000  0 10G24G26G 9G28G21G10G15G 8G17G27
 129304395.42348 100756652.51748  24605823.5114   24605827.8604   24605823.0714
       214.000         154.000
 105592383.76348  82279761.91248  20093577.2734   20093579.6394   20093577.1814
       251.000         229.000
 120800745.55148  94130421.02548  22987643.6394   22987647.1284   22987643.5714
       225.000         181.000
 115271515.57448  89821954.06948  21935444.6404   21935446.8254   21935445.3854
       241.000         208.000
 128830120.12248 100387129.61448  24515537.4504   24515539.4804   24515536.3864
       202.000         146.000
 116106153.85848  90472310.88048  22094279.8004   22094283.1594   22094280.8174
       240.000         201.000
 109475877.33248  85305869.96048  20832573.5064   20832575.0704   20832573.2284
       251.000         231.000
 123489907.38648  96225892.78748  23499356.1864   23499358.1874   23499357.1914
       227.000         170.000
 142305108.34148  93094875.88148  25176834.5494   25176836.7444   25176833.5724
       216.000         162.000
 123030396.54748  95867820.42948  23411923.1284   23411926.5694   23411923.0344
       227.000         185.000
 09  1  5  0 13  0.0000000  0 10G24G26G 9G28G21G10G15G 8G17G27
 129376239.38648 100812634.79748  24619495.0094   24619499.4454   24619494.9964
       215.000         156.000
 105598329.73848  82284395.13348  20094708.7854   20094711.1704   20094708.6524
       252.000         229.000
 120707652.26448  94057880.84248  22969928.8014   22969931.7974   22969929.1604
       228.000         180.000
 115304574.89748  89847714.58948  21941735.8194   21941737.6834   21941736.4804
       242.000         208.000
 128850589.63548 100403079.87848  24519432.7474   24519434.5954   24519433.0214
       211.000         149.000
 116198036.74748  90543907.92548  22111764.3054   22111767.8924   22111764.9594
       239.000         202.000
 109433945.61248  85273195.88548  20824594.3424   20824595.6714   20824594.1964
       251.000         231.000
 123578358.59848  96294815.80948  23516187.6354   23516190.0344   23516188.6754
       224.000         165.000
 142228743.05848  93035370.51748  25162303.2934   25162305.1104   25162302.2614
       217.000         162.000
 123102370.44048  95923903.94848  23425619.0024   23425622.9414   23425619.4234
       228.000         187.000
 09  1  5  0 13 30.0000000  0 10G24G26G 9G28G21G10G15G 8G17G27
 129448225.44048 100868727.82548  24633193.0174   24633198.1984   24633194.2584
       209.000         155.000
 105604651.59148  82289321.24448  20095911.7994   20095914.1794   20095911.8794
       251.000         229.000
 120614760.49648  93985497.66148  22952252.3274   22952255.1324   22952252.6554
       227.000         182.000
 115338130.39348  89873861.72248  21948121.2454   21948123.2214   21948121.7744
       242.000         208.000
 128871510.61548 100419381.94248  24523414.4394   24523415.8384   24523417.4824
       210.000         146.000
 116290231.83648  90615748.23748  22129308.3614   22129312.4254   22129308.8654
       237.000         201.000
 109392288.14848  85240735.51848  20816667.1294   20816668.5904   20816666.7594
       251.000         231.000
 123666879.25848  96363792.91948  23533032.2634   23533034.7504   23533032.6384
       223.000         166.000
 142152440.98748  92975914.35948  25147783.2064   25147785.2614   25147782.8494
       216.000         160.000
 123174376.83248  95980012.81948  23439322.1464   23439325.0974   23439321.9694
       231.000         189.000
 09  1  5  0 14  0.0000000  0 11G24G26G 9G28G18G21G10G15G 8G17G27
 129520354.18848 100924932.01948  24646918.7394   24646923.7134   24646918.2204
       210.000         156.000
 105611353.42648  82294543.44248  20097187.1634   20097189.4974   20097187.0704
       251.000         229.000
 120522074.87248  93913275.12648  22934614.6474   22934617.4794   22934614.7664
       228.000         181.000
 115372184.21248  89900397.17448  21954601.5514   21954603.4094   21954602.0784
       241.000         208.000
 139089124.95458  90588924.57558  24564847.2615   24564848.2145   24564848.3595
       212.000         153.000
 128892885.23948 100436037.49948  24527481.5674   24527483.8164   24527479.9134
       212.000         149.000
 116382740.24248  90687832.68548  22146912.2044   22146916.0824   22146913.0464
       239.000         201.000
 109350909.89848  85208492.72648  20808793.0454   20808794.5604   20808792.7384
       251.000         231.000
 123755471.71548  96432826.01648  23549890.7724   23549893.3054   23549891.1454
       225.000         167.000
 142076208.56148  92916512.46448  25133276.7844   25133278.2554   25133276.1404
       215.000         160.000
 123246418.51848  96036149.19948  23453031.6604   23453033.9884   23453032.2414
       230.000         188.000
 09  1  5  0 14 30.0000000  0 11G24G26G 9G28G18G21G10G15G 8G17G27
 129592618.98848 100981242.25248  24660671.3104   24660675.1494   24660672.2604
       210.000         155.000
 105618431.71848  82300058.99248  20098534.1794   20098536.4734   20098534.1154
       252.000         229.000
 120429592.25048  93841210.76248  22917015.5544   22917018.8964   22917015.6274
       231.000         184.000
 115406731.42348  89927317.08048  21961175.4064   21961177.3424   21961176.0644
       241.000         207.000
 138991881.23448  90513150.23548  24546341.9704   24546343.0254   24546343.8714
       219.000         154.000
 128914708.04948 100453042.24348  24531635.2914   24531636.5814   24531635.6374
       208.000         147.000
 116475555.43248  90760156.19248  22164574.4674   22164578.1184   22164575.5534
       238.000         201.000
 109309808.06948  85176465.32648  20800971.5094   20800973.0754   20800971.2204
       250.000         231.000
 123844130.79848  96501910.99948  23566762.6594   23566765.0984   23566762.8174
       224.000         167.000
 142000044.83248  92857164.10348  25118782.8694   25118784.4324   25118782.7794
       212.000         156.000
 123318490.92548  96092309.50748  23466745.9954   23466748.9934   23466746.5174
       227.000         185.000
 09  1  5  0 15  0.0000000  0 11G24G26G 9G28G18G21G10G15G 8G17G27
 129665017.60248 101037656.78048  24674447.7314   24674452.6524   24674447.5424
       207.000         154.000
 105625887.83948  82305868.95448  20099952.9654   20099955.3654   20099953.0674
       251.000         229.000
 120337313.89248  93769305.56848  22899455.5284   22899458.8744   22899456.2184
       229.000         182.000
 115441771.31148  89954620.89148  21967843.3564   21967845.5064   21967843.7624
       242.000         207.000
 138894852.47148  90437543.32148  24527878.4614   24527879.1914   24527878.8204
       217.000         159.000
 128936978.33748 100470395.69248  24535872.2334   24535874.4714   24535873.6294
       198.000         145.000
 116568675.86848  90832717.56348  22182295.1484   22182298.1554   22182295.1594
       240.000         201.000
 109268985.13048  85144655.24548  20793203.2294   20793204.8154   20793202.8344
       250.000         231.000
 123932855.78048  96571047.33548  23583646.3344   23583649.1894   23583646.8534
       224.000         166.000
 141923953.85948  92797872.43448  25104303.4144   25104304.5094   25104303.7904
       217.000         163.000
 123390594.08148  96148493.75648  23480466.0514   23480469.8654   23480465.7854
       227.000         184.000
 09  1  5  0 15 30.0000000  0 11G24G26G 9G28G18G21G10G15G 8G17G27
 129737548.65248 101094174.45848  24688250.3334   24688254.6144   24688250.0704
       213.000         156.000
 105633723.49148  82311974.64848  20101443.9984   20101446.4034   20101443.9594
       251.000         229.000
 120245242.49848  93697561.62648  22881934.7514   22881937.9994   22881934.3874
       232.000         182.000
 115477303.84548  89982308.58148  21974605.1774   21974606.9524   21974605.5014
       242.000         207.000
 138798042.55848  90362107.10248  24509455.6064   24509456.2054   24509457.7224
       213.000         158.000
 128959695.88448 100488097.64248  24540194.8514   24540196.5424   24540194.0354
       202.000         142.000
 116662100.22248  90905515.75648  22200073.1294   22200076.2594   22200074.0574
       240.000         201.000
 109228443.67048  85113064.50248  20785488.3904   20785489.9124   20785488.1254
       250.000         231.000
 124021646.98048  96640235.26748  23600541.9244   23600545.6814   23600543.2364
       221.000         166.000
 141847939.63148  92738640.59648  25089838.3424   25089840.6574   25089838.9334
       218.000         164.000
 123462728.64348  96204702.47948  23494193.4144   23494196.4534   23494193.0894
       230.000         188.000
 09  1  5  0 16  0.0000000  0 11G24G26G 9G28G18G21G10G15G 8G17G27
 129810208.07248 101150792.21448  24702077.2964   24702081.3064   24702078.8684
       211.000         154.000
 105641938.03348  82318375.58748  20103007.0824   20103009.4504   20103006.9154
       252.000         229.000
 120153377.69648  93625978.67548  22864453.8554   22864456.8744   22864454.3594
       232.000         184.000
 115513327.04648  90010378.61348  21981460.1744   21981461.9514   21981460.7924
       240.000         207.000
 138701453.26948  90286842.72448  24491074.8934   24491077.1934   24491075.5504
       215.000         157.000
 128982857.59948 100506145.71248  24544602.8134   24544604.3624   24544602.1634
       210.000         147.000
 116755825.76948  90978548.63748  22217908.5474   22217911.7514   22217909.5624
       239.000         201.000
 109188183.92348  85081693.26548  20777827.3014   20777828.6474   20777826.9124
       250.000         231.000
 124110502.24548  96709473.10148  23617449.9854   23617454.1704   23617450.1104
       221.000         164.000
 141772003.85648  92679469.85748  25075388.1504   25075390.3624   25075388.3394
       209.000         161.000
 123534892.72048  96260934.23448  23507926.8334   23507928.8214   23507927.3804
       231.000         189.000
 09  1  5  0 16 30.0000000  0 11G24G26G 9G28G18G21G10G15G 8G17G27
 129882993.51748 101207508.18648  24715927.0744   24715932.1214   24715926.9294
       209.000         152.000
 105650532.31548  82325072.42748  20104642.4644   20104644.9054   20104642.4184
       251.000         229.000
 120061720.89648  93554557.81848  22847012.3154   22847015.2114   22847012.9644
       232.000         184.000
 115549839.47648  90038829.85948  21988408.0914   21988409.8334   21988408.4704
       241.000         206.000
 138605087.34548  90211752.38448  24472736.7184   24472739.5804   24472737.4854
       209.000         158.000
 129006462.24348 100524538.94548  24549094.7114   24549095.9924   24549097.2584
       210.000         148.000
 116849849.79248  91051814.09848  22235800.5984   22235804.0234   22235801.6954
       239.000         200.000
 109148207.83448  85050543.06448  20770220.0424   20770221.4664   20770219.7114
       250.000         231.000
 124199420.78348  96778760.26448  23634372.1444   23634374.4114   23634371.7984
       226.000         168.000
 141696150.01148  92620362.99648  25060952.7114   25060955.6844   25060952.5294
       214.000         163.000
 123607086.12548  96317188.82248  23521663.9674   23521667.2104   23521664.3024
       230.000         186.000
 09  1  5  0 17  0.0000000  0 11G24G26G 9G28G18G21G10G15G 8G17G27
 129955902.26048 101264320.17248  24729801.8994   24729806.0344   24729801.9504
       208.000         148.000
 105659507.11648  82332065.77148  20106350.5144   20106352.8184   20106350.4224
       252.000         229.000
 119970272.93948  93483299.69748  22829610.2374   22829612.6454   22829610.5224
       230.000         182.000
 115586840.10748  90067661.52548  21995449.1404   21995450.9124   21995449.6524
       240.000         206.000
 138508947.49848  90136838.28048  24454442.0384   24454444.7264   24454441.6874
       214.000         162.000
 129030508.52148 100543276.23848  24553670.9884   24553672.7194   24553671.7354
       206.000         153.000
 116944169.98348  91125310.33548  22253748.8044   22253752.4924   22253749.3574
       238.000         200.000
 109108517.02948  85019615.15948  20762667.2094   20762668.5274   20762667.0474
       251.000         231.000
 124288401.35648  96848095.80348  23651305.1384   23651307.1824   23651306.1684
       225.000         167.000
 141620381.06348  92561322.25948  25046535.3824   25046537.8924   25046535.4994
       216.000         165.000
 123679308.43848  96373465.92848  23535406.9094   23535410.6774   23535406.7534
       227.000         186.000
 09  1  5  0 17 30.0000000  0 11G24G26G 9G28G18G21G10G15G 8G17G27
 130028931.13348 101321225.79248  24743697.6564   24743702.9404   24743698.3754
       204.000         146.000
 105668862.62848  82339355.78448  20108130.8284   20108133.1634   20108130.6694
       253.000         229.000
 119879034.62648  93412204.94048  22812247.7754   22812250.8724   22812247.7234
       229.000         182.000
 115624327.12348  90096872.18648  22002582.6494   22002584.5524   22002582.8584
       242.000         206.000
 138413036.45848  90062102.39548  24436191.3974   24436193.2084   24436191.4574
       217.000         155.000
 129054994.43148 100562356.15048  24558330.5594   24558332.0824   24558329.7044
       216.000         156.000
 117038784.14448  91199035.63948  22271753.5554   22271756.9404   22271754.2564
       238.000         200.000
 109069112.72948  84988910.51048  20755168.7684   20755170.1984   20755168.6764
       251.000         231.000
 124377442.67648  96917478.63248  23668247.2664   23668250.8844   23668248.3684
       217.000         161.000
 141544700.26948  92502350.21148  25032133.9534   25032135.6784   25032133.8404
       207.000         160.000
 123751558.77548  96429764.86448  23549156.1234   23549159.1564   23549156.2534
       228.000         185.000
 09  1  5  0 18  0.0000000  0 11G24G26G 9G28G18G21G10G15G 8G17G27
 130102078.00048 101378223.32148  24757616.9174   24757622.4474   24757615.5524
       208.000         149.000
 105678599.90048  82346943.25748  20109983.8164   20109986.0994   20109983.7724
       252.000         229.000
 119788007.25048  93341274.52948  22794926.0274   22794928.7354   22794926.3964
       230.000         183.000
 115662299.98248  90126461.42748  22009808.8424   22009810.2734   22009809.4494
       240.000         206.000
 138317357.31148  89987547.16048  24417983.9584   24417984.7414   24417984.1784
       215.000         153.000
 129079918.80848 100581777.74448  24563074.3634   24563075.5314   24563077.3764
       212.000         158.000
 117133690.17548  91272988.39548  22289813.6504   22289816.7984   22289814.6444
       238.000         199.000
 109029996.43148  84958430.27748  20747725.1644   20747726.5744   20747724.9364
       250.000         231.000
 124466543.72048  96986907.97548  23685202.9184   23685206.7214   23685202.6654
       221.000         165.000
 141469110.73648  92443449.31548  25017748.5904   25017750.9954   25017748.3554
       205.000         156.000
 123823836.70648  96486085.31948  23562910.4484   23562913.0874   23562910.9314
       231.000         187.000
 09  1  5  0 18 30.0000000  0 11G24G26G 9G28G18G21G10G15G 8G17G27
 130175339.29748 101435310.07948  24771559.4314   24771563.0214   24771560.7764
       208.000         147.000
 105688718.64648  82354827.99348  20111909.2294   20111911.6114   20111909.2424
       251.000         229.000
 119697190.91448  93270508.58348  22777644.0194   22777647.1154   22777644.0944
       231.000         184.000
 115700756.63548  90156427.65148  22017126.7404   22017128.5574   22017127.2134
       241.000         205.000
 138221911.66548  89913173.93548  24399821.5304   24399821.5654   24399821.0064
       218.000         156.000
 129105279.81848 100601539.53648  24567899.5774   24567901.7274   24567898.2564
       209.000         153.000
 117228884.81748  91347166.03248  22307928.4744   22307931.9144   22307929.0224
       238.000         198.000
 108991169.13248  84928175.23748  20740336.5584   20740338.0954   20740336.3734
       250.000         231.000
 124555702.97548  97056382.73948  23702170.7374   23702172.8304   23702171.3634
       222.000         165.000
 141393614.80348  92384621.27648  25003383.1774   25003385.0504   25003382.8624
       215.000         165.000
 123896140.99348  96542426.32348  23576669.8924   23576672.2464   23576670.2924
       230.000         185.000
 09  1  5  0 19  0.0000000  0 11G24G26G 9G28G18G21G10G15G 8G17G27
 130248711.17548 101492482.97448  24785521.3744   24785525.3274   24785522.5394
       207.000         150.000
 105699218.29948  82363009.53848  20113907.0424   20113909.5564   20113906.8934
       252.000         229.000
 119606585.65948  93199907.10248  22760402.4814   22760405.3674   22760402.7764
       231.000         185.000
 115739694.60148  90186768.93048  22024536.1044   22024537.9824   22024536.7914
       239.000         205.000
 138126701.12248  89838983.90948  24381703.8064   24381704.2004   24381703.3904
       211.000         152.000
 129131074.10648 100621638.99348  24572808.0554   24572809.4324   24572808.9294
       212.000         156.000
 117324364.58648  91421565.83748  22326097.4814   22326101.1494   22326098.5404
       237.000         198.000
 108952631.46948  84898145.88048  20733003.1664   20733004.5564   20733002.9954
       250.000         232.000
 124644918.61148  97125901.38048  23719146.6424   23719150.4144   23719147.5484
       217.000         163.000
 141318214.70148  92325867.95248  24989035.3114   24989036.9664   24989035.2994
       211.000         163.000
 123968470.19548  96598786.71248  23590432.3144   23590436.2414   23590432.5324
       227.000         184.000
 09  1  5  0 19 30.0000000  0 11G24G26G 9G28G18G21G10G15G 8G17G27
 130322192.48548 101549741.10548  24799503.5054   24799508.7054   24799503.3584
       206.000         147.000
 105710101.05748  82371489.60548  20115978.0914   20115980.5224   20115978.0254
       252.000         229.000
 119516193.83748  93129471.92848  22743201.6044   22743204.7114   22743202.0884
       231.000         186.000
 115779114.31148  90217485.59248  22032037.0724   22032039.5334   22032037.3754
       240.000         205.000
 138031730.06748  89764980.51548  24363630.9344   24363632.5914   24363630.7024
       214.000         159.000
 129157301.45448 100642075.86548  24577799.2484   24577800.5924   24577799.5594
       214.000         153.000
 117420128.77048  91496187.27648  22344320.7814   22344324.4024   22344321.6734
       238.000         198.000
 108914386.22648  84868344.38948  20725725.2304   20725726.8164   20725724.9194
       250.000         232.000
 124734190.57148  97195463.90248  23736134.4654   23736138.4664   23736134.7824
       221.000         165.000
 141242914.96748  92267192.88448  24974706.2304   24974708.4564   24974706.2414
       205.000         160.000
 124040825.26248  96655167.25748  23604202.1304   23604204.9784   23604202.0104
       232.000         186.000
 09  1  5  0 20  0.0000000  0 11G24G26G 9G28G18G21G10G15G 8G17G27
 130395781.94548 101607083.52348  24813507.5074   24813511.9494   24813508.2484
       208.000         145.000
 105721369.26148  82380270.01548  20118122.5254   20118124.8544   20118122.4854
       252.000         229.000
 119426018.22248  93059205.24648  22726041.8964   22726044.8804   22726042.4984
       230.000         184.000
 115819016.07548  90248577.87748  22039630.4224   22039632.6434   22039631.2344
       239.000         205.000
 137937002.89048  89691167.12448  24345605.2794   24345606.8354   24345605.6014
       212.000         159.000
 129183962.14248 100662850.38248  24582872.5524   24582873.4334   24582874.0874
       208.000         151.000
 117516176.90148  91571029.96248  22362597.9684   22362601.8874   22362598.5954
       236.000         197.000
 108876436.83248  84838773.43048  20718503.7844   20718505.2854   20718503.4834
       250.000         232.000
 124823519.77248  97265071.08848  23753134.5104   23753136.7814   23753135.3134
       221.000         164.000
 141167720.58648  92208599.86548  24960396.5664   24960399.5524   24960396.3474
       213.000         161.000
 124113207.46548  96711568.97648  23617976.1244   23617978.9054   23617976.9164
       229.000         183.000
 09  1  5  0 20 30.0000000  0 11G24G26G 9G28G18G21G10G15G 8G17G27
 130469474.70348 101664506.45648  24827530.6244   24827533.9754   24827531.8114
       206.000         144.000
 105733021.10648  82389349.37248  20120339.7014   20120342.0674   20120339.5884
       252.000         229.000
 119336057.81248  92989106.24548  22708922.8344   22708925.9034   22708922.9854
       231.000         187.000
 115859396.35748  90280043.02748  22047314.8204   22047316.8404   22047315.2724
       241.000         206.000
 137842519.96148  89617544.07848  24327625.4364   24327627.4564   24327624.3584
       214.000         158.000
 129211052.37048 100683959.66048  24588027.0814   24588028.4524   24588025.8874
       208.000         152.000
 117612504.04648  91646090.06248  22380928.7314   22380932.1994   22380929.2224
       237.000         197.000
 108838782.41848  84809432.32648  20711338.3894   20711340.0014   20711338.2334
       251.000         232.000
 124912902.91448  97334720.28148  23770142.3684   23770145.7874   23770142.5544
       216.000         161.000
 141092632.09548  92150089.37448  24946107.6884   24946110.3594   24946108.0164
       214.000         163.000
 124185613.97448  96767989.57848  23631753.4764   23631757.1594   23631753.5374
       228.000         183.000
 09  1  5  0 21  0.0000000  0 11G24G26G 9G28G18G21G10G15G 8G17G27
 130543266.32648 101722006.43448  24841573.6394   24841577.3054   24841574.6574
       207.000         145.000
 105745055.39848  82398726.73248  20122629.7804   20122632.1444   20122629.6364
       251.000         228.000
 119246311.55948  92919174.13448  22691844.9344   22691847.6274   22691845.3764
       229.000         186.000
 115900252.07548  90311878.65148  22055089.4444   22055091.3844   22055090.2334
       240.000         205.000
 137748282.20848  89544112.07748  24309692.7974   24309694.3874   24309693.4714
       218.000         160.000
 129238568.38748 100705400.65548  24593263.4504   24593265.4094   24593264.6594
       204.000         151.000
 117709106.48248  91721364.68948  22399311.5284   22399315.1904   22399312.5034
       238.000         197.000
 108801422.86448  84780320.98048  20704228.9904   20704230.7134   20704228.7034
       250.000         232.000
 125002337.29948  97404409.36648  23787160.9134   23787164.8954   23787160.6784
       216.000         160.000
 141017651.02548  92091662.55748  24931840.2554   24931842.0194   24931839.7674
       213.000         163.000
 124258042.33948  96824427.27848  23645537.7004   23645539.7504   23645537.8714
       233.000         185.000
 09  1  5  0 21 30.0000000  0 11G24G26G 9G28G18G21G10G15G 8G17G27
 130617154.12348 101779581.31948  24855633.8994   24855638.0494   24855633.2814
       213.000         149.000
 105757472.56948  82408402.45048  20124992.7144   20124995.0414   20124992.5214
       252.000         229.000
 119156779.90548  92849409.24248  22674806.8774   22674810.1804   22674807.3694
       229.000         186.000
 115941581.10848  90344083.09348  22062954.1674   22062955.9414   22062954.7764
       241.000         206.000
 137654292.42348  89470873.28348  24291807.1054   24291808.7244   24291807.4974
       217.000         160.000
 129266508.66548 100727172.23148  24598579.8814   24598582.4054   24598580.1314
       210.000         154.000
 117805981.77948  91796851.91948  22417746.0754   22417750.0184   22417746.8084
       235.000         197.000
 108764359.32048  84751440.29248  20697176.0474   20697177.7394   20697175.7984
       250.000         232.000
 125091821.59148  97474137.39948  23804189.8354   23804193.4794   23804189.9794
       219.000         161.000
 140942780.16048  92033321.61848  24917592.3544   24917594.5594   24917592.4444
       214.000         164.000
 124330492.37448  96880881.83948  23659323.9314   23659326.5524   23659324.4104
       229.000         182.000
 09  1  5  0 22  0.0000000  0 11G24G26G 9G28G18G21G10G15G 8G17G27
 130691136.15948 101837229.65048  24869712.4384   24869717.2334   24869713.1784
       209.000         151.000
 105770274.04648  82418377.61448  20127428.7894   20127431.1744   20127428.8194
       250.000         228.000
 119067464.86048  92779813.12848  22657810.9024   22657813.7244   22657811.0514
       231.000         187.000
 115983383.77548  90376656.60448  22070908.7844   22070910.8294   22070909.1044
       241.000         206.000
 137560553.91448  89397830.28048  24273969.1334   24273971.2424   24273968.3774
       216.000         155.000
 129294872.30648 100749273.77348  24603977.7944   24603979.9744   24603978.0384
       212.000         152.000
 117903128.02848  91872550.28948  22436232.5814   22436236.5804   22436233.1684
       237.000         197.000
 108727594.66448  84722792.50748  20690180.0234   20690181.7924   20690179.7184
       251.000         233.000
 125181356.02448  97543904.47648  23821228.1584   23821231.1694   23821228.7984
       220.000         161.000
 140868023.44748  91975069.63148  24903366.0154   24903368.5654   24903365.9424
       216.000         162.000
 124402964.43348  96937353.55248  23673114.3264   23673117.5724   23673114.5544
       229.000         183.000
 09  1  5  0 22 30.0000000  0 11G24G26G 9G28G18G21G10G15G 8G17G27
 130765209.11548 101894948.81548  24883807.7534   24883812.7794   24883806.7014
       206.000         148.000
 105783459.88748  82428652.29148  20129937.9474   20129940.3094   20129937.8324
       252.000         228.000
 118978367.42448  92710386.58448  22640856.3834   22640858.9244   22640856.6584
       232.000         186.000
 116025657.89548  90409597.48848  22078953.4274   22078955.1854   22078953.8344
       240.000         205.000
 137467069.36548  89324985.16948  24256179.5084   24256181.6074   24256180.7794
       217.000         156.000
 129323657.09248 100771703.47748  24609455.3144   24609457.3294   24609455.4624
       211.000         154.000
 118000542.62848  91948457.75448  22454770.0384   22454773.9564   22454770.8344
       236.000         196.000
 108691129.65948  84694378.21848  20683241.0224   20683242.6084   20683240.7894
       250.000         233.000
 125270938.81548  97613709.24348  23838275.3254   23838278.1774   23838275.3214
       218.000         161.000
 140793383.67548  91916908.77448  24889162.3214   24889165.0144   24889163.4044
       213.000         161.000
 124475457.44048  96993841.59548  23686909.8174   23686912.6344   23686909.9584
       229.000         184.000
 09  1  5  0 23  0.0000000  0 11G24G26G 9G28G18G21G10G15G 8G17G27
 130839370.17448 101952736.64648  24897919.4584   24897924.7014   24897920.0824
       210.000         150.000
 105797030.63248  82439226.89848  20132520.3564   20132522.7224   20132520.4074
       251.000         228.000
 118889487.95048  92641129.87648  22623943.3084   22623945.9804   22623943.5974
       232.000         188.000
 116068402.12948  90442904.68248  22087087.4414   22087089.2394   22087087.5284
       241.000         205.000
 137373841.33448  89252339.93248  24238439.0424   24238440.7964   24238439.5714
       214.000         159.000
 129352861.25848 100794459.93248  24615012.5924   24615014.1174   24615014.6874
       213.000         154.000
 118098223.33048  92024572.57948  22473358.0294   22473361.9374   22473359.0474
       236.000         196.000
 108654965.79548  84666198.57848  20676359.3614   20676360.8424   20676359.1324
       250.000         233.000
 125360569.25548  97683551.13348  23855330.7914   23855334.4294   23855331.2944
       216.000         159.000
 140718864.27248  91858841.71648  24874982.2654   24874984.8264   24874981.1834
       218.000         166.000
 124547970.96248  97050345.62748  23700708.5634   23700711.5324   23700709.1364
       228.000         182.000
 09  1  5  0 23 30.0000000  0 11G24G26G 9G28G18G21G10G15G 8G17G27
 130913616.78848 102010591.14548  24912048.0464   24912053.8194   24912048.4984
       203.000         150.000
 105810986.93248  82450101.92548  20135176.1554   20135178.6054   20135176.0914
       251.000         228.000
 118800827.72948  92572044.02148  22607072.1044   22607074.5154   22607072.2174
       233.000         188.000
 116111615.26048  90476577.24848  22095310.5254   22095312.1954   22095311.1194
       240.000         204.000
 137280872.28348  89179896.52248  24220748.0354   24220749.5324   24220747.6514
       218.000         162.000
 129382483.23648 100817541.96748  24620649.8134   24620651.9304   24620649.5104
       209.000         151.000
 118196167.30748  92100892.55048  22491996.3244   22492000.0504   22491997.1934
       236.000         196.000
 108619104.89648  84638255.01348  20669535.2574   20669536.6044   20669534.9594
       251.000         233.000
 125450246.39648  97753429.38548  23872396.5334   23872399.6584   23872396.1494
       221.000         161.000
 140644468.20148  91800870.77048  24860824.9704   24860827.6994   24860824.9354
       216.000         163.000
 124620504.53648  97106865.26948  23714510.6864   23714514.2044   23714510.6374
       227.000         182.000
 09  1  5  0 24  0.0000000  0 11G24G26G 9G28G18G21G10G15G 8G17G27
 130987946.21248 102068510.15148  24926193.2634   24926197.8134   24926192.6064
       208.000         148.000
 105825329.05248  82461277.60048  20137905.3494   20137907.8014   20137905.3284
       251.000         228.000
 118712387.39848  92503129.49548  22590242.4034   22590244.9504   22590242.6034
       233.000         188.000
 116155295.39648  90510613.72148  22103622.5634   22103624.3964   22103622.7714
       239.000         204.000
 137188164.70448  89107656.86948  24203106.6604   24203107.8384   24203108.9134
       220.000         165.000
 129412520.70548 100840947.75548  24626366.1394   24626366.8804   24626366.5794
       211.000         152.000
 118294372.49648  92177416.07548  22510684.4054   22510687.7704   22510685.0844
       236.000         196.000
 108583548.10448  84610548.41748  20662769.1654   20662770.5324   20662769.0944
       250.000         233.000
 125539968.85348  97823342.97948  23889469.9944   23889473.1234   23889470.6814
       211.000         160.000
 140570198.35948  91742998.17148  24846692.4394   24846694.0054   24846691.6854
       220.000         161.000
 124693057.50748  97163400.03748  23728317.5594   23728320.4764   23728317.4644
       228.000         182.000
 09  1  5  0 24 30.0000000  0 11G24G26G 9G28G18G21G10G15G 8G17G27
 131062355.13948 102126491.12348  24940351.9744   24940357.2524   24940352.3944
       207.000         146.000
 105840057.04248  82472753.94948  20140707.9864   20140710.3994   20140707.9654
       251.000         228.000
 118624167.40348  92434386.66848  22573454.4454   22573457.4254   22573454.9614
       232.000         189.000
 116199441.17748  90545013.03248  22112023.3834   22112025.1294   22112023.8344
       240.000         204.000
 137095721.63448  89035623.29648  24185515.3404   24185516.1464   24185516.0664
       215.000         161.000
 129442971.52648 100864675.64948  24632160.1394   24632162.0254   24632160.9634
       207.000         155.000
 118392836.33248  92254141.13048  22529421.0644   22529424.9974   22529421.9834
       236.000         196.000
 108548296.80548  84583079.86948  20656061.0894   20656062.5354   20656060.8274
       251.000         234.000
 125629735.64648  97893291.10648  23906551.3124   23906554.7624   23906552.0174
       212.000         156.000
 140496057.50048  91685226.01448  24832583.9334   24832584.7954   24832584.2094
       218.000         161.000
 124765629.15548  97219949.37248  23742127.4274   23742130.2704   23742128.1534
       227.000         181.000
 09  1  5  0 25  0.0000000  0 11G24G26G 9G28G18G21G10G15G 8G17G27
 131136841.41348 102184532.38848  24954525.6644   24954530.6334   24954526.6894
       200.000         139.000
 105855171.85948  82484531.72148  20143584.2184   20143586.6224   20143584.1694
       252.000         228.000
 118536169.11448  92365816.59648  22556709.0174   22556711.8574   22556708.9844
       231.000         189.000
 116244051.02448  90579773.94448  22120512.3704   22120513.8374   22120513.0334
       240.000         204.000
 137003545.82148  88963798.00148  24167974.6364   24167975.7394   24167975.7094
       217.000         163.000
 129473834.45748 100888724.60148  24638033.9264   24638035.2644   24638032.4504
       212.000         156.000
 118491556.25548  92331065.73248  22548206.7114   22548210.7014   22548207.2724
       235.000         195.000
 108513352.78548  84555850.76048  20649411.2914   20649412.8664   20649411.0054
       251.000         233.000
 125719545.94948  97963273.11748  23923642.7974   23923645.1024   23923643.8484
       214.000         156.000
 140422048.94048  91627557.02548  24818500.3254   24818501.9184   24818500.4644
       216.000         163.000
 124838219.18048  97276513.00348  23755940.3604   23755943.7964   23755940.3374
       227.000         180.000
 09  1  5  0 25 30.0000000  0 11G24G26G 9G28G18G21G10G15G 8G17G27
 131211402.41848 102242631.94248  24968715.4964   24968719.5844   24968714.8874
       203.000         138.000
 105870674.13848  82496611.41248  20146534.3244   20146536.6174   20146534.3094
       251.000         228.000
 118448394.05448  92297420.48648  22540005.2604   22540008.8694   22540004.9494
       230.000         189.000
 116289123.71848  90614895.52448  22129089.1914   22129091.0814   22129089.1394
       240.000         204.000
 136911639.72248  88892182.84848  24150485.5564   24150486.3084   24150486.3774
       220.000         161.000
 129505107.65548 100913093.35248  24643983.6194   24643986.0924   24643985.1344
       209.000         150.000
 118590530.03048  92408188.14048  22567040.9794   22567044.6514   22567041.5734
       235.000         194.000
 108478717.48448  84528862.20948  20642820.2744   20642821.9914   20642819.9014
       250.000         233.000
 125809399.18348  98033288.62848  23940740.4924   23940743.9574   23940740.4974
       212.000         157.000
 140348176.05048  91569993.74148  24804442.6264   24804444.5814   24804442.3304
       217.000         164.000
 124910827.31548  97333090.75848  23769757.8344   23769761.0694   23769757.9564
       229.000         183.000
 09  1  5  0 26  0.0000000  0 11G24G26G 9G28G18G21G10G15G 8G17G27
 131286034.78348 102300786.99948  24982917.0334   24982921.4544   24982919.1454
       206.000         136.000
 105886563.78748  82508992.95148  20149557.9904   20149560.3544   20149557.8764
       251.000         228.000
 118360841.89048  92229198.04948  22523344.7724   22523348.2454   22523345.0194
       231.000         188.000
 116334657.08848  90650376.06848  22137753.9324   22137755.7924   22137754.7524
       240.000         204.000
 136820005.55048  88820779.58648  24133047.8564   24133049.5304   24133050.2124
       217.000         161.000
 129536788.56148 100937779.77448  24650012.9134   24650015.3714   24650013.1114
       212.000         154.000
 118689754.95848  92485506.25148  22585922.8504   22585926.2524   22585923.7494
       234.000         193.000
 108444392.04448  84502115.10348  20636288.3614   20636290.0554   20636288.0044
       250.000         233.000
 125899293.60548  98103336.21848  23957846.6614   23957849.5244   23957847.0614
       214.000         158.000
 140274441.28448  91512538.03848  24790411.6844   24790413.6474   24790411.3494
       219.000         167.000
 124983452.46248  97389681.77248  23783578.1874   23783581.4154   23783578.9494
       229.000         181.000
 09  1  5  0 26 30.0000000  0 11G24G26G 9G28G18G21G10G15G 8G17G27
 131360735.43948 102358995.27748  24997131.5384   24997135.2824   24997133.8744
       210.000         141.000
 105902841.08548  82521676.55048  20152655.3884   20152657.8884   20152655.2524
       251.000         228.000
 118273513.61148  92161150.06148  22506726.9554   22506729.6044   22506727.3444
       230.000         186.000
 116380649.44448  90686214.27948  22146505.8804   22146508.0494   22146506.1494
       240.000         204.000
 136728645.82448  88749590.21248  24115662.5014   24115663.9614   24115663.2704
       219.000         163.000
 129568875.31448 100962782.41848  24656119.3274   24656120.9344   24656120.0924
       202.000         147.000
 118789228.31448  92563017.95848  22604851.7694   22604855.3084   22604852.3524
       235.000         193.000
 108410377.79748  84475610.49148  20629815.7504   20629817.3884   20629815.5054
       250.000         233.000
 125989228.03848  98173414.97348  23974960.6204   23974963.7134   23974960.3434
       213.000         158.000
 140200847.49548  91455192.24448  24776406.9354   24776409.8764   24776407.6284
       214.000         162.000
 125056094.10348  97446285.64048  23797401.2464   23797404.3144   23797401.2364
       228.000         182.000
 09  1  5  0 27  0.0000000  0 11G24G26G 9G28G18G21G10G15G 8G17G27
 131435502.44048 102417255.27348  25011360.3504   25011363.6974   25011361.2954
       209.000         143.000
 105919507.04448  82534663.01148  20155826.8304   20155829.3314   20155826.7534
       252.000         228.000
 118186410.47148  92093277.49148  22490151.9044   22490154.4334   22490151.6654
       232.000         188.000
 116427100.13048  90722409.61248  22155345.2304   22155347.2804   22155345.8344
       241.000         204.000
 136637564.11748  88678617.46248  24098330.3694   24098331.5264   24098331.0504
       216.000         162.000
 129601366.72748 100988100.34048  24662301.9084   24662304.3444   24662301.9864
       202.000         146.000
 118888948.08948  92640721.67648  22623828.0594   22623831.6124   22623829.1514
       234.000         193.000
 108376676.85348  84449350.01648  20623402.6544   20623404.1814   20623402.5184
       250.000         233.000
 126079202.08748  98243524.62748  23992081.9504   23992085.4364   23992082.8974
       215.000         158.000
 140127398.39348  91397959.18448  24762429.6074   24762432.6194   24762429.6384
       218.000         163.000
 125128752.36048  97502902.45448  23811227.6454   23811230.7454   23811227.6374
       225.000         180.000
 09  1  5  0 27 30.0000000  0 11G24G26G 9G28G18G21G10G15G 8G17G27
 131510332.46648 102475564.38648  25025599.9584   25025603.9124   25025599.2334
       207.000         144.000
 105936561.64948  82547952.30548  20159072.2924   20159074.6884   20159072.2454
       251.000         228.000
 118099533.42448  92025581.11448  22473619.9464   22473622.4024   22473620.0394
       233.000         188.000
 116474006.95948  90758960.39848  22164271.2344   22164272.9494   22164271.5354
       239.000         203.000
 136546762.65248  88607863.05948  24081051.1824   24081052.6464   24081051.5034
       216.000         163.000
 129634260.18048 101013731.56048  24668561.5254   24668562.3734   24668560.8294
       209.000         149.000
 118988911.08648  92718614.90348  22642850.1194   22642854.1834   22642850.7054
       234.000         193.000
 108343290.25948  84423334.49048  20617049.4164   20617051.0294   20617049.1354
       250.000         234.000
 126169214.57348  98313664.20048  24009210.2234   24009214.4664   24009210.3504
       208.000         158.000
 140054096.92848  91340841.11048  24748481.4924   24748483.4264   24748481.4404
       219.000         167.000
 125201426.46048  97559531.60248  23825056.7104   23825060.6184   23825057.3974
       226.000         179.000
 09  1  5  0 28  0.0000000  0 11G24G26G 9G28G18G21G10G15G 8G17G27
 131585222.57248 102533920.32348  25039850.9594   25039855.0014   25039852.6774
       208.000         148.000
 105954005.24748  82561544.71448  20162391.6844   20162394.1124   20162391.5824
       250.000         228.000
 118012882.74348  91958061.10848  22457130.7144   22457133.2644   22457131.1034
       232.000         189.000
 116521368.10348  90795865.17848  22173283.9124   22173285.6794   22173283.9684
       241.000         203.000
 136456243.79448  88537328.90448  24063825.4114   24063827.9704   24063825.9134
       213.000         164.000
 129667553.41948 101039674.28448  24674896.8734   24674898.1874   24674897.9074
       212.000         148.000
 119089115.28348  92796696.08148  22661918.3114   22661922.3354   22661919.0654
       234.000         192.000
 108310219.38748  84397564.97648  20610756.3544   20610757.7414   20610756.0744
       251.000         234.000
 126259264.35048  98383832.83848  24026346.6994   24026350.7124   24026346.9104
       210.000         159.000
 139980945.68548  91283840.16448  24734560.8264   24734563.2434   24734561.3614
       211.000         163.000
 125274115.64448  97616172.52448  23838889.5534   23838892.6764   23838889.7754
       227.000         179.000
 09  1  5  0 28 30.0000000  0 11G24G26G 9G28G18G21G10G15G 8G17G27
 131660169.53648 102592320.51148  25054113.9404   25054117.8044   25054113.0734
       209.000         150.000
 105971837.18148  82575439.72248  20165784.8864   20165787.4034   20165784.7674
       251.000         228.000
 117926458.49048  91890717.55848  22440684.5754   22440687.7544   22440685.0724
       234.000         192.000
 116569181.24048  90833122.16848  22182382.5994   22182384.1714   22182383.5274
       239.000         203.000
 136366009.38848  88467016.37748  24046654.6584   24046657.0634   24046653.8654
       216.000         162.000
 129701243.57348 101065926.32248  24681308.1294   24681309.8884   24681309.9534
       205.000         145.000
 119189557.31548  92874962.58948  22681031.8734   22681035.7354   22681032.9734
       235.000         192.000
 108277464.74648  84372041.88148  20604523.4264   20604524.7444   20604523.3424
       251.000         234.000
 126349349.24548  98454028.82448  24043488.7204   24043493.0134   24043487.7024
       213.000         161.000
 139907947.09848  91226958.14748  24720670.1814   24720672.2364   24720669.3734
       216.000         163.000
 125346818.55048  97672824.12548  23852724.2474   23852727.5834   23852724.7604
       226.000         179.000
 09  1  5  0 29  0.0000000  0 11G24G26G 9G28G18G21G10G15G 8G17G27
 131735171.04348 102650763.24248  25068385.5814   25068389.2144   25068385.1704
       204.000         143.000
 105990058.95148  82589638.49448  20169252.5014   20169254.8624   20169252.5724
       251.000         228.000
 117840262.36548  91823551.77848  22424282.2754   22424285.2864   22424282.3954
       233.000         193.000
 116617445.50148  90870730.68448  22191566.7494   22191568.5364   22191567.0094
       240.000         203.000
 136276062.68848  88396928.07848  24029537.8934   24029540.6594   24029540.4024
       217.000         163.000
 129735329.81948 101092486.99048  24687794.1234   24687795.8974   24687794.2624
       203.000         139.000
 119290235.43648  92953413.06748  22700190.6284   22700194.0464   22700191.3144
       235.000         192.000
 108245028.58248  84346766.94248  20598350.9714   20598352.4364   20598350.7384
       250.000         234.000
 126439469.37248  98524252.30548  24060638.4504   24060642.1464   24060638.7274
       211.000         160.000
 139835104.98148  91170198.08248  24706808.2924   24706809.9764   24706808.6054
       213.000         163.000
 125419535.67748  97729486.81648  23866562.2844   23866565.2314   23866562.8704
       225.000         180.000
 09  1  5  0 29 30.0000000  0 11G24G26G 9G28G18G21G10G15G 8G17G27
 131810223.72248 102709245.81548  25082666.7094   25082671.8464   25082666.9444
       204.000         140.000
 106008669.95748  82604140.57448  20172793.9554   20172796.4584   20172793.8724
       250.000         228.000
 117754294.54948  91756563.90148  22407922.8224   22407925.8374   22407922.5524
       234.000         192.000
 116666158.56348  90908688.92148  22200836.3454   22200838.1084   22200836.8324
       240.000         202.000
 136186405.89548  88327065.64048  24012477.4994   24012479.6794   24012478.2314
       220.000         163.000
 129769809.43148 101119354.17948  24694354.5974   24694357.4604   24694354.9544
       207.000         141.000
 119391146.37948  93032044.98048  22719393.4254   22719397.0154   22719394.0974
       233.000         191.000
 108212912.11348  84321741.12348  20592239.3114   20592240.8644   20592239.0664
       250.000         234.000
 126529623.48448  98594502.26048  24077794.5404   24077797.9944   24077795.2234
       212.000         159.000
 139762421.65648  91113561.74848  24692977.6404   24692979.2704   24692977.1824
       218.000         167.000
 125492265.98548  97786159.78248  23880402.1424   23880405.3674   23880402.2744
       224.000         179.000
 09  1  5  0 30  0.0000000  0 11G24G26G 9G28G18G21G10G15G 8G17G27
 131885324.63448 102767765.96348  25096957.9264   25096962.6864   25096958.4324
       202.000         137.000
 106027670.52848  82618946.20748  20176409.6654   20176412.1994   20176409.6034
       251.000         228.000
 117668555.50948  91689754.27748  22391607.6464   22391610.0034   22391607.8774
       234.000         191.000
 116715318.48948  90946995.35948  22210191.3744   22210193.2064   22210192.2964
       239.000         203.000
 136097041.23048  88257430.81548  23995472.4494   23995473.5814   23995474.1964
       217.000         163.000
 129804680.10648 101146526.08848  24700991.1964   24700992.7694   24700992.6164
       204.000         137.000
 119492287.49448  93110856.22848  22738639.6094   22738643.6944   22738640.2714
       233.000         191.000
 108181116.04548  84296964.96248  20586188.6904   20586190.2904   20586188.4464
       250.000         235.000
 126619810.32448  98664777.68448  24094956.1564   24094960.2614   24094956.8244
       211.000         159.000
 139689900.03548  91057051.36748  24679177.0894   24679179.3134   24679177.4804
       216.000         165.000
 125565008.96248  97842842.57848  23894244.6124   23894247.9794   23894244.9134
       225.000         177.000
 09  1  5  0 30 30.0000000  0 11G24G26G 9G28G18G21G10G15G 8G17G27
 131960471.02548 102826321.60148  25111257.9934   25111263.1584   25111257.1894
       195.000         133.000
 106047061.08248  82634055.73248  20180099.4784   20180102.0434   20180099.5334
       251.000         228.000
 117583046.14148  91623123.62248  22375335.4174   22375337.8084   22375336.1664
       233.000         190.000
 116764923.88948  90985648.91748  22219631.0894   22219632.8694   22219631.6554
       240.000         202.000
 136007971.42448  88188025.77848  23978522.2134   23978524.5434   23978523.3854
       215.000         162.000
 129839939.69048 101174001.13548  24707700.7464   24707703.5284   24707700.7834
       214.000         147.000
 119593656.17648  93189844.79348  22757929.3984   22757933.6524   22757930.6194
       232.000         191.000
 108149642.14148  84272439.83848  20580199.3784   20580201.0204   20580199.0564
       251.000         235.000
 126710028.72748  98735077.73148  24112124.1484   24112127.8754   24112125.8694
       213.000         161.000
 139617542.95648  91000669.25548  24665407.3944   24665410.1524   24665407.9784
       217.000         167.000
 125637764.29748  97899535.02648  23908089.1194   23908092.6944   23908089.5194
       222.000         176.000
 09  1  5  0 31  0.0000000  0 11G24G26G 9G28G18G21G10G15G 8G17G27
 132035661.13548 102884911.36548  25125564.7054   25125571.5714   25125566.5114
       203.000         134.000
 106066842.87848  82649470.11948  20183863.8844   20183866.3314   20183863.8944
       251.000         227.000
 117497768.22048  91556673.31248  22359107.3634   22359110.0934   22359107.6464
       236.000         193.000
 116814973.78248  91024648.84448  22229155.2124   22229157.0174   22229155.3984
       240.000         203.000
 135919200.03048  88118853.28248  23961629.2674   23961632.4704   23961628.9444
       213.000         164.000
 129875586.93248 101201778.14348  24714484.8534   24714487.0254   24714485.1374
       208.000         150.000
 119695250.91048  93269009.50748  22777262.3344   22777266.5014   22777262.9514
       232.000         190.000
 108118492.62948  84248167.49148  20574271.8464   20574273.4424   20574271.6964
       250.000         235.000
 126800278.67248  98805402.32148  24129299.1064   24129302.4424   24129299.6454
       213.000         162.000
 139545354.59248  90944418.57548  24651671.0424   24651673.0224   24651671.1354
       218.000         170.000
 125710531.97448  97956237.10848  23921936.3764   23921939.7034   23921936.0954
       225.000         176.000
 09  1  5  0 31 30.0000000  0 11G24G26G 9G28G18G21G10G15G 8G17G27
 132110892.14648 102943532.89848  25139882.6634   25139887.0664   25139882.9614
       207.000         137.000
 106087016.00248  82665189.42548  20187702.6364   20187705.1224   20187702.4854
       250.000         227.000
 117412722.35648  91490403.80248  22342924.2934   22342926.8994   22342924.8014
       235.000         194.000
 116865466.11248  91063993.50548  22238763.6544   22238765.2344   22238764.1924
       240.000         202.000
 135830729.43648  88049915.16048  23944794.3584   23944797.0834   23944793.8104
       217.000         165.000
 129911619.52948 101229855.42348  24721342.1774   24721344.1354   24721342.4074
       215.000         157.000
 119797069.05148  93348348.31748  22796638.0004   22796641.4934   22796638.5604
       234.000         191.000
 108087668.86848  84224148.97248  20568406.2904   20568407.7384   20568405.8624
       251.000         235.000
 126890558.95548  98875750.61748  24146478.7064   24146482.1804   24146480.2364
       212.000         163.000
 139473337.67348  90888301.52148  24637966.3924   24637968.8944   24637966.6714
       216.000         165.000
 125783311.43048  98012948.38148  23935785.8914   23935789.3644   23935786.0294
       223.000         174.000
 09  1  5  0 32  0.0000000  0 11G24G26G 9G28G18G21G10G15G 8G17G27
 132186159.71248 103002183.00248  25154206.3874   25154210.1324   25154206.0434
       205.000         139.000
 106107579.70948  82681213.08648  20191615.8934   20191618.3574   20191615.7894
       251.000         228.000
 117327908.12548  91424314.80448  22326784.0524   22326787.3904   22326784.1444
       232.000         193.000
 116916398.24448  91103680.88648  22248455.7074   22248457.3774   22248456.1954
       239.000         202.000
 135742561.47748  87981212.86248  23928016.5704   23928018.4164   23928017.1664
       217.000         166.000
 129948034.15048 101258230.46648  24728270.8684   24728273.1164   24728272.1374
       215.000         155.000
 119899106.71248  93427858.17348  22816055.0494   22816058.8494   22816056.2024
       233.000         190.000
 108057171.04448  84200384.42748  20562602.8164   20562604.1964   20562602.5924
       251.000         235.000
 126980867.58948  98946120.94948  24163664.3824   24163666.9914   24163664.2074
       216.000         162.000
 139401493.97448  90832319.37548  24624295.1964   24624296.7834   24624295.4684
       217.000         166.000
 125856101.24448  98069667.69548  23949637.1674   23949640.8544   23949637.6404
       221.000         175.000
 09  1  5  0 32 30.0000000  0 11G24G26G 9G28G18G21G10G15G 8G17G27
 132261462.52448 103060860.50648  25168534.7604   25168541.2614   25168535.4794
       203.000         143.000
 106128535.34448  82697542.15248  20195603.6714   20195606.1164   20195603.6184
       251.000         228.000
 117243327.37848  91358407.75248  22310689.0574   22310692.1554   22310689.0374
       231.000         193.000
 116967769.28948  91143710.27248  22258231.0854   22258233.3364   22258231.2134
       240.000         202.000
 135654699.13648  87912748.70548  23911297.2744   23911298.1904   23911296.9744
       219.000         164.000
 129984829.39248 101286902.03948  24735272.7344   24735274.4554   24735272.9924
       211.000         152.000
 120001362.80148  93507538.23148  22835513.6624   22835517.3014   22835514.1904
       231.000         187.000
 108027001.68448  84176875.82848  20556861.7874   20556863.2474   20556861.4554
       251.000         235.000
 127071204.85448  99016513.60448  24180854.5874   24180857.7144   24180857.3164
       209.000         161.000
 139329827.62448  90776475.51748  24610657.0084   24610659.5024   24610657.7324
       215.000         167.000
 125928901.90948  98126395.47748  23963491.1534   23963494.3584   23963491.2124
       223.000         177.000
 09  1  5  0 33  0.0000000  0 11G24G26G 9G28G18G21G10G15G 8G17G27
 132336797.13348 103119562.77448  25182870.8894   25182875.9984   25182872.5024
       202.000         144.000
 106149882.30948  82714176.14148  20199665.8604   20199668.2104   20199665.8294
       251.000         228.000
 117158980.46348  91292682.91248  22294638.1054   22294641.4934   22294637.6994
       232.000         192.000
 117019577.05748  91184079.97148  22268090.0764   22268091.8514   22268090.6174
       240.000         201.000
 135567144.80348  87844524.51448  23894636.2114   23894637.1354   23894635.8454
       221.000         166.000
 130022003.24648 101315868.67048  24742346.7384   24742348.5684   24742346.3794
       211.000         149.000
 120103833.89248  93587385.83448  22855013.0954   22855016.3274   22855013.8404
       232.000         187.000
 107997161.54648  84153623.76948  20551183.3124   20551184.8914   20551183.0974
       251.000         236.000
 127161569.04848  99086927.25948  24198050.7614   24198053.2214   24198050.4974
       213.000         161.000
 139258341.23248  90720771.84248  24597054.2724   24597055.9934   24597053.6714
       221.000         168.000
 126001712.27148  98183130.78848  23977346.6454   23977349.7694   23977346.8144
       224.000         175.000
 09  1  5  0 33 30.0000000  0 11G24G26G 9G28G18G21G10G15G 8G17G27
 132412160.56848 103178287.49248  25197212.0744   25197216.9214   25197211.9174
       202.000         145.000
 106171621.37048  82731115.66448  20203802.6354   20203805.0054   20203802.7074
       251.000         228.000
 117074867.85548  91227140.64348  22278631.9994   22278634.9184   22278632.0674
       235.000         192.000
 117071819.56548  91224788.41748  22278031.2254   22278032.8024   22278031.4184
       239.000         201.000
 135479900.91048  87776542.28548  23878033.9934   23878036.1314   23878035.7854
       219.000         167.000
 130059553.27848 101345128.36348  24749492.3094   24749494.1734   24749493.0644
       203.000         144.000
 120206517.19648  93667398.78948  22874552.9934   22874556.4254   22874553.5584
       232.000         187.000
 107967652.21148  84130629.47548  20545567.9294   20545569.4164   20545567.6954
       251.000         236.000
 127251959.31448  99157361.21248  24215251.3744   24215254.1774   24215251.4554
       213.000         162.000
 139187037.52048  90665210.50148  24583486.4014   24583487.5874   24583486.7494
       217.000         166.000
 126074532.17448  98239873.54948  23991203.5824   23991206.3694   23991204.3544
       223.000         173.000
 09  1  5  0 34  0.0000000  0 11G24G26G 9G28G18G21G10G15G 8G17G27
 132487549.88348 103237032.38548  25211559.1404   25211563.1444   25211558.7654
       206.000         145.000
 106193752.06948  82748360.35648  20208014.0234   20208016.5114   20208013.9214
       251.000         228.000
 116990989.97448  91161781.26848  22262670.6694   22262673.4184   22262671.5164
       235.000         193.000
 117124494.83748  91265834.07948  22288055.1534   22288056.4904   22288055.8594
       241.000         201.000
 135392969.56548  87708803.54548  23861492.1874   23861493.3734   23861492.5074
       220.000         165.000
 130097477.05248 101374679.31348  24756709.7344   24756710.8544   24756710.1024
       205.000         144.000
 120309410.19748  93747575.14548  22894132.8204   22894136.3404   22894134.2284
       230.000         186.000
 107938474.49248  84107893.58348  20540015.6184   20540017.0074   20540015.3864
       252.000         236.000
 127342374.51248  99227814.60348  24232456.4114   24232459.3574   24232457.8574
       211.000         163.000
 139115919.49548  90609793.86448  24569952.3704   24569954.3604   24569951.9914
       220.000         170.000
 126147360.69848  98296623.04948  24005062.1974   24005065.4194   24005062.5074
       221.000         173.000
 09  1  5  0 34 30.0000000  0 11G24G26G 9G28G18G21G10G15G 8G17G27
 132562962.38548 103295795.35948  25225909.8424   25225913.2444   25225910.9544
       203.000         138.000
 106216274.89448  82765910.61548  20212299.8984   20212302.5354   20212299.6674
       251.000         228.000
 116907347.99148  91096605.70748  22246754.4584   22246757.1214   22246754.5814
       236.000         194.000
 117177601.31448  91307215.75948  22298160.8674   22298162.6354   22298161.3174
       239.000         201.000
 135306354.27248  87641311.15048  23845009.7524   23845011.1674   23845010.7864
       221.000         168.000
 130135772.08648 101404519.54648  24763996.9044   24763998.1784   24763996.6814
       205.000         148.000
 120412510.24848  93827912.83148  22913751.5914   22913755.7154   22913751.7284
       229.000         187.000
 107909629.89348  84085417.27148  20534526.6794   20534528.1864   20534526.4604
       251.000         236.000
 127432813.74348  99298286.69548  24249666.7804   24249670.0544   24249667.7744
       215.000         164.000
 139044989.88948  90554524.07348  24556454.5854   24556457.1844   24556454.6624
       216.000         165.000
 126220197.57348  98353379.03248  24018922.8454   24018926.0334   24018922.9084
       223.000         174.000
 09  1  5  0 35  0.0000000  0 11G24G26G 9G28G18G21G10G15G 8G17G27
 132638395.91548 103354574.71548  25240263.7444   25240267.8014   25240263.4974
       194.000         131.000
 106239190.79648  82783767.15648  20216660.7104   20216663.4024   20216660.6024
       251.000         228.000
 116823943.22348  91031614.98748  22230883.0524   22230885.6564   22230883.1504
       236.000         195.000
 117231137.34148  91348932.14048  22308348.4484   22308350.8254   22308348.7394
       239.000         202.000
 135220057.42348  87574066.84448  23828587.6884   23828589.3454   23828588.0044
       221.000         169.000
 130174436.79948 101434647.87248  24771353.6904   24771356.5654   24771354.1404
       206.000         147.000
 120515815.36848  93908410.32748  22933410.4204   22933414.2584   22933410.6114
       231.000         187.000
 107881120.70648  84063202.31348  20529101.5304   20529103.0184   20529101.2824
       251.000         236.000
 127523276.50248  99368777.11248  24266881.0724   24266884.6984   24266881.4224
       213.000         164.000
 138974252.44548  90499403.98148  24542993.4954   24542996.0024   24542993.1704
       220.000         170.000
 126293042.93448  98410141.64148  24032784.9264   24032788.0524   24032785.4354
       222.000         173.000
 09  1  5  0 35 30.0000000  0 10G26G 9G28G18G21G10G15G 8G17G27
 106262499.42148  82801929.72348  20221096.2624   20221098.7564   20221096.1624
       251.000         228.000
 116740775.48448  90966808.97448  22215056.4514   22215059.5314   22215056.7284
       234.000         194.000
 117285100.91248  91390981.68348  22318617.2844   22318619.2304   22318617.5744
       239.000         201.000
 115134059.04058 107507049.26358  23812226.6675   23812228.3545   23812227.9935
       220.000         168.000
 140213327.39458  91464918.07858  24778781.4175   24778784.5435   24778781.4395
       206.000         146.000
 130619322.31358  83989066.07558  22953107.0265   22953110.7635   22953106.8615
       231.000         186.000
 117852957.77358  74041259.37358  20523740.4315   20523741.9685   20523739.9815
       251.000         236.000
 127613761.35848  99439284.79248  24284099.1284   24284102.7734   24284099.4594
       211.000         160.000
 138903709.64548  90444435.54448  24529571.0864   24529572.4934   24529570.7364
       214.000         167.000
 126365896.01548  98466910.25448  24046648.4314   24046651.4184   24046648.3514
       224.000         173.000
 09  1  5  0 36  0.0000000  0 10G26G 9G28G18G21G10G15G 8G17G27
 106286201.58148  82820398.93248  20225606.7924   20225609.1024   20225606.7934
       251.000         227.000
 116657846.10848  90902188.70648  22199275.2854   22199278.7624   22199275.7774
       236.000         196.000
 117339490.55348  91433363.22048  22328967.4464   22328968.9524   22328968.0314
       240.000         201.000
 115048406.43748 107440306.99948  23795927.7964   23795929.3174   23795927.9814
       222.000         170.000
 140252724.37148  91495616.97148  24786278.0874   24786280.3384   24786278.2624
       200.000         140.000
 130723029.22348  84069876.65348  22972841.9834   22972845.8954   22972842.4184
       232.000         186.000
 117825122.68048  74019569.69248  20518443.5114   20518445.0224   20518443.1324
       251.000         236.000
 127704267.96248  99509809.39248  24301322.7244   24301325.5724   24301322.9724
       214.000         161.000
 138833364.83748  90389621.41248  24516183.5504   24516186.2284   24516182.4914
       216.000         165.000
 126438756.57748  98523684.70548  24060513.4854   24060516.1814   24060513.8494
       223.000         173.000
 09  1  5  0 36 30.0000000  0 10G26G 9G28G18G21G10G15G 8G17G27
 106310296.66048  82839174.31948  20230191.5914   20230194.1964   20230191.5244
       250.000         227.000
 116575155.33748  90837754.33748  22183540.3324   22183543.0424   22183540.0964
       237.000         198.000
 117394303.86248  91476074.88848  22339397.9174   22339399.7174   22339398.3234
       240.000         201.000
 114963079.40248 107373818.38048  23779690.7864   23779692.3444   23779690.8684
       221.000         170.000
 140292483.49148  91526598.12848  24793844.2244   24793846.3544   24793846.1344
       195.000         132.000
 130826932.95348  84150840.58648  22992614.2254   22992618.0584   22992615.2884
       230.000         184.000
 117797626.33248  73998143.96548  20513211.1254   20513212.6154   20513210.6974
       251.000         236.000
 127794794.66348  99580349.66548  24318548.7954   24318552.0484   24318549.9774
       213.000         161.000
 138763220.36148  90334963.36048  24502835.0964   24502838.1074   24502835.0554
       209.000         164.000
 126511623.60048  98580464.19348  24074379.4284   24074382.6254   24074379.8324
       221.000         173.000
 09  1  5  0 37  0.0000000  0 10G26G 9G28G18G21G10G15G 8G17G27
 106334785.72948  82858256.70548  20234851.6514   20234854.3224   20234851.4544
       251.000         227.000
 116492704.43348  90773506.89248  22167850.4474   22167853.0564   22167850.6464
       235.000         196.000
 117449539.55648  91519115.69548  22349909.0324   22349911.0254   22349909.5574
       241.000         202.000
 114878081.09748 107307585.95048  23763515.3434   23763517.9314   23763515.1784
       219.000         167.000
 140332603.35248  91557860.28648  24801478.2304   24801482.3554   24801479.4034
       181.000         125.000
 130931031.25048  84231956.14948  23012423.7214   23012426.9994   23012424.2074
       231.000         183.000
 117770470.91448  73976983.89648  20508043.6634   20508045.0374   20508043.4444
       251.000         236.000
 127885341.66548  99650905.76148  24335779.5654   24335782.6894   24335779.7394
       215.000         163.000
 138693280.19948  90280464.55448  24489525.4424   24489528.5854   24489523.8494
       218.000         166.000
 126584497.61548  98637249.12948  24088246.6004   24088250.0654   24088246.1594
       221.000         170.000
 09  1  5  0 37 30.0000000  0  9G26G 9G28G18G10G15G 8G17G27
 106359668.40948  82877645.80448  20239586.9324   20239589.3994   20239586.8814
       251.000         227.000
 116410493.59348  90709446.51448  22152205.8084   22152208.6964   22152206.1524
       235.000         195.000
 117505195.24748  91562483.76548  22360500.1534   22360502.3274   22360501.1894
       240.000         202.000
 114793414.02248 107241611.60348  23747404.0244   23747405.9354   23747403.9414
       223.000         170.000
 131035321.00948  84313220.90348  23032269.2114   23032272.7364   23032269.7954
       230.000         184.000
 117743657.23848  73956090.12448  20502941.0954   20502942.5464   20502940.7874
       251.000         237.000
 127975907.22448  99721476.31148  24353013.4664   24353017.1524   24353013.8574
       212.000         163.000
 138623546.49648  90226126.58748  24476257.2024   24476259.0544   24476257.5094
       217.000         168.000
 126657377.55948  98694038.67548  24102115.2104   24102118.3494   24102115.3624
       221.000         170.000
 09  1  5  0 38  0.0000000  0  9G26G 9G28G18G10G15G 8G17G27
 106384944.55848  82897341.49548  20244396.8734   20244399.2164   20244396.7744
       251.000         227.000
 116328523.90948  90645574.05748  22136607.5174   22136610.3344   22136607.8274
       235.000         196.000
 117561268.80248  91606177.44048  22371170.5654   22371172.3264   22371170.9514
       239.000         201.000
 114709079.90448 107175896.69548  23731356.3394   23731357.5634   23731357.0624
       220.000         171.000
 131139799.77348  84394632.92148  23052150.6774   23052154.9004   23052151.4274
       230.000         185.000
 117717186.22248  73935463.35848  20497903.9274   20497905.4064   20497903.6094
       251.000         237.000
 128066490.26748  99792060.48748  24370250.7054   24370254.3424   24370249.9674
       214.000         164.000
 138554022.15048  90171951.79448  24463026.5154   24463029.5394   24463025.8644
       220.000         169.000
 126730262.70448  98750832.27448  24115985.1704   24115987.8434   24115984.9034
       221.000         172.000
 09  1  5  0 38 30.0000000  0  9G26G 9G28G18G10G15G 8G17G27
 106410614.80548  82917344.28248  20249281.7614   20249284.0454   20249281.7754
       251.000         227.000
 116246795.36648  90581889.50348  22121055.0904   22121058.1074   22121054.9174
       235.000         196.000
 117617758.45748  91650195.35848  22381920.0934   22381921.6934   22381920.1584
       241.000         202.000
 114625081.62548 107110443.52348  23715371.5014   23715373.5044   23715370.6114
       217.000         169.000
 131244465.03248  84476190.25548  23072067.6644   23072072.2994   23072068.4744
       229.000         185.000
 117691059.64948  73915104.98248  20492932.0214   20492933.7834   20492931.7664
       252.000         237.000
 128157090.39648  99862657.97548  24387491.7514   24387495.3114   24387492.0924
       216.000         166.000
 138484709.96748  90117942.30848  24449836.5034   24449838.4334   24449837.1594
       214.000         163.000
 126803152.96748  98807629.87848  24129855.3414   24129858.9804   24129855.7344
       218.000         171.000
 09  1  5  0 39  0.0000000  0  9G26G 9G28G18G10G15G 8G17G27
 106436680.10348  82937654.89348  20254241.7984   20254244.0234   20254241.6974
       251.000         227.000
 116165309.89548  90518394.34848  22105548.9614   22105551.5134   22105548.3234
       235.000         197.000
 117674663.28748  91694536.78248  22392748.8034   22392750.4854   22392749.8774
       240.000         201.000
 114541422.71748 107045254.74848  23699451.2404   23699453.8034   23699450.4684
       222.000         171.000
 131349315.03348  84557891.54048  23092019.9414   23092024.4314   23092020.6494
       229.000         185.000
 117665279.59648  73895016.63448  20488026.3434   20488028.0124   20488026.0724
       252.000         237.000
 128247707.28648  99933268.53748  24404734.8244   24404739.1544   24404734.9804
       214.000         166.000
 138415614.05048  90064101.36548  24436688.0694   24436690.5734   24436687.2194
       215.000         168.000
 126876048.77948  98864431.79248  24143727.3744   24143730.5664   24143727.7524
       220.000         168.000
 09  1  5  0 39 30.0000000  0  9G26G 9G28G18G10G15G 8G17G27
 106463138.92848  82958272.15748  20259276.6914   20259278.9924   20259276.6724
       251.000         226.000
 116084066.70348  90455087.98348  22090089.0604   22090091.6384   22090089.5784
       237.000         198.000
 117731979.73848  91739198.95648  22403655.6134   22403657.9804   22403655.9644
       240.000         201.000
 114458103.93448 106980331.02448  23683596.6664   23683598.4304   23683597.4654
       223.000         172.000
 131454345.48348  84639733.44348  23112006.7654   23112010.9954   23112007.6244
       230.000         184.000
 117639845.97048  73875198.21848  20483186.5874   20483188.1854   20483186.3164
       252.000         237.000
 128338338.54148 100003890.29048  24421982.3264   24421985.5934   24421981.8034
       218.000         168.000
 138346735.88548  90010430.04448  24423581.1724   24423582.7924   24423581.1564
       212.000         166.000
 126948948.19048  98921236.51048  24157599.3034   24157602.7004   24157598.8784
       222.000         167.000
 09  1  5  0 40  0.0000000  0  9G26G 9G28G18G10G15G 8G17G27
 106489991.94048  82979196.57348  20264386.5064   20264388.9884   20264386.3414
       251.000         226.000
 116003066.51248  90391970.97148  22074675.1404   22074678.0114   22074675.6274
       236.000         197.000
 117789706.00648  91784180.47448  22414640.8144   22414643.1764   22414641.0014
       241.000         201.000
 114375127.99248 106915674.45948  23667807.3694   23667808.7304   23667807.3034
       220.000         173.000
 131559553.86448  84721713.98748  23132027.6684   23132031.2224   23132028.9074
       230.000         183.000
 117614760.41048  73855651.02848  20478413.0454   20478414.5184   20478412.9284
       252.000         238.000
 128428983.84048 100074522.96448  24439231.0884   24439235.2294   24439231.6664
       221.000         167.000
 138278078.53748  89956930.82448  24410516.3264   24410517.9174   24410515.7964
       218.000         172.000
 127021851.22348  98978044.05848  24171472.5334   24171476.0424   24171473.4834
       222.000         168.000
 09  1  5  0 40 30.0000000  0  9G26G 9G28G18G10G15G 8G17G27
 106517239.25048  83000428.23548  20269571.6074   20269574.1374   20269571.5524
       251.000         226.000
 115922310.28448  90329044.05148  22059307.6554   22059310.5574   22059308.2854
       237.000         197.000
 117847840.28348  91829479.90948  22425703.2484   22425705.1984   22425703.7354
       240.000         200.000
 114292497.81648 106851287.33648  23652082.9944   23652085.0234   23652082.9014
       221.000         172.000
 131664938.08448  84803831.55648  23152081.6424   23152085.3084   23152082.6194
       229.000         183.000
 117590024.49148  73836376.28248  20473706.1294   20473707.5304   20473706.0194
       253.000         238.000
 128519642.32448 100145165.92548  24456482.7354   24456486.5874   24456483.9404
       219.000         167.000
 138209644.76148  89903605.82448  24397493.3754   24397496.1584   24397493.2414
       219.000         172.000
 127094757.61348  99034854.22048  24185346.6384   24185349.6874   24185347.1854
       220.000         167.000
 09  1  5  0 41  0.0000000  0  9G26G 9G28G18G10G15G 8G17G27
 106544881.30748  83021967.49048  20274831.7474   20274834.2474   20274831.4794
       250.000         226.000
 115841799.22648  90266308.17848  22043986.9734   22043989.7254   22043987.3424
       237.000         197.000
 117906380.87948  91875095.95948  22436842.9824   22436844.3384   22436843.7384
       238.000         198.000
 114210216.17248 106787171.77848  23636425.4654   23636427.4664   23636426.2664
       221.000         173.000
 131770495.57748  84886084.14048  23172168.5064   23172171.8404   23172168.9824
       229.000         182.000
 117565639.57348  73817375.04548  20469065.8044   20469067.2974   20469065.7814
       253.000         238.000
 128610313.29748 100215818.62148  24473737.2364   24473740.6264   24473736.6874
       216.000         166.000
 138141438.18848  89850457.85048  24384514.6094   24384516.4254   24384513.9184
       217.000         172.000
 127167666.93548  99091666.67948  24199220.5124   24199224.1254   24199220.5194
       222.000         168.000
 09  1  5  0 41 30.0000000  0  9G26G 9G28G18G10G15G 8G17G27
 106572918.56748  83043814.70048  20280167.0024   20280169.5084   20280166.8574
       251.000         226.000
 115761534.35048  90203764.12148  22028712.9654   22028715.8764   22028713.6744
       237.000         199.000
 117965326.29448  91921027.44948  22448059.7074   22448061.2344   22448059.9324
       238.000         198.000
 114128285.69848 106723329.86248  23620834.1004   23620835.9194   23620834.3384
       223.000         172.000
 131876224.01148  84968469.93148  23192287.8154   23192291.2154   23192288.9914
       229.000         182.000
 117541607.37048  73798648.64948  20464492.4544   20464494.0994   20464492.2644
       253.000         238.000
 128700996.36548 100286480.76648  24490993.1684   24490996.6464   24490993.2484
       219.000         165.000
 138073462.12248  89797489.49048  24371578.8674   24371581.4134   24371578.2464
       219.000         175.000
 127240579.38748  99148481.56548  24213095.4124   24213098.5594   24213096.0894
       222.000         168.000
 09  1  5  0 42  0.0000000  0  9G26G 9G28G18G10G15G 8G17G27
 106601350.75648  83065969.64748  20285577.4534   20285579.9084   20285577.3744
       251.000         226.000
 115681515.30748  90141411.64448  22013485.8364   22013488.6574   22013485.7064
       236.000         199.000
 118024674.08248  91967272.48748  22459353.4744   22459355.3424   22459354.0804
       240.000         198.000
 114046708.54948 106659763.23848  23605310.9864   23605312.0494   23605311.5254
       224.000         172.000
 131982120.05448  85050986.32648  23212439.0974   23212442.3474   23212439.7794
       228.000         180.000
 117517928.76048  73780197.78348  20459986.5684   20459988.0754   20459986.3974
       253.000         238.000
 128791690.26748 100357151.33248  24508252.4754   24508255.8274   24508253.2624
       222.000         168.000
 138005718.70048  89744702.41048  24358688.6004   24358690.2794   24358688.4614
       219.000         173.000
 127313494.17748  99205298.25948  24226970.7404   24226973.8754   24226972.0294
       219.000         166.000
 09  1  5  0 42 30.0000000  0  9G26G 9G28G18G10G15G 8G17G27
 106630177.35848  83088431.93148  20291063.0674   20291065.4744   20291063.0334
       250.000         226.000
 115601742.53748  90079251.06148  21998305.4384   21998308.4564   21998305.3924
       237.000         198.000
 118084421.70348  92013829.07248  22470722.9964   22470725.2494   22470724.3244
       239.000         197.000
 113965486.45848 106596473.29248  23589855.2314   23589856.0414   23589855.6324
       222.000         173.000
 132088181.29348  85133631.44148  23232621.4924   23232625.4614   23232622.4354
       226.000         180.000
 117494604.68448  73762023.17248  20455548.2684   20455549.6814   20455547.9944
       252.000         238.000
 128882393.31048 100427829.02548  24525512.9364   24525515.9334   24525513.8384
       219.000         167.000
 137938210.41348  89692098.52948  24345841.5604   24345843.3284   24345840.9784
       217.000         174.000
 127386410.43648  99262116.10348  24240846.0804   24240849.4874   24240846.4884
       217.000         164.000
 09  1  5  0 43  0.0000000  0  9G26G 9G28G18G10G15G 8G17G27
 106659398.54048  83111201.67348  20296623.7034   20296626.2054   20296623.5794
       251.000         227.000
 115522216.72348  90017282.91548  21983172.2874   21983174.8714   21983172.9904
       237.000         199.000
 118144567.36548  92060695.82748  22482168.3094   22482170.0984   22482168.7314
       238.000         197.000
 113884622.08248 106533462.10948  23574466.5684   23574468.5094   23574467.0924
       223.000         173.000
 132194405.01348  85216403.15548  23252835.5214   23252839.2054   23252836.2194
       228.000         178.000
 117471636.53848  73744125.91248  20451177.5424   20451179.0464   20451177.2944
       252.000         238.000
 128973105.23348 100498513.61448  24542774.2524   24542778.1334   24542774.4274
       221.000         167.000
 137870940.36048  89639680.34648  24333040.1924   24333042.6584   24333039.9464
       214.000         170.000
 127459327.74448  99318934.77848  24254721.9114   24254724.9064   24254722.0034
       219.000         164.000
 09  1  5  0 43 30.0000000  0  9G26G 9G28G18G10G15G 8G17G27
 106689016.21348  83134280.37948  20302259.8244   20302262.1674   20302259.8254
       251.000         227.000
 115442940.28248  89955509.07348  21968086.4794   21968089.2324   21968086.5094
       238.000         201.000
 118205110.16148  92107872.03148  22493689.2704   22493690.2564   22493689.3024
       237.000         195.000
 113804119.63348 106470732.93448  23559147.5594   23559149.8184   23559148.3854
       222.000         173.000
 132300789.90848  85299300.46848  23273079.6344   23273083.2844   23273080.6514
       225.000         180.000
 117449027.46348  73726508.44648  20446875.1814   20446876.5874   20446874.8464
       252.000         238.000
 129063826.76448 100569205.70148  24560037.9884   24560041.9314   24560038.3444
       220.000         167.000
 137803912.99248  89587451.23148  24320285.5914   24320287.6184   24320285.3164
       220.000         171.000
 127532247.35348  99375755.26748  24268597.5194   24268601.0654   24268597.5744
       217.000         163.000
 09  1  5  0 44  0.0000000  0 10G26G 9G28G18G10G15G 8G17G12G27
 106719029.63648  83157667.45248  20307971.2714   20307973.4744   20307971.2044
       252.000         227.000
 115363913.56348  89893929.82848  21953048.1484   21953051.1624   21953048.9104
       238.000         200.000
 118266047.83748  92155355.92148  22505285.2204   22505285.5254   22505285.0524
       238.000         194.000
 113723981.05048 106408287.29048  23543898.0184   23543899.2474   23543899.3154
       222.000         172.000
 132407332.76048  85382320.88248  23293354.2164   23293358.0294   23293354.5824
       227.000         181.000
 117426777.94348  73709171.15448  20442641.1844   20442642.7414   20442640.9434
       252.000         238.000
 129154556.28248 100639904.04348  24577303.0004   24577306.9394   24577303.8084
       220.000         166.000
 137737130.99948  89535413.33748  24307576.7944   24307579.7394   24307577.2214
       219.000         170.000
 131569210.96358 102521450.52758  25036797.2605   25036800.9815   25036798.1995
       207.000         149.000
 127605168.32748  99432576.78248  24282473.8784   24282477.6004   24282474.2864
       217.000         162.000
 09  1  5  0 44 30.0000000  0 10G26G 9G28G18G10G15G 8G17G12G27
 106749438.93448  83181363.00648  20313757.9354   20313760.2204   20313757.9284
       251.000         226.000
 115285136.59548  89832545.19848  21938057.5344   21938060.4064   21938058.0014
       238.000         201.000
 118327378.21248  92203145.82748  22516956.3714   22516956.7774   22516956.7334
       240.000         196.000
 113644208.36048 106346126.77748  23528717.8124   23528719.1004   23528718.8584
       224.000         175.000
 132514030.75948  85465462.15748  23313658.1864   23313662.8584   23313659.0904
       228.000         180.000
 117404889.05548  73692114.87548  20438475.8394   20438477.3724   20438475.6544
       252.000         238.000
 129245293.08748 100710608.03048  24594569.6884   24594573.4944   24594570.2494
       218.000         164.000
 137670596.62548  89483568.34748  24294916.5974   24294917.7014   24294916.9724
       218.000         171.000
 131453980.36248 102431660.47848  25014869.7514   25014874.5764   25014870.1624
       208.000         153.000
 127678090.17348  99489398.98148  24296350.7454   24296354.5464   24296351.2444
       218.000         164.000
 09  1  5  0 45  0.0000000  0 10G26G 9G28G18G10G15G 8G17G12G27
 106780243.80248  83205366.78948  20319619.9024   20319622.2174   20319619.7914
       251.000         226.000
 115206609.78548  89771355.48948  21923114.6004   21923117.1434   21923114.8724
       237.000         200.000
 118389098.96048  92251239.91848  22528701.3594   22528702.8284   22528702.7774
       237.000         197.000
 113564803.94848 106284253.20748  23513607.8584   23513609.3614   23513607.4554
       223.000         174.000
 132620881.18148  85548722.22548  23333991.3574   23333995.5534   23333993.2284
       226.000         180.000
 117383361.65248  73675340.27448  20434379.3324   20434380.9354   20434379.1204
       253.000         239.000
 129336035.73648 100781316.59648  24611836.8114   24611840.5204   24611836.6024
       215.000         162.000
 137604312.39548  89431918.33648  24282302.0444   24282305.3904   24282301.7234
       215.000         169.000
 131338786.51148 102341899.02948  24992949.6684   24992954.2424   24992948.7304
       203.000         152.000
 127751012.52748  99546221.57148  24310227.4834   24310231.0174   24310227.9024
       215.000         161.000
 09  1  5  0 45 30.0000000  0 10G26G 9G28G18G10G15G 8G17G12G27
 106811444.97548  83229679.38448  20325557.2564   20325559.7164   20325557.1094
       251.000         227.000
 115128334.81248  89710362.01348  21908219.0034   21908221.6384   21908219.3004
       238.000         200.000
 118451208.69848  92299637.12448  22540520.1134   22540523.1774   22540520.3934
       237.000         197.000
 113485770.89148 106222669.01348  23498568.4854   23498569.8414   23498567.7114
       226.000         176.000
 132727882.01848  85632099.48648  23354352.8044   23354356.9794   23354353.5084
       225.000         178.000
 117362198.15348  73658849.22848  20430352.1114   20430353.6454   20430351.9114
       252.000         239.000
 129426784.51048 100852029.89648  24629105.8624   24629109.3374   24629106.4484
       216.000         162.000
 137538282.21448  89380466.23948  24269737.3314   24269739.7724   24269736.5464
       216.000         168.000
 131223632.58248 102252168.75648  24971036.0224   24971040.7544   24971035.5514
       206.000         151.000
 127823935.78948  99603044.89748  24324103.5424   24324107.1724   24324103.4074
       215.000         160.000
 09  1  5  0 46  0.0000000  0 10G26G 9G28G18G10G15G 8G17G12G27
 106843042.22648  83254300.61948  20331569.8614   20331572.4504   20331569.7524
       251.000         226.000
 115050311.59448  89649564.72948  21893371.7384   21893374.4944   21893372.3464
       238.000         201.000
 118513704.96148  92348335.52148  22552412.7884   22552416.2314   22552413.4074
       237.000         199.000
 113407111.31548 106161375.83948  23483600.3934   23483601.6904   23483600.2724
       225.000         175.000
 132835030.08548  85715591.47348  23374742.7924   23374746.0774   23374743.2394
       227.000         178.000
 117341399.51848  73642642.49948  20426394.2374   20426395.7364   20426394.0164
       253.000         238.000
 129517538.08648 100922746.93848  24646376.2564   24646378.8464   24646376.9644
       220.000         165.000
 137472508.83148  89329214.25148  24257221.3324   24257223.3594   24257220.8774
       219.000         170.000
 131108520.50948 102162471.06448  24949131.6184   24949135.4994   24949131.4684
       210.000         152.000
 127896859.19348  99659868.30948  24337980.6634   24337984.2624   24337981.0394
       214.000         159.000
 09  1  5  0 46 30.0000000  0 10G26G 9G28G18G10G15G 8G17G12G27
 106875034.53048  83279229.67648  20337657.7554   20337660.3804   20337657.6144
       251.000         226.000
 114972539.98448  89588963.48848  21878572.3594   21878574.9264   21878572.1174
       238.000         201.000
 118576584.80748  92397332.81548  22564378.4924   22564382.1544   22564379.0134
       236.000         198.000
 113328826.46748 106100374.66248  23468702.9694   23468704.7934   23468703.7594
       225.000         176.000
 132942322.01048  85799195.58748  23395160.1594   23395163.1864   23395161.6214
       226.000         180.000
 117320965.67448  73626720.02348  20422505.7744   20422507.2994   20422505.5324
       253.000         239.000
 129608294.65648 100993466.33448  24663647.0334   24663649.9854   24663648.2034
       218.000         166.000
 137406993.58948  89278163.38648  24244753.9814   24244755.8524   24244753.7504
       216.000         166.000
 130993451.46248 102072806.84248  24927235.1934   24927237.9984   24927236.5614
       209.000         151.000
 127969781.30348  99716690.73948  24351857.6294   24351861.1774   24351858.3124
       211.000         158.000
 09  1  5  0 47  0.0000000  0 10G26G 9G28G18G10G15G 8G17G12G27
 106907423.10648  83304467.52448  20343821.0714   20343823.6494   20343821.0414
       251.000         226.000
 114895021.50548  89528559.49248  21863820.9924   21863823.2094   21863821.4744
       238.000         199.000
 118639847.22548  92446628.20848  22576417.1144   22576420.1654   22576417.2044
       236.000         197.000
 113250920.09948 106039668.41148  23453877.5794   23453879.4114   23453877.8994
       226.000         174.000
 133049756.03048  85882910.40248  23415603.5094   23415607.7504   23415603.7034
       225.000         180.000
 117300899.16348  73611083.78048  20418687.2224   20418688.7224   20418687.0604
       253.000         239.000
 129699054.40848 101064188.19748  24680917.4004   24680921.1164   24680917.2214
       217.000         165.000
 137341740.43948  89227316.80948  24232336.3484   24232338.7584   24232336.4344
       218.000         169.000
 130878428.71848 101983178.73748  24905347.4104   24905349.6554   24905346.9094
       206.000         149.000
 128042702.93148  99773512.74748  24365734.6774   24365737.6404   24365733.7024
       215.000         159.000
 09  1  5  0 47 30.0000000  0 10G26G 9G28G18G10G15G 8G17G12G27
 106940207.56048  83330013.84948  20350059.7254   20350062.2524   20350059.5694
       251.000         226.000
 114817756.69948  89468353.16948  21849117.7364   21849120.5744   21849117.8694
       238.000         201.000
 118703489.57548  92496219.65148  22588527.7014   22588530.5714   22588528.1664
       236.000         196.000
 113173394.28348 105979258.68548  23439125.1574   23439126.0114   23439126.4184
       225.000         174.000
 133157329.13648  85966733.59348  23436074.4224   23436078.5264   23436075.1614
       226.000         179.000
 117281200.69448  73595734.32348  20414938.8164   20414940.1684   20414938.5774
       253.000         239.000
 129789816.30748 101134911.72748  24698189.0334   24698192.4874   24698189.1314
       216.000         163.000
 137276752.07848  89176676.51148  24219970.1554   24219971.9944   24219969.9334
       216.000         167.000
 130763454.30948 101893588.30048  24883468.8234   24883470.1324   24883467.5944
       208.000         151.000
 128115623.47248  99830333.93748  24379609.9894   24379613.9474   24379609.7544
       217.000         158.000
 09  1  5  0 48  0.0000000  0 10G26G 9G28G18G10G15G 8G17G12G27
 106973387.77848  83355868.56048  20356373.8234   20356376.2134   20356373.7114
       252.000         226.000
 114740745.90548  89408344.78248  21834463.3254   21834466.2324   21834463.5454
       239.000         202.000
 118767509.80348  92546105.55748  22600710.5694   22600712.8214   22600711.2304
       236.000         193.000
 113096251.28748 105919147.27048  23424445.1644   23424446.6554   23424445.5154
       225.000         176.000
 133265038.94948  86050663.32748  23456570.5254   23456574.4334   23456571.7794
       225.000         177.000
 117261872.05148  73580673.04548  20411260.6694   20411262.1464   20411260.3714
       253.000         239.000
 129880579.76648 101205636.48048  24715461.1534   24715464.1974   24715461.7064
       217.000         160.000
 137212031.45648  89126244.88748  24207653.9794   24207656.3854   24207653.4294
       217.000         170.000
 130648530.52348 101804037.26148  24861600.1214   24861599.8694   24861598.8784
       211.000         152.000
 128188542.47548  99887153.96648  24393486.1964   24393489.8664   24393486.9814
       210.000         157.000
 09  1  5  0 48 30.0000000  0 10G26G 9G28G18G10G15G 8G17G12G27
 107006964.34348  83382032.11348  20362763.3674   20362765.7674   20362763.2644
       252.000         226.000
 114663990.05348  89348535.04648  21819857.0914   21819859.9964   21819857.1484
       238.000         202.000
 118831906.28948  92596284.62948  22612964.6954   22612966.1804   22612965.5764
       237.000         192.000
 113019493.80048 105859336.25248  23409838.5924   23409840.1624   23409839.5834
       226.000         175.000
 133372883.08248  86134697.69748  23477092.2754   23477096.7244   23477093.2244
       224.000         177.000
 117242914.60948  73565901.00548  20407653.2054   20407654.6704   20407653.0324
       253.000         239.000
 129971344.00448 101276361.86848  24732732.6354   24732736.0944   24732733.6024
       216.000         159.000
 137147581.86448  89076024.40748  24195389.4284   24195390.9444   24195388.5444
       218.000         168.000
 130533659.69148 101714527.52548  24839740.5174   24839740.2304   24839740.1804
       214.000         150.000
 128261460.00948  99943972.78848  24407361.8834   24407366.2614   24407361.1824
       216.000         157.000
 09  1  5  0 49  0.0000000  0 10G26G 9G28G18G10G15G 8G17G12G27
 107040936.94548  83408504.26548  20369228.0804   20369230.6524   20369228.1124
       251.000         226.000
 114587489.86648  89288924.52948  21805299.7054   21805302.5254   21805299.9624
       239.000         203.000
 118896676.76048  92646755.11248  22625290.2034   22625290.7294   22625291.2964
       235.000         191.000
 112943123.86748 105799827.20648  23395305.6784   23395307.5894   23395305.8894
       227.000         178.000
 133480858.80948  86218834.62048  23497640.1394   23497644.0364   23497641.1594
       224.000         176.000
 117224329.42548  73551419.04048  20404116.4644   20404118.0134   20404116.1924
       253.000         239.000
 130062108.44848 101347087.37148  24750005.0844   24750008.3794   24750005.1804
       220.000         162.000
 137083405.73248  89026017.04348  24183177.7394   24183179.2364   24183176.9584
       219.000         171.000
 130418844.40748 101625061.04948  24817892.3504   24817892.2474   24817893.3104
       211.000         153.000
 128334375.73448 100000790.19948  24421236.7984   24421241.3214   24421237.5044
       213.000         156.000
 09  1  5  0 49 30.0000000  0 10G26G 9G28G18G10G15G 8G17G12G27
 107075305.55848  83435284.99348  20375768.3254   20375770.7574   20375768.2434
       252.000         226.000
 114511245.72748  89229513.53348  21790790.7064   21790793.5264   21790791.0574
       239.000         203.000
 118961819.28148  92697515.50748  22637686.2024   22637685.8254   22637686.6634
       235.000         189.000
 112867144.12048 105740622.19048  23380847.8404   23380848.9934   23380848.6114
       226.000         176.000
 133588963.30248  86303071.89248  23518210.9204   23518215.1564   23518211.1474
       221.000         175.000
 117206117.52148  73537227.93748  20400650.9684   20400652.3674   20400650.7874
       253.000         239.000
 130152872.12448 101417812.32448  24767276.5884   24767279.7894   24767278.1574
       219.000         163.000
 137019505.88348  88976224.96848  24171017.7914   24171019.5014   24171017.4324
       220.000         172.000
 130304086.48248 101535639.29448  24796053.6814   24796055.2194   24796053.7154
       209.000         152.000
 128407289.51648 100057606.11448  24435112.5174   24435115.5324   24435113.3604
       212.000         156.000
 09  1  5  0 50  0.0000000  0 10G26G 9G28G18G10G15G 8G17G12G27
 107110070.15148  83462374.28148  20382383.9284   20382386.1484   20382384.0354
       251.000         226.000
 114435258.23448  89170302.51848  21776330.6254   21776333.7954   21776330.3334
       239.000         203.000
 119027331.34648  92748563.87048  22650152.8274   22650152.0634   22650153.2174
       236.000         190.000
 112791556.99948 105681723.13348  23366463.5514   23366465.3504   23366464.4424
       226.000         177.000
 133697194.03448  86387407.52848  23538806.9134   23538810.4934   23538807.3834
       224.000         174.000
 117188280.28948  73523328.79548  20397256.6044   20397258.0924   20397256.3494
       253.000         239.000
 130243634.68448 101488536.37948  24784547.9164   24784551.6444   24784548.3674
       216.000         162.000
 136955885.25148  88926650.47948  24158911.1104   24158913.5774   24158910.9614
       222.000         173.000
 130189388.42648 101446264.15148  24774226.7054   24774229.4234   24774225.4794
       204.000         152.000
 128480200.87348 100114420.17448  24448987.3444   24448990.4804   24448986.4564
       210.000         157.000
 09  1  5  0 50 30.0000000  0 10G26G 9G28G18G10G15G 8G17G12G27
 107145230.85548  83489772.22548  20389074.5814   20389076.9944   20389074.4514
       251.000         226.000
 114359528.26848  89111292.16948  21761919.8824   21761922.5724   21761919.9334
       240.000         203.000
 119093211.03148  92799898.68148  22662689.3044   22662689.3064   22662690.0544
       234.000         190.000
 112716365.08048 105623132.02648  23352155.2594   23352156.4444   23352155.2224
       227.000         175.000
 133805548.28848  86471839.40848  23559425.7024   23559429.6204   23559427.1374
       223.000         175.000
 117170819.62048  73509723.07248  20393934.0504   20393935.4474   20393933.8824
       253.000         239.000
 130334395.25748 101559258.87548  24801819.5424   24801822.5494   24801819.5124
       217.000         160.000
 136892546.82348  88877295.87348  24146858.7464   24146860.0774   24146858.8374
       222.000         175.000
 130074752.86648 101356937.73248  24752412.5874   24752416.1724   24752410.0674
       207.000         155.000
 128553109.64148 100171232.17648  24462862.1704   24462864.3214   24462861.7644
       215.000         158.000
 09  1  5  0 51  0.0000000  0 10G26G 9G28G18G10G15G 8G17G12G27
 107180787.06548  83517478.35448  20395840.6054   20395843.1804   20395840.5434
       251.000         226.000
 114284055.90248  89052482.54848  21747557.8474   21747560.7824   21747558.1264
       238.000         203.000
 119159455.62348  92851517.83648  22675295.1054   22675296.1484   22675295.0664
       235.000         191.000
 112641569.79948 105564850.00048  23337921.6854   23337923.0544   23337921.7634
       227.000         175.000
 133914022.71548  86556364.93048  23580067.5734   23580071.8974   23580068.0024
       222.000         174.000
 117153735.51348  73496410.77748  20390682.8704   20390684.4814   20390682.6424
       253.000         240.000
 130425152.62448 101629978.90848  24819089.2724   24819092.9054   24819089.5774
       218.000         160.000
 136829492.92048  88828162.91748  24134859.6054   24134861.6704   24134859.3164
       220.000         175.000
 129960181.03448 101267660.96948  24730609.9984   24730613.5884   24730609.7664
       211.000         155.000
 128626014.92148 100228041.48148  24476735.1254   24476738.2384   24476736.4414
       210.000         158.000
 09  1  5  0 51 30.0000000  0 10G26G 9G28G18G10G15G 8G17G12G27
 107216738.08048  83545492.13348  20402682.0614   20402684.4744   20402681.9724
       251.000         226.000
 114208841.13248  88993873.66248  21733245.0224   21733247.8564   21733245.3194
       239.000         203.000
 119226062.49648  92903419.29848  22687969.8554   22687971.7534   22687970.1564
       233.000         192.000
 112567172.95948 105506878.43848  23323764.6064   23323766.0844   23323764.8784
       228.000         177.000
 134022614.52248  86640981.91848  23600732.5324   23600736.0334   23600733.8904
       225.000         173.000
 117137028.97748  73483392.68948  20387503.8834   20387505.3014   20387503.6954
       253.000         240.000
 130515905.36248 101700695.30748  24836359.1244   24836362.9204   24836360.1234
       218.000         160.000
 136766725.61148  88779253.35248  24122915.3744   24122917.1434   24122914.7674
       218.000         173.000
 129845674.89048 101178435.38548  24708820.6044   24708824.2084   24708821.2104
       209.000         157.000
 128698915.98948 100284847.45848  24490607.7824   24490611.0544   24490607.1534
       211.000         158.000
 09  1  5  0 52  0.0000000  0 10G26G 9G28G18G10G15G 8G17G12G27
 107253085.13748  83573814.51048  20409598.7684   20409601.0794   20409598.6254
       252.000         226.000
 114133885.65048  88935466.81048  21718981.3394   21718984.1894   21718981.5624
       239.000         203.000
 119293030.62948  92955602.26448  22700713.4264   22700716.1094   22700713.3724
       233.000         193.000
 112493178.38448 105449220.33148  23309684.3594   23309685.2524   23309684.4514
       230.000         178.000
 134131322.40248  86725689.35848  23621418.9524   23621422.5064   23621420.1834
       225.000         175.000
 117120702.15948  73470670.49348  20384396.8794   20384398.4184   20384396.5894
       255.000         240.000
 130606654.06048 101771408.54548  24853628.6964   24853631.3844   24853628.7674
       218.000         163.000
 136704248.80148  88730570.12948  24111026.6994   24111028.6564   24111026.1264
       217.000         174.000
 129731237.83348 101089263.65948  24687044.1714   24687046.7444   24687044.3004
       211.000         155.000
 128771813.54348 100341650.77048  24504479.4614   24504482.7394   24504479.3184
       212.000         157.000
 09  1  5  0 52 30.0000000  0 10G26G 9G28G18G10G15G 8G17G12G27
 107289827.94348  83602445.25748  20416590.4474   20416593.0154   20416590.3444
       251.000         226.000
 114059189.74548  88877262.22848  21704767.4574   21704770.0514   21704767.8254
       240.000         204.000
 119360357.56948  93008064.82048  22713525.2564   22713528.3534   22713525.4184
       235.000         194.000
 112419588.01748 105391877.18548  23295680.4404   23295681.8104   23295680.9474
       231.000         180.000
 134240142.93148  86810484.56948  23642126.9854   23642130.8924   23642127.8444
       224.000         175.000
 117104756.25248  73458245.11348  20381362.5264   20381364.0294   20381362.2114
       255.000         240.000
 130697397.62848 101842117.81848  24870896.2834   24870899.5924   24870897.1694
       219.000         164.000
 136642065.06748  88682115.26848  24099193.3844   24099195.0164   24099192.6394
       218.000         173.000
 129616871.76548 101000147.28048  24665280.9234   24665283.2814   24665279.9304
       213.000         161.000
 128844707.25548 100398451.05848  24518351.4244   24518354.0534   24518352.0454
       213.000         159.000
 09  1  5  0 53  0.0000000  0 10G26G 9G28G18G10G15G 8G17G12G27
 107326966.84348  83631384.65248  20423657.7714   20423660.3144   20423657.7464
       252.000         226.000
 113984754.84948  88819261.01548  21690602.7244   21690605.5814   21690602.9264
       239.000         203.000
 119428041.90648  93060805.86648  22726405.3784   22726408.2414   22726405.9694
       235.000         194.000
 112346404.64948 105334851.16648  23281754.0114   23281755.7164   23281754.4674
       228.000         181.000
 134349074.34048  86895366.19748  23662855.6264   23662859.6964   23662856.0964
       223.000         175.000
 117089193.10148  73446117.97948  20378400.9344   20378402.4454   20378400.8284
       254.000         239.000
 130788135.98748 101912823.01448  24888163.0774   24888166.7544   24888163.6374
       217.000         165.000
 136580177.82648  88633891.45348  24087416.0864   24087418.3234   24087416.1764
       218.000         172.000
 129502579.60148 100911088.43848  24643532.8624   24643533.6734   24643531.5674
       217.000         162.000
 128917597.34148 100455248.50348  24532222.1114   24532224.5464   24532222.3854
       214.000         160.000
 09  1  5  0 53 30.0000000  0 10G26G 9G28G18G10G15G 8G17G12G27
 107364502.42348  83660633.15748  20430800.6524   20430803.1454   20430800.7154
       251.000         226.000
 113910581.68348  88761463.75348  21676487.9054   21676490.8164   21676487.8464
       239.000         204.000
 119496081.76848  93113823.94448  22739352.9824   22739355.8894   22739353.6694
       235.000         195.000
 112273631.19148 105278144.58448  23267905.5914   23267907.7374   23267905.7664
       230.000         182.000
 134458114.38148  86980332.46448  23683605.2414   23683609.7544   23683605.3804
       222.000         174.000
 117074014.21848  73434290.27048  20375512.5794   20375513.9954   20375512.2804
       255.000         240.000
 130878868.96048 101983524.01148  24905429.4964   24905432.9444   24905430.6284
       221.000         168.000
 136518590.44748  88585901.28548  24075696.6154   24075698.5814   24075695.9044
       216.000         172.000
 129388364.16348 100822089.38948  24621798.2404   24621798.7264   24621797.1864
       214.000         160.000
 128990484.10248 100512043.36648  24546091.5154   24546094.5134   24546090.6104
       209.000         159.000
 09  1  5  0 54  0.0000000  0 10G26G 9G28G18G10G15G 8G17G12G27
 107402434.28148  83690190.44448  20438018.8314   20438021.3884   20438018.7834
       251.000         226.000
 113836670.71948  88703870.79848  21662423.4604   21662426.0014   21662423.3924
       240.000         205.000
 119564474.71848  93167117.15748  22752367.8594   22752370.6464   22752368.8304
       235.000         195.000
 112201269.81148 105221759.09248  23254136.0964   23254137.1834   23254136.5434
       230.000         179.000
 134567260.28048  87065381.21648  23704375.2064   23704379.6394   23704375.7324
       225.000         174.000
 117059220.63448  73422762.79448  20372697.3954   20372698.7804   20372697.1664
       255.000         240.000
 130969595.64248 102054220.15348  24922694.2704   24922697.6034   24922695.0674
       218.000         165.000
 136457305.28348  88538146.63448  24064033.8464   24064036.2654   24064033.0964
       215.000         170.000
 129274227.51148 100733151.75148  24600077.4514   24600078.6524   24600076.4134
       216.000         160.000
 129063367.08048 100568835.28648  24559960.1114   24559963.5064   24559959.7644
       208.000         159.000
 09  1  5  0 54 30.0000000  0 10G26G 9G28G18G10G15G 8G17G12G27
 107440761.26048  83720055.61648  20445312.1994   20445314.6194   20445311.9454
       252.000         226.000
 113763021.67148  88646481.93648  21648408.3944   21648410.9944   21648408.8474
       238.000         204.000
 119633218.03248  93220683.38448  22765449.1524   22765452.0204   22765449.8024
       236.000         195.000
 112129321.56648 105165695.52448  23240444.7204   23240445.5874   23240445.6184
       227.000         178.000
 134676508.43948  87150509.62948  23725164.1044   23725168.6584   23725166.2944
       221.000         172.000
 117044812.95048  73411536.02448  20369955.7774   20369957.1424   20369955.4924
       255.000         240.000
 131060314.52848 102124910.17348  24939957.3734   24939960.7374   24939957.9994
       219.000         170.000
 136396324.19048  88490628.92448  24052429.4594   24052431.6404   24052428.8554
       216.000         171.000
 129160170.92748 100644276.45448  24578373.6774   24578374.2464   24578373.5264
       212.000         160.000
 129136245.01148 100625623.28448  24573828.6174   24573831.8404   24573830.3144
       209.000         159.000
 09  1  5  0 55  0.0000000  0 10G26G 9G28G18G10G15G 8G17G12G27
 107479483.79748  83750229.01548  20452680.8134   20452683.3924   20452680.7394
       251.000         226.000
 113689635.47248  88589297.91648  21634443.2524   21634446.2104   21634443.1584
       239.000         204.000
 119702309.70648  93274521.05948  22778597.1164   22778599.6804   22778597.9564
       236.000         195.000
 112057789.37648 105109956.16348  23226831.7494   23226833.3484   23226832.4784
       227.000         178.000
 134785856.66848  87235716.03448  23745972.5594   23745977.3054   23745973.4374
       222.000         173.000
 117030792.24548  73400610.79748  20367287.6584   20367289.1434   20367287.4544
                       240.000
 131151025.32048 102195593.87348  24957218.9374   24957222.3024   24957219.6294
       222.000         173.000
 136335650.51648  88443350.76048  24040884.2994   24040886.4524   24040884.3444
       216.000         172.000
 129046196.95948 100555465.59548  24556684.4244   24556685.7524   24556683.1224
       217.000         160.000
 129209118.22948 100682407.59948  24587695.9764   24587699.0174   24587696.2654
       211.000         159.000
 09  1  5  0 55 30.0000000  0 10G26G 9G28G18G10G15G 8G17G12G27
 107518601.67948  83780710.48548  20460124.8534   20460127.4264   20460124.8584
       251.000         226.000
 113616512.61248  88532319.07648  21620528.6054   21620531.2314   21620529.0654
       239.000         205.000
 119771747.44148  93328628.38648  22791810.8404   22791813.0294   22791811.7214
       234.000         194.000
 111986675.42148 105054542.69148  23213299.2424   23213301.2304   23213300.5834
       229.000         177.000
 134895302.28948  87320998.35548  23766799.1504   23766803.3604   23766800.5654
       221.000         171.000
  97017163.72658  93389991.05458  20364693.5285   20364694.9445   20364693.7465
       255.000         240.000
 131241727.12248 102266270.60548  24974478.6064   24974482.5984   24974479.0334
       219.000         166.000
 136275286.86748  88396314.15248  24029396.6384   24029399.6494   24029396.3464
       215.000         171.000
 128932307.86848 100466720.83248  24535013.3474   24535014.1974   24535014.0324
       218.000         165.000
 129281986.31948 100739187.92548  24601562.3824   24601565.5144   24601562.3554
       211.000         158.000
 09  1  5  0 56  0.0000000  0 10G26G 9G28G18G10G15G 8G17G12G27
 107558115.11048  83811500.16548  20467643.8704   20467646.4474   20467643.8654
       251.000         225.000
 113543654.16648  88475546.26048  21606664.1874   21606666.8014   21606664.5524
       239.000         205.000
 119841529.38048  93383003.92348  22805089.7374   22805091.7184   22805089.8854
       235.000         194.000
 111915982.55148 104999457.33948  23199846.9714   23199848.7904   23199847.8314
       228.000         179.000
 135004842.76248  87406354.53548  23787643.5904   23787647.8614   23787643.7134
       219.000         170.000
 117003917.09258  73379669.11658  20362173.4225   20362174.9125   20362173.4155
       255.000         240.000
 131332419.72348 102336940.15748  24991736.9364   24991740.6484   24991738.2784
       214.000         153.000
 136215236.34448  88349521.54248  24017970.6264   24017972.2034   24017969.9274
       219.000         173.000
 128818506.48648 100378044.42248  24513357.6044   24513359.2484   24513357.6104
       219.000         168.000
 129354849.49548 100795964.41848  24615427.5274   24615430.9254   24615428.2624
       209.000         157.000
 09  1  5  0 56 30.0000000  0 10G26G 9G28G18G10G15G 8G17G12G27
 107598023.72348  83842597.78148  20475238.1134   20475240.7074   20475238.0874
       251.000         225.000
 113471060.11048  88418979.47848  21592849.6914   21592852.5324   21592849.6814
       238.000         205.000
 119911653.03748  93437645.73648  22818433.4944   22818435.4484   22818433.9674
       233.000         193.000
 111845712.42648 104944701.39648  23186474.9794   23186476.7574   23186475.6904
       229.000         180.000
 135114475.27748  87491782.48348  23808506.7084   23808510.7414   23808506.8764
       224.000         173.000
  96991069.35258  93369658.76658  20359728.0355   20359729.4525   20359727.7325
       255.000         241.000
 131423102.30548 102407601.85048  25008993.3624   25008997.2924   25008994.5694
       205.000         140.000
 136155501.57248  88302974.98448  24006602.9864   24006605.6834   24006603.5874
       219.000         174.000
 128704794.58948 100289437.74948  24491719.1294   24491720.2724   24491718.5944
       218.000         167.000
 129427707.24548 100852736.71648  24629292.0784   24629295.0704   24629292.6664
       207.000         155.000
 09  1  5  0 57  0.0000000  0 10G26G 9G28G18G10G15G 8G17G12G27
 107638327.79148  83874003.55248  20482907.8974   20482910.3224   20482907.7504
       251.000         225.000
 113398731.83448  88362619.79448  21579086.0934   21579088.9514   21579086.4494
       239.000         205.000
 119982116.79748  93492552.56448  22831842.2944   22831843.9754   22831842.2334
       235.000         192.000
 111775867.85948 104890277.04048  23173184.3664   23173185.4744   23173184.4444
       226.000         179.000
 135224198.04348  87577280.75048  23829386.4654   23829390.4014   23829387.6644
       221.000         168.000
 116978602.02458  73359941.20358  20357356.9315   20357358.6605   20357356.4875
       255.000         241.000
 141513850.52858  92478327.54758  25026249.9855   25026249.1565   25026248.5915
       197.000         129.000
 136096085.43648  88256676.71348  23995296.3624   23995299.3714   23995295.5264
       221.000         173.000
 128591174.98448 100200903.00848  24470098.1534   24470099.5284   24470096.7034
       219.000         169.000
 129500559.99548 100909505.05648  24643155.5824   24643158.7474   24643154.8224
       212.000         159.000
 09  1  5  0 57 30.0000000  0  8G26G 9G28G18G10G17G12G27
 107679026.40448  83905716.74948  20490652.4394   20490655.0814   20490652.3954
       251.000         225.000
 113326669.16748  88306467.07048  21565373.3544   21565375.6664   21565373.2754
       241.000         206.000
 120052917.73248  93547722.12848  22845315.5194   22845316.8634   22845316.3794
       235.000         191.000
 111706450.56048 104836185.64548  23159974.2604   23159976.5484   23159974.5934
       228.000         180.000
 135334007.48348  87662846.55948  23850281.6274   23850285.9024   23850282.0024
       221.000         169.000
 136036990.28148  88210628.55448  23984051.5934   23984053.1024   23984051.7974
       219.000         172.000
 128477649.48948 100112441.59248  24448494.8144   24448496.9834   24448495.4564
       221.000         169.000
 129573406.68648 100966268.70748  24657017.4204   24657020.5684   24657018.7294
       206.000         157.000
 09  1  5  0 58  0.0000000  0  8G26G 9G28G18G10G17G12G27
 107720119.33348  83937737.20648  20498472.2394   20498474.8864   20498472.2934
       251.000         225.000
 113254872.25748  88250521.43748  21551710.8794   21551713.0654   21551711.3214
       239.000         205.000
 120124053.50348  93603152.58948  22858852.0764   22858853.5284   22858852.3944
       234.000         191.000
 111637462.28848 104782428.55148  23146846.5594   23146848.7624   23146847.8904
       228.000         181.000
 135443900.48848  87748477.44048  23871193.4674   23871198.1614   23871194.3424
       219.000         168.000
 135978218.20548  88164832.13148  23972867.7214   23972869.6134   23972867.5634
       217.000         173.000
 128364219.59048 100024054.66848  24426909.7364   24426912.0164   24426910.0084
       218.000         167.000
 129646246.80348 101023027.24648  24670879.3684   24670881.6154   24670879.5104
       209.000         157.000
 09  1  5  0 58 30.0000000  0  8G26G 9G28G18G10G17G12G27
 107761607.01248  83970065.26348  20506367.2074   20506369.7004   20506367.0844
       251.000         225.000
 113183342.42148  88194783.93248  21538098.5634   21538101.7534   21538098.4194
       239.000         206.000
 120195522.14048  93658842.43648  22872452.6484   22872453.9044   22872453.1134
       234.000         192.000
 111568906.17048 104729008.19248  23133800.7164   23133802.6424   23133802.1414
       227.000         180.000
 135553875.77248  87834172.46448  23892121.5704   23892125.9974   23892122.3224
       221.000         172.000
 135919772.85048  88119290.27648  23961745.8524   23961747.8684   23961745.7204
       219.000         172.000
 128250888.49248  99935744.73848  24405342.8214   24405345.4894   24405342.1474
       217.000         168.000
 129719080.96648 101079781.12048  24684738.2034   24684741.5234   24684737.8074
       208.000         158.000
 09  1  5  0 59  0.0000000  0  9G26G 9G28G18G10G15G17G12G27
 107803489.52748  84002700.98148  20514336.9394   20514339.6134   20514336.7054
       251.000         225.000
 113112080.45548  88139255.13748  21524538.0494   21524541.0804   21524538.0104
       240.000         206.000
 120267322.00048  93714790.38448  22886115.3964   22886117.0174   22886115.6234
       233.000         191.000
 111500784.32548 104675926.24148  23120837.8684   23120839.5404   23120839.5084
       229.000         181.000
 135663930.54348  87919929.41748  23913064.4594   23913068.4704   23913065.3934
       224.000         168.000
  96932715.39558  93324188.57858  20348623.2145   20348624.5185   20348623.0475
                       241.000
 135861656.90148  88074005.14048  23950686.3974   23950688.1214   23950686.9784
       221.000         173.000
 128137658.90348  99847513.89548  24383796.0644   24383797.9724   24383795.8264
       217.000         166.000
 129791909.31948 101136530.50348  24698597.7164   24698600.7664   24698598.0174
       209.000         158.000
 09  1  5  0 59 30.0000000  0  8G26G 9G28G18G10G17G12G27
 107845766.20848  84035643.85148  20522382.4284   20522384.5544   20522382.3884
       251.000         225.000
 113041086.34848  88083935.06048  21511028.6644   21511031.3514   21511029.0024
       238.000         206.000
 120339450.41748  93770994.34748  22899840.5284   22899842.3994   22899840.4584
       232.000         190.000
 111433098.54748 104623184.09348  23107957.2764   23107959.2884   23107958.7014
       227.000         180.000
 135774061.68348  88005745.88148  23934021.7964   23934025.0094   23934023.5044
       221.000         166.000
 135803872.71148  88028978.49848  23939690.3454   23939692.2474   23939690.8894
       218.000         173.000
 128024532.29448  99759363.33748  24362268.0484   24362270.2574   24362268.1364
       214.000         164.000
 129864730.91448 101193274.56348  24712454.8444   24712457.9804   24712455.4124
       211.000         158.000
 09  1  5  1  0  0.0000000  0  9G26G 9G28G18G10G15G17G12G27
 107888437.50248  84068894.19448  20530501.7724   20530504.7054   20530501.3714
       252.000         225.000
 112970361.45048  88028824.77848  21497569.6864   21497572.9154   21497569.6074
       241.000         206.000
 120411905.84148  93827453.11748  22913628.2834   22913630.3464   22913628.3044
       233.000         190.000
 111365852.04048 104570784.22448  23095160.7944   23095162.2984   23095161.4054
       230.000         183.000
 135884267.21248  88091620.34448  23954993.5984   23954997.0784   23954995.1754
       223.000         168.000
 116912148.38858  73308160.88458  20344709.8085   20344711.1665   20344709.4935
                       241.000
 135746423.69548  87984213.04548  23928758.3224   23928759.7264   23928757.4994
       219.000         172.000
 127911511.83048  99671295.43948  24340761.9904   24340763.2314   24340761.9564
       219.000         164.000
 129937546.43648 101250013.95548  24726310.9274   24726314.1714   24726310.8754
       211.000         159.000
 09  1  5  1  0 30.0000000  0  8G26G 9G28G18G10G17G12G27
 107931502.83648  84102451.60548  20538697.4594   20538699.7234   20538697.7404
       250.000         225.000
 112899906.23348  87973924.61948  21484162.9654   21484165.6744   21484163.4004
       241.000         207.000
 120484685.67748  93884164.67648  22927477.9634   22927479.5894   22927478.7134
       232.000         190.000
 111299046.63848 104518728.04748  23082448.6964   23082449.7224   23082449.2934
       228.000         182.000
 135994544.24648  88177550.48248  23975977.8524   23975982.9954   23975979.0754
       220.000         167.000
 135689312.43548  87939710.76848  23917890.0544   23917891.8844   23917889.3834
       221.000         175.000
 127798599.66348  99583311.94448  24319276.1314   24319276.5034   24319275.4744
       217.000         165.000
 130010355.30448 101306748.12948  24740166.0824   24740169.8414   24740165.2534
       210.000         160.000
 09  1  5  1  1  0.0000000  0  8G26G 9G28G18G10G17G12G27
 107974961.84748  84136315.74848  20546967.1074   20546969.7774   20546966.7144
       252.000         225.000
 112829720.98048  87919234.82948  21470806.9794   21470809.6814   21470807.2554
       240.000         206.000
 120557787.58148  93941127.20048  22941388.9804   22941390.3584   22941389.5584
       234.000         190.000
 111232684.17448 104467017.04548  23069819.8134   23069821.8234   23069820.0884
       228.000         182.000
 136104889.86948  88263534.08848  23996976.0754   23996980.2794   23996976.5994
       220.000         166.000
 135632541.31448  87895473.56548  23907087.1584   23907088.8474   23907086.9984
       219.000         174.000
 127685797.46248  99495414.13248  24297810.5034   24297811.2174   24297811.3434
       219.000         168.000
 130083157.07148 101363476.74848  24754019.7334   24754023.6624   24754019.9584
       209.000         158.000
 09  1  5  1  1 30.0000000  0  9G26G 9G28G18G10G15G17G12G27
 108018814.44248  84170486.59448  20555312.2654   20555314.5924   20555312.4634
       251.000         225.000
 112759806.25048  87864755.82848  21457502.7984   21457505.2194   21457502.7404
       240.000         207.000
 120631209.54148  93998339.11348  22955360.5594   22955362.1084   22955361.4714
       234.000         190.000
 111166766.41148 104415652.53848  23057275.6034   23057277.6934   23057275.0984
       227.000         181.000
 136215302.13548  88349569.61348  24017987.0234   24017990.7434   24017987.7404
       220.000         169.000
  96884308.43958  93286468.06658  20339411.6195   20339412.9475   20339410.9615
       255.000         241.000
 135576112.87448  87851503.34548  23896348.7604   23896350.7104   23896348.2174
       218.000         175.000
 127573107.69048  99407603.92048  24276366.4564   24276367.7234   24276367.1444
       220.000         170.000
 130155952.02048 101420200.08548  24767872.4434   24767875.6714   24767873.1464
       212.000         160.000
 09  1  5  1  2  0.0000000  0  9G26G 9G28G18G10G15G17G12G27
 108063060.29548  84204963.88248  20563731.7094   20563734.3004   20563731.4974
       251.000         225.000
 112690162.61448  87810488.07548  21444249.9864   21444252.8584   21444250.1094
       240.000         207.000
 120704949.13248  94055798.52748  22969392.9034   22969394.4334   22969393.6694
       232.000         189.000
 111101296.51548 104364637.03148  23044817.6924   23044819.2624   23044817.7844
       230.000         182.000
 136325777.95348  88435654.65848  24039009.9724   24039014.1234   24039010.6684
       220.000         166.000
 116875824.92558  73279856.77358  20337798.4075   20337800.0275   20337798.3505
       255.000         241.000
 135520029.65848  87807802.13048  23885677.0524   23885678.8444   23885676.5754
       222.000         176.000
 127460532.54748  99319883.05948  24254943.4304   24254945.9004   24254943.8924
       217.000         169.000
 130228739.61048 101476917.66448  24781723.5994   24781726.3994   24781722.7354
       214.000         163.000
 09  1  5  1  2 30.0000000  0  8G26G 9G28G18G10G17G12G27
 108107699.04948  84239747.31748  20572226.3604   20572228.9214   20572226.2694
       251.000         225.000
 112620790.36048  87756431.79448  21431048.7224   21431051.6564   21431048.7574
       241.000         207.000
 120779003.80648  94113503.47648  22983485.1624   22983486.4994   22983485.4864
       233.000         189.000
 111036275.57248 104313971.36848  23032444.7824   23032446.3654   23032445.6854
       227.000         183.000
 136436314.58148  88521787.09348  24060044.2354   24060048.3914   24060045.3024
       218.000         165.000
 135464293.98248  87764371.75948  23875070.3964   23875072.3604   23875070.4124
       221.000         175.000
 127348073.81748  99232252.94448  24233542.3884   24233546.0224   24233541.6674
       217.000         170.000
 130301519.63148 101533629.37248  24795573.3834   24795575.9514   24795574.1434
       214.000         162.000
 09  1  5  1  3  0.0000000  0  8G26G 9G28G18G10G17G12G27
 108152730.54448  84274836.78648  20580795.8614   20580798.0234   20580795.7414
       252.000         225.000
 112551689.96448  87702587.33748  21417899.4764   21417902.1924   21417900.0284
       241.000         209.000
 120853371.53448  94171452.35548  22997636.6954   22997638.6544   22997637.0694
       231.000         189.000
 110971706.18248 104263657.56248  23020157.1284   23020159.0064   23020157.9024
       229.000         182.000
 136546909.51648  88607964.93448  24081089.6194   24081093.4624   24081090.1364
       219.000         164.000
 135408908.91748  87721214.57648  23864530.9384   23864533.1484   23864530.7814
       220.000         175.000
 127235734.36248  99144715.70648  24212165.9724   24212167.9224   24212166.2334
       219.000         169.000
 130374292.07148 101590335.17748  24809421.1834   24809424.1374   24809421.4954
       214.000         162.000
 09  1  5  1  3 30.0000000  0  8G26G 9G28G18G10G17G12G27
 108198154.98348  84310232.44848  20589439.6334   20589442.1234   20589439.5574
       252.000         225.000
 112482862.42848  87648955.49848  21404802.2924   21404804.6784   21404802.6614
       241.000         208.000
 120928050.39448  94229643.65948  23011847.5614   23011849.6314   23011847.3564
       231.000         188.000
 110907590.71548 104213697.45148  23007957.0104   23007958.5874   23007957.7134
       232.000         186.000
 136657560.29348  88694186.35748  24102146.6914   24102149.3174   24102147.8244
       216.000         162.000
 135353877.62848  87678333.04748  23854059.1424   23854061.6764   23854058.4244
       220.000         176.000
 127123516.80248  99057273.47848  24190811.7684   24190812.8734   24190812.2994
       218.000         163.000
 130447057.29448 101647035.32648  24823267.7274   24823271.0974   24823267.5774
       213.000         162.000
 09  1  5  1  4  0.0000000  0  8G26G 9G28G18G10G17G12G27
 108243971.69548  84345933.77648  20598158.2364   20598160.7104   20598158.0874
       252.000         225.000
 112414308.21248  87595536.63848  21391756.4214   21391759.4294   21391756.5724
       241.000         208.000
 121003038.07348  94288075.62248  23026117.3774   23026119.1154   23026117.4594
       231.000         189.000
 110843931.13448 104164092.58648  22995842.9734   22995844.4554   22995843.7984
       230.000         183.000
 136768264.52548  88780449.38448  24123211.4654   24123216.3504   24123211.6914
       216.000         163.000
 135299202.15748  87635728.78848  23843654.8194   23843656.9404   23843654.7384
       220.000         176.000
 127011422.92648  98969927.63648  24169480.0784   24169481.6204   24169481.1054
       218.000         166.000
 130519814.83048 101703729.49748  24837113.2474   24837116.7654   24837113.8734
       214.000         163.000
 09  1  5  1  4 30.0000000  0  9G26G 9G28G18G10G15G17G12G27
 108290180.69448  84381940.77548  20606951.5664   20606953.8134   20606951.5244
       252.000         225.000
 112346027.85148  87542331.17848  21378763.1254   21378766.0044   21378763.0634
       241.000         208.000
 121078332.53748  94346746.63248  23040445.4854   23040447.0704   23040445.5924
       231.000         187.000
 110780729.73148 104114844.73948  22983816.0834   22983817.4514   22983816.7904
       228.000         184.000
 136879019.63648  88866752.06148  24144287.2734   24144292.3324   24144287.5944
       216.000         165.000
  96839546.61958  93251589.70058  20330893.6825   20330894.9715   20330893.2845
       255.000         241.000
 135244885.38848  87593404.03248  23833318.3594   23833321.1114   23833317.9694
       224.000         178.000
 126899455.39248  98882680.22448  24148174.1034   24148175.4844   24148173.7114
       219.000         171.000
 130592564.67748 101760417.67348  24850957.7244   24850960.3874   24850957.8284
       216.000         165.000
 09  1  5  1  5  0.0000000  0  8G26G 9G28G18G10G17G12G27
 108336781.76048  84418253.28748  20615819.5554   20615822.0174   20615819.6004
       252.000         225.000
 112278022.02248  87489339.62848  21365821.9854   21365824.9664   21365822.3954
       240.000         208.000
 121153931.38448  94405654.82248  23054831.1714   23054832.8134   23054831.7554
       231.000         187.000
 110717988.34348 104065955.33648  22971876.9854   22971877.9474   22971877.1984
       233.000         184.000
 136989822.96748  88953092.33748  24165373.5114   24165377.5754   24165374.5914
       218.000         163.000
 135190929.82748  87551360.77148  23823051.1704   23823053.1964   23823051.4394
       220.000         176.000
 126787616.21248  98795532.81648  24126892.1444   24126893.4464   24126891.4784
       219.000         168.000
 130665306.65248 101817099.73448  24864799.8024   24864802.6894   24864800.4404
       216.000         166.000
 09  1  5  1  5 30.0000000  0  8G26G 9G28G18G10G17G12G27
 108383773.88248  84454870.52348  20624761.7924   20624764.2254   20624761.6494
       252.000         225.000
 112210290.67848  87436561.96248  21352933.2874   21352935.8114   21352933.8024
       241.000         208.000
 121229832.00748  94464798.16848  23069274.5174   23069276.2374   23069274.4534
       230.000         186.000
 110655708.85148 104017425.87248  22960025.6864   22960026.9194   22960027.6524
       233.000         184.000
 137100671.83648  89039468.03548  24186465.8154   24186471.4484   24186466.4704
       213.000         161.000
 135137337.59948  87509600.58148  23812852.5094   23812854.6044   23812851.2674
       221.000         175.000
 126675907.35048  98708486.93748  24105634.4514   24105635.8724   24105634.4654
       218.000         168.000
 130738040.27948 101873775.28448  24878640.9474   24878643.8054   24878640.9384
       218.000         167.000
 09  1  5  1  6  0.0000000  0  8G26G 9G28G18G10G17G12G27
 108431157.89248  84491793.12248  20633778.6724   20633780.9384   20633778.5894
       252.000         224.000
 112142835.20748  87383999.27448  21340096.8534   21340099.4134   21340097.1834
       241.000         208.000
 121306032.81348  94524175.40948  23083775.1214   23083776.5664   23083775.5314
       231.000         186.000
 110593893.83848 103969258.32648  22948262.1924   22948263.6544   22948263.5524
       231.000         184.000
 137211564.09048  89125877.57248  24207568.9974   24207573.0444   24207569.1024
       217.000         165.000
 135084112.16348  87468126.22848  23802724.4784   23802726.5494   23802725.1424
       219.000         175.000
 126564331.77748  98621544.93448  24084402.1634   24084403.9014   24084402.3014
       218.000         169.000
 130810766.16048 101930444.80248  24892479.1204   24892482.9444   24892479.6784
       214.000         166.000
 09  1  5  1  6 30.0000000  0  8G26G 9G28G18G10G17G12G27
 108478932.37148  84529019.98548  20642869.6904   20642872.1444   20642869.6394
       251.000         224.000
 112075655.36748  87331651.36448  21327312.6234   21327315.7594   21327312.9414
       241.000         209.000
 121382530.85048  94583784.28248  23098332.2354   23098333.9064   23098332.8374
       230.000         186.000
 110532544.67048 103921453.77248  22936587.8384   22936589.4054   22936589.3314
       230.000         183.000
 137322496.41748  89212318.33648  24228679.4364   24228682.6844   24228679.8604
       221.000         163.000
 135031255.07148  87426938.90048  23792666.0044   23792667.7934   23792667.1474
       220.000         176.000
 126452890.76148  98534707.83748  24063195.0764   24063197.1514   24063195.7974
       220.000         169.000
 130883483.21548 101987107.42148  24906317.0484   24906320.6664   24906317.5834
       216.000         167.000
 09  1  5  1  7  0.0000000  0  8G26G 9G28G18G10G17G12G27
 108527097.91248  84566551.57048  20652035.2754   20652037.7364   20652035.1484
       251.000         224.000
 112008752.38948  87279519.19048  21314581.8744   21314584.4914   21314581.7904
       242.000         209.000
 121459324.51248  94643623.48548  23112945.5924   23112947.2194   23112945.5194
       230.000         185.000
 110471664.21948 103874014.45648  22925002.4844   22925004.3264   22925003.0874
       229.000         185.000
 137433466.86848  89298788.84748  24249795.9324   24249799.6814   24249797.0254
       216.000         159.000
 134978769.96648  87386041.40948  23782678.2954   23782680.8954   23782678.4534
       221.000         177.000
 126341587.63548  98447978.13448  24042015.3544   24042016.7114   24042015.1694
       222.000         171.000
 130956192.37048 102043763.89248  24920152.9584   24920156.2844   24920153.1504
       218.000         166.000
 09  1  5  1  7 30.0000000  0  8G26G 9G28G18G10G17G12G27
 108575654.17248  84604387.60948  20661275.3534   20661277.7274   20661275.1994
       251.000         224.000
 111942126.67948  87227603.05748  21301903.1714   21301905.5184   21301902.9144
       241.000         208.000
 121536411.54848  94703691.29948  23127614.8974   23127616.1144   23127615.6924
       232.000         184.000
 110411254.26648 103826941.75348  22913507.0604   22913508.6304   22913506.9454
       231.000         184.000
 137544473.19448  89385287.27748  24270919.7334   24270923.2094   24270920.0544
       218.000         161.000
 134926658.99348  87345435.47748  23772761.6664   23772764.5314   23772762.4774
       220.000         178.000
 126230424.47648  98361357.50948  24020861.3374   24020862.9864   24020860.5384
       221.000         169.000
 131028893.43548 102100414.07148  24933988.4814   24933991.3184   24933989.3944
       219.000         166.000
 09  1  5  1  8  0.0000000  0  8G26G 9G28G18G10G17G12G27
 108624600.11848  84642527.30548  20670589.4094   20670591.8074   20670589.3074
       251.000         224.000
 111875778.46048  87175903.16248  21289277.5714   21289280.1074   21289277.0524
       241.000         209.000
 121613789.31648  94763985.67048  23142339.5244   23142340.7114   23142340.7064
       229.000         184.000
 110351316.47848 103780236.98548  22902101.2494   22902102.9984   22902101.9584
       231.000         186.000
 137655512.05748  89471811.08148  24292050.2264   24292053.4574   24292050.4944
       217.000         160.000
 134874924.13248  87305122.59848  23762917.4554   23762919.0434   23762917.5784
       222.000         178.000
 126119403.00848  98274847.31748  23999733.9744   23999736.5374   23999734.4724
       220.000         166.000
 131101585.94048 102157057.55848  24947820.6514   24947824.3194   24947822.2494
       218.000         167.000
 09  1  5  1  8 30.0000000  0  8G26G 9G28G18G10G17G12G27
 108673935.93948  84680970.79648  20679977.6064   20679980.1534   20679977.5434
       251.000         224.000
 111809708.85248  87124420.35648  21276705.0974   21276707.5374   21276705.1734
       242.000         209.000
 121691455.77048  94824504.98048  23157118.6584   23157120.1854   23157118.8224
       230.000         183.000
 110291853.10248 103733901.88648  22890786.2844   22890787.6684   22890786.9254
       231.000         186.000
 137766581.24548  89558358.48248  24313185.4484   24313189.8384   24313185.6024
       217.000         163.000
 134823568.49448  87265105.23148  23753144.5474   23753146.5394   23753144.9304
       222.000         179.000
 126008525.86148  98188449.52548  23978634.5134   23978637.3814   23978634.7014
       219.000         169.000
 131174270.02648 102213694.50648  24961652.8014   24961655.1514   24961653.2314
       221.000         166.000
 09  1  5  1  9  0.0000000  0  8G26G 9G28G18G10G17G12G27
 108723661.25048  84719717.77748  20689440.0734   20689442.5514   20689440.0234
       250.000         224.000
 111743917.96348  87073154.74348  21264185.6804   21264187.8764   21264186.0904
       242.000         209.000
 121769408.68248  94885247.51248  23171952.7394   23171954.1854   23171953.0794
       229.000         184.000
 110232866.16748 103687938.02648  22879561.2094   22879562.2694   22879562.3614
       231.000         185.000
 137877678.21748  89644927.52748  24334326.9714   24334330.5634   24334327.6214
       217.000         164.000
 134772594.53248  87225385.27248  23743444.5034   23743446.3494   23743443.9364
       223.000         181.000
 125897795.09448  98102165.82148  23957563.6334   23957565.9314   23957562.9854
       221.000         173.000
 131246945.54348 102270324.75348  24975481.6534   24975484.8374   24975481.2174
       217.000         166.000
 09  1  5  1  9 30.0000000  0  8G26G 9G28G18G10G17G12G27
 108773775.24848  84758767.64148  20698976.4064   20698978.9754   20698976.3474
       251.000         223.000
 111678405.86948  87022106.36448  21251718.7654   21251721.4844   21251719.1284
       242.000         210.000
 121847645.39548  94946211.17848  23186840.5814   23186841.9484   23186841.5304
       229.000         181.000
 110174357.37748 103642346.76048  22868427.2304   22868428.7274   22868427.5764
       232.000         186.000
 137988799.95548  89731515.87548  24355473.4434   24355475.5274   24355474.4884
       216.000         160.000
 134722004.09748  87185964.15848  23733817.5774   23733819.3774   23733817.8484
       225.000         180.000
 125787212.78848  98015997.80648  23936521.4494   23936523.1804   23936521.3474
       223.000         175.000
 131319611.84848 102326947.87448  24989309.1184   24989312.8724   24989309.0784
       214.000         167.000
 09  1  5  1 10  0.0000000  0  8G26G 9G28G18G10G17G12G27
 108824276.56648  84798119.31848  20708586.5864   20708589.0204   20708586.5884
       251.000         223.000
 111613172.07848  86971274.84448  21239305.4084   21239307.9294   21239306.2504
       242.000         210.000
 121926162.63448  95007393.44348  23201782.0504   23201783.0324   23201783.2584
       230.000         182.000
 110116327.48248 103597128.65548  22857384.4804   22857385.9364   22857385.1464
       231.000         185.000
 138099943.13148  89818120.95348  24376622.0814   24376625.5274   24376623.2844
       215.000         155.000
 134671798.74548  87146843.12048  23724263.7384   23724265.9364   23724263.3444
       224.000         180.000
 125676779.83348  97929946.17448  23915506.6024   23915507.9514   23915506.5454
       222.000         173.000
 131392268.10648 102383563.12848  25003135.8264   25003139.0744   25003135.4304
       219.000         166.000
 09  1  5  1 10 30.0000000  0  9G26G 9G28G18G10G15G17G12G27
 108875167.48148  84837774.56848  20718270.7584   20718273.2174   20718270.6604
       250.000         223.000
 111548220.06248  86920662.87948  21226945.2254   21226947.8534   21226945.7024
       242.000         210.000
 122004960.77148  95068794.59048  23216777.0244   23216778.1504   23216777.5784
       228.000         181.000
 110058780.78948 103552287.08948  22846433.6704   22846435.2944   22846434.1394
       230.000         184.000
 138211107.73548  89904742.75348  24397774.9374   24397779.2314   24397774.9714
       209.000         153.000
 116794532.28258  73216512.43558  20322328.5885   20322330.1085   20322328.3995
       254.000         242.000
 134621983.71448  87108026.20548  23714784.0044   23714786.4864   23714783.2884
       223.000         180.000
 125566501.45848  97844014.98148  23894520.6434   23894521.5624   23894520.8074
       223.000         173.000
 131464916.84948 102440172.52348  25016960.3254   25016963.4194   25016960.4904
       219.000         167.000
 09  1  5  1 11  0.0000000  0  9G26G 9G28G18G10G15G17G12G27
 108926446.80248  84877732.46948  20728028.9574   20728031.4444   20728028.7664
       251.000         224.000
 111483549.64548  86870270.34748  21214639.0144   21214641.3904   21214639.4594
       242.000         211.000
 122084037.22948  95130412.59048  23231824.3774   23231825.9534   23231824.8404
       229.000         181.000
 110001719.38948 103507823.64748  22835575.2924   22835576.3924   22835576.0254
       229.000         183.000
 138322290.77248  89991378.89248  24418932.1994   24418936.5914   24418932.9394
       214.000         157.000
 116793503.37048  73215710.67848  20322132.8664   20322134.3094   20322132.6054
       255.000         242.000
 134572560.69448  87069514.78948  23705379.0784   23705381.2714   23705378.4124
       223.000         178.000
 125456379.25048  97758205.46548  23873564.9764   23873566.4674   23873565.3354
       221.000         173.000
 131537557.26748 102496775.42548  25030783.8934   25030786.6954   25030784.1754
       219.000         167.000
 09  1  5  1 11 30.0000000  0  9G26G 9G28G18G10G15G17G12G27
 108978113.81248  84917992.47248  20737861.0054   20737863.3234   20737861.1334
       251.000         223.000
 111419160.66148  86820097.13348  21202386.1134   21202388.7644   21202386.3804
       242.000         210.000
 122163388.84048  95192245.03348  23246924.3744   23246926.1314   23246925.8744
       228.000         181.000
 109945143.98648 103463738.91448  22824808.8174   22824810.6484   22824809.5234
       230.000         183.000
 138433488.81548  90078026.67748  24440093.3574   24440098.6354   24440093.5144
       218.000         164.000
 116792897.64348  73215238.68248  20322017.6274   20322019.0324   20322017.5934
       254.000         241.000
 134523532.05548  87031310.65448  23696049.4214   23696051.1554   23696048.5104
       224.000         179.000
 125346414.86548  97672518.96048  23852639.5844   23852641.8724   23852639.3924
       224.000         175.000
 131610188.99548 102553371.58648  25044604.7474   25044607.8664   25044604.7484
       218.000         165.000
 09  1  5  1 12  0.0000000  0  9G26G 9G28G18G10G15G17G12G27
 109030167.91648  84958554.10948  20747766.4504   20747768.8144   20747766.5924
       251.000         223.000
 111355053.44248  86770143.46348  21190186.9824   21190189.4384   21190187.1944
       243.000         211.000
 122243013.32548  95254290.08848  23262076.5604   23262078.3964   23262077.0584
       229.000         182.000
 109889056.53748 103420034.41648  22814135.9364   22814137.3424   22814136.0434
       230.000         184.000
 138544699.41148  90164684.27848  24461257.2554   24461261.5494   24461257.9804
       216.000         161.000
 116792716.40248  73215097.45148  20321983.1294   20321984.5194   20321982.9134
       254.000         241.000
 134474899.57048  86993415.21248  23686794.9874   23686796.5734   23686794.8584
       223.000         178.000
 125236610.50348  97586957.13548  23831744.9064   23831747.2744   23831745.8574
       224.000         176.000
 131682811.76348 102609960.73448  25058424.4954   25058427.7704   25058424.4784
       217.000         165.000
 09  1  5  1 12 30.0000000  0  9G26G 9G28G18G10G15G17G12G27
 109082608.42848  84999416.84048  20757745.6734   20757748.0124   20757745.6864
       250.000         223.000
 111291228.46548  86720409.73448  21178041.3114   21178044.0764   21178042.2974
       242.000         211.000
 122322908.23048  95316545.85148  23277280.0864   23277282.1184   23277281.4304
       228.000         181.000
 109833458.36248 103376711.16248  22803556.0574   22803557.0144   22803556.2954
       231.000         183.000
 138655919.98448  90251349.65548  24482421.8424   24482424.8664   24482423.6454
       213.000         156.000
 116792960.16748  73215287.39248  20322029.6264   20322030.9744   20322029.5054
       255.000         242.000
 134426665.61348  86955830.32248  23677616.4514   23677618.7584   23677616.0084
       223.000         178.000
 125126967.66148  97501521.15748  23810880.6564   23810882.9204   23810880.3544
       221.000         177.000
 131755425.24748 102666542.66948  25072242.2484   25072245.8804   25072242.9944
       218.000         166.000
 09  1  5  1 13  0.0000000  0  9G26G 9G28G18G10G15G17G12G27
 109135435.09648  85040580.46848  20767798.0444   20767800.7614   20767797.9454
       249.000         223.000
 111227686.35948  86670896.42448  21165949.3304   21165952.3454   21165949.7574
       242.000         211.000
 122403071.55348  95379010.76948  23292534.8574   23292536.6854   23292535.8804
       228.000         181.000
 109778351.91448 103333771.05948  22793069.4494   22793071.0014   22793070.4214
       229.000         183.000
 138767147.89448  90338020.76148  24503586.8594   24503590.0854   24503587.8814
       213.000         154.000
 116793629.94048  73215809.28948  20322157.0894   20322158.3844   20322156.8564
       254.000         242.000
 134378832.60748  86918557.85448  23668513.7564   23668515.9854   23668513.8484
       223.000         178.000
 125017489.24248  97416213.31148  23790047.5044   23790049.5634   23790046.8314
       222.000         177.000
 131828029.76048 102723117.61248  25086059.2244   25086062.0504   25086059.9364
       219.000         164.000
 09  1  5  1 13 30.0000000  0  9G26G 9G28G18G10G15G17G12G27
 109188647.94848  85082045.02048  20777924.0984   20777926.6374   20777923.9734
       249.000         222.000
 111164427.93548  86621604.15548  21153912.0884   21153914.6594   21153911.9034
       243.000         212.000
 122483501.27848  95441683.27448  23307840.1614   23307841.7724   23307839.8294
       229.000         182.000
 109723739.29248 103291215.76848  22782677.0564   22782678.8494   22782677.5124
       231.000         186.000
 138878380.63248  90424695.61748  24524753.2534   24524757.3294   24524755.1074
       214.000         154.000
 116794726.70448  73216663.90948  20322365.6254   20322367.1114   20322365.2994
       254.000         242.000
 134331403.38148  86881600.02548  23659488.7554   23659490.3964   23659488.7484
       224.000         180.000
 124908177.73348  97331035.54448  23769246.1134   23769248.1404   23769246.9634
       221.000         176.000
 131900625.45648 102779685.69448  25099872.7004   25099876.2874   25099872.7464
       220.000         163.000
 09  1  5  1 14  0.0000000  0  9G26G 9G28G18G10G15G17G12G27
 109242246.44448  85123810.07848  20788123.7344   20788126.0974   20788123.7034
       250.000         222.000
 111101453.61148  86572533.27148  21141928.5074   21141930.9124   21141928.4464
       242.000         211.000
 122564194.99948  95504561.49948  23323195.7154   23323197.0614   23323195.7784
       227.000         181.000
 109669622.07848 103249046.50048  22772379.2274   22772380.9224   22772379.2984
       232.000         187.000
 138989615.94648  90511372.48148  24545920.8304   24545925.1664   24545922.1954
       212.000         154.000
 116796251.62348  73217852.15148  20322655.8844   20322657.3594   20322655.6684
       255.000         242.000
 134284380.27448  86844958.63348  23650540.5704   23650542.5184   23650539.9904
       226.000         180.000
 124799035.20448  97245989.42348  23748477.0774   23748478.4944   23748476.8314
       222.000         177.000
 131973212.51048 102836247.02248  25113685.9254   25113689.1004   25113686.7374
       218.000         165.000
 09  1  5  1 14 30.0000000  0  9G26G 9G28G18G10G15G17G12G27
 109296230.03548  85165875.21048  20798396.4364   20798398.8634   20798396.4714
       249.000         222.000
 111038763.95848  86523684.20048  21129999.0164   21130001.5254   21129998.9454
       244.000         212.000
 122645150.60748  95567643.78748  23338601.1124   23338602.2164   23338601.5794
       227.000         180.000
 109616002.27448 103207264.82848  22762175.7424   22762177.2054   22762176.9724
       233.000         187.000
 139100851.87448  90598049.85548  24567088.9684   24567092.1334   24567089.1914
       212.000         152.000
 116798205.36448  73219374.54348  20323027.6694   20323029.0144   20323027.4354
       254.000         241.000
 134237765.41748  86808635.37248  23641670.2664   23641671.4474   23641670.0704
       225.000         179.000
 124690063.83648  97161076.69648  23727740.3364   23727742.2734   23727740.1214
       223.000         178.000
 132045790.41548 102892801.23048  25127496.7464   25127500.1624   25127496.9404
       218.000         162.000
 09  1  5  1 15  0.0000000  0  9G26G 9G28G18G10G15G17G12G27
 109350597.84048  85208239.73048  20808742.2104   20808744.6024   20808742.0754
       249.000         222.000
 110976358.99048  86475056.97148  21118123.4734   21118126.3204   21118123.8024
       242.000         211.000
 122726365.24248  95630927.91348  23354055.6234   23354056.9314   23354056.3244
       227.000         180.000
 109562881.39048 103165871.94148  22752067.0564   22752068.6794   22752068.1544
       232.000         187.000
 139212084.94248  90684724.98248  24588255.5104   24588259.5024   24588255.6134
       211.000         155.000
 116800588.37448  73221231.43248  20323481.1194   20323482.5064   20323480.9004
       255.000         242.000
 134191560.96948  86772631.93648  23632877.3074   23632879.1224   23632877.3364
       225.000         180.000
 124581265.35248  97076298.66048  23707036.2394   23707038.5174   23707036.4424
       224.000         177.000
 132118358.71348 102949347.94848  25141305.6904   25141309.5314   25141306.0014
       218.000         163.000
 09  1  5  1 15 30.0000000  0 10G 5G26G 9G28G18G10G15G17G12G27
 141207426.63758  92239534.53558  24967957.7035   24967962.4175   24967957.6865
       215.000         156.000
 109405349.92348  85250903.68248  20819161.2354   20819163.6354   20819161.2764
       248.000         222.000
 110914239.71348  86426652.35448  21106302.3834   21106305.3594   21106302.2234
       243.000         212.000
 122807837.49748  95694412.78848  23369559.2264   23369560.6074   23369559.3634
       226.000         180.000
 109510261.69348 103124869.57248  22742053.8804   22742055.6074   22742054.3844
       230.000         186.000
 139323313.18048  90771396.35348  24609421.8284   24609425.2214   24609422.3944
       211.000         156.000
 116803402.58348  73223424.31548  20324016.7424   20324018.0934   20324016.4414
       254.000         242.000
 134145770.04148  86736950.69548  23624163.8644   23624166.0714   23624163.7434
       229.000         181.000
 124472642.76348  96991657.67848  23686366.1984   23686367.9474   23686366.0784
       225.000         178.000
 132190918.10048 103005887.72348  25155113.4694   25155117.4074   25155114.5524
       217.000         165.000
 09  1  5  1 16  0.0000000  0 10G 5G26G 9G28G18G10G15G17G12G27
 141092031.46748  92149616.21448  24945998.8074   24946002.9904   24945998.9154
       215.000         157.000
 109460485.75648  85293866.66648  20829653.1744   20829655.7604   20829653.0034
       249.000         222.000
 110852406.65948  86378470.76648  21094536.0974   21094538.6894   21094536.3994
       242.000         212.000
 122889564.64348  95758096.26348  23385111.4024   23385112.9954   23385111.3704
       225.000         178.000
 109458144.68848 103084258.91148  22732136.2864   22732137.9464   22732136.7154
       231.000         188.000
 139434533.85648  90858061.76348  24630585.3484   24630590.6584   24630586.1524
       206.000         153.000
 116806648.36048  73225953.48348  20324634.4694   20324635.7484   20324634.1134
       255.000         242.000
 134100394.39148  86701593.04348  23615529.2634   23615530.8634   23615529.5004
       229.000         181.000
 124364197.86648  96907155.15948  23665730.3874   23665731.5134   23665730.4264
       228.000         178.000
 132263468.19848 103062420.27348  25168919.8984   25168923.1094   25168920.3594
       221.000         164.000
 09  1  5  1 16 30.0000000  0 10G 5G26G 9G28G18G10G15G17G12G27
 140976705.59448  92059751.90648  24924054.0104   24924057.3014   24924054.2174
       216.000         156.000
 109516004.23148  85337127.81648  20840218.1524   20840220.6964   20840218.0454
       250.000         222.000
 110790859.82448  86330512.20248  21082824.3684   21082827.0614   21082824.2804
       244.000         213.000
 122971544.00748  95821976.28848  23400711.1734   23400712.8524   23400711.7304
       226.000         176.000
 109406531.57248 103044040.91148  22722314.6194   22722316.4694   22722314.9184
       233.000         187.000
 139545744.35848  90944719.27248  24651748.4104   24651753.7994   24651749.1654
       214.000         154.000
 116810325.69948  73228818.94148  20325334.1434   20325335.5004   20325333.9304
       254.000         241.000
 134055436.12648  86666560.63648  23606974.1024   23606975.8184   23606974.3474
       227.000         182.000
 124255932.56848  96822792.60148  23645128.8054   23645129.5294   23645129.0464
       227.000         179.000
 132336008.62348 103118945.24748  25182723.5824   25182726.4994   25182723.5994
       218.000         162.000
 09  1  5  1 17  0.0000000  0 10G 5G26G 9G28G18G10G15G17G12G27
 140861450.84148  91969943.05448  24902121.4554   24902125.1754   24902121.4614
       214.000         157.000
 109571904.90048  85380686.78048  20850855.5714   20850858.1024   20850855.6574
       250.000         221.000
 110729599.56148  86282776.94448  21071166.7344   21071169.3554   21071167.1784
       244.000         213.000
 123053773.61548  95886051.29848  23416359.1004   23416360.7414   23416359.6784
       227.000         177.000
 109355424.10848 103004216.91648  22712589.2574   22712590.8824   22712590.4364
       232.000         186.000
 139656941.84948  91031366.70048  24672909.4034   24672913.0794   24672910.1584
       214.000         151.000
 116814435.85548  73232021.65448  20326116.2454   20326117.6534   20326116.0114
       254.000         241.000
 134010897.37648  86631855.12548  23598498.3074   23598500.5664   23598498.5384
       228.000         181.000
 124147848.98448  96738571.63848  23624561.4564   23624562.4294   23624561.6134
       228.000         179.000
 132408539.46548 103175462.80048  25196525.8384   25196528.9904   25196526.4674
       220.000         164.000
 09  1  5  1 17 30.0000000  0 10G 5G26G 9G28G18G10G15G17G12G27
 140746269.73048  91880191.54548  24880202.9284   24880206.6164   24880204.2324
       211.000         156.000
 109628187.79548  85424543.57648  20861565.8084   20861568.3974   20861565.7874
       247.000         221.000
 110668626.93848  86235265.81248  21059564.2324   21059567.0354   21059564.7724
       244.000         214.000
 123136251.07648  95950319.45748  23432054.1744   23432055.7514   23432055.0674
       228.000         178.000
 109304824.57448 102964788.70448  22702959.8604   22702961.8844   22702961.0404
       231.000         187.000
 139768124.54948  91118002.59348  24694066.5294   24694069.7224   24694067.0814
       212.000         151.000
 116818980.21048  73235562.70648  20326981.1494   20326982.4184   20326980.9334
       255.000         241.000
 133966780.81648  86597478.60448  23590102.9354   23590104.9924   23590103.1874
       227.000         182.000
 124039949.83348  96654494.40348  23604027.9594   23604029.4644   23604028.4834
       225.000         178.000
 132481061.09748 103231973.14948  25210326.2814   25210329.7624   25210326.0974
       219.000         162.000
 09  1  5  1 18  0.0000000  0 10G 5G26G 9G28G18G10G15G17G12G27
 140631161.83748  91790497.10248  24858297.8174   24858301.3114   24858297.7334
       210.000         155.000
 109684849.77748  85468695.76148  20872348.0774   20872350.9094   20872347.5914
       248.000         221.000
 110607940.28048  86187977.51348  21048015.7634   21048018.6614   21048015.6514
       244.000         214.000
 123218972.27848  96014777.53548  23447795.3394   23447797.3924   23447796.5344
       226.000         177.000
 109254732.13248 102925755.61748  22693427.8914   22693429.9524   22693427.8294
       231.000         187.000
 139879287.13748  91204622.76948  24715219.3714   24715223.7394   24715220.6934
       207.000         152.000
 116823956.94748  73239440.68248  20327927.9914   20327929.4554   20327927.6874
       254.000         242.000
 133923086.49748  86563431.08848  23581788.6494   23581790.4714   23581788.9284
       229.000         183.000
 123932235.00748  96570560.78048  23583529.9804   23583532.4144   23583529.7924
       223.000         180.000
 132553571.32048 103288474.64048  25224124.6144   25224128.0204   25224125.3624
       218.000         160.000
 09  1  5  1 18 30.0000000  0 10G 5G26G 9G28G18G10G15G17G12G27
 140516132.99548  91700864.25648  24836408.9454   24836412.3024   24836409.1284
       213.000         156.000
 109741894.44448  85513146.13948  20883203.5214   20883206.0324   20883203.3324
       249.000         221.000
 110547543.43748  86140915.03948  21036522.8694   21036525.4994   21036522.6464
       244.000         214.000
 123301938.63748  96079426.64948  23463582.9544   23463585.5094   23463583.5954
       227.000         177.000
 109205152.32848 102887122.00948  22683993.2914   22683995.1364   22683993.3904
       233.000         189.000
 139990431.27048  91291228.56948  24736369.7054   24736374.1234   24736370.5584
       210.000         154.000
 116829370.61448  73243659.11848  20328958.2204   20328959.6654   20328957.9694
       255.000         241.000
 133879820.47648  86529717.31048  23573555.0934   23573557.4634   23573555.2244
       227.000         182.000
 123824710.26648  96486775.27648  23563068.0284   23563070.9874   23563066.8434
       224.000         179.000
 132626073.66848 103344969.94048  25237920.8594   25237924.2864   25237922.3524
       215.000         159.000
 09  1  5  1 19  0.0000000  0 10G 5G26G 9G28G18G10G15G17G12G27
 140401184.74148  91611294.16448  24814535.8854   24814537.9284   24814536.6204
       216.000         156.000
 109799320.70748  85557893.87548  20894131.3524   20894134.0424   20894131.2014
       249.000         221.000
 110487436.73248  86094078.65548  21025084.8214   21025087.4654   21025085.2334
       245.000         214.000
 123385147.67248  96144264.84548  23479417.2354   23479419.4994   23479418.3484
       226.000         177.000
 109156086.52548 102848888.90548  22674656.3364   22674658.0604   22674657.3774
       232.000         188.000
 140101554.02348  91377817.72048  24757516.8464   24757519.9054   24757517.6854
       210.000         155.000
 116835221.86248  73248218.52648  20330071.7684   20330073.0744   20330071.5804
       255.000         241.000
 133836984.43048  86496338.58548  23565403.6654   23565405.3814   23565403.1114
       227.000         183.000
 123717377.44448  96403139.31048  23542643.5934   23542645.9054   23542643.9124
       225.000         180.000
 132698567.87948 103401458.93148  25251716.6404   25251719.8874   25251717.4084
       217.000         162.000
 09  1  5  1 19 30.0000000  0 10G 5G26G 9G28G18G10G15G17G12G27
 140286318.35448  91521787.92348  24792677.3334   24792680.3514   24792677.6154
       211.000         157.000
 109857127.17748  85602937.87548  20905131.4014   20905134.1554   20905131.1234
       249.000         220.000
 110427620.08548  86047468.28548  21013702.1014   21013704.6504   21013702.5314
       244.000         214.000
 123468596.27148  96209289.73248  23495297.1854   23495298.9744   23495297.8164
       227.000         176.000
 109107535.65248 102811057.05248  22665417.5354   22665419.2884   22665417.8274
       234.000         189.000
 140212652.38148  91464387.86048  24778656.8314   24778661.5324   24778657.2164
       209.000         151.000
 116841510.66448  73253118.88348  20331268.5004   20331269.7784   20331268.3084
       254.000         241.000
 133794579.84048  86463296.03648  23557334.1424   23557336.7314   23557333.8334
       228.000         183.000
 123610237.98648  96319654.03148  23522255.8554   23522257.9564   23522255.5814
       228.000         182.000
 132771053.17848 103457940.97148  25265509.4434   25265513.1784   25265510.3944
       218.000         165.000
 09  1  5  1 20  0.0000000  0 10G 5G26G 9G28G18G10G15G17G12G27
 140171535.77948  91432346.99048  24770833.6894   24770838.1334   24770834.1914
       207.000         154.000
 109915313.60448  85648277.94648  20916204.0474   20916206.5624   20916204.0774
       248.000         220.000
 110368093.96148  86001084.29848  21002374.5764   21002377.1264   21002374.5094
       245.000         215.000
 123552282.27148  96274499.60348  23511222.0064   23511223.8564   23511222.9664
       227.000         174.000
 109059501.36648 102773627.74248  22656276.9284   22656278.6754   22656277.5684
       232.000         188.000
 140323724.01448  91550937.15948  24799793.0454   24799797.0804   24799792.1624
       209.000         150.000
 116848237.68748  73258360.72148  20332548.4974   20332549.9144   20332548.1534
       254.000         241.000
 133752608.83648  86430591.37948  23549347.9694   23549349.6344   23549346.9704
       229.000         184.000
 123503294.42948  96236321.38548  23501906.2904   23501906.7454   23501906.0904
       226.000         182.000
 132843529.87748 103514416.29948  25279301.4694   25279305.5494   25279301.2524
       221.000         165.000
 09  1  5  1 20 30.0000000  0 10G 5G26G 9G28G18G10G15G17G12G27
 140056838.62248  91342972.59448  24749007.3234   24749012.0064   24749007.8664
       207.000         152.000
 109973878.91548  85693913.25048  20927348.7004   20927351.2714   20927348.5214
       248.000         220.000
 110308858.36948  85954926.69448  20991102.5974   20991105.2094   20991102.9964
       245.000         215.000
 123636203.10448  96339892.46048  23527191.9424   23527193.5984   23527192.6844
       226.000         176.000
 109011984.97048 102736601.96648  22647234.8584   22647236.4774   22647235.0664
       234.000         189.000
 140434765.52348  91637463.03048  24820923.7314   24820927.3914   24820923.5324
       210.000         148.000
 116855403.37048  73263944.36448  20333912.0874   20333913.5204   20333911.8024
       254.000         241.000
 133711073.68148  86398226.33448  23541443.7154   23541445.7634   23541443.0414
       228.000         184.000
 123396548.23948  96153142.53848  23481592.7474   23481593.3984   23481592.5584
       227.000         179.000
 132915997.21148 103570884.32448  25293091.9314   25293095.3194   25293091.8174
       217.000         161.000
 09  1  5  1 21  0.0000000  0 10G 5G26G 9G28G18G10G15G17G12G27
 139942228.95848  91253666.40648  24727197.9714   24727202.1094   24727198.5334
       210.000         154.000
 110032822.47848  85739843.28448  20938565.2934   20938567.6684   20938565.1704
       248.000         220.000
 110249913.72148  85908995.81248  20979885.6134   20979888.3004   20979886.1834
       245.000         215.000
 123720356.49648  96405466.53148  23543205.4804   23543207.9034   23543205.2544
       226.000         176.000
 108964987.94848 102699980.90948  22638291.8104   22638293.5764   22638292.7094
       233.000         189.000
 140545775.32348  91723964.19148  24842048.6954   24842052.2364   24842049.7654
       211.000         152.000
 116863008.78348  73269870.65348  20335359.4894   20335360.7974   20335359.3774
       254.000         241.000
 133669976.52848  86366202.57748  23533623.4474   23533624.9484   23533622.9814
       228.000         182.000
 123290001.79348  96070119.33148  23461317.5174   23461318.4584   23461317.7214
       227.000         180.000
 132988455.36348 103627345.19848  25306879.8544   25306882.9754   25306880.8514
       213.000         155.000
 09  1  5  1 21 30.0000000  0 10G 5G26G 9G28G18G10G15G17G12G27
 139827708.13748  91164429.42048  24705405.9924   24705409.2724   24705407.5134
       210.000         155.000
 110092143.27848  85786067.27948  20949853.6624   20949856.2024   20949853.4574
       248.000         220.000
 110191259.96748  85863291.59248  20968724.2774   20968726.8524   20968724.7054
       246.000         215.000
 123804739.58048  96471219.58448  23559263.5414   23559265.2644   23559264.7224
       226.000         175.000
 108918511.32148 102663765.36748  22629447.6234   22629449.0684   22629448.6594
       233.000         189.000
 140656749.91548  91810437.84948  24863166.4384   24863171.4544   24863167.1354
       213.000         160.000
 116871053.94048  73276139.60148  20336890.4784   20336891.7104   20336890.3454
       254.000         241.000
 133629318.82848  86334521.26048  23525886.1334   23525888.1524   23525885.3814
       228.000         182.000
 123183656.67948  95987253.02948  23441080.4304   23441082.1174   23441080.9564
       225.000         182.000
 133060904.02948 103683798.70348  25320666.6844   25320670.0984   25320667.0234
       213.000         152.000
 09  1  5  1 22  0.0000000  0 10G 5G26G 9G28G18G10G15G17G12G27
 139713278.88348  91075263.80348  24683631.1214   24683633.4254   24683630.8744
       216.000         156.000
 110151841.46348  85832585.34248  20961213.8034   20961216.4594   20961213.6074
       249.000         220.000
 110132898.67048  85817815.26448  20957618.4924   20957621.0394   20957618.9174
       245.000         215.000
 123889350.70748  96537150.32548  23575364.0804   23575366.0594   23575364.5714
       227.000         175.000
 108872557.53248 102627957.21548  22620702.8714   22620704.5964   22620703.8974
       233.000         190.000
 140767687.57948  91896882.75948  24884277.6244   24884282.5964   24884277.4764
       209.000         160.000
 116879540.25048  73282752.30448  20338505.3284   20338506.6464   20338505.1514
       254.000         241.000
 133589103.37648  86303184.54648  23518233.4584   23518235.5524   23518232.9544
       227.000         183.000
 123077515.68948  95904545.77548  23420882.0464   23420884.6364   23420881.5334
       226.000         181.000
 133133343.70848 103740245.17548  25334452.3854   25334453.6254   25334453.1834
       213.000         142.000
 09  1  5  1 22 30.0000000  0 10G 5G26G 9G28G18G10G15G17G12G27
 139598943.06948  90986170.95948  24661874.7624   24661875.5764   24661875.4204
       212.000         156.000
 110211916.22748  85879396.84148  20972645.7644   20972648.1734   20972645.8104
       249.000         219.000
 110074829.93148  85772566.89348  20946568.4084   20946570.5944   20946568.4884
       246.000         215.000
 123974187.45648  96603256.85548  23591507.8814   23591510.0814   23591508.7294
       225.000         175.000
 108827128.30248 102592557.80948  22612057.7124   22612059.7024   22612058.3784
       233.000         190.000
 140878585.96448  91983297.05948  24905380.3134   24905384.9944   24905381.0254
       205.000         144.000
 116888468.19348  73289709.14048  20340204.1604   20340205.6094   20340203.9274
       254.000         241.000
 133549331.66148  86272193.60048  23510665.4744   23510666.9794   23510665.2774
       227.000         183.000
 122971580.88548  95821999.17048  23400723.6724   23400725.6844   23400723.2984
       226.000         183.000
 133205774.32648 103796684.60948  25348234.9374   25348238.1004   25348236.3564
       205.000         139.000
 09  1  5  1 23  0.0000000  0 10G 5G26G 9G28G18G10G15G17G12G27
 139484702.52548  90897152.36348  24640134.4194   24640136.2184   24640134.2494
       212.000         155.000
 110272366.90248  85926501.26148  20984148.9434   20984151.4754   20984148.9914
       248.000         219.000
 110017054.28648  85727546.91148  20935574.1004   20935576.3294   20935574.6364
       246.000         215.000
 124059247.89548  96669537.71948  23607694.8374   23607696.0924   23607694.9684
       228.000         175.000
 108782224.25348 102557567.64448  22603512.9554   22603514.8714   22603514.0034
       233.000         191.000
 140989442.58048  92069678.82648  24926473.6024   24926477.0244   24926475.7064
       209.000         140.000
 116897838.59048  73297010.73948  20341987.3214   20341988.7274   20341987.0494
       254.000         241.000
 133510006.68048  86241550.75748  23503181.8854   23503183.6374   23503181.7354
       227.000         183.000
 122865854.33148  95739614.85048  23380604.6294   23380606.9044   23380605.1404
       227.000         183.000
 133278195.81148 103853116.92848  25362015.8924   25362019.8624   25362017.5824
       202.000         134.000
 09  1  5  1 23 30.0000000  0  9G 5G26G 9G28G18G10G15G17G12
 139370560.29548  90808210.38148  24618413.2524   24618416.4974   24618415.1964
       210.000         154.000
 110333193.90148  85973898.91648  20995724.0064   20995726.6214   20995723.9664
       248.000         219.000
 109959573.05148  85682756.34648  20924635.6694   20924638.1724   20924635.9264
       246.000         215.000
 124144530.77548  96735991.91648  23623923.3754   23623924.8464   23623925.2434
       227.000         174.000
 108737848.31448 102522988.98848  22595068.5564   22595070.0504   22595068.8844
       236.000         192.000
 141100255.26348  92156026.43748  24947563.2064   24947564.9374   24947563.5094
       216.000         154.000
 116907653.06148  73304658.37548  20343854.9144   20343856.4284   20343854.7014
       254.000         241.000
 133471130.98248  86211257.99348  23495784.1864   23495785.9924   23495783.7784
       229.000         185.000
 122760339.28548  95657395.34248  23360525.6134   23360527.8314   23360525.3944
       227.000         184.000
 09  1  5  1 24  0.0000000  0 10G 5G26G 9G28G18G10G15G17G12G27
 139256517.51948  90719345.89948  24596711.8234   24596714.8554   24596712.5514
       213.000         157.000
 110394395.79848  86021588.70348  21007370.3464   21007372.9024   21007370.3154
       248.000         219.000
 109902386.20448  85638195.17548  20913753.3334   20913756.0194   20913753.7674
       246.000         216.000
 124230032.97348  96802616.99848  23640194.1714   23640195.5284   23640194.4774
       226.000         173.000
 108694001.20748 102488822.40548  22586724.8584   22586726.1574   22586725.4474
       235.000         192.000
 141211021.12148  92242337.50548  24968640.6434   24968644.7874   24968641.7784
       212.000         156.000
 116917911.49548  73312651.96048  20345807.0344   20345808.6074   20345806.7684
       254.000         241.000
 133432706.04948  86181316.51448  23488472.0034   23488473.9234   23488471.8724
       228.000         185.000
 122655036.99548  95575341.61048  23340487.0944   23340489.1214   23340487.3564
       228.000         183.000
 143422994.15958  93965942.37258  25389573.6025   25389577.8715   25389572.5915
       188.000         127.000
 09  1  5  1 24 30.0000000  0  9G 5G26G 9G28G18G10G15G17G12
 139142575.80448  90630560.16748  24575029.3284   24575033.0844   24575030.4024
       211.000         158.000
 110455971.45448  86069569.72948  21019087.8594   21019090.3184   21019087.8424
       248.000         219.000
 109845493.39848  85593863.12248  20902927.0114   20902929.5624   20902927.4024
       246.000         216.000
 124315751.77748  96869410.86948  23656505.5274   23656507.1384   23656506.1724
       225.000         174.000
 108650683.97448 102455068.71448  22578481.7334   22578482.9894   22578482.0404
       236.000         191.000
 141321737.33048  92328609.77648  24989708.7724   24989713.9264   24989709.5074
       206.000         148.000
 116928614.31948  73320991.81848  20347843.7034   20347845.2644   20347843.4114
       254.000         241.000
 133394733.71748  86151727.69248  23481246.0934   23481247.8814   23481245.8754
       229.000         186.000
 122549949.30648  95493455.09548  23320489.9204   23320491.5344   23320489.5144
       227.000         183.000
 09  1  5  1 25  0.0000000  0  9G 5G26G 9G28G18G10G15G17G12
 139028737.41748  90541854.95548  24553366.3774   24553370.5164   24553367.2174
       211.000         159.000
 110517920.58648  86117841.77948  21030876.3514   21030879.0914   21030876.2804
       248.000         218.000
 109788895.61248  85549760.94948  20892156.9424   20892159.3594   20892157.4054
       246.000         216.000
 124401685.06848  96936371.87548  23672858.2964   23672859.7904   23672857.9064
       226.000         175.000
 108607898.23748 102421729.19148  22570339.8424   22570341.6364   22570340.2534
       235.000         192.000
 141432402.18848  92414842.11148  25010768.3604   25010771.9714   25010768.8054
       215.000         148.000
 116939762.35148  73329678.58748  20349965.1414   20349966.6344   20349965.0114
       254.000         240.000
 133357216.03048  86122493.13948  23474106.8344   23474109.1794   23474106.6994
       229.000         186.000
 122445078.83048  95411737.83948  23300533.8044   23300535.6144   23300533.8444
       227.000         184.000
 09  1  5  1 25 30.0000000  0  9G 5G26G 9G28G18G10G15G17G12
 138915004.38648  90453231.84048  24531723.2844   24531727.6704   24531723.6084
       214.000         161.000
 110580242.66448  86166404.43048  21042735.7954   21042738.6054   21042735.6864
       248.000         219.000
 109732593.43748  85505889.13348  20881442.9124   20881445.3874   20881443.3464
       247.000         217.000
 124487831.06648  97003498.60248  23689251.5114   23689253.0324   23689251.9994
       226.000         173.000
 108565645.77948 102388805.18848  22562299.5524   22562301.2914   22562300.1424
       235.000         192.000
 141543013.27248  92501032.63748  25031817.2154   25031819.8624   25031818.6854
       215.000         148.000
 116951356.36848  73338712.87948  20352171.4304   20352172.9024   20352171.2864
       253.000         240.000
 133320155.08148  86093614.49348  23467054.0614   23467056.0514   23467053.3894
       230.000         185.000
 122340427.44248  95330191.32548  23280618.9664   23280621.4444   23280619.4084
       225.000         185.000
 09  1  5  1 26  0.0000000  0  9G 5G26G 9G28G18G10G15G17G12
 138801378.36548  90364692.09048  24510102.0214   24510104.9444   24510102.7304
       216.000         161.000
 110642936.64748  86215256.87748  21054666.1094   21054668.8184   21054665.9734
       247.000         218.000
 109676587.00448  85462247.76148  20870785.2904   20870787.7084   20870785.7724
       247.000         216.000
 124574187.34948  97070789.20748  23705684.4804   23705685.9664   23705684.9424
       226.000         173.000
 108523927.60448 102356297.52548  22554360.4984   22554362.7044   22554360.9384
       235.000         191.000
 141653567.79948  92587179.03448  25052854.5054   25052857.7284   25052855.7224
       210.000         147.000
 116963396.49448  73348094.79548  20354462.5144   20354463.9954   20354462.1264
       254.000         240.000
 133283552.85248  86065093.28848  23460089.2174   23460091.0004   23460089.3654
       228.000         184.000
 122235997.01548  95248816.98048  23260746.4814   23260748.8774   23260745.9574
       229.000         184.000
 09  1  5  1 26 30.0000000  0  9G 5G26G 9G28G18G10G15G17G12
 138687860.86248  90276236.94748  24488500.0814   24488503.2614   24488500.5224
       212.000         160.000
 110706001.60048  86264398.38648  21066666.9704   21066669.6004   21066666.6824
       248.000         218.000
 109620876.30748  85418836.82848  20860183.8104   20860186.1924   20860184.1234
       246.000         217.000
 124660751.00748  97138241.39748  23722157.1604   23722158.4064   23722157.9714
       225.000         171.000
 108482744.92848 102324207.11848  22546523.9424   22546525.3814   22546524.4224
       235.000         192.000
 141764062.71848  92673278.89648  25073880.2504   25073884.8814   25073880.9584
       210.000         148.000
 116975883.16048  73357824.65648  20356838.7764   20356840.0714   20356838.6314
       254.000         240.000
 133247410.71648  86036930.58848  23453211.0964   23453213.7324   23453210.3414
       227.000         183.000
 122131789.18648  95167616.06348  23240916.8724   23240918.5304   23240917.0674
       226.000         185.000
 09  1  5  1 27  0.0000000  0  9G 5G26G 9G28G18G10G15G17G12
 138574454.83648  90187868.64748  24466919.7244   24466923.1274   24466919.7654
       214.000         162.000
 110769437.64748  86313829.06848  21078738.6674   21078740.8214   21078738.5134
       248.000         218.000
 109565462.89348  85375657.55448  20849638.9984   20849641.5164   20849639.0544
       247.000         217.000
 124747520.83248  97205854.25948  23738668.6404   23738669.9854   23738668.8904
       225.000         173.000
 108442099.68248 102292535.50048  22538789.5404   22538790.7704   22538790.0934
       235.000         193.000
 141874496.83448  92759331.42248  25094896.0874   25094899.6424   25094897.5474
       215.000         151.000
 116988817.95048  73367903.70848  20359300.0844   20359301.5224   20359299.8104
       253.000         240.000
 133211731.42548  86009128.55148  23446421.4114   23446423.7134   23446420.5464
       227.000         183.000
 122027807.11248  95086591.09748  23221129.4564   23221131.3964   23221129.5374
       227.000         184.000
 09  1  5  1 27 30.0000000  0  9G 5G26G 9G28G18G10G15G17G12
 138461161.96248  90099588.52548  24445360.3554   24445363.9014   24445360.3224
       212.000         162.000
 110833243.85648  86363548.17848  21090880.3974   21090882.8904   21090880.3274
       247.000         217.000
 109510346.92148  85332710.05248  20839150.7064   20839153.2794   20839150.4414
       247.000         218.000
 124834494.39248  97273625.85648  23755219.0194   23755221.0174   23755218.8894
       225.000         174.000
 108401993.07948 102261283.60748  22531157.4094   22531159.0524   22531158.3874
       234.000         193.000
 141984867.42648  92845334.51248  25115899.8534   25115902.6454   25115901.2774
       212.000         149.000
 117002201.07848  73378332.11248  20361846.8224   20361848.3214   20361846.4484
       253.000         240.000
 133176516.79048  85981688.58148  23439720.6734   23439722.6184   23439720.4384
       228.000         183.000
 121924052.87448  95005743.63348  23201385.8924   23201387.2844   23201385.2514
       228.000         185.000
 09  1  5  1 28  0.0000000  0  9G 5G26G 9G28G18G10G15G17G12
 138347983.84448  90011397.77248  24423823.2254   24423827.2254   24423824.0994
       215.000         162.000
 110897419.06848  86413554.83448  21103092.5034   21103095.0774   21103092.3124
       247.000         217.000
 109455528.53848  85289994.43348  20828719.2514   20828721.8084   20828719.6654
       248.000         217.000
 124921669.01548  97341554.12748  23771807.8094   23771809.9214   23771808.7454
       228.000         174.000
 108362426.13048 102230452.21048  22523628.1284   22523629.6514   22523628.5904
       236.000         193.000
 142095171.50348  92931285.72948  25136889.8384   25136893.1774   25136889.8944
       210.000         146.000
 117016032.99948  73389110.22448  20364478.9784   20364480.4934   20364478.6944
       253.000         240.000
 133141768.74048  85954612.17348  23433108.2174   23433110.4044   23433107.7014
       228.000         183.000
 121820528.03948  94925074.92948  23181686.0454   23181687.0094   23181686.0314
       229.000         187.000
 09  1  5  1 28 30.0000000  0  9G 5G26G 9G28G18G10G15G17G12
 138234922.14848  89923297.75748  24402308.5484   24402312.1834   24402309.4414
       217.000         163.000
 110961962.41148  86463848.34748  21115374.5714   21115377.1444   21115374.4004
       246.000         217.000
 109401007.98248  85247510.88848  20818344.2704   20818346.7544   20818344.1634
       248.000         217.000
 125009042.35048  97409637.24248  23788434.7484   23788436.2374   23788435.6394
       225.000         171.000
 108323399.81548 102200042.10248  22516201.7024   22516203.4054   22516202.3794
       235.000         192.000
 142205406.94848  93017183.43248  25157866.2044   25157870.4104   25157867.0964
       212.000         147.000
 117030313.61248  73400237.97448  20367196.5204   20367197.9624   20367196.3554
       253.000         240.000
 133107488.67148  85927900.44248  23426585.2524   23426587.2794   23426585.0314
       230.000         184.000
 121717234.48848  94844586.46548  23162029.6484   23162031.1694   23162029.7064
       228.000         188.000
 09  1  5  1 29  0.0000000  0  9G 5G26G 9G28G18G10G15G17G12
 138121979.36448  89835290.42048  24380816.7174   24380819.6774   24380817.6494
       219.000         165.000
 111026873.60048  86514428.48748  21127726.9094   21127729.4924   21127726.7634
       247.000         216.000
 109346786.26048  85205260.21248  20808026.1424   20808028.6424   20808026.2814
       248.000         217.000
 125096612.57248  97477873.77948  23805098.5574   23805100.2284   23805098.6614
       226.000         169.000
 108284915.90148 102170054.62848  22508878.4704   22508879.4774   22508878.6474
       236.000         193.000
 142315571.72248  93103026.11548  25178830.1184   25178834.0644   25178831.9754
       215.000         150.000
 117045044.24448  73411716.38348  20369999.7564   20370001.1644   20369999.6564
       253.000         240.000
 133073679.02448  85901555.27448  23420151.3674   23420153.1834   23420151.4654
       229.000         184.000
 121614174.77248  94764280.20348  23142418.0054   23142419.7104   23142418.2984
       228.000         187.000
 09  1  5  1 29 30.0000000  0  9G 5G26G 9G28G18G10G15G17G12
 138009157.28648  89747377.15048  24359347.5244   24359350.5184   24359349.4644
       220.000         164.000
 111092152.02448  86565294.78648  21140148.9854   21140151.5404   21140148.9264
       247.000         216.000
 109292863.71848  85163242.65648  20797764.8374   20797767.6474   20797765.0054
       248.000         218.000
 125184377.35248  97546261.92948  23821800.1024   23821801.0514   23821801.1024
       226.000         169.000
 108246975.55248 102140490.71548  22501658.2914   22501659.8454   22501659.0424
       236.000         194.000
 142425663.05748  93188811.58448  25199779.8444   25199782.9034   25199782.0334
       214.000         149.000
 117060225.35248  73423545.81548  20372888.5104   20372890.0004   20372888.3104
       253.000         240.000
 133040341.43848  85875577.94348  23413807.5094   23413809.4284   23413807.3804
       229.000         187.000
 121511350.64348  94684157.51048  23122851.1304   23122852.8824   23122850.5804
       229.000         188.000
 09  1  5  1 30  0.0000000  0  9G 5G26G 9G28G18G10G15G17G12
 137896457.66348  89659559.27048  24337901.6964   24337904.5064   24337903.5304
       214.000         162.000
 111157796.37048  86616446.21948  21152640.5984   21152643.2734   21152640.5244
       247.000         216.000
 109239240.46148  85121458.31148  20787560.8434   20787563.3954   20787560.6784
       249.000         218.000
 125272334.29648  97614799.80648  23838537.5894   23838538.8214   23838538.5894
       227.000         170.000
 108209579.94448 102111351.27148  22494542.7774   22494544.2034   22494543.1784
       238.000         195.000
 142535678.72948  93274538.06848  25220714.8724   25220718.9294   25220716.5244
       208.000         143.000
 117075857.08648  73435726.38048  20375863.0744   20375864.6204   20375862.7134
       253.000         240.000
 133007477.73048  85849969.86948  23407553.9304   23407556.2254   23407553.3874
       229.000         188.000
 121408764.36848  94604220.16448  23103329.4754   23103331.5464   23103328.8444
       228.000         186.000
 09  1  5  1 30 30.0000000  0  9G 5G26G 9G28G18G10G15G17G12
 137783883.11148  89571838.84148  24316478.3934   24316482.1544   24316477.9014
       214.000         161.000
 111223806.77948  86667882.88548  21165202.0344   21165204.8034   21165201.9904
       246.000         216.000
 109185917.66548  85079908.08548  20777414.1914   20777416.4824   20777414.2624
       249.000         219.000
 125360482.00148  97683486.31048  23855311.9034   23855312.8234   23855313.3894
       226.000         172.000
 108172730.90348 102082637.73148  22487530.6574   22487531.9564   22487531.4164
       237.000         194.000
 142645617.04548  93360204.26448  25241634.5044   25241637.6234   25241634.1984
       204.000         139.000
 117091940.65048  73448259.02448  20378923.7624   20378925.3264   20378923.5504
       253.000         239.000
 132975090.31848  85824732.94848  23401390.7204   23401392.8524   23401390.1994
       230.000         187.000
 121306418.43348  94524470.08148  23083853.5354   23083855.6534   23083853.4394
       229.000         187.000
 09  1  5  1 31  0.0000000  0  9G 5G26G 9G28G18G10G15G17G12
 137671435.25548  89484217.14148  24295080.0584   24295083.8104   24295080.3274
       219.000         164.000
 111290182.09748  86719603.91048  21177832.7924   21177835.3974   21177832.6514
       247.000         216.000
 109132895.45848  85038592.09448  20767324.0594   20767327.0114   20767324.4394
       249.000         219.000
 125448817.95148  97752319.52148  23872121.5834   23872122.8614   23872122.7744
       224.000         174.000
 108136429.38048 102054350.82748  22480622.4194   22480623.7784   22480623.0794
       236.000         194.000
 142755474.87348  93445807.75648  25262541.0604   25262543.9454   25262540.7074
       207.000         143.000
 117108476.59248  73461144.16848  20382070.4604   20382072.0064   20382070.1644
       253.000         239.000
 132943180.73148  85799868.32748  23395318.6824   23395320.7964   23395318.6994
       230.000         187.000
 121204314.70448  94444908.73848  23064424.4504   23064425.9914   23064424.4924
       229.000         188.000
 09  1  5  1 31 30.0000000  0  9G 5G26G 9G28G18G10G15G17G12
 137559116.63348  89396696.14048  24273707.2434   24273710.6644   24273706.6274
       220.000         168.000
 111356922.12748  86771609.12248  21190533.0874   21190535.6304   21190533.0094
       247.000         216.000
 109080174.78348  84997511.05048  20757291.8374   20757294.3234   20757292.0984
       249.000         219.000
 125537340.42148  97821298.06948  23888966.2164   23888967.9634   23888966.6434
       224.000         172.000
 108100677.07948 102026491.87948  22473819.1254   22473820.4374   22473819.3664
       237.000         194.000
 142865250.90548  93531347.50048  25283430.8234   25283433.3014   25283430.4434
       208.000         146.000
 117125465.46448  73474382.24348  20385303.3394   20385304.7574   20385303.0504
       253.000         239.000
 132911751.40848  85775377.95948  23389337.4914   23389339.7504   23389337.0864
       229.000         186.000
 121102455.80648  94365538.17048  23045041.4674   23045042.4354   23045041.9814
       229.000         188.000
 09  1  5  1 32  0.0000000  0  9G 5G26G 9G28G18G10G15G17G12
 137446928.48448  89309276.83748  24252358.6214   24252361.9874   24252359.4024
       218.000         168.000
 111424025.40148  86823897.38048  21203302.3824   21203305.0764   21203302.2824
       247.000         216.000
 109027755.65748  84956664.98948  20747316.4784   20747319.2184   20747316.8754
       249.000         219.000
 125626046.45748  97890419.63948  23905846.8154   23905848.0404   23905847.0104
       222.000         169.000
 108065474.74448 101999061.48148  22467120.3244   22467121.7444   22467121.4504
       236.000         193.000
 142974942.12448  93616821.14148  25304303.6914   25304306.9974   25304303.6994
       208.000         144.000
 117142907.37148  73487973.33548  20388622.2904   20388623.7134   20388621.9854
       253.000         239.000
 132880803.58748  85751262.78348  23383448.1274   23383449.9444   23383448.0924
       230.000         186.000
 121000843.12148  94286359.46448  23025705.2754   23025706.3484   23025705.0674
       228.000         189.000
 09  1  5  1 32 30.0000000  0  9G 5G26G 9G28G18G10G15G17G12
 137334872.83148  89221960.76048  24231034.8834   24231038.4894   24231036.0314
       223.000         166.000
 111491491.21448  86876468.13448  21216140.7524   21216143.3924   21216140.7004
       247.000         215.000
 108975638.73848  84916054.40348  20737399.2824   20737401.5644   20737399.4304
       249.000         219.000
 125714934.02048  97959682.67948  23922761.6694   23922762.5004   23922762.4974
       222.000         165.000
 108030823.17948 101972060.25748  22460526.1564   22460527.4314   22460526.2004
       237.000         194.000
 143084545.71948  93702226.51748  25325160.7274   25325163.1604   25325160.2084
       208.000         143.000
 117160802.75648  73501917.78548  20392027.8824   20392029.1734   20392027.6264
       253.000         239.000
 132850339.03548  85727524.18148  23377650.8994   23377653.3084   23377650.9934
       231.000         185.000
 120899478.75748  94207374.26048  23006416.2684   23006417.2094   23006415.8594
       232.000         188.000
 09  1  5  1 33  0.0000000  0  9G 5G26G 9G28G18G10G15G17G12
 137222951.02948  89134748.97948  24209736.8884   24209739.9754   24209739.0204
       214.000         164.000
 111559318.12148  86929320.26248  21229047.9014   21229050.3284   21229048.0614
       246.000         215.000
 108923823.57248  84875678.95748  20727539.0544   20727541.5744   20727539.0334
       249.000         219.000
 125804000.31548  98029084.98348  23939710.0964   23939711.2254   23939710.9714
       221.000         164.000
 107996723.11648 101945488.77848  22454037.4234   22454038.8234   22454038.3124
       236.000         194.000
 143194059.16148  93787561.64948  25346001.2414   25346003.7054   25346000.2214
       208.000         141.000
 117179151.44148  73516215.46148  20395519.4264   20395520.7954   20395519.2184
       253.000         238.000
 132820358.79348  85704162.95448  23371946.3614   23371948.0974   23371945.8204
       231.000         187.000
 120798364.18348  94128583.68448  22987174.7944   22987175.4884   22987174.7744
       231.000         189.000
 09  1  5  1 33 30.0000000  0  9G 5G26G 9G28G18G10G15G17G12
 137111166.44648  89047644.13048  24188464.7394   24188468.2584   24188463.8844
       214.000         163.000
 111627506.85948  86982454.33948  21242023.7184   21242026.2044   21242023.6734
       246.000         215.000
 108872312.08148  84835540.13548  20717736.6254   20717739.3514   20717736.3094
       249.000         220.000
 125893244.73348  98098626.09948  23956692.8114   23956693.5594   23956693.2384
       221.000         163.000
 107963176.74648 101919348.74148  22447653.6664   22447654.9054   22447654.2114
       237.000         192.000
 143303481.59948  93872825.87748  25366822.8794   25366826.1854   25366823.4964
       204.000         139.000
 117197955.29148  73530867.80648  20399097.6484   20399099.0514   20399097.5104
       253.000         238.000
 132790866.09648  85681181.63348  23366334.3064   23366335.6074   23366334.1374
       230.000         187.000
 120697502.84748  94049990.43748  22967981.4794   22967982.8644   22967981.3854
       230.000         190.000
 09  1  5  1 34  0.0000000  0  9G 5G26G 9G28G18G10G15G17G12
 136999520.20748  88960647.05948  24167218.7944   24167222.2854   24167220.0334
       217.000         165.000
 111696055.90948  87035869.17048  21255068.1084   21255070.6264   21255067.9924
       245.000         215.000
 108821103.76848  84795637.55448  20707992.3134   20707994.7794   20707992.3944
       250.000         220.000
 125982664.25248  98168303.64548  23973708.4954   23973709.8974   23973709.5604
       220.000         164.000
 107930184.81448 101893640.73348  22441375.4234   22441376.5304   22441375.9414
       235.000         191.000
 143412810.02548  93958016.91248  25387626.8544   25387631.2414   25387627.0974
       198.000         138.000
 117217214.27548  73545874.80248  20402762.4964   20402763.9934   20402762.3724
       252.000         238.000
 132761861.70348  85658580.82148  23360814.3614   23360816.4424   23360814.0624
       231.000         188.000
 120596895.93548  93971595.43948  22948836.3864   22948838.0844   22948836.4444
       229.000         189.000
 09  1  5  1 34 30.0000000  0  9G 5G26G 9G28G18G10G15G17G12
 136888014.25848  88873759.34248  24146000.8964   24146003.4764   24146001.6124
       221.000         169.000
 111764964.30848  87089564.02748  21268180.8054   21268183.4124   21268180.4934
       245.000         214.000
 108770199.36948  84755971.79548  20698305.4784   20698307.8824   20698306.1314
       250.000         220.000
 126072257.13548  98238116.28348  23990757.6554   23990759.0634   23990757.7364
       219.000         165.000
 107897748.20348 101868365.45448  22435202.5194   22435204.1534   22435203.0964
       236.000         192.000
 143522042.05148  94043132.75948  25408412.5164   25408417.0634   25408413.4234
       208.000         139.000
 117236928.48948  73561236.52148  20406513.8154   20406515.4904   20406513.3464
       252.000         238.000
 132733347.51248  85636361.99248  23355388.6164   23355390.2304   23355388.1904
       231.000         188.000
 120496545.76348  93893400.50648  22929740.0454   22929741.9264   22929739.9864
       231.000         190.000
 09  1  5  1 35  0.0000000  0  9G 5G26G 9G28G18G10G15G17G12
 136776650.70048  88786982.56248  24124809.2414   24124811.8164   24124809.8464
       224.000         168.000
 111834231.27148  87143538.27148  21281362.2184   21281364.4784   21281362.1204
       247.000         214.000
 108719599.47148  84716543.30948  20688676.4564   20688679.1654   20688676.7294
       249.000         220.000
 126162020.64648  98308061.85548  24007839.0744   24007840.8214   24007839.5214
       218.000         163.000
 107865868.21148 101843523.88748  22429136.2314   22429137.9514   22429136.9074
       238.000         194.000
 143631175.49548  94128171.78248  25429181.3694   25429184.7754   25429182.2264
       204.000         141.000
 117257098.73048  73576953.58748  20410352.2804   20410353.8314   20410351.9864
       252.000         238.000
 132705325.44548  85614526.61348  23350055.9214   23350057.5784   23350055.7014
       231.000         188.000
 120396454.19848  93815407.07848  22910692.9934   22910695.3414   22910692.6354
       227.000         190.000
 09  1  5  1 35 30.0000000  0  9G 5G26G 9G28G18G10G15G17G12
 136665431.09748  88700317.94748  24103644.8084   24103647.5654   24103645.2264
       221.000         169.000
 111903855.69948  87197791.07048  21294611.1524   21294613.6274   21294611.0724
       246.000         214.000
 108669304.30248  84677352.27448  20679105.6164   20679108.1744   20679105.4674
       249.000         220.000
 126251952.64448  98378138.72548  24024952.4434   24024954.4154   24024953.8814
       219.000         163.000
 107834545.47248 101819116.55348  22423176.1744   22423177.3254   22423176.9164
       237.000         193.000
 143740207.55248  94213131.79848  25449929.6144   25449933.1744   25449928.9424
       203.000         142.000
 117277725.02748  73593026.02148  20414277.3594   20414278.8644   20414277.1564
       252.000         238.000
 132677796.66948  85593075.62148  23344817.6624   23344819.5124   23344817.5524
       232.000         189.000
 120296622.93848  93737616.49248  22891695.4174   22891698.0734   22891695.0224
       230.000         192.000
 09  1  5  1 36  0.0000000  0  9G 5G26G 9G28G18G10G15G17G12
 136554357.47948  88613767.08048  24082508.0914   24082510.6734   24082507.9204
       221.000         170.000
 111973836.92548  87252321.88448  21307928.1304   21307930.8604   21307928.1284
       246.000         214.000
 108619313.97548  84638398.78048  20669592.5734   20669595.3594   20669592.9324
       249.000         220.000
 126342051.11448  98448345.31748  24042097.5124   24042099.7224   24042098.1434
       218.000         163.000
 107803781.01648 101795144.24548  22417321.5114   22417322.6774   22417322.3044
       237.000         192.000
 143849136.09848  94298011.18948  25470657.2714   25470662.0284   25470657.4134
       205.000         142.000
 117298807.60748  73609454.00948  20418289.1004   20418290.7014   20418288.8264
       252.000         238.000
 132650763.05648  85572010.47448  23339673.0114   23339674.9904   23339673.4694
       230.000         188.000
 120197054.21348  93660030.47448  22872748.5094   22872750.6974   22872748.3404
       231.000         192.000
 09  1  5  1 36 30.0000000  0  9G 5G26G 9G28G18G10G15G17G12
 136443431.87648  88527331.54048  24061398.9984   24061402.6524   24061400.2394
       221.000         170.000
 112044174.04048  87307130.01948  21321313.0444   21321315.6074   21321312.9964
       246.000         215.000
 108569629.65248  84599683.72348  20660138.2684   20660140.7304   20660138.6514
       249.000         220.000
 126432313.87248  98518679.92248  24059274.1934   24059276.2964   24059275.7964
       218.000         161.000
 107773575.86148 101771607.74148  22411573.5324   22411574.9714   22411573.6434
       236.000         192.000
 143957959.23648  94382808.40048  25491366.9384   25491370.6054   25491367.1224
       205.000         139.000
 117320347.11048  73626238.02948  20422388.0424   20422389.5154   20422387.8814
       252.000         238.000
 132624226.34948  85551332.52448  23334623.1274   23334625.3504   23334623.1724
       230.000         189.000
 120097750.22748  93582650.74148  22853852.1304   22853853.8674   22853852.4524
       230.000         192.000
 09  1  5  1 37  0.0000000  0  9G 5G26G 9G28G18G10G15G17G12
 136332655.87648  88441012.59748  24040319.0904   24040322.8574   24040320.5754
       220.000         170.000
 112114866.02048  87362214.67048  21334765.1154   21334767.7704   21334765.0494
       246.000         214.000
 108520251.64548  84561207.36048  20650741.7274   20650744.3104   20650742.2824
       249.000         221.000
 126522738.53048  98589140.71148  24076481.5274   24076483.6854   24076482.2894
       215.000         159.000
 107743930.71248 101748507.63748  22405932.2624   22405933.6944   22405933.1424
       237.000         193.000
 144066674.38548  94467521.48948  25512054.0944   25512057.0264   25512055.9494
       199.000         136.000
 117342343.35348  73643377.95948  20426573.7114   20426575.2454   20426573.4584
       252.000         237.000
 132598187.77748  85531042.73848  23329667.9904   23329670.2784   23329668.2174
       229.000         188.000
 119998712.54848  93505478.52548  22835005.6664   22835007.6884   22835005.4314
       232.000         194.000
 09  1  5  1 37 30.0000000  0  9G 5G26G 9G28G18G10G15G17G12
 136222031.51848  88354811.80148  24019268.1844   24019271.5664   24019268.5924
       220.000         171.000
 112185912.04148  87417575.20148  21348284.9394   21348287.2794   21348284.7394
       245.000         214.000
 108471179.82848  84522969.58048  20641403.9654   20641406.2524   20641404.4764
       248.000         221.000
 126613323.04448  98659726.01148  24093718.6634   24093721.3334   24093718.4604
       214.000         158.000
 107714846.75748 101725844.79948  22400397.8654   22400399.4534   22400398.1534
       237.000         193.000
 144175278.92148  94552148.38148  25532722.3714   25532723.9554   25532722.3804
       205.000         139.000
 117364796.84748  73660874.18248  20430846.4944   20430847.9914   20430846.1964
       252.000         237.000
 132572648.92548  85511142.35948  23324808.6244   23324810.0734   23324808.5524
       231.000         189.000
 119899943.30648  93428515.48648  22816210.4894   22816212.5474   22816210.6324
       230.000         193.000
 09  1  5  1 38  0.0000000  0 10G 5G26G 9G28G18G22G10G15G17G12
 136111560.52548  88268730.51648  23998246.1544   23998249.5044   23998246.3414
       221.000         171.000
 112257310.97748  87473210.72548  21361871.5934   21361874.0874   21361871.6144
       245.000         213.000
 108422414.56548  84484970.67348  20632124.0274   20632126.6494   20632124.1774
       248.000         221.000
 126704065.09948  98730434.08448  24110986.5204   24110988.9354   24110988.1864
       216.000         156.000
 107686324.78848 101703619.89148  22394969.9904   22394971.8604   22394971.0854
       236.000         193.000
 138214095.54458  89907088.41458  24398329.9735   24398329.5365   24398331.5165
       221.000         161.000
 144283770.50948  94636687.27548  25553366.7484   25553369.8844   25553367.9314
       204.000         138.000
 117387708.02948  73678727.04648  20435206.3444   20435207.9374   20435206.0644
       251.000         237.000
 132547611.25048  85491632.48848  23320043.8094   23320045.9724   23320044.1504
       231.000         189.000
 119801444.37348  93351763.06848  22797466.6844   22797468.4144   22797466.4964
       230.000         192.000
 09  1  5  1 38 30.0000000  0 10G 5G26G 9G28G18G22G10G15G17G12
 136001244.30548  88182769.84348  23977253.8844   23977256.9964   23977254.9304
       222.000         170.000
 112329061.38548  87529120.12948  21375525.2784   21375527.8574   21375525.1934
       246.000         214.000
 108373955.83548  84447210.63248  20622902.6714   20622905.3504   20622902.6084
       248.000         221.000
 126794962.21248  98801262.98848  24128284.1014   24128285.9234   24128286.1864
       215.000         158.000
 107658364.80848 101681832.89348  22389649.6444   22389651.3294   22389649.9144
       237.000         194.000
 138140910.90848  89850061.35648  24384403.4924   24384402.7474   24384403.9614
       221.000         167.000
 144392147.06648  94721136.56748  25573988.8064   25573993.5494   25573989.6404
       204.000         140.000
 117411076.52648  73696936.26148  20439653.1834   20439654.7514   20439652.9044
       252.000         237.000
 132523075.81948  85472513.98148  23315374.8714   23315376.8224   23315374.3514
       233.000         190.000
 119703216.95148  93275222.21448  22778774.7234   22778776.6734   22778773.8344
       230.000         194.000
 09  1  5  1 39  0.0000000  0  9G 5G26G 9G28G18G22G15G17G12
 135891086.63248  88096932.67848  23956291.6794   23956294.3834   23956292.2274
       224.000         171.000
 112401164.37448  87585304.26648  21389245.7834   21389248.5464   21389245.6824
       244.000         212.000
 108325806.01948  84409691.30148  20613739.9964   20613742.7614   20613740.4344
       248.000         222.000
 126886013.92348  98872212.40048  24145610.4554   24145612.3424   24145610.0824
       213.000         157.000
 107630969.81348 101660486.13048  22384436.8564   22384438.1214   22384437.9164
       238.000         195.000
 138068109.18648  89793332.77548  24370549.1484   24370549.3334   24370547.8774
       213.000         166.000
 117434904.37548  73715503.41448  20444187.5584   20444188.9324   20444187.3874
       252.000         237.000
 132499045.64748  85453789.17148  23310802.0454   23310803.8154   23310801.6034
       232.000         189.000
 119605265.11448  93198896.11348  22760135.1254   22760137.2984   22760135.1084
       232.000         195.000
 09  1  5  1 39 30.0000000  0  9G 5G26G 9G28G18G22G15G17G12
 135781088.83048  88011220.10648  23935359.6514   23935362.6884   23935360.5034
       223.000         171.000
 112473618.41048  87641761.95248  21403033.3854   21403035.9434   21403033.1994
       244.000         213.000
 108277965.05348  84372412.62348  20604636.3714   20604638.8024   20604636.2644
       249.000         222.000
 126977217.60748  98943280.17448  24162965.6404   24162967.8504   24162966.1884
       218.000         157.000
 107604140.13948 101639579.88748  22379331.3444   22379332.5254   22379332.0474
       238.000         194.000
 137995691.72548  89736903.58148  24356768.2434   24356769.8524   24356767.5534
       222.000         167.000
 117459191.27448  73734428.26948  20448809.1994   20448810.6844   20448808.9034
       252.000         237.000
 132475522.38348  85435459.36548  23306326.1034   23306327.6714   23306325.6834
       233.000         190.000
 119507590.27348  93122785.85748  22741547.8624   22741550.5124   22741547.9404
       231.000         195.000
 09  1  5  1 40  0.0000000  0  9G 5G26G 9G28G18G22G15G17G12
 135671252.10348  87925633.07848  23914458.3324   23914461.4524   23914458.0074
       222.000         171.000
 112546421.95748  87698491.97948  21416887.5044   21416890.2494   21416887.2164
       245.000         213.000
 108230432.43148  84335374.22248  20595591.2344   20595593.7324   20595591.5424
       249.000         222.000
 127068570.32848  99014464.12848  24180350.4694   24180351.7014   24180351.2824
       216.000         158.000
 107577875.63548 101619114.03848  22374333.4814   22374334.8484   22374333.9314
       238.000         194.000
 137923660.07448  89680774.93748  24343061.4814   24343061.9794   24343061.5884
       216.000         164.000
 117483936.67848  73753710.39648  20453518.1204   20453519.6504   20453517.9134
       251.000         237.000
 132452506.41048  85417524.85848  23301946.0834   23301948.0714   23301945.8974
       230.000         188.000
 119410193.66948  93046892.39648  22723014.0184   22723016.3694   22723013.9174
       233.000         195.000
 09  1  5  1 40 30.0000000  0  9G 5G26G 9G28G18G22G15G17G12
 135561578.86948  87840173.41848  23893588.3254   23893591.4764   23893588.6554
       224.000         172.000
 112619574.37548  87755493.86048  21430808.0584   21430810.6614   21430807.9664
       245.000         213.000
 108183209.64648  84298577.24948  20586604.8254   20586607.3714   20586604.9604
       249.000         222.000
 127160070.60148  99085763.03648  24197761.3944   24197763.7924   24197761.9344
       217.000         156.000
 107552177.75148 101599089.69648  22369442.9934   22369444.3684   22369443.5104
       236.000         194.000
 137852016.93648  89624949.17048  24329428.0384   24329428.5284   24329428.4554
       218.000         168.000
 117509141.51048  73773350.52148  20458314.3424   20458315.9864   20458314.1054
       252.000         237.000
 132429999.88948  85399987.31048  23297662.8024   23297664.8254   23297661.8734
       230.000         189.000
 119313077.71048  92971217.61848  22704533.7994   22704535.7374   22704533.9084
       233.000         195.000
 09  1  5  1 41  0.0000000  0  9G 5G26G 9G28G18G22G15G17G12
 135452070.73648  87754842.41048  23872749.5134   23872752.7054   23872750.1544
       225.000         173.000
 112693074.68548  87812766.82748  21444794.6934   21444797.1774   21444794.7614
       244.000         212.000
 108136296.39348  84262021.47448  20577677.3944   20577680.1444   20577677.7954
       247.000         222.000
 127251715.96148  99157174.98148  24215201.2074   24215203.3224   24215203.6124
       214.000         156.000
 107527046.82448 101579507.15548  22364660.5984   22364662.4444   22364661.2324
       237.000         194.000
 137780764.08148  89569427.49348  24315869.1744   24315869.9054   24315869.0374
       217.000         167.000
 117534806.14848  73793348.93548  20463198.3044   20463199.7774   20463198.1104
       252.000         237.000
 132408003.72548  85382847.45148  23293477.2594   23293479.2664   23293476.3924
       232.000         190.000
 119216243.78148  92895762.61048  22686107.0214   22686108.9104   22686106.7884
       232.000         196.000
 09  1  5  1 41 30.0000000  0  9G 5G26G 9G28G18G22G15G17G12
 135342729.72848  87669641.61948  23851942.4914   23851945.9494   23851943.0934
       223.000         174.000
 112766921.74448  87870309.98148  21458847.2794   21458849.8194   21458847.1374
       244.000         212.000
 108089693.35648  84225707.42148  20568809.2094   20568811.9184   20568809.3314
       248.000         222.000
 127343504.42848  99228698.46348  24232668.2594   24232669.9284   24232668.4064
       214.000         158.000
 107502483.91048 101560367.20748  22359986.5304   22359987.9844   22359986.6414
       238.000         195.000
 137709903.82148  89514211.71748  24302385.7164   24302385.9604   24302384.7734
       217.000         170.000
 117560930.38048  73813705.47448  20468169.6174   20468171.0604   20468169.3744
       252.000         236.000
 132386519.56648  85366106.54548  23289389.0594   23289390.9454   23289388.9744
       230.000         190.000
 119119694.08048  92820529.07548  22667734.0664   22667736.1444   22667734.0924
       233.000         197.000
 09  1  5  1 42  0.0000000  0  9G 5G26G 9G28G18G22G15G17G12
 135233557.68948  87584572.50948  23831167.4274   23831171.1524   23831167.7234
       221.000         172.000
 112841114.81148  87928122.75648  21472965.6994   21472968.2314   21472965.7384
       243.000         211.000
 108043401.09548  84189635.53048  20560000.0904   20560002.7474   20560000.2464
       249.000         223.000
 127435434.19248  99300332.02048  24250161.4684   24250163.1654   24250161.4474
       215.000         157.000
 107478489.67348 101541670.39848  22355420.9894   22355422.1714   22355421.6404
       238.000         195.000
 137639438.45948  89459303.62748  24288976.3294   24288976.3834   24288977.4354
       224.000         169.000
 117587514.66448  73834420.49648  20473228.3764   20473229.8994   20473228.2774
       251.000         236.000
 132365548.77548  85349765.68248  23285398.8334   23285400.3164   23285398.7924
       233.000         192.000
 119023430.81848  92745518.76548  22649415.2554   22649417.6424   22649415.4064
       233.000         196.000
 09  1  5  1 42 30.0000000  0  9G 5G26G 9G28G18G22G15G17G12
 135124556.52348  87499636.54048  23810425.0494   23810429.0574   23810425.8294
       225.000         174.000
 112915652.85748  87986204.35248  21487149.7894   21487152.4584   21487149.6044
       245.000         212.000
 107997420.00348  84153806.11048  20551250.2684   20551252.8704   20551250.3404
       249.000         223.000
 127527502.88248  99372073.86848  24267682.5724   24267683.2714   24267682.2344
       215.000         157.000
 107455064.57148 101523417.06648  22350963.1254   22350964.4834   22350963.4524
       237.000         195.000
 137569369.75948  89404704.65248  24275642.5164   24275642.0134   24275641.4174
       220.000         165.000
 117614559.10548  73855494.08648  20478374.6404   20478376.2414   20478374.2804
       251.000         236.000
 132345092.71048  85333825.88848  23281505.5994   23281507.8854   23281505.9214
       231.000         191.000
 118927455.85648  92670733.07248  22631152.0084   22631154.0684   22631151.5154
       233.000         196.000
 09  1  5  1 43  0.0000000  0  9G 5G26G 9G28G18G22G15G17G12
 135015728.19648  87414835.26348  23789715.9924   23789719.7124   23789716.2524
       222.000         174.000
 112990534.93048  88044554.00348  21501399.3454   21501402.2574   21501399.4054
       243.000         211.000
 107951750.53648  84118219.51548  20542559.6714   20542562.2704   20542559.7664
       249.000         223.000
 127619708.33748  99443922.26848  24285227.5324   24285229.3934   24285227.4704
       215.000         157.000
 107432209.68748 101505608.06848  22346613.7344   22346615.7244   22346614.4604
       236.000         195.000
 137499701.65548  89350417.79548  24262384.7714   24262384.8084   24262384.0214
       218.000         165.000
 117642063.79848  73876926.30948  20483608.6314   20483610.2104   20483608.3344
       251.000         236.000
 132325152.87548  85318288.37848  23277711.2414   23277713.3894   23277711.1144
       233.000         192.000
 118831770.93148  92596173.39748  22612943.8474   22612945.8544   22612943.8364
       235.000         197.000
 09  1  5  1 43 30.0000000  0  9G 5G26G 9G28G18G22G15G17G12
 134907074.05248  87330169.69148  23769040.1564   23769043.3104   23769040.7284
       226.000         175.000
 113065759.55248  88103170.59048  21515713.9154   21515716.9024   21515713.7684
       243.000         211.000
 107906392.46748  84082875.56748  20533928.3124   20533930.8374   20533928.4744
       249.000         223.000
 127712048.09148  99515875.28548  24302799.8864   24302800.8394   24302801.8934
       217.000         158.000
 107409925.01348 101488243.37448  22342373.2894   22342374.7444   22342373.6734
       237.000         196.000
 137430432.84548  89296442.05848  24249203.3814   24249203.9524   24249205.4644
       218.000         167.000
 117670028.68348  73898717.12648  20488930.1484   20488931.7874   20488929.8314
       251.000         236.000
 132305729.90348  85303153.59448  23274015.3434   23274017.3184   23274015.2424
       232.000         192.000
 118736377.55548  92521840.89648  22594791.4204   22594793.3674   22594791.2984
       235.000         197.000
 09  1  5  1 44  0.0000000  0  9G 5G26G 9G28G18G22G15G17G12
 134798595.67148  87245641.08548  23748397.3624   23748400.2354   23748398.9044
       223.000         176.000
 113141325.46448  88162053.10348  21530093.8454   21530096.5224   21530093.9014
       243.000         211.000
 107861346.05048  84047774.46148  20525356.3244   20525358.7084   20525356.6204
       249.000         224.000
 127804519.84448  99587931.20048  24320396.0774   24320397.6464   24320397.1164
       207.000         153.000
 107388210.73648 101471323.16148  22338241.2524   22338242.8064   22338242.1994
       236.000         195.000
 137361566.31948  89242779.81548  24236098.7414   24236099.3674   24236097.3014
       216.000         163.000
 117698453.28148  73920866.15848  20494339.3374   20494340.7504   20494339.0754
       251.000         236.000
 132286824.95448  85288422.46848  23270417.9814   23270419.7394   23270417.6124
       233.000         192.000
 118641277.46348  92447736.93048  22576694.4754   22576696.2684   22576694.3834
       234.000         197.000
 09  1  5  1 44 30.0000000  0  9G 5G26G 9G28G18G22G15G17G12
 134690296.82048  87161252.37348  23727788.6994   23727791.7214   23727788.7094
       223.000         175.000
 113217233.45148  88221202.18148  21544538.6194   21544541.2114   21544538.3574
       244.000         210.000
 107816613.59548  84012918.00348  20516843.9894   20516846.5324   20516844.2304
       249.000         224.000
 127897123.46548  99660089.82948  24338017.6604   24338019.5364   24338016.0734
       212.000         153.000
 107367069.70248 101454849.61348  22334217.9174   22334219.7334   22334217.8764
       237.000         194.000
 137293106.16048  89189434.28048  24223071.0544   24223071.3004   24223072.4024
       217.000         166.000
 117727339.89648  73943375.20148  20499836.2564   20499837.6974   20499835.9714
       251.000         235.000
 132268441.31048  85274097.56848  23266919.5804   23266921.5434   23266919.2784
       231.000         192.000
 118546474.18448  92373864.24948  22558653.6784   22558655.6864   22558653.2844
       235.000         197.000
 09  1  5  1 45  0.0000000  0  9G 5G26G 9G28G18G22G15G17G12
 134582177.94148  87077003.92348  23707214.0594   23707217.4614   23707214.8724
       224.000         177.000
 113293481.31548  88280616.09248  21559048.2944   21559050.8564   21559048.3154
       244.000         211.000
 107772194.33548  83978305.59048  20508391.3924   20508393.8174   20508391.8914
       249.000         223.000
 127989855.21348  99732348.35748  24355663.8004   24355665.9974   24355665.5324
       208.000         152.000
 107346500.66148 101438821.79048  22330303.9314   22330305.6184   22330305.1844
       237.000         195.000
 137225053.80348  89136406.48048  24210120.4834   24210121.9334   24210122.1804
       218.000         169.000
 117756687.22548  73966243.24648  20505420.8054   20505422.4454   20505420.6214
       251.000         235.000
 132250578.92248  85260178.83348  23263519.9014   23263522.2514   23263519.1794
       231.000         191.000
 118451968.32848  92300223.31948  22540669.8874   22540671.9394   22540669.5694
       237.000         199.000
 09  1  5  1 45 30.0000000  0  9G 5G26G 9G28G18G22G15G17G12
 134474241.12348  86992897.31448  23686674.7394   23686677.3904   23686675.1734
       224.000         174.000
 113370068.00748  88340294.03148  21573622.2514   21573624.8934   21573622.3614
       244.000         210.000
 107728088.87748  83943937.70448  20499998.2234   20500000.8284   20499998.2724
       249.000         224.000
 128082713.44648  99804705.40648  24373333.8724   24373336.4134   24373333.1304
       209.000         151.000
 107326504.79748 101423240.58848  22326498.7994   22326500.6874   22326499.1904
       236.000         194.000
 137157411.05048  89083697.82148  24197249.2354   24197250.2214   24197248.6784
       219.000         168.000
 117786494.79348  73989469.91448  20511092.9444   20511094.6254   20511092.7624
       251.000         235.000
 132233238.91048  85246667.15348  23260220.5944   23260222.7804   23260220.3094
       233.000         192.000
 118357761.87248  92226815.70548  22522742.8164   22522744.9474   22522743.0434
       237.000         199.000
 09  1  5  1 46  0.0000000  0  9G 5G26G 9G28G18G22G15G17G12
 134366487.81148  86908933.70048  23666169.7054   23666172.6674   23666170.2034
       223.000         173.000
 113446992.28848  88400235.01648  21588260.4074   21588263.0064   21588260.2484
       243.000         210.000
 107684297.32748  83909814.42648  20491664.8704   20491667.5834   20491665.3524
       248.000         224.000
 128175695.78348  99877159.16348  24391027.9174   24391030.7314   24391028.7394
       211.000         152.000
 107307082.05448 101408105.97348  22322802.5704   22322804.6354   22322803.1744
       236.000         194.000
 137090178.81048  89031309.09048  24184455.6244   24184456.2244   24184456.4674
       222.000         171.000
 117816763.35248  74013055.79748  20516852.8034   20516854.5354   20516852.4764
       251.000         235.000
 132216422.16948  85233563.19848  23257020.4304   23257022.4934   23257020.2574
       232.000         192.000
 118263856.39348  92153642.61648  22504873.3564   22504875.0524   22504873.4584
       236.000         200.000
 09  1  5  1 46 30.0000000  0  9G 5G26G 9G28G18G22G15G17G12
 134258920.22448  86825114.78448  23645700.2294   23645703.2654   23645700.2324
       224.000         175.000
 113524253.25448  88460438.35448  21602962.5764   21602965.2594   21602962.3924
       243.000         210.000
 107640820.16848  83875936.12348  20483391.5564   20483394.2044   20483391.6444
       249.000         224.000
 128268800.34948  99949708.15248  24408745.8574   24408748.1994   24408745.6494
       213.000         154.000
 107288233.07448 101393418.45748  22319215.9184   22319217.4114   22319216.6394
       236.000         194.000
 137023360.08048  88979242.53448  24171740.6524   24171740.2834   24171740.8354
       223.000         171.000
 117847493.25548  74037001.17448  20522700.6174   20522702.1234   20522700.4244
       250.000         235.000
 132200130.38848  85220868.31448  23253920.5284   23253922.3444   23253920.3894
       234.000         194.000
 118170253.91648  92080705.62948  22487061.3484   22487063.1084   22487061.1594
       236.000         199.000
 09  1  5  1 47  0.0000000  0  9G 5G26G 9G28G18G22G15G17G12
 134151539.94648  86741441.85348  23625266.5004   23625270.0934   23625267.2974
       224.000         177.000
 113601849.78548  88520903.17548  21617728.6414   21617731.4284   21617728.2894
       243.000         210.000
 107597657.67248  83842303.01248  20475177.8004   20475180.6724   20475177.8564
       249.000         224.000
 128362024.77448 100022350.57848  24426486.6384   24426488.3154   24426487.1494
       215.000         157.000
 107269958.47848 101379178.50748  22315738.4314   22315739.7564   22315738.7754
       237.000         194.000
 136956956.78548  88927499.65648  24159104.7214   24159104.7364   24159104.9394
       223.000         170.000
 117878684.04648  74061305.67948  20528635.9634   20528637.5314   20528635.7574
       251.000         235.000
 132184364.27648  85208583.04248  23250919.9644   23250922.1654   23250920.5134
       233.000         193.000
 118076956.04848  92008006.00248  22469307.1324   22469308.8204   22469306.8944
       237.000         198.000
 09  1  5  1 47 30.0000000  0  9G 5G26G 9G28G18G22G15G17G12
 134044348.89048  86657916.35248  23604868.9044   23604872.1004   23604869.5894
       225.000         177.000
 113679780.80748  88581628.63548  21632558.5494   21632561.1994   21632558.6254
       243.000         210.000
 107554810.35448  83808915.49048  20467024.3904   20467027.0904   20467024.3994
       249.000         224.000
 128455367.14848 100095084.85548  24444249.3184   24444250.9424   24444250.3794
       214.000         157.000
 107252258.59048 101365386.38348  22312370.1144   22312371.8234   22312370.5124
       238.000         195.000
 136890970.57248  88876081.83948  24146547.5164   24146547.5964   24146548.8804
       219.000         166.000
 117910335.64348  74085969.25348  20534659.2104   20534660.7814   20534658.8984
       250.000         235.000
 132169125.31248  85196708.53648  23248020.1074   23248022.3704   23248020.0104
       233.000         195.000
 117983964.72548  91935545.22548  22451611.5554   22451613.2224   22451611.3054
       238.000         200.000
 09  1  5  1 48  0.0000000  0  9G 5G26G 9G28G18G22G15G17G12
 133937349.03448  86574539.83848  23584507.4514   23584510.6454   23584507.9684
       226.000         179.000
 113758045.31748  88642613.96548  21647451.9164   21647454.3884   21647451.8024
       243.000         209.000
 107512278.98948  83775774.17048  20458931.0194   20458933.7204   20458931.3054
       250.000         225.000
 128548825.82448 100167909.77848  24462033.4324   24462035.6104   24462033.8454
       214.000         157.000
 107235134.06948 101352042.59548  22309111.4094   22309113.3954   22309112.1474
       237.000         195.000
 136825403.77848  88824990.83748  24134070.2294   24134070.0454   24134070.6624
       219.000         166.000
 117942448.31648  74110992.10848  20540769.9664   20540771.6724   20540769.5784
       250.000         234.000
 132154414.72048  85185245.73648  23245220.7344   23245222.8444   23245220.3754
       232.000         194.000
 117891282.18848  91863325.07148  22433974.8294   22433976.4934   22433974.6684
       238.000         202.000
 09  1  5  1 48 30.0000000  0  9G 5G26G 9G28G18G22G15G17G12
 133830542.74348  86491314.16348  23564183.0364   23564186.1724   23564183.2854
       225.000         179.000
 113836642.98648  88703858.89348  21662408.4574   21662411.3284   21662408.3834
       243.000         210.000
 107470064.26248  83742879.57848  20450897.8454   20450900.3664   20450898.2384
       249.000         225.000
 128642399.13448 100240824.02748  24479840.3694   24479841.7244   24479840.5384
       214.000         156.000
 107218585.74148 101339147.79348  22305962.4974   22305964.3714   22305963.1424
       238.000         196.000
 136760259.08648  88774228.75048  24121673.5854   24121673.6474   24121674.4264
       220.000         167.000
 117975022.62448  74136374.68148  20546968.6844   20546970.2584   20546968.4534
       251.000         234.000
 132140234.09248  85174195.91148  23242522.4434   23242524.2874   23242522.4824
       233.000         194.000
 117798910.53248  91791347.16148  22416397.0034   22416399.2444   22416396.8714
       238.000         203.000
 09  1  5  1 49  0.0000000  0  9G 5G26G 9G28G18G22G15G17G12
 133723931.23148  86408240.26448  23543895.3024   23543898.9124   23543895.7204
       224.000         178.000
 113915571.77548  88765361.83548  21677428.1824   21677430.8774   21677427.9054
       243.000         209.000
 107428165.83248  83710231.45048  20442924.9584   20442927.3934   20442924.7524
       250.000         225.000
 128736084.42948 100313825.54948  24497667.9684   24497669.3594   24497669.1794
       214.000         155.000
 107202613.24948 101326701.67548  22302923.2844   22302924.9454   22302923.8404
       237.000         196.000
 136695537.38548  88723796.25348  24109357.3914   24109357.4564   24109357.2194
       219.000         168.000
 118008057.91648  74162116.45848  20553255.0414   20553256.5504   20553254.8964
       250.000         234.000
 132126583.71348  85163559.25748  23239924.7384   23239926.9434   23239924.7094
       232.000         194.000
 117706850.88548  91719612.37448  22398878.5294   22398881.1024   22398878.0144
       238.000         203.000
 09  1  5  1 49 30.0000000  0  9G 5G26G 9G28G18G22G15G17G12
 133617516.82448  86325319.95148  23523645.3154   23523648.6914   23523645.7274
       225.000         179.000
 113994831.24848  88827122.45648  21692510.7314   21692513.3104   21692510.4014
       242.000         209.000
 107386585.02348  83677830.81948  20435012.2344   20435014.6514   20435012.2484
       250.000         225.000
 128829879.93748 100386912.94148  24515516.4674   24515517.5364   24515516.6654
       212.000         152.000
 107187217.60548 101314705.06548  22299993.3154   22299995.2164   22299993.9254
       236.000         195.000
 136631241.37448  88673695.43348  24097122.3084   24097123.1834   24097121.8524
       220.000         168.000
 118041554.83048  74188217.94248  20559629.2324   20559630.8844   20559628.9414
       249.000         234.000
 132113465.49348  85153337.27248  23237428.4364   23237430.4474   23237428.3534
       233.000         195.000
 117615105.62448  91648122.56848  22381419.9064   22381422.4384   22381420.3734
       237.000         202.000
 09  1  5  1 50  0.0000000  0  9G 5G26G 9G28G18G22G15G17G12
 133511300.77148  86242554.20048  23503433.0464   23503436.7894   23503434.2934
       224.000         181.000
 114074419.99148  88889139.65848  21707655.9824   21707658.5374   21707655.6564
       243.000         208.000
 107345321.51548  83645677.43648  20427160.0624   20427162.5784   20427160.3714
       250.000         225.000
 128923783.20248 100460084.33348  24533386.2354   24533386.8204   24533386.7334
       214.000         152.000
 107172398.68848 101303157.85548  22297173.4754   22297175.1904   22297174.0124
       236.000         196.000
 136567372.46548  88623927.49448  24084968.2664   24084969.3714   24084969.5094
       223.000         172.000
 118075512.41548  74214678.39548  20566091.2974   20566092.7204   20566090.9634
       250.000         234.000
 132100879.57048  85143530.08048  23235033.5684   23235035.4374   23235033.3514
       232.000         194.000
 117523675.99348  91576878.72248  22364021.2874   22364024.0644   22364020.5164
       239.000         203.000
 09  1  5  1 50 30.0000000  0  9G 5G26G 9G28G18G22G15G17G12
 133405284.96648  86159944.48448  23483258.9444   23483262.7864   23483258.9414
       225.000         180.000
 114154336.61648  88951412.34548  21722863.7714   21722866.3774   21722863.7064
       243.000         208.000
 107304375.66748  83613771.58248  20419368.2164   20419370.8334   20419368.5494
       249.000         225.000
 129017792.58048 100533338.38148  24551275.2074   24551275.8574   24551276.4474
       215.000         154.000
 107158156.80448 101292060.27948  22294463.5334   22294465.1784   22294464.2914
       236.000         196.000
 136503932.62048  88574493.84748  24072897.2474   24072897.0084   24072897.0084
       223.000         172.000
 118109931.23648  74241498.25548  20572641.0434   20572642.4284   20572640.8734
       251.000         233.000
 132088827.29948  85134138.71448  23232740.0034   23232741.9514   23232739.9674
       233.000         194.000
 117432563.84748  91505882.24448  22346683.7034   22346686.0504   22346683.7084
       240.000         205.000
 09  1  5  1 51  0.0000000  0  9G 5G26G 9G28G18G22G15G17G12
 133299471.34548  86077492.29948  23463123.7704   23463127.0064   23463124.7164
       226.000         180.000
 114234580.23048  89013939.82248  21738133.3434   21738136.1024   21738133.2974
       242.000         208.000
 107263747.95548  83582113.63148  20411637.1084   20411639.7014   20411637.3004
       250.000         225.000
 129111905.96348 100606673.47348  24569184.2684   24569184.8814   24569186.3464
       213.000         151.000
 107144492.20748 101281412.53848  22291863.0574   22291865.0734   22291863.7654
       236.000         196.000
 136440923.52548  88525395.84248  24060906.0034   24060905.9474   24060905.7694
       221.000         169.000
 118144810.87948  74268677.19348  20579278.2414   20579279.8454   20579278.0704
       249.000         233.000
 132077309.80148  85125164.05248  23230548.1334   23230550.0064   23230548.4144
       234.000         193.000
 117341771.05048  91435134.60448  22329406.9584   22329408.4134   22329406.9584
       241.000         205.000
 09  1  5  1 51 30.0000000  0  9G 5G26G 9G28G18G22G15G17G12
 133193861.27048  85995198.74048  23443026.5424   23443029.8144   23443027.3674
       225.000         179.000
 114315149.37048  89076720.96248  21753465.3124   21753467.7824   21753465.0984
       243.000         208.000
 107223438.71548  83550703.83048  20403966.6664   20403969.2304   20403966.8274
       250.000         226.000
 129206120.87748 100680087.68048  24587112.8444   24587113.7704   24587113.9144
       212.000         151.000
 107131404.88448 101271214.60848  22289372.5524   22289374.5314   22289373.0384
       235.000         194.000
 136378347.28948  88476635.18748  24048998.2444   24048998.7264   24048998.9954
       224.000         173.000
 118180151.24848  74296215.13448  20586003.2864   20586005.0204   20586002.8194
       249.000         233.000
 132066327.38548  85116606.32548  23228458.6264   23228459.9484   23228458.8514
       236.000         193.000
 117251298.88648  91364636.81148  22312190.5524   22312191.9904   22312190.4694
       239.000         205.000
 09  1  5  1 52  0.0000000  0  9G 5G26G 9G28G18G22G15G17G12
 133088457.37448  85913065.83148  23422968.7844   23422972.2004   23422969.3894
       226.000         179.000
 114396043.51348  89139755.35448  21768859.0764   21768861.4764   21768859.0644
       243.000         208.000
 107183448.99948  83519543.01748  20396356.7254   20396359.2734   20396357.1754
       250.000         225.000
 129300436.20348 100753580.16048  24605060.6704   24605061.1144   24605062.5414
       209.000         151.000
 107118895.83048 101261467.28748  22286992.2604   22286993.9544   22286992.6304
       237.000         196.000
 136316206.62048  88428213.88148  24037173.8664   24037173.6024   24037174.3144
       224.000         172.000
 118215952.62648  74324112.30448  20592816.0404   20592817.9294   20592815.8074
       250.000         233.000
 132055881.99648  85108467.07048  23226470.9844   23226472.5224   23226471.0334
       235.000         194.000
 117161149.88948  91294390.85148  22295035.4324   22295037.2574   22295035.2154
       239.000         204.000
 09  1  5  1 52 30.0000000  0  9G 5G26G 9G28G18G22G15G17G12
 132983261.31248  85831094.87148  23402950.8584   23402954.0514   23402951.3464
       227.000         180.000
 114477261.54848  89203042.12448  21784314.3684   21784316.8034   21784314.3404
       243.000         208.000
 107143779.13148  83488631.43348  20388807.8704   20388810.3904   20388807.9634
       250.000         226.000
 129394849.81448 100827149.17548  24623026.8144   24623027.9164   24623027.9634
       207.000         149.000
 107106964.93448 101252170.48248  22284722.0964   22284723.6264   22284722.7394
       238.000         197.000
 136254502.81148  88380133.02248  24025431.6174   24025431.5864   24025431.6904
       221.000         168.000
 118252214.56748  74352368.35748  20599716.4264   20599718.2784   20599716.2854
       250.000         233.000
 132045974.44948  85100746.93248  23224585.5264   23224587.3234   23224585.3734
       233.000         195.000
 117071325.40848  91224397.75848  22277942.2864   22277943.9634   22277942.1264
       240.000         204.000
 09  1  5  1 53  0.0000000  0  9G 5G26G 9G28G18G22G15G17G12
 132878274.89248  85749287.27048  23382972.4574   23382975.5414   23382973.7464
       224.000         181.000
 114558802.16548  89266580.26148  21799830.7574   21799833.4854   21799830.5854
       243.000         207.000
 107104429.62048  83457969.47948  20381319.8394   20381322.3944   20381319.9384
       250.000         226.000
 129489359.70648 100900793.25448  24641011.0384   24641012.8564   24641012.8184
       210.000         153.000
 107095612.68648 101243324.56148  22282561.8194   22282563.5684   22282562.1514
       236.000         196.000
 136193237.85248  88332394.08248  24013773.1034   24013773.0664   24013772.9364
       222.000         168.000
 118288937.55548  74380983.66048  20606704.6234   20606706.2884   20606704.3514
       249.000         233.000
 132036605.47748  85093446.44948  23222802.4934   23222804.4364   23222802.7424
       234.000         195.000
 116981827.69048  91154659.29048  22260911.4544   22260913.2844   22260911.1774
       240.000         205.000
 09  1  5  1 53 30.0000000  0  9G 5G26G 9G28G18G22G15G17G12
 132773499.62248  85667644.20748  23363034.4334   23363037.7164   23363034.2574
       226.000         181.000
 114640664.12048  89330368.78648  21815408.8134   21815411.3864   21815408.8474
       242.000         207.000
 107065400.48548  83427557.16948  20373892.9094   20373895.4814   20373893.0644
       251.000         226.000
 129583963.65548 100974510.60648  24659013.8124   24659015.6404   24659015.0404
       208.000         152.000
 107084838.94648 101234929.43648  22280511.4064   22280513.0944   22280512.2574
       235.000         194.000
 136132413.47348  88284998.47848  24002199.1084   24002198.7794   24002200.1804
       223.000         167.000
 118326120.87648  74409957.66648  20613780.4664   20613781.9694   20613780.1224
       250.000         233.000
 132027775.63948  85086566.07248  23221122.5044   23221124.0334   23221123.0824
       235.000         194.000
 116892658.04148  91085176.45848  22243942.7664   22243944.8734   22243942.7074
       239.000         205.000
 09  1  5  1 54  0.0000000  0  9G 5G26G 9G28G18G22G15G17G12
 132668937.84448  85586167.49948  23343136.9404   23343140.1884   23343137.4094
       226.000         182.000
 114722846.49248  89394406.99848  21831047.6414   21831050.0824   21831047.3164
       242.000         206.000
 107026692.57348  83397395.16348  20366527.0234   20366529.4714   20366527.4594
       250.000         226.000
 129678660.23048 101048300.12648  24677034.5404   24677035.9074   24677034.5474
       207.000         154.000
 107074644.15248 101226985.43548  22278571.4414   22278572.9844   22278572.0774
       235.000         194.000
 136072032.01348  88237947.96648  23990708.2314   23990708.9244   23990709.5984
       224.000         168.000
 118363765.02848  74439290.77148  20620943.9874   20620945.5384   20620943.7704
       250.000         233.000
 132019486.62348  85080107.10848  23219545.0424   23219546.8504   23219545.1624
       233.000         195.000
 116803818.48548  91015950.83848  22227037.4164   22227039.1954   22227037.1004
       240.000         206.000
 09  1  5  1 54 30.0000000  0  9G 5G26G 9G28G18G22G15G17G12
 132564591.36248  85504858.56848  23323280.5044   23323283.7414   23323280.9334
       227.000         181.000
 114805348.34648  89458694.15548  21846747.1644   21846749.7074   21846747.1224
       244.000         207.000
 106988306.39048  83367483.85348  20359222.3444   20359224.8524   20359222.2934
       250.000         226.000
 129773447.49548 101122160.32048  24695071.3154   24695073.4694   24695070.7944
       206.000         154.000
 107065028.30048 101219492.54648  22276741.4734   22276743.4124   22276742.2194
       235.000         195.000
 136012095.40648  88191244.06248  23979302.5404   23979302.7684   23979301.9214
       224.000         171.000
 118401869.88248  74468982.85848  20628195.0694   20628196.6814   20628194.8404
       250.000         233.000
 132011739.27048  85074070.22848  23218070.8044   23218072.6264   23218070.6054
       233.000         195.000
 116715310.95748  90946983.93948  22210194.9874   22210196.7054   22210195.0764
       239.000         205.000
 09  1  5  1 55  0.0000000  0  9G 5G26G 9G28G18G22G15G17G12
 132460461.80948  85423718.65248  23303465.3954   23303468.6644   23303466.6294
       227.000         181.000
 114888168.26648  89523229.14548  21862507.2114   21862509.9274   21862507.1564
       242.000         206.000
 106950242.46448  83337823.65048  20351979.0254   20351981.3904   20351979.2634
       251.000         226.000
 129868323.30848 101196089.51748  24713125.8824   24713128.1144   24713124.8844
       210.000         156.000
 107055991.70048 101212451.02348  22275021.8064   22275023.8434   22275022.4874
       235.000         195.000
 135952605.25348  88144888.13548  23967982.1244   23967982.8074   23967981.6654
       220.000         170.000
 118440435.11248  74499033.68348  20635533.8064   20635535.4844   20635533.5154
       250.000         232.000
 132004533.98848  85068455.73448  23216699.5984   23216701.5684   23216699.0344
       233.000         195.000
 116627136.98548  90878276.96048  22193416.0244   22193417.6774   22193415.6944
       240.000         206.000
 09  1  5  1 55 30.0000000  0  9G 5G26G 9G28G18G22G15G17G12
 132356550.38848  85342748.68748  23283691.8654   23283694.5384   23283692.0514
       226.000         180.000
 114971304.67448  89588010.75348  21878327.6294   21878330.1624   21878327.6154
       242.000         206.000
 106912500.35948  83308414.22348  20344796.8994   20344799.5284   20344797.0224
       250.000         226.000
 129963285.33248 101270085.89448  24731196.3454   24731198.6864   24731198.4894
       209.000         155.000
 107047533.58348 101205860.27548  22273412.2634   22273414.3934   22273412.6134
       237.000         196.000
 135893562.72048  88098880.96548  23956747.0754   23956747.2954   23956747.3914
       220.000         168.000
 118479459.73848  74529442.47248  20642959.8774   20642961.6544   20642959.6334
       249.000         232.000
 131997871.40448  85063264.12648  23215431.8074   23215433.4444   23215432.2404
       234.000         196.000
 116539297.57048  90809830.68048  22176700.7374   22176702.5404   22176701.0084
       241.000         207.000
 09  1  5  1 56  0.0000000  0  9G 5G26G 9G28G18G22G15G17G12
 132252857.87048  85261949.32848  23263959.6134   23263962.9134   23263960.4944
       227.000         182.000
 115054755.03848  89653037.00848  21894207.7044   21894210.1984   21894207.6134
       242.000         206.000
 106875079.77248  83279255.32448  20337676.0314   20337678.6484   20337675.8614
       250.000         226.000
 130058330.65148 101344147.13348  24749283.2694   24749285.2064   24749284.8044
       207.000         154.000
 107039653.23948 101199719.73748  22271913.2694   22271914.6434   22271913.7844
       237.000         196.000
 135834968.85948  88053223.41348  23945596.9564   23945597.2744   23945598.1604
       222.000         171.000
 118518942.83748  74560208.52348  20650472.9774   20650474.8954   20650472.7414
       248.000         232.000
 131991751.06848  85058495.04648  23214267.2644   23214268.7474   23214267.5754
       233.000         196.000
 116451793.62248  90741645.79348  22160049.5274   22160051.0014   22160049.4094
       241.000         207.000
 09  1  5  1 56 30.0000000  0  9G 5G26G 9G28G18G22G15G17G12
 132149387.12648  85181322.78248  23244269.6404   23244272.8844   23244270.5164
       225.000         180.000
 115138519.60648  89718308.08648  21910147.4754   21910149.8354   21910147.1524
       241.000         204.000
 106837982.23748  83250348.15748  20330616.4604   20330619.0994   20330616.7994
       250.000         226.000
 130153458.40748 101418272.64748  24767385.4744   24767387.2584   24767384.7074
       207.000         153.000
 107032351.77948 101194030.27848  22270523.7834   22270525.2284   22270524.7304
       237.000         196.000
 135776826.52848  88007917.71748  23934533.3414   23934532.9574   23934533.6834
       222.000         176.000
 118558884.95448  74591332.24248  20658073.7654   20658075.7154   20658073.3494
       249.000         232.000
 131986174.48748  85054149.67348  23213206.1554   23213207.7094   23213206.3234
       232.000         195.000
 116364627.44948  90673724.11048  22143462.3404   22143463.6414   22143462.4104
       240.000         207.000
 09  1  5  1 57  0.0000000  0  9G 5G26G 9G28G18G22G15G17G12
 132046141.11748  85100871.34148  23224622.6904   23224625.9504   23224623.2094
       227.000         182.000
 115222598.06548  89783823.77548  21926147.2614   21926149.5194   21926147.0904
       241.000         205.000
 106801209.25348  83221693.88448  20323618.7924   20323621.4404   20323618.8534
       250.000         226.000
 130248667.47548 101492461.54048  24785502.4824   24785505.1384   24785503.0814
       206.000         153.000
 107025630.22048 101188792.68348  22269244.6624   22269246.2954   22269245.1294
       237.000         195.000
 135719138.53948  87962966.04348  23923555.0634   23923555.8334   23923553.7644
       222.000         172.000
 118599287.34348  74622814.61948  20665762.1964   20665764.0604   20665761.9184
       249.000         232.000
 131981143.78248  85050229.66548  23212248.5484   23212249.9674   23212248.1344
       231.000         194.000
 116277802.39848  90606068.24248  22126939.8024   22126941.2404   22126939.6094
       239.000         207.000
 09  1  5  1 57 30.0000000  0  9G 5G26G 9G28G18G22G15G17G12
 131943120.74448  85020595.73648  23205018.2934   23205022.0234   23205019.5784
       226.000         182.000
 115306988.62348  89849582.63848  21942206.0744   21942208.8084   21942205.7514
       242.000         205.000
 106764760.06048  83193291.92148  20316682.8864   20316685.3864   20316683.0394
       251.000         227.000
 130343955.37648 101566711.81548  24803635.2274   24803638.4684   24803635.6314
       206.000         154.000
 107019487.81448 101184006.37948  22268075.3284   22268077.6314   22268076.0364
       235.000         195.000
 135661905.90148  87918369.18048  23912664.5554   23912664.2674   23912665.0724
       223.000         172.000
 118640148.72848  74654654.65048  20673537.9844   20673539.8234   20673537.6504
       250.000         232.000
 131976659.30748  85046735.28548  23211395.1584   23211396.8334   23211394.4764
       232.000         195.000
 116191318.81748  90538678.46248  22110481.9264   22110483.9234   22110481.5264
       239.000         206.000
 09  1  5  1 58  0.0000000  0  9G 5G26G 9G28G18G22G15G17G12
 131840327.67248  84940497.23248  23185457.3404   23185460.8844   23185457.7134
       224.000         181.000
 115391689.89848  89915583.62248  21958324.3284   21958326.9574   21958324.0614
       242.000         205.000
 106728635.62148  83165143.01248  20309808.5664   20309811.1324   20309808.9814
       251.000         227.000
 130439320.17248 101641022.02348  24821782.7634   24821785.3784   24821783.1654
       208.000         155.000
 107013924.20448 101179671.07448  22267017.2384   22267018.8154   22267018.0504
       237.000         195.000
 135605130.42348  87874128.55548  23901860.1954   23901860.3424   23901862.1944
       225.000         174.000
 118681468.60648  74686851.95348  20681401.1264   20681402.6244   20681400.9724
       250.000         232.000
 131972721.27348  85043666.68348  23210645.7924   23210647.6094   23210645.5724
       231.000         194.000
 116105178.72748  90471556.32748  22094090.3254   22094091.9494   22094090.0994
       240.000         206.000
 09  1  5  1 58 30.0000000  0  9G 5G26G 9G28G18G22G15G17G12
 131737763.22848  84860576.89748  23165939.7974   23165943.5134   23165940.4084
       226.000         182.000
 115476700.15748  89981825.38248  21974501.2864   21974503.7884   21974501.0964
       241.000         204.000
 106692835.53948  83137246.84548  20302996.1134   20302998.6214   20302996.1374
       251.000         227.000
 130534759.52448 101715390.33648  24839944.3334   24839946.5074   24839945.6704
       210.000         156.000
 107008939.06148 101175786.54848  22266068.3084   22266069.9084   22266068.9274
       235.000         194.000
 135548812.95448  87830244.79848  23891143.0844   23891143.5414   23891143.6504
       222.000         172.000
 118723246.57048  74719406.20848  20689351.1604   20689352.6184   20689350.8814
       250.000         231.000
 131969329.94248  85041024.10448  23210000.4764   23210001.9974   23210000.5954
       232.000         193.000
 116019383.25048  90404702.72048  22077763.8464   22077765.7234   22077763.6804
       240.000         207.000
 09  1  5  1 59  0.0000000  0  9G 5G26G 9G28G18G22G15G17G12
 131635429.59448  84780836.39748  23146466.3394   23146470.1634   23146467.0044
       226.000         182.000
 115562018.51648  90048307.20948  21990736.6914   21990739.4544   21990736.6154
       242.000         204.000
 106657360.53848  83109603.99248  20296245.4054   20296248.0344   20296245.7344
       251.000         228.000
 130630271.79748 101789815.46548  24858119.8204   24858122.0344   24858122.1054
       211.000         157.000
 107004532.58748 101172352.91948  22265229.4084   22265231.3654   22265229.9704
       237.000         195.000
 135492955.93948  87786719.84048  23880513.9124   23880514.7734   23880512.9894
       223.000         174.000
 118765482.60448  74752317.39548  20697388.2534   20697389.8884   20697388.0514
       249.000         230.000
 131966486.30048  85038808.30548  23209459.3474   23209460.8674   23209459.3284
       233.000         195.000
 115933934.12048  90338118.99948  22061503.8184   22061505.5104   22061503.5994
       240.000         209.000
 09  1  5  1 59 30.0000000  0  9G 5G26G 9G28G18G22G15G17G12
 131533328.35348  84701276.99548  23127037.2484   23127040.4324   23127037.2944
       226.000         180.000
 115647643.59048  90115028.04248  22007030.5784   22007033.2634   22007030.2414
       242.000         203.000
 106622211.00148  83082214.74648  20289556.7504   20289559.2324   20289557.1054
       252.000         228.000
 130725854.99148 101864295.87248  24876308.6204   24876310.0394   24876309.6844
       208.000         156.000
 107000704.64848 101169370.09648  22264501.4784   22264502.9944   22264501.7504
       237.000         196.000
 135437560.67948  87743554.69348  23869972.7714   23869972.7154   23869973.6504
       222.000         170.000
 118808176.20348  74785585.13248  20705512.3714   20705514.0874   20705512.0294
       248.000         230.000
 131964190.92748  85037019.71048  23209022.3614   23209024.4524   23209022.0634
       231.000         195.000
 115848833.08448  90271806.52148  22045309.8654   22045311.3144   22045309.8384
       240.000         209.000
 09  1  5  2  0  0.0000000  0  9G 5G26G 9G28G18G22G15G17G12
 131431461.00148  84621899.83448  23107652.5164   23107655.7804   23107653.3454
       225.000         180.000
 115733574.03848  90181986.83548  22023382.7384   22023385.0234   22023382.8064
       241.000         203.000
 106587387.00548  83055079.16148  20282929.9644   20282932.3884   20282929.9644
       252.000         228.000
 130821507.13748 101938830.01248  24894510.5184   24894511.9754   24894511.3274
       212.000         159.000
 106997454.69048 101166837.64848  22263882.9134   22263884.5634   22263883.8444
       236.000         195.000
 135382628.70448  87700750.57748  23859519.4444   23859519.4374   23859520.9114
       224.000         173.000
 118851327.10648  74819209.20248  20713723.7294   20713725.5114   20713723.4674
       248.000         230.000
 131962444.05848  85035658.52148  23208689.9164   23208691.9664   23208689.4264
       231.000         194.000
 115764081.12248  90205766.04648  22029181.7704   22029183.4694   22029181.5814
       241.000         209.000
 09  1  5  2  0 30.0000000  0  9G 5G26G 9G28G18G22G15G17G12
 131329829.97648  84542706.82648  23088312.6854   23088316.1004   23088312.6724
       226.000         180.000
 115819809.25348  90249183.09648  22039792.6644   22039795.4784   22039792.4464
       241.000         204.000
 106552890.03248  83028198.40448  20276365.5114   20276367.8094   20276365.8254
       251.000         228.000
 130917227.03648 102013416.94148  24912725.4524   24912726.9334   24912725.7494
       213.000         160.000
 106994783.26448 101164756.00548  22263374.6414   22263376.2984   22263375.2514
       237.000         196.000
 135328162.42948  87658309.30348  23849154.9844   23849155.0924   23849154.5094
       223.000         176.000
 118894935.40548  74853189.69348  20722022.1784   20722023.9634   20722021.9544
       248.000         230.000
 131961247.04248  85034725.80848  23208462.4144   23208464.0814   23208461.8454
       231.000         194.000
 115679680.81548  90139999.59148  22013121.0094   22013122.6164   22013120.8954
       240.000         209.000
 09  1  5  2  1  0.0000000  0  9G 5G26G 9G28G18G22G15G17G12
 131228436.04148  84463698.57548  23069018.1344   23069021.5094   23069018.5824
       226.000         181.000
 115906346.85848  90316614.98148  22056260.1594   22056263.1984   22056260.1334
       240.000         203.000
 106518719.54448  83001572.04948  20269862.9684   20269865.5064   20269863.1054
       252.000         228.000
 131013011.93348 102088054.50548  24930952.6344   24930953.6904   24930954.5324
       217.000         158.000
 106992689.28748 101163124.32248  22262975.8954   22262977.9784   22262976.4514
       235.000         195.000
 135274162.76248  87616231.64848  23838878.7494   23838879.4964   23838879.4274
       222.000         173.000
 118938999.74148  74887525.52848  20730407.3144   20730409.2094   20730407.1394
       249.000         230.000
 131960599.48648  85034221.21948  23208338.7884   23208341.1224   23208338.7584
       233.000         195.000
 115595632.72448  90074507.57648  21997127.1234   21997128.9424   21997126.8374
       241.000         209.000
 09  1  5  2  1 30.0000000  0  9G 5G26G 9G28G18G22G15G17G12
 131127281.38648  84384876.77348  23049769.1824   23049772.8124   23049769.8694
       227.000         182.000
 115993186.29348  90384282.06748  22072785.2454   22072787.8534   22072785.2944
       239.000         202.000
 106484876.11248  82975200.54848  20263422.8174   20263425.1924   20263423.1994
       252.000         228.000
 131108860.21148 102162741.45848  24949192.6614   24949192.6764   24949194.6294
       215.000         159.000
 106991173.00948 101161942.79148  22262687.3044   22262689.3374   22262688.1274
       235.000         195.000
 135220631.70248  87574519.13648  23828692.6984   23828692.6804   23828693.0604
       225.000         174.000
 118983520.03448  74922216.65848  20738879.3274   20738881.1384   20738879.1684
       249.000         230.000
 131960502.31148  85034145.51148  23208320.5734   23208322.2444   23208320.6034
       232.000         194.000
 115511938.89048  90009291.61948  21981200.5684   21981202.4944   21981200.3894
       241.000         210.000
 09  1  5  2  2  0.0000000  0  9G 5G26G 9G28G18G22G15G17G12
 131026368.87948  84306243.64948  23030566.5374   23030569.5704   23030567.0954
       226.000         183.000
 116080327.17948  90452184.05448  22089367.4394   22089370.1724   22089367.1304
       239.000         201.000
 106451361.35148  82949085.15148  20257045.2064   20257047.7214   20257045.4604
       252.000         228.000
 131204771.33948 102237477.40548  24967443.5454   24967444.3594   24967444.5854
       212.000         160.000
 106990235.10548 101161211.95148  22262509.1934   22262510.8774   22262509.3804
       237.000         195.000
 135167571.81348  87533173.76948  23818596.0214   23818595.4304   23818597.1384
       223.000         174.000
 119028497.27048  74957263.85648  20747438.3464   20747439.9594   20747438.0744
       249.000         230.000
 131960957.22848  85034500.01148  23208407.0104   23208408.5804   23208407.0364
       232.000         193.000
 115428602.06948  89944353.85148  21965342.3364   21965344.0974   21965342.3824
       241.000         211.000
 09  1  5  2  2 30.0000000  0  9G 5G26G 9G28G18G22G15G17G12
 130925699.33748  84227799.85848  23011409.2844   23011412.7484   23011409.8654
       227.000         183.000
 116167767.43248  90520319.29948  22106006.8654   22106009.5824   22106006.9334
       239.000         201.000
 106418174.73948  82923225.45748  20250729.9114   20250732.3464   20250730.3014
       252.000         228.000
 131300742.43748 102312260.08548  24985705.9074   24985707.4334   24985704.9384
       211.000         160.000
 106989874.37348 101160930.84848  22262440.7624   22262442.4344   22262441.8814
       236.000         196.000
 135114983.86548  87492196.15948  23808588.1344   23808588.8424   23808589.4934
       225.000         177.000
 119073930.40448  74992666.28848  20756084.0624   20756085.5984   20756083.9744
       249.000         229.000
 131961963.62048  85035284.22748  23208598.3374   23208600.1034   23208598.0974
       231.000         193.000
 115345622.71848  89879694.63348  21949551.7124   21949553.5724   21949551.4834
       240.000         210.000
 09  1  5  2  3  0.0000000  0  9G 5G26G 9G28G18G22G15G17G12
 130825274.16248  84149546.48348  22992299.1414   22992302.6954   22992299.9944
       227.000         182.000
 116255505.38348  90588686.53648  22122702.8984   22122705.5504   22122702.8634
       240.000         201.000
 106385316.45448  82897621.59948  20244477.1814   20244479.6854   20244477.1314
       252.000         228.000
 131396771.50848 102387087.92548  25003979.2004   25003981.2044   25003978.5694
       213.000         160.000
 106990090.43148 101161099.17648  22262481.5374   22262483.5274   22262482.0254
       236.000         195.000
 135062869.06648  87451587.20148  23798671.1724   23798671.4944   23798671.0004
       224.000         177.000
 119119818.32548  75028423.10748  20764816.1864   20764817.7774   20764815.9674
       249.000         229.000
 131963521.80048  85036498.40248  23208894.7784   23208896.7174   23208894.9414
       233.000         193.000
 115263002.29248  89815315.08848  21933829.6334   21933831.5124   21933829.5454
       240.000         211.000
 09  1  5  2  3 30.0000000  0  9G 5G26G 9G28G18G22G15G17G12
 130725094.41048  84071484.34248  22973235.7064   22973238.9794   22973236.3144
       226.000         183.000
 116343539.13248  90657284.26048  22139455.0214   22139457.8434   22139454.8564
       238.000         200.000
 106352786.21448  82872273.36548  20238286.8774   20238289.2914   20238287.2814
       252.000         228.000
 131492856.09348 102461959.00548  25022263.8894   25022266.1284   25022264.1254
       213.000         160.000
 106990882.34448 101161716.23848  22262632.2824   22262633.8724   22262632.6584
       236.000         195.000
 135011228.57748  87411347.87148  23788844.3804   23788844.9044   23788843.8844
       221.000         176.000
 119166160.21548  75064533.66748  20773634.5874   20773636.3134   20773634.3114
       249.000         229.000
 131965631.44948  85038142.28548  23209296.0214   23209298.1784   23209296.1244
       231.000         193.000
 115180741.55248  89751215.83548  21918176.2174   21918177.7864   21918176.1114
       241.000         212.000
 09  1  5  2  4  0.0000000  0  9G 5G26G 9G28G18G22G15G17G12
 130625163.03248  83993615.72648  22954219.5684   22954222.4894   22954219.8554
       230.000         183.000
 116431868.59548  90726112.40148  22156263.6274   22156266.4294   22156263.4214
       240.000         201.000
 106320585.72748  82847182.08248  20232159.3004   20232161.7784   20232159.1824
       252.000         228.000
 131588995.64648 102536872.92048  25040558.8654   25040560.8014   25040558.6964
       214.000         161.000
 106992250.95048 101162782.67948  22262892.9274   22262894.2754   22262893.6474
       236.000         195.000
 134960065.31748  87371480.40348  23779107.9464   23779108.7094   23779106.7684
       227.000         179.000
 119212956.78648  75100998.51748  20782539.8024   20782541.5174   20782539.5274
       248.000         229.000
 131968294.36148  85040217.28648  23209803.1524   23209805.0464   23209802.5434
       231.000         194.000
 115098843.33648  89687399.05148  21902591.1344   21902593.0754   21902590.6664
       239.000         211.000
 09  1  5  2  4 30.0000000  0  9G 5G26G 9G28G18G22G15G17G12
 130525480.70948  83915941.20248  22935250.6624   22935253.7634   22935251.4954
       229.000         184.000
 116520491.45348  90795169.16548  22173128.1054   22173130.7604   22173128.0934
       239.000         200.000
 106288714.73048  82822347.54548  20226094.4584   20226096.8864   20226095.0074
       253.000         228.000
 131685187.27448 102611827.42048  25058863.4054   25058865.7544   25058863.2934
       213.000         158.000
 106994194.99848 101164297.51548  22263262.6234   22263264.3964   22263263.1824
       235.000         195.000
 134909379.88348  87331985.23348  23769463.9344   23769463.4334   23769464.2304
       226.000         181.000
 119260206.35148  75137816.35848  20791530.9994   20791532.8964   20791530.6644
       248.000         229.000
 131971509.99748  85042722.99648  23210414.9244   23210416.9784   23210414.6004
       232.000         194.000
 115017307.93748  89623864.99748  21887075.1854   21887077.3464   21887074.9924
       240.000         211.000
 09  1  5  2  5  0.0000000  0  9G 5G26G 9G28G18G22G15G17G12
 130426049.69848  83838462.48148  22916329.2544   22916332.5544   22916329.5024
       228.000         185.000
 116609407.04748  90864454.04048  22190047.9474   22190050.7484   22190047.9024
       239.000         199.000
 106257173.94248  82797770.31148  20220092.4634   20220095.0004   20220092.4164
       252.000         228.000
 131781429.70648 102686821.51948  25077177.1984   25077180.0484   25077177.6004
       210.000         158.000
 106996714.08848 101166260.43248  22263741.7914   22263743.8844   22263742.3054
       235.000         195.000
 134859173.85948  87292863.68748  23759908.8284   23759909.8744   23759907.3554
       223.000         178.000
 119307909.20548  75174987.40948  20800608.5454   20800610.2154   20800608.3104
       248.000         228.000
 131975279.21048  85045660.04548  23211132.1084   23211134.4374   23211131.8394
       231.000         194.000
 114936137.81848  89560615.55948  21871629.3394   21871631.1474   21871629.2734
       241.000         212.000
 09  1  5  2  5 30.0000000  0  9G 5G26G 9G28G18G22G15G17G12
 130326871.70948  83761180.96248  22897455.8954   22897459.7984   22897456.6324
       228.000         184.000
 116698614.14048  90933966.05348  22207023.6124   22207026.2774   22207023.5544
       239.000         200.000
 106225963.63848  82773450.59648  20214153.3544   20214155.8154   20214153.6424
       252.000         228.000
 131877721.22948 102761853.83448  25095501.1964   25095503.7524   25095499.5774
       210.000         157.000
 106999808.11848 101168671.35348  22264330.9004   22264332.4384   22264331.3334
       236.000         195.000
 134809449.68848  87254117.57448  23750447.4074   23750447.1524   23750446.3384
       227.000         178.000
 119356064.78148  75212511.22648  20809772.1874   20809773.8984   20809771.8764
       248.000         228.000
 131979602.43448  85049028.79648  23211954.8394   23211956.9574   23211954.4264
       231.000         193.000
 114855334.25848  89497651.76348  21856252.9944   21856254.7284   21856252.7654
       241.000         212.000
 09  1  5  2  6  0.0000000  0  9G 5G26G 9G28G18G22G15G17G12
 130227947.67648  83684097.30148  22878631.4024   22878634.9814   22878632.1444
       227.000         185.000
 116788110.31848  91003703.32948  22224054.2624   22224056.8334   22224054.4624
       238.000         200.000
 106195083.72748  82749388.32448  20208277.1094   20208279.7304   20208277.3734
       252.000         229.000
 131974059.28448 102836922.42848  25113833.3414   25113836.0864   25113832.8554
       209.000         154.000
 107003475.97648 101171529.41448  22265029.1494   22265030.6464   22265030.0154
       235.000         195.000
 134760207.28648  87215746.85548  23741076.7274   23741076.5024   23741076.9544
       224.000         177.000
 119404671.88748  75250386.89048  20819021.8654   20819023.5424   20819021.5944
       249.000         228.000
 131984478.99148  85052828.73248  23212882.3924   23212884.8374   23212882.2964
       229.000         193.000
 114774897.89948  89434974.09748  21840946.3814   21840948.1814   21840946.4414
       241.000         212.000
 09  1  5  2  6 30.0000000  0  9G 5G26G 9G28G18G22G15G17G12
 130129279.94448  83607213.37548  22859855.3304   22859859.3714   22859855.4204
       229.000         186.000
 116877895.25948  91073665.61248  22241139.6964   22241142.2484   22241139.3634
       237.000         198.000
 106164535.41048  82725584.43748  20202464.0294   20202466.4174   20202464.1714
       252.000         229.000
 132070442.80148 102912026.48048  25132174.4994   25132176.9614   25132174.4424
       210.000         153.000
 107007718.15148 101174834.98348  22265835.6914   22265837.7584   22265835.8644
       236.000         194.000
 134711448.92348  87177753.32148  23731798.1254   23731798.0384   23731798.0164
       225.000         177.000
 119453730.85248  75288614.65148  20828357.5074   20828359.2934   20828357.3034
       249.000         228.000
 131989909.91548  85057060.62348  23213916.1344   23213918.3334   23213915.1344
       231.000         192.000
 114694830.95448  89372584.27848  21825709.9714   21825711.6664   21825709.8564
       241.000         211.000
 09  1  5  2  7  0.0000000  0  9G 5G26G 9G28G18G22G15G17G12
 130030869.69048  83530530.06548  22841128.8734   22841132.5924   22841129.5564
       231.000         187.000
 116967966.95648  91143851.34548  22258279.8694   22258282.4074   22258279.8244
       238.000         199.000
 106134318.24848  82702038.60048  20196713.8634   20196716.3974   20196714.2214
       252.000         229.000
 132166869.60248 102987164.21548  25150523.8714   25150526.2784   25150526.0034
       212.000         152.000
 107012533.36748 101178587.07448  22266752.5144   22266754.1314   22266752.7364
       236.000         194.000
 134663175.66048  87140137.79748  23722611.8334   23722612.5874   23722612.9414
       222.000         176.000
 119503240.46348  75327193.56048  20837778.9374   20837780.8534   20837778.7364
       248.000         228.000
 131995895.07848  85061724.39548  23215055.3844   23215057.0374   23215055.6884
       233.000         192.000
 114615134.16048  89310482.90148  21810544.0744   21810545.9964   21810544.1844
       241.000         212.000
 09  1  5  2  7 30.0000000  0  9G 5G26G 9G28G18G22G15G17G12
 129932718.24848  83454048.41348  22822451.6014   22822454.7534   22822452.2484
       233.000         186.000
 117058323.68948  91214259.18748  22275474.2354   22275476.7484   22275474.0264
       238.000         199.000
 106104432.67648  82678751.13548  20191026.8744   20191029.1764   20191026.9764
       253.000         229.000
 132263337.50248 103062333.98748  25168881.2764   25168883.7244   25168883.8484
       209.000         151.000
 107017920.56948 101182784.88348  22267777.4594   22267779.3234   22267778.0814
       236.000         194.000
 134615388.78648  87102901.27948  23713517.5854   23713519.0094   23713517.8044
       222.000         174.000
 119553199.92748  75366123.00848  20847285.8394   20847287.6244   20847285.4144
       249.000         228.000
 132002434.01948  85066819.68448  23216299.8334   23216301.2254   23216300.3574
       232.000         191.000
 114535808.99548  89248671.10248  21795449.1724   21795451.0344   21795448.7544
       240.000         212.000
 09  1  5  2  8  0.0000000  0  9G 5G26G 9G28G18G22G15G17G12
 129834827.50748  83377769.92848  22803823.7714   22803826.6764   22803824.7874
       232.000         187.000
 117148964.41248  91284888.30648  22292722.5254   22292724.9524   22292722.2344
       237.000         198.000
 106074879.58448  82655722.75648  20185403.0574   20185405.4184   20185403.4064
       251.000         228.000
 132359845.02348 103137534.63848  25187245.9564   25187248.1784   25187247.1004
       206.000         149.000
 107023879.79648 101187428.44048  22268911.7794   22268913.5084   22268912.3724
       237.000         194.000
 134568089.91348  87066044.99848  23704517.8134   23704517.8794   23704518.1114
       224.000         177.000
 119603608.83748  75405402.67348  20856878.4814   20856880.1944   20856878.3434
       248.000         228.000
 132009527.84348  85072347.35948  23217649.2304   23217651.0474   23217649.3814
       231.000         190.000
 114456857.39348  89187150.39848  21780424.9564   21780426.7314   21780424.7244
       240.000         212.000
 09  1  5  2  8 30.0000000  0  9G 5G26G 9G28G18G22G15G17G12
 129737199.91448  83301696.49648  22785245.4324   22785248.8304   22785245.9944
       232.000         188.000
 117239888.49648  91355738.24248  22310024.7614   22310027.4304   22310024.8844
       237.000         197.000
 106045659.89748  82632954.16448  20179842.7034   20179845.1744   20179842.5374
       252.000         229.000
 132456391.41048 103212765.57048  25205618.4824   25205619.8954   25205617.9484
       208.000         148.000
 107030411.22348 101192517.85048  22270154.3894   22270156.3474   22270155.1404
       236.000         194.000
 134521281.35848  87029570.79748  23695609.7204   23695610.6964   23695609.8224
       224.000         178.000
 119654467.49548  75445032.78948  20866556.2944   20866558.3664   20866555.8624
       248.000         228.000
 132017177.45348  85078308.10948  23219105.0654   23219106.8004   23219104.7464
       231.000         191.000
 114378281.06148  89125922.09848  21765472.6274   21765474.2024   21765472.5444
       240.000         213.000
 09  1  5  2  9  0.0000000  0  9G 5G26G 9G28G18G22G15G17G12
 129639836.54748  83225828.94548  22766718.1474   22766721.5154   22766718.9064
       234.000         189.000
 117331094.05848  91426807.50948  22327380.6394   22327383.2834   22327380.2104
       236.000         197.000
 106016773.22048  82610445.07348  20174345.7274   20174348.1204   20174345.9064
       252.000         229.000
 132552974.05848 103288024.77548  25223997.4574   25223998.3644   25223999.1804
       211.000         145.000
 107037513.34548 101198051.95848  22271505.8834   22271507.5264   22271506.3594
       235.000         194.000
 134474963.92248  86993479.30248  23686796.2554   23686796.6814   23686797.4894
       227.000         180.000
 119705774.70848  75485012.43148  20876319.8984   20876321.6494   20876319.6304
       248.000         228.000
 132025382.12448  85084701.36948  23220666.2834   23220668.2514   23220666.2194
       230.000         191.000
 114300080.81848  89064986.86948  21750591.5774   21750593.2904   21750591.1624
       241.000         213.000
 09  1  5  2  9 30.0000000  0  9G 5G26G 9G28G18G22G15G17G12
 129542738.85548  83150168.40848  22748241.1474   22748244.2454   22748241.8384
       233.000         189.000
 117422579.62448  91498094.94448  22344789.7634   22344792.5854   22344789.8304
       236.000         197.000
 105988219.90548  82588195.73548  20168912.1474   20168914.8404   20168912.4814
       252.000         229.000
 132649591.22148 103363310.90048  25242383.0244   25242383.8684   25242387.2664
       209.000         143.000
 107045185.72948 101204030.42648  22272966.1494   22272967.8784   22272966.5224
       236.000         195.000
 134429138.78948  86957771.39948  23678076.4954   23678076.6644   23678076.3554
       227.000         181.000
 119757529.64248  75525340.94848  20886168.6164   20886170.3604   20886168.4534
       248.000         227.000
 132034142.01148  85091527.28848  23222333.2924   23222334.9824   23222332.7394
       231.000         190.000
 114222258.04348  89004345.76448  21735782.4014   21735784.1254   21735782.2694
       241.000         214.000
 09  1  5  2 10  0.0000000  0 10G 5G26G 9G28G18G22G15G30G17G12
 129445908.72948  83074716.36648  22729814.7344   22729817.7524   22729815.4984
       232.000         189.000
 117514343.92948  91569599.58748  22362252.1304   22362254.4744   22362252.2104
       236.000         197.000
 105960001.04048  82566207.01048  20163542.2424   20163544.8214   20163542.3064
       252.000         228.000
 132746241.23848 103438622.59248  25260775.2764   25260775.9284   25260777.1674
       209.000         146.000
 107053427.77648 101210452.77548  22274534.3174   22274536.0354   22274535.0144
       235.000         194.000
 134383807.58348  86922448.38148  23669450.4334   23669450.4064   23669450.4484
       226.000         181.000
 119809732.05248  75566018.14848  20896102.3984   20896104.0294   20896102.1534
       248.000         227.000
 141440494.79958  92421147.38358  25012307.3245   25012311.3165   25012307.6825
       211.000         153.000
 132043457.41848  85098786.04748  23224106.1174   23224107.8644   23224106.0954
       233.000         192.000
 114144814.01748  88943999.78648  21721045.0854   21721046.8964   21721044.6854
       241.000         214.000
 09  1  5  2 10 30.0000000  0 10G 5G26G 9G28G18G22G15G30G17G12
 129349347.60148  82999473.93648  22711439.8464   22711443.1824   22711439.8914
       233.000         190.000
 117606385.53448  91641320.31948  22379766.8054   22379769.4774   22379766.8994
       238.000         196.000
 105932116.39048  82544478.71448  20158236.0204   20158238.4344   20158236.2524
       252.000         229.000
 132842922.36848 103513958.52948  25279173.5354   25279173.7954   25279173.6224
       207.000         147.000
 107062238.69548 101217318.41748  22276211.0234   22276212.7144   22276211.7054
       234.000         193.000
 134338971.27148  86887511.00548  23660917.8584   23660918.2874   23660918.2264
       226.000         177.000
 119862381.18448  75607043.44448  20906121.0954   20906122.8664   20906120.9024
       248.000         227.000
 141328291.07648  92333715.91748  24990955.6344   24990959.5324   24990956.2484
       211.000         150.000
 132053328.40048  85106477.73448  23225984.6184   23225986.2544   23225985.0834
       231.000         191.000
 114067750.59648  88883950.39148  21706380.4274   21706382.2534   21706380.2454
       243.000         215.000
 09  1  5  2 11  0.0000000  0 10G 5G26G 9G28G18G22G15G30G17G12
 129253057.05848  82924442.35948  22693116.3224   22693119.5724   22693117.2714
       233.000         190.000
 117698702.90848  91713255.93248  22397334.5084   22397336.8044   22397334.5764
       236.000         195.000
 105904566.56648  82523011.31648  20152993.4824   20152995.8304   20152993.4344
       253.000         229.000
 132939632.99848 103589317.46448  25297576.4224   25297577.2174   25297576.3034
       204.000         142.000
 107071617.41848 101224626.50848  22277995.5734   22277997.3684   22277996.1494
       234.000         193.000
 134294631.21848  86852960.29148  23652480.4164   23652479.6024   23652481.0464
       226.000         178.000
 119915476.05048  75648416.05648  20916224.5664   20916226.6944   20916224.2214
       248.000         227.000
 141216165.98348  92246345.73748  24969619.1894   24969621.7944   24969618.8964
       211.000         151.000
 132063754.97648  85114602.33848  23227968.5554   23227970.2524   23227968.5344
       229.000         190.000
 113991068.58748  88824198.18248  21691788.5544   21691790.0524   21691788.5334
       243.000         215.000
 09  1  5  2 11 30.0000000  0 10G 5G26G 9G28G18G22G15G30G17G12
 129157039.29348  82849623.32648  22674844.5424   22674847.8034   22674844.4174
       234.000         190.000
 117791295.06848  91785405.65748  22414953.9274   22414956.8374   22414954.1344
       235.000         195.000
 105877352.51048  82501805.55348  20147814.9654   20147817.2044   20147815.1284
       253.000         229.000
 133036372.04348 103664698.54748  25315985.9024   25315986.5624   25315987.3424
       204.000         140.000
 107081564.13948 101232377.18548  22279888.4014   22279890.1454   22279888.2724
       235.000         193.000
 134250789.19548  86818797.71448  23644137.6994   23644137.9214   23644137.3824
       225.000         181.000
 119969016.52748  75690135.91148  20926413.1154   20926415.0014   20926412.9014
       248.000         227.000
 141104122.07648  92159038.81348  24948298.5634   24948300.8324   24948298.8564
       213.000         153.000
 132074737.72448  85123160.35948  23230058.5904   23230059.9994   23230058.3524
       230.000         191.000
 113914770.16048  88764744.88248  21677269.3024   21677270.8404   21677269.3884
       241.000         215.000
 09  1  5  2 12  0.0000000  0 10G 5G26G 9G28G18G22G15G30G17G12
 129061295.99448  82775018.16748  22656625.4484   22656628.5074   22656626.0524
       235.000         192.000
 117884160.93448  91857768.65948  22432625.9874   22432628.6434   22432625.5504
       237.000         197.000
 105850474.83248  82480861.91348  20142700.1314   20142702.6844   20142700.5014
       252.000         229.000
 133133137.59748 103740100.27848  25334399.0184   25334400.8684   25334400.4684
       204.000         142.000
 107092078.26148 101240569.99048  22281889.3514   22281891.3714   22281889.6564
       236.000         196.000
 134207446.98648  86785024.55048  23635889.4664   23635890.5654   23635889.6064
       225.000         177.000
 120023002.46348  75732202.86548  20936686.2324   20936688.1374   20936685.7694
       248.000         226.000
 140992160.59448  92071796.10648  24926992.0194   24926995.5274   24926991.7274
       211.000         155.000
 132086276.61448  85132151.70848  23232254.0494   23232255.7824   23232253.6784
       231.000         190.000
 113838856.76048  88705591.61348  21662823.2624   21662825.3674   21662823.1344
       242.000         216.000
 09  1  5  2 12 30.0000000  0 10G 5G26G 9G28G18G22G15G30G17G12
 128965827.80148  82700627.36748  22638458.7234   22638461.7554   22638459.6964
       234.000         191.000
 117977298.00648  91930342.99448  22450349.3024   22450352.2234   22450349.6454
       235.000         196.000
 105823932.92848  82460179.90748  20137649.4944   20137651.8664   20137649.5354
       252.000         229.000
 133229927.05648 103815520.62648  25352817.6784   25352819.5554   25352817.9414
       202.000         142.000
 107103157.88448 101249203.46048  22283997.8824   22283999.8854   22283998.5494
       237.000         195.000
 134164604.66548  86751640.89248  23627736.5744   23627736.9144   23627736.2624
       220.000         174.000
 120077431.78848  75774615.31948  20947044.0184   20947045.6274   20947043.7184
       248.000         227.000
 140880282.23848  91984618.15748  24905702.2294   24905706.1084   24905701.9854
       209.000         154.000
 132098370.69548  85141575.67748  23234555.7584   23234557.3534   23234555.6304
       231.000         191.000
 113763328.49848  88646738.43248  21648450.7564   21648452.9754   21648450.3394
       242.000         216.000
 09  1  5  2 13  0.0000000  0 10G 5G26G 9G28G18G22G15G30G17G12
 128870637.30548  82626452.96648  22620344.0124   22620347.4054   22620344.6494
       233.000         191.000
 118070705.86048  92003128.33148  22468124.2114   22468126.8094   22468123.7724
       234.000         193.000
 105797728.35648  82439760.75748  20132662.7914   20132665.2814   20132663.0054
       253.000         228.000
 133326739.90448 103890959.17948  25371239.9044   25371242.6014   25371240.7924
       201.000         140.000
 107114803.35148 101258277.84248  22286213.9294   22286215.9054   22286214.6144
       237.000         194.000
 134122264.30248  86718648.41648  23619679.9904   23619680.4334   23619678.3894
       224.000         178.000
 120132304.93148  75817373.60948  20957485.9914   20957487.6204   20957485.8334
       248.000         226.000
 140768489.76148  91897507.13248  24884428.3284   24884432.9224   24884428.8754
       209.000         156.000
 132111020.93548  85151433.03148  23236963.3724   23236964.8364   23236963.2594
       232.000         192.000
 113688187.53248  88588187.04748  21634152.0084   21634154.1264   21634151.9544
       243.000         217.000
