     2.11           OBSERVATION DATA    G (GPS)             RINEX VERSION / TYPE
teqc  2008Oct2      gpsops              20090109 00:05:36UTCPGM / RUN BY / DATE
    30.0000                                                 INTERVAL
     1     1                                                WAVELENGTH FACT L1/2
     7    L1    L2    P1    P2    C1    S1    S2            # / TYPES OF OBSERV
Linux 2.4.20-8|Pentium IV|gcc -static|Linux|486/DX+         COMMENT
     2.10           OBSERVATION DATA    GPS                 COMMENT
soc2rnx ver 1.20    gpsops               9-Jan-2009 00:05:33COMMENT
S1, if present, is the SNR for the C/A data stream on L1.   COMMENT
 SNR is mapped to RINEX snr flag value [1,4-9]              COMMENT
    SNR:   >316  >100  >31.6  >10  >3.2    >0 bad=0         COMMENT
L1 & L2:      9     8     7     6     5     4     1         COMMENT
                                                            COMMENT
This data is provided as a public service by NASA/JPL.      COMMENT
No warranty is expressed or implied regarding suitability   COMMENT
for use.  For further information, contact:                 COMMENT
Dave Stowers, NASA/JPL m/s 238-600                          COMMENT
4800 Oak Grove Drive, Pasadena CA 91109 USA                 COMMENT
                                                            COMMENT
Forced Modulo Decimation to 30 seconds                      COMMENT
  2009     1     8     0     0    0.0000000     GPS         TIME OF FIRST OBS
DSN                 JPL                                     OBSERVER / AGENCY
451-U               AOAD/M_T        NONE                    ANT # / TYPE
  4849202.3940  -360328.9929  4114913.1862                  APPROX POSITION XYZ
        0.0254        0.0000        0.0000                  ANTENNA: DELTA H/E/N
LP03574             ASHTECH Z-XII3      CC00                REC # / TYPE / VERS
MADR                                                        MARKER NAME
13407S012                                                   MARKER NUMBER
                                                            END OF HEADER
 09  1  8  0  0  0.0000000  0 10G28G 9G27G 8G26G17G15G21G10G24
 115270400.18748  89821084.45148  21935232.8774   21935234.9834   21935233.4304
       241.000         208.000
 120834596.65748  94156822.32248  22994062.6324   22994066.4644   22994063.1434
       228.000         182.000
 122135211.06348  95170286.12248  23241564.5114   23241567.2064   23241564.7024
       230.000         190.000
 123435140.31548  96183205.66848  23488942.8694   23488945.4634   23488944.7334
       227.000         172.000
 105586452.86948  82275136.31448  20092449.6304   20092452.0724   20092449.8654
       254.000         230.000
 132331941.50748 103115785.79348  25181942.0244   25181943.7524   25181941.3194
       216.000         161.000
 109519772.03148  85340076.23548  20840924.1074   20840925.8174   20840923.9714
       251.000         232.000
 128820289.18748 100379434.05948  24513695.6764   24513698.4424   24513694.0034
       206.000         148.000
 116021997.30048  90406738.90148  22078260.6494   22078263.5074   22078261.0654
       240.000         203.000
 129270027.86548 100729877.99048  24599276.2344   24599280.9904   24599277.4004
       210.000         152.000
 09  1  8  0  0 30.0000000  0 10G28G 9G27G 8G26G17G15G21G10G24
 115303346.37048  89846756.80648  21941502.3874   21941504.2574   21941502.8654
       242.000         209.000
 120741414.60148  94084212.95748  22976331.1624   22976334.2974   22976331.1454
       228.000         182.000
 122205908.34548  95225374.90248  23255017.6204   23255020.6034   23255017.9244
       229.000         189.000
 123523528.50948  96252079.58348  23505763.0234   23505765.4974   23505763.1194
       227.000         172.000
 105592308.13848  82279698.85048  20093563.8834   20093566.3374   20093563.8684
       253.000         230.000
 132255605.24848 103056303.06148  25167415.6204   25167417.4634   25167415.4864
       214.000         162.000
 109477535.13048  85307164.36448  20832886.6924   20832888.4154   20832886.5194
       251.000         232.000
 128840577.00148 100395242.75148  24517556.5314   24517558.9494   24517555.9474
       212.000         151.000
 116113594.11648  90478113.03448  22095690.9854   22095693.7864   22095691.8274
       241.000         203.000
 129341815.79148 100785816.62248  24612937.0984   24612941.8954   24612937.7214
       210.000         153.000
 09  1  8  0  1  0.0000000  0 10G28G 9G27G 8G26G17G15G21G10G24
 115336789.71048  89872816.55348  21947866.6614   21947868.5424   21947867.0234
       242.000         210.000
 120648434.50948  94011760.94948  22958637.9564   22958640.4924   22958638.3504
       231.000         182.000
 122276647.26548  95280496.12048  23268478.7544   23268481.8324   23268479.3534
       230.000         190.000
 123611987.67748  96321008.77648  23522595.4764   23522598.7174   23522596.8004
       223.000         169.000
 105598539.85348  82284554.72948  20094749.7954   20094752.1894   20094749.7224
       254.000         230.000
 132179332.19548 102996869.53548  25152901.6344   25152903.7014   25152900.6284
       217.000         162.000
 109435571.94148  85274465.77248  20824901.4194   20824903.0044   20824901.2664
       251.000         232.000
 128861317.88848 100411404.47348  24521503.9884   24521506.1004   24521506.8394
       212.000         147.000
 116205506.44348  90549733.02348  22113181.3154   22113184.3014   22113182.1744
       240.000         203.000
 129413747.73848 100841867.48348  24626625.5464   24626630.7794   24626626.3604
       213.000         156.000
 09  1  8  0  1 30.0000000  0 10G28G 9G27G 8G26G17G15G21G10G24
 115370730.41448  89899263.85848  21954325.3634   21954327.0754   21954325.8564
       242.000         210.000
 120555658.95448  93939468.32548  22940983.5624   22940986.0584   22940984.0644
       230.000         182.000
 122347428.84848  95335650.58448  23281948.2034   23281950.9974   23281948.6404
       230.000         189.000
 123700517.78148  96389993.25948  23539442.2644   23539445.4294   23539442.7094
       224.000         170.000
 105605149.89948  82289705.41348  20096007.6684   20096010.0254   20096007.7604
       253.000         230.000
 132103126.72748 102937488.65748  25138399.8674   25138401.0234   25138399.5844
       214.000         161.000
 109393885.57448  85241982.88148  20816968.8584   20816970.2884   20816968.5634
       251.000         232.000
 128882511.48448 100427918.96948  24525536.5444   24525538.5484   24525536.2284
       212.000         150.000
 116297732.93548  90621597.81848  22130731.1544   22130734.5164   22130731.7294
       238.000         202.000
 129485822.41448 100898029.54448  24640341.3974   24640345.9104   24640341.0034
       212.000         155.000
 09  1  8  0  2  0.0000000  0 10G28G 9G27G 8G26G17G15G21G10G24
 115405167.64748  89926098.06848  21960878.2824   21960880.2514   21960878.7014
       241.000         209.000
 120463089.05148  93867335.96048  22923367.7124   22923370.5734   22923368.2844
       231.000         185.000
 122418252.77148  95390838.04148  23295425.1264   23295428.3864   23295425.1514
       228.000         188.000
 123789117.89248  96459032.30948  23556302.6024   23556305.4494   23556302.5824
       226.000         172.000
 105612139.48248  82295151.83448  20097337.8284   20097340.1314   20097337.7644
       254.000         230.000
 132026992.00148 102878162.90648  25123911.4244   25123913.2814   25123910.9694
       210.000         157.000
 109352477.44348  85209716.80948  20809089.0734   20809090.6514   20809089.0004
       252.000         233.000
 128904156.80148 100444785.41548  24529657.4174   24529658.7004   24529656.6674
       210.000         152.000
 116390271.25948  90693705.58348  22148340.3304   22148344.1414   22148341.1554
       239.000         201.000
 129558037.37948 100954300.93848  24654083.9264   24654087.9664   24654084.4344
       215.000         153.000
 09  1  8  0  2 30.0000000  0 11G28G 9G27G 8G26G17G18G15G21G10G24
 115440096.43148  89953315.29548  21967525.0314   21967527.0674   21967525.5384
       242.000         209.000
 120370721.79348  93795361.47448  22905791.1444   22905793.6024   22905791.2954
       232.000         185.000
 122489114.38748  95446054.85648  23308909.4134   23308913.1124   23308910.2214
       226.000         188.000
 123877783.22848  96528122.15348  23573175.4404   23573177.8524   23573176.3514
       224.000         170.000
 105619505.01648  82300891.20948  20098739.4214   20098741.7094   20098739.3964
       254.000         229.000
 131950927.48548 102818891.87148  25109436.5924   25109438.8684   25109436.9354
       215.000         160.000
 138988411.88058  90510445.09558  24545682.7035   24545683.2045   24545684.7505
       220.000         154.000
 109311345.53848  85177665.97348  20801261.9144   20801263.4744   20801261.7944
       251.000         233.000
 128926248.29748 100461999.55348  24533860.1554   24533862.4054   24533861.2314
       205.000         149.000
 116483115.50848  90766051.73948  22166008.1084   22166011.6654   22166009.0894
       238.000         201.000
 129630385.86048 101010676.36648  24667851.9394   24667855.6184   24667852.1174
       215.000         155.000
 09  1  8  0  3  0.0000000  0 11G28G 9G27G 8G26G17G18G15G21G10G24
 115475516.77948  89980915.57248  21974265.4884   21974267.2774   21974265.8984
       242.000         209.000
 120278559.66148  93723546.83648  22888252.4404   22888255.7064   22888252.4364
       230.000         182.000
 122560014.70248  95501301.82448  23322401.9514   23322405.0374   23322401.5424
       231.000         190.000
 123966513.81148  96597262.85648  23590060.4954   23590063.0444   23590060.9564
       225.000         170.000
 105627248.82248  82306925.34748  20100212.9704   20100215.3154   20100213.0594
       253.000         229.000
 131874937.70348 102759679.04148  25094976.9814   25094979.0994   25094977.3534
       216.000         164.000
 138891423.57048  90434869.68748  24527227.0224   24527227.0564   24527227.3394
       219.000         159.000
 109270492.87548  85145832.72748  20793487.8484   20793489.5364   20793487.4474
       251.000         233.000
 128948786.18048 100479561.47048  24538147.2014   24538150.7554   24538147.9954
       199.000         142.000
 116576265.17648  90838635.89948  22183734.1004   22183737.3194   22183734.6554
       239.000         201.000
 129702866.52648 101067154.76248  24681644.3034   24681648.3504   24681644.4714
       215.000         157.000
 09  1  8  0  3 30.0000000  0 11G28G 9G27G 8G26G17G18G15G21G10G24
 115511427.59648  90008898.02648  21981099.2384   21981100.9644   21981100.0384
       242.000         209.000
 120186603.84348  93651892.94448  22870754.2534   22870757.1834   22870754.5974
       230.000         184.000
 122630952.85148  95556578.29248  23335901.5934   23335903.8894   23335901.3134
       232.000         190.000
 124055308.73648  96666453.66848  23606956.7624   23606960.4594   23606957.2394
       219.000         167.000
 105635371.15348  82313254.42248  20101758.4084   20101760.8374   20101758.3544
       252.000         229.000
 131799025.56048 102700526.69648  25080530.7744   25080533.3044   25080531.1404
       214.000         163.000
 138794653.14748  90359464.24548  24508811.2754   24508812.4824   24508813.8924
       214.000         160.000
 109229920.78948  85114218.11148  20785767.2044   20785768.9584   20785766.8424
       251.000         233.000
 128971768.53448 100497469.78048  24542522.7374   24542523.3514   24542520.7614
       208.000         151.000
 116669717.80648  90911456.12748  22201517.5684   22201520.9404   22201518.2334
       240.000         201.000
 129775476.39648 101123733.90748  24695462.4944   24695465.2774   24695462.7394
       216.000         157.000
 09  1  8  0  4  0.0000000  0 11G28G 9G27G 8G26G17G18G15G21G10G24
 115547828.92048  90037262.70048  21988025.9634   21988027.7704   21988026.2954
       242.000         208.000
 120094856.37848  93580401.44148  22853295.4744   22853298.6354   22853295.9334
       230.000         184.000
 122701929.34748  95611884.66248  23349407.5724   23349410.1474   23349407.9354
       228.000         189.000
 124144168.13148  96735694.71048  23623865.8154   23623869.5164   23623866.0824
       222.000         168.000
 105643873.94148  82319879.97448  20103376.3624   20103378.8154   20103376.2364
       253.000         229.000
 131723195.41948 102641438.28848  25066101.1524   25066103.1484   25066101.5774
       215.000         162.000
 138698105.05048  90284231.97448  24490438.1364   24490441.0324   24490438.4424
       217.000         159.000
 109189631.76048  85082824.06148  20778100.5344   20778102.0904   20778100.2084
       251.000         233.000
 128995195.28148 100515724.37348  24546980.0904   24546981.9424   24546981.4054
       208.000         150.000
 116763471.58548  90984511.01448  22219358.6254   22219361.9524   22219359.2244
       239.000         202.000
 129848214.15948 101180412.71248  24709303.1324   24709306.9714   24709303.5454
       212.000         154.000
 09  1  8  0  4 30.0000000  0 11G28G 9G27G 8G26G17G18G15G21G10G24
 115584719.11148  90066008.29948  21995046.1164   21995047.7464   21995046.9474
       242.000         209.000
 120003317.60348  93509072.53048  22835876.1074   22835878.7034   22835876.6324
       229.000         183.000
 122772943.36048  95667220.22848  23362920.4824   23362923.9774   23362920.6124
       227.000         187.000
 124233090.57748  96804984.94248  23640789.3444   23640790.8144   23640789.7324
       225.000         172.000
 105652757.41948  82326802.16248  20105066.7834   20105069.2914   20105066.7344
       253.000         229.000
 131647449.89148 102582415.79248  25051687.7604   25051689.6284   25051688.2024
       214.000         165.000
 138601781.49148  90209174.63748  24472108.7704   24472111.4734   24472109.1514
       211.000         160.000
 109149627.31648  85051651.76248  20770487.9674   20770489.5094   20770487.6624
       251.000         233.000
 129019064.67248 100534323.91548  24551522.3574   24551523.9274   24551524.3454
       209.000         154.000
 116857524.52648  91057799.01748  22237256.0404   22237259.6334   22237257.1574
       239.000         201.000
 129921077.04248 101237188.99448  24723168.1074   24723172.7374   24723168.3614
       210.000         151.000
 09  1  8  0  5  0.0000000  0 11G28G 9G27G 8G26G17G18G15G21G10G24
 115622096.53948  90095133.57248  22002158.6134   22002160.5804   22002158.8284
       243.000         209.000
 119911988.43848  93437906.96848  22818496.4124   22818499.0704   22818496.4654
       227.000         183.000
 122843993.93948  95722584.29848  23376440.8334   23376444.6524   23376440.5854
       231.000         190.000
 124322074.27148  96874322.90348  23657721.9514   23657723.7624   23657723.0944
       221.000         167.000
 105662021.88548  82334021.21948  20106829.9264   20106832.3264   20106829.7834
       253.000         229.000
 131571791.93048 102523461.49848  25037290.5604   25037291.7754   25037290.0884
       208.000         161.000
 138505684.87748  90134294.21248  24453822.4204   24453824.9134   24453822.4594
       215.000         164.000
 109109908.34548  85020701.91348  20762929.7864   20762931.2224   20762929.5424
       252.000         233.000
 129043374.46948 100553266.51548  24556149.2054   24556150.6014   24556147.7034
       212.000         154.000
 116951873.59548  91131317.75848  22255209.8774   22255213.6454   22255210.7034
       239.000         201.000
 129994061.69248 101294060.14148  24737056.7004   24737061.3974   24737056.7914
       209.000         150.000
 09  1  8  0  5 30.0000000  0 11G28G 9G27G 8G26G17G18G15G21G10G24
 115659959.86748  90124637.46748  22009364.0154   22009365.5434   22009364.9244
       243.000         209.000
 119820869.96148  93366905.58048  22801157.1384   22801160.1314   22801157.0314
       229.000         183.000
 122915080.12248  95777976.12548  23389969.0634   23389971.7134   23389969.3994
       235.000         191.000
 124411118.32548  96943707.80848  23674664.5014   23674668.5874   23674664.5014
       216.000         162.000
 105671667.61548  82341537.36948  20108665.5674   20108667.9114   20108665.5094
       253.000         229.000
 131496224.18848 102464577.58648  25022908.6944   25022911.3654   25022907.9474
       206.000         158.000
 138409817.35148  90059592.25848  24435579.5114   24435581.3534   24435579.7584
       215.000         157.000
 109070476.23348  84989975.59248  20755426.0804   20755427.4524   20755425.8364
       251.000         233.000
 129068122.98448 100572551.08948  24560858.8774   24560859.9124   24560861.5294
       215.000         158.000
 117046516.72948  91205065.64348  22273220.2134   22273223.7934   22273220.8014
       238.000         201.000
 130067165.10248 101351023.79748  24750966.5124   24750972.4564   24750967.0024
       207.000         150.000
 09  1  8  0  6  0.0000000  0 11G28G 9G27G 8G26G17G18G15G21G10G24
 115698307.59248  90154518.81948  22016661.3854   22016662.9974   22016661.9984
       243.000         208.000
 119729962.64648  93296068.73048  22783857.8434   22783860.8444   22783858.4074
       228.000         183.000
 122986201.36048  95833395.26748  23403502.8754   23403505.4854   23403503.5124
       231.000         189.000
 124500221.79248  97013139.06448  23691621.7124   23691624.1924   23691621.0674
       221.000         167.000
 105681695.03848  82349350.94648  20110573.7274   20110575.9914   20110573.7494
       254.000         229.000
 131420749.76448 102405766.32348  25008548.2584   25008549.3104   25008547.5144
       216.000         164.000
 138314181.58248  89985070.83748  24417380.3384   24417381.3444   24417379.9034
       214.000         155.000
 109031332.64448  84959474.09748  20747977.1884   20747978.6814   20747976.9064
       251.000         233.000
 129093308.52248 100592176.15948  24565650.8474   24565653.0294   24565651.4434
       211.000         154.000
 117141450.80248  91279040.23848  22291285.6774   22291288.9464   22291286.3794
       239.000         200.000
 130140384.17648 101408077.63048  24764900.7314   24764905.3074   24764900.4634
       213.000         149.000
 09  1  8  0  6 30.0000000  0 11G28G 9G27G 8G26G17G18G15G21G10G24
 115737138.36448  90184776.56148  22024050.3924   22024052.0244   22024051.2304
       241.000         208.000
 119639267.06048  93225396.86348  22766599.3594   22766602.1974   22766599.3194
       229.000         184.000
 123057356.66748  95888840.95348  23417042.7884   23417045.5804   23417042.7894
       229.000         186.000
 124589382.86348  97082615.23248  23708588.5344   23708590.9164   23708589.5764
       218.000         165.000
 105692104.29248  82357462.04848  20112554.4154   20112556.7034   20112554.3774
       252.000         228.000
 131345371.42448 102347029.95048  24994203.9914   24994205.7134   24994204.3024
       209.000         165.000
 138218780.20548  89910732.09348  24399226.0124   24399226.7914   24399225.3214
       214.000         158.000
 108992478.34848  84929198.02248  20740583.5164   20740584.9564   20740583.2544
       251.000         233.000
 129118929.10648 100612140.23248  24570525.9494   24570527.5424   24570525.7564
       216.000         156.000
 117236673.49948  91353239.74248  22309405.9464   22309409.2554   22309406.9444
       239.000         200.000
 130213716.13248 101465219.38848  24778855.6544   24778859.0624   24778856.0954
       216.000         149.000
 09  1  8  0  7  0.0000000  0 11G28G 9G27G 8G26G17G18G15G21G10G24
 115776450.07548  90215409.06848  22031530.6624   22031533.0414   22031530.9894
       241.000         207.000
 119548783.88448  93154890.51048  22749381.2064   22749384.0244   22749381.2334
       230.000         186.000
 123128545.40848  95944312.65848  23430589.0834   23430592.3434   23430589.3434
       230.000         187.000
 124678600.29448  97152135.25548  23725564.9044   23725568.6324   23725565.3494
       218.000         164.000
 105702895.64948  82365870.89248  20114607.8384   20114610.1994   20114607.6534
       254.000         228.000
 131270091.62348 102288370.37948  24979878.4674   24979881.0514   24979878.1464
       204.000         159.000
 138123615.25048  89836577.61648  24381116.9884   24381117.9084   24381116.8614
       209.000         152.000
 108953914.50448  84899148.27248  20733245.0694   20733246.5374   20733244.8724
       251.000         233.000
 129144982.78648 100632441.80048  24575484.3464   24575486.1054   24575484.9964
       215.000         156.000
 117332182.12248  91427662.03548  22327580.5214   22327583.8914   22327581.7594
       238.000         199.000
 130287157.72348 101522446.59348  24792830.1094   24792834.7824   24792830.6654
       212.000         150.000
 09  1  8  0  7 30.0000000  0 11G28G 9G27G 8G26G17G18G15G21G10G24
 115816242.68148  90246416.29048  22039103.1824   22039105.2694   22039104.0514
       241.000         207.000
 119458514.97148  93084551.11248  22732203.9674   22732206.3024   22732204.3934
       231.000         186.000
 123199768.20548  95999810.92548  23444143.0984   23444145.5554   23444143.5394
       232.000         189.000
 124767874.33648  97221699.42648  23742554.2224   23742557.1424   23742554.6814
       222.000         166.000
 105714071.05048  82374578.99348  20116734.5924   20116736.8164   20116734.6854
       253.000         228.000
 131194914.98448 102229791.24348  24965571.6064   24965574.5214   24965571.1504
       213.000         162.000
 138028690.76148  89762610.47748  24363053.5334   24363054.7354   24363053.8784
       212.000         159.000
 108915644.12948  84869327.20048  20725962.5174   20725964.0234   20725962.3404
       251.000         233.000
 129171468.96448 100653080.36848  24580524.6634   24580525.9954   24580526.0744
       216.000         155.000
 117427975.80148  91502306.45248  22345809.2714   22345812.7544   22345809.9054
       239.000         198.000
 130360707.72748 101579758.26148  24806826.2554   24806831.5824   24806827.3654
       205.000         146.000
 09  1  8  0  8  0.0000000  0 11G28G 9G27G 8G26G17G18G15G21G10G24
 115856516.74748  90277798.68148  22046767.1224   22046769.2174   22046767.4244
       243.000         208.000
 119368463.09648  93014380.85748  22715067.1634   22715070.0504   22715068.0164
       230.000         187.000
 123271025.81648  96055336.34348  23457703.2664   23457705.6954   23457703.7464
       233.000         189.000
 124857205.36248  97291308.02348  23759553.2994   23759555.7174   23759554.4804
       216.000         162.000
 105725632.53248  82383587.93448  20118934.7194   20118936.9434   20118934.6414
       254.000         228.000
 131119846.17148 102171296.11048  24951287.5394   24951290.0954   24951288.4794
       212.000         165.000
 137934011.05348  89688834.10248  24345036.1254   24345038.7044   24345036.4084
       210.000         160.000
 108877670.36248  84839737.24948  20718736.3614   20718737.9104   20718736.1284
       251.000         233.000
 129198388.02048 100674056.25548  24585646.9684   24585648.4474   24585646.3054
       212.000         155.000
 117524053.47248  91577172.16548  22364092.1284   22364095.6834   22364093.1164
       237.000         198.000
 130434364.99648 101637153.50048  24820843.9054   24820847.2144   24820844.7174
       209.000         143.000
 09  1  8  0  8 30.0000000  0 11G28G 9G27G 8G26G17G18G15G21G10G24
 115897266.33548  90309551.60948  22054521.6804   22054523.4894   22054522.4044
       241.000         207.000
 119278624.96448  92944377.14448  22697971.8884   22697974.3994   22697971.9434
       229.000         187.000
 123342313.32448  96110885.03448  23471267.8594   23471271.2654   23471267.9124
       227.000         187.000
 124946587.96148  97360956.76048  23776561.2544   23776564.8384   23776561.4274
       213.000         161.000
 105737576.25048  82392894.72848  20121207.4524   20121209.7404   20121207.3624
       253.000         228.000
 131044883.90848 102112883.99648  24937023.2954   24937025.0034   24937023.4094
       212.000         164.000
 137839574.43748  89615247.15548  24327065.5064   24327067.4284   24327063.8364
       214.000         158.000
 108839990.20648  84810376.08548  20711566.0594   20711567.6354   20711565.8334
       251.000         233.000
 129225733.37248 100695364.26148  24590851.2974   24590852.5824   24590851.1934
       209.000         154.000
 117620408.09648  91652253.68248  22382427.9794   22382431.4764   22382428.7234
       238.000         199.000
 130508122.11948 101694626.57948  24834880.9034   24834882.2964   24834880.1654
       212.000         143.000
 09  1  8  0  9  0.0000000  0 11G28G 9G27G 8G26G17G18G15G21G10G24
 115938490.42048  90341674.27848  22062366.4334   22062368.0214   22062367.0244
       242.000         207.000
 119189001.93148  92874541.06948  22680916.1864   22680919.5794   22680916.8004
       230.000         187.000
 123413630.55048  96166456.89648  23484839.4244   23484842.4094   23484839.3954
       230.000         185.000
 125036021.73548  97430645.38348  23793580.2884   23793584.1074   23793579.5594
       215.000         161.000
 105749903.02748  82402500.00148  20123553.2424   20123555.5484   20123553.0584
       253.000         228.000
 130970031.39548 102054557.41848  24922779.2474   24922781.0224   24922779.1794
       217.000         166.000
 137745384.26248  89541852.22548  24309141.9134   24309143.5114   24309142.7424
       216.000         161.000
 108802605.65648  84781245.26248  20704451.9104   20704453.5804   20704451.5834
       251.000         233.000
 129253503.85748 100717003.55648  24596134.5524   24596137.3294   24596135.7594
       214.000         156.000
 117717038.26948  91727549.91248  22400816.2294   22400819.7494   22400817.0334
       238.000         199.000
 130581976.67948 101752175.54348  24848933.9114   24848937.3104   24848934.1454
       212.000         144.000
 09  1  8  0  9 30.0000000  0 11G28G 9G27G 8G26G17G18G15G21G10G24
 115980187.77448  90374165.72848  22070301.1764   22070302.8964   22070301.7374
       242.000         207.000
 119099594.66648  92804873.09848  22663902.7104   22663905.7834   22663903.1724
       231.000         187.000
 123484977.17348  96222051.61648  23498415.7124   23498419.3524   23498415.5074
       230.000         187.000
 125125505.46648  97500372.96448  23810608.1794   23810612.4134   23810609.0244
       218.000         162.000
 105762613.29648  82412404.11448  20125971.8734   20125974.2744   20125971.7774
       253.000         228.000
 130895291.89948 101996318.84648  24908555.9134   24908558.5114   24908556.1904
       215.000         164.000
 137651442.88448  89468651.13348  24291265.3424   24291266.7864   24291266.0364
       215.000         161.000
 108765518.07148  84752345.84448  20697394.3844   20697395.9514   20697394.1264
       251.000         233.000
 129281697.75348 100738972.80248  24601501.2104   24601502.3744   24601501.0744
       211.000         158.000
 117813940.94148  91803058.48848  22419256.0754   22419259.7354   22419256.8654
       237.000         198.000
 130655926.12948 101809798.47348  24863006.4364   24863009.8084   24863007.0974
       215.000         150.000
 09  1  8  0 10  0.0000000  0 11G28G 9G27G 8G26G17G18G15G21G10G24
 116022356.81548  90407024.72548  22078325.6334   22078327.4224   22078326.2864
       241.000         207.000
 119010403.91048  92735373.82648  22646930.4254   22646933.1444   22646930.9824
       230.000         188.000
 123556352.30348  96277668.60248  23511998.6204   23512001.5584   23511998.7934
       231.000         188.000
 125215037.78648  97570138.38748  23827646.3424   23827649.4414   23827647.5994
       217.000         162.000
 105775707.59548  82422607.45648  20128463.6564   20128465.9364   20128463.6024
       253.000         228.000
 130820668.35248 101938170.68848  24894355.0944   24894357.6314   24894355.0904
       212.000         162.000
 137557752.67148  89395645.77448  24273437.1074   24273438.6034   24273436.3494
       212.000         159.000
 108728728.80348  84723678.87748  20690393.5754   20690395.1764   20690393.3164
       251.000         233.000
 129310312.96148 100761270.39848  24606945.4334   24606947.7034   24606945.6394
       213.000         159.000
 117911114.26748  91878777.95848  22437747.7084   22437751.0884   22437748.1754
       237.000         198.000
 130729967.38348 101867492.95648  24877095.3514   24877099.4014   24877095.6644
       207.000         149.000
 09  1  8  0 10 30.0000000  0 11G28G 9G27G 8G26G17G18G15G21G10G24
 116064995.79748  90440249.91348  22086439.7194   22086441.4384   22086439.9344
       242.000         207.000
 118921430.96248  92666044.27448  22629999.6334   22630002.3664   22629999.7544
       233.000         190.000
 123627755.36848  96333307.35748  23525586.1904   23525588.8214   23525586.9624
       227.000         184.000
 125304617.95748  97639941.09948  23844693.4834   23844696.1024   23844693.2434
       217.000         162.000
 105789186.26848  82433110.31848  20131028.5814   20131030.7894   20131028.4674
       253.000         228.000
 130746163.83048 101880115.26148  24880177.7284   24880180.1214   24880177.2084
       217.000         165.000
 137464316.12648  89322838.10848  24255655.6954   24255658.0904   24255657.4634
       215.000         156.000
 108692239.16248  84695245.38848  20683449.9104   20683451.3644   20683449.6644
       251.000         233.000
 129339347.83648 100783894.93948  24612470.4764   24612472.6534   24612472.0864
       216.000         156.000
 118008555.58648  91954706.23548  22456290.1204   22456293.5284   22456290.7654
       237.000         197.000
 130804097.94348 101925257.00548  24891201.7234   24891206.4004   24891201.2364
       211.000         152.000
 09  1  8  0 11  0.0000000  0 11G28G 9G27G 8G26G17G18G15G21G10G24
 116108104.33948  90473840.98448  22094642.8414   22094644.5494   22094643.4644
       242.000         206.000
 118832677.22448  92596885.54348  22613110.7404   22613113.1344   22613110.7004
       233.000         190.000
 123699186.68748  96388968.09048  23539178.2064   23539181.9214   23539177.6154
       229.000         187.000
 125394245.76448  97709780.94948  23861747.9434   23861752.3714   23861748.4004
       213.000         162.000
 105803050.63948  82443913.72348  20133666.8524   20133669.1014   20133666.8304
       253.000         228.000
 130671782.12548 101822155.53848  24866024.0594   24866025.1194   24866024.4654
       215.000         163.000
 137371136.94148  89250230.92748  24237925.1824   24237926.4934   24237925.3524
       214.000         159.000
 108656051.72148  84667047.38348  20676563.5934   20676565.0654   20676563.3594
       251.000         233.000
 129368801.30048 100806845.66848  24618075.4584   24618077.0784   24618076.2514
       210.000         154.000
 118106262.81348  92030841.73748  22474883.1824   22474886.7664   22474884.0104
       237.000         197.000
 130878315.58048 101983088.91648  24905324.7144   24905329.6174   24905325.1064
       211.000         152.000
 09  1  8  0 11 30.0000000  0 11G28G 9G27G 8G26G17G18G15G21G10G24
 116151680.90948  90507796.75948  22102935.2084   22102936.9834   22102935.6204
       241.000         207.000
 118744143.67548  92527898.37348  22596263.3244   22596265.6204   22596263.9104
       233.000         189.000
 123770645.82848  96444650.52948  23552777.8964   23552780.5474   23552778.2794
       230.000         189.000
 125483920.08548  97779657.00648  23878813.8174   23878816.6334   23878814.0464
       216.000         164.000
 105817301.21548  82455018.06248  20136378.7404   20136380.9584   20136378.5714
       253.000         228.000
 130597526.56648 101764294.10648  24851893.2814   24851894.8034   24851893.3354
       217.000         161.000
 137278218.03348  89177826.58448  24220243.7314   24220244.8864   24220243.0084
       219.000         163.000
 108620168.20648  84639086.19348  20669735.1924   20669736.5384   20669734.9244
       250.000         233.000
 129398671.58448 100830121.18348  24623760.6934   24623760.9684   24623759.7414
       215.000         155.000
 118204233.74848  92107182.72248  22493526.4314   22493530.1884   22493527.0304
       237.000         198.000
 130952617.62948 102040986.60448  24919463.4454   24919468.3584   24919463.2494
       209.000         151.000
 09  1  8  0 12  0.0000000  0 11G28G 9G27G 8G26G17G18G15G21G10G24
 116195722.43848  90542114.83448  22111315.9394   22111317.9004   22111316.3004
       242.000         207.000
 118655829.40548  92459082.07848  22579457.6644   22579460.2454   22579457.9454
       232.000         189.000
 123842130.53748  96500352.87748  23566379.6814   23566383.7034   23566380.5244
       225.000         185.000
 125573638.16948  97849567.16948  23895885.7404   23895889.2474   23895885.0594
       215.000         161.000
 105831937.00848  82466422.57448  20139163.7494   20139166.0884   20139163.6474
       253.000         229.000
 130523398.26848 101706531.77948  24837787.6814   24837788.0674   24837787.9184
       220.000         165.000
 137185560.35348  89105625.81648  24202611.5944   24202612.9184   24202613.2054
       219.000         166.000
 108584587.99648  84611361.34948  20662964.5684   20662965.9144   20662964.4224
       250.000         233.000
 129428955.06248 100853718.69848  24629522.8134   24629524.8214   24629524.9374
       211.000         157.000
 118302464.56048  92183726.20848  22512219.4584   22512222.7364   22512220.0104
       237.000         197.000
 131026999.48648 102098946.48248  24933617.7644   24933623.0574   24933618.5834
       210.000         149.000
 09  1  8  0 12 30.0000000  0 11G28G 9G27G 8G26G17G18G15G21G10G24
 116240228.51848  90576794.88948  22119785.4744   22119786.9414   22119786.1854
       242.000         207.000
 118567736.63448  92390438.38448  22562694.0494   22562696.8814   22562694.2754
       232.000         190.000
 123913641.45048  96556075.64148  23579988.5054   23579991.4844   23579987.7894
       232.000         188.000
 125663400.37948  97919511.70848  23912966.8604   23912970.8044   23912968.2884
       215.000         159.000
 105846959.39548  82478128.33248  20142022.3934   20142024.7964   20142022.3944
       253.000         229.000
 130449401.56648 101648872.04348  24823706.1424   24823707.2094   24823707.0274
       218.000         164.000
 137093167.94848  89033631.72248  24185029.6674   24185031.3534   24185029.7434
       213.000         161.000
 108549313.81948  84583874.97348  20656252.1774   20656253.6434   20656252.0054
       251.000         234.000
 129459651.11048 100877637.62948  24635363.7754   24635365.4844   24635362.0524
       215.000         156.000
 118400953.68548  92260470.96948  22530961.0194   22530964.5844   22530962.0084
       236.000         196.000
 131101459.55548 102156967.31748  24947787.1214   24947791.5974   24947787.9074
       209.000         142.000
 09  1  8  0 13  0.0000000  0 11G28G 9G27G 8G26G17G18G15G21G10G24
 116285197.75248  90611835.85548  22128342.7164   22128344.2884   22128342.8564
       242.000         207.000
 118479866.23448  92321967.96748  22545972.5104   22545975.5204   22545972.1854
       230.000         189.000
 123985178.28448  96611818.63848  23593602.0474   23593604.6674   23593602.5734
       231.000         187.000
 125753205.76148  97989489.91648  23930057.2394   23930059.8164   23930058.7754
       216.000         161.000
 105862368.97148  82490135.79148  20144954.8014   20144957.2174   20144954.7084
       253.000         229.000
 130375539.65148 101591317.32348  24809650.6964   24809651.8894   24809649.4864
       219.000         163.000
 137001043.12148  88961846.17648  24167498.0374   24167500.3754   24167498.7184
       215.000         161.000
 108514347.44448  84556628.44348  20649598.2384   20649599.7714   20649598.0364
       251.000         234.000
 129490758.14548 100901876.89148  24641282.7824   24641285.1004   24641284.1204
       209.000         150.000
 118499699.32848  92337415.62348  22549751.5364   22549755.2164   22549752.4934
       235.000         195.000
 131175995.55148 102215047.35048  24961970.9514   24961974.6584   24961971.2084
       203.000         134.000
 09  1  8  0 13 30.0000000  0 11G28G 9G27G 8G26G17G18G15G21G10G24
 116330628.63148  90647236.54248  22136987.8184   22136989.5404   22136988.2754
       242.000         207.000
 118392219.50748  92253671.85548  22529293.4674   22529297.1844   22529293.2254
       231.000         190.000
 124056740.73848  96667581.57048  23607219.1534   23607222.4294   23607219.4234
       231.000         187.000
 125843053.65048  98059501.23048  23947154.4834   23947157.2704   23947153.3014
       214.000         160.000
 105878166.60648  82502445.63748  20147961.0284   20147963.3794   20147960.9194
       253.000         229.000
 130301815.79948 101533870.17048  24795622.2884   24795623.0214   24795621.8764
       222.000         167.000
 136909188.94148  88890271.46748  24150019.2284   24150020.8124   24150019.1674
       217.000         161.000
 108479690.70348  84529623.19148  20643003.1754   20643004.8224   20643002.8434
       250.000         234.000
 129522274.55348 100926435.11648  24647280.1554   24647282.3314   24647280.5064
       214.000         154.000
 118598698.69248  92414557.96848  22568590.4084   22568594.2944   22568591.4554
       235.000         194.000
 131250604.93148 102273184.50348  24976169.4404   24976172.7134   24976168.5084
       204.000         134.000
 09  1  8  0 14  0.0000000  0 11G28G 9G27G 8G26G17G18G15G21G10G24
 116376519.37148  90682995.56748  22145720.5024   22145722.5884   22145720.7524
       242.000         207.000
 118304796.78648  92185550.28148  22512657.6874   22512660.8884   22512658.2764
       231.000         189.000
 124128327.56548  96723363.49248  23620842.6154   23620845.1704   23620842.7874
       231.000         187.000
 125932942.25548  98129544.33248  23964258.9374   23964262.3884   23964260.4654
       210.000         160.000
 105894351.86348  82515057.52848  20151040.9494   20151043.3184   20151040.9514
       253.000         229.000
 130228232.64648 101476532.65548  24781619.0244   24781621.3454   24781618.5224
       215.000         163.000
 136817607.22948  88818909.09248  24132592.1004   24132593.1784   24132593.4434
       215.000         161.000
 108445344.28348  84502859.74148  20636467.3244   20636468.9814   20636466.9674
       251.000         234.000
 129554197.57348 100951310.21248  24653355.0414   24653357.1604   24653355.8834
       211.000         147.000
 118697948.62448  92491895.57148  22587477.3114   22587480.6754   22587478.1814
       235.000         195.000
 131325284.03848 102331376.02848  24990378.3564   24990382.3764   24990381.6784
       210.000         141.000
 09  1  8  0 14 30.0000000  0 11G28G 9G27G 8G26G17G18G15G21G10G24
 116422868.05748  90719111.42048  22154540.4434   22154542.4654   22154540.7454
       242.000         208.000
 118217598.38848  92117603.50448  22496064.3844   22496067.1804   22496064.5634
       232.000         188.000
 124199937.97648  96779163.80148  23634469.5544   23634472.2524   23634470.3074
       230.000         187.000
 126022870.15348  98199617.98348  23981372.2434   23981375.0574   23981371.3654
       216.000         161.000
 105910925.09548  82527971.73348  20154194.6854   20154197.0754   20154194.5204
       252.000         228.000
 130154792.55748 101419306.64248  24767643.1564   24767646.2614   24767642.3264
       215.000         165.000
 136726300.75148  88747761.19948  24115217.4054   24115218.1924   24115217.9514
       219.000         163.000
 108411309.51448  84476339.13548  20629990.8614   20629992.3784   20629990.4924
       251.000         234.000
 129586525.05648 100976500.44048  24659506.9894   24659508.9984   24659507.5034
       208.000         144.000
 118797446.94548  92569426.72348  22606411.2714   22606414.6024   22606411.8544
       236.000         195.000
 131400029.81648 102389619.50148  25004604.3744   25004607.6944   25004604.9994
       213.000         148.000
 09  1  8  0 15  0.0000000  0 11G28G 9G27G 8G26G17G18G15G21G10G24
 116469673.01848  90755582.82048  22163447.1694   22163448.9314   22163447.5934
       241.000         207.000
 118130625.14548  92049832.16548  22479514.1514   22479516.9434   22479514.5134
       232.000         189.000
 124271571.38348  96834982.03348  23648100.4544   23648103.5464   23648100.4294
       230.000         186.000
 126112836.44948  98269721.59048  23998491.5364   23998495.0354   23998493.7304
       211.000         158.000
 105927886.40748  82541188.33948  20157422.2634   20157424.6734   20157422.2064
       252.000         228.000
 130081498.82248 101362194.56748  24753696.6044   24753697.3984   24753696.2744
       217.000         164.000
 136635272.12948  88676829.81448  24097894.6814   24097895.7764   24097895.5804
       212.000         159.000
 108377587.44648  84450062.19848  20623573.7034   20623575.1764   20623573.5314
       251.000         234.000
 129619254.95248 101002004.18548  24665735.2364   24665737.4354   24665735.0954
       207.000         145.000
 118897191.20848  92647149.51948  22625391.9084   22625395.3134   22625393.1984
       236.000         195.000
 131474839.54648 102447912.76648  25018840.3684   25018843.3114   25018840.5164
       211.000         149.000
 09  1  8  0 15 30.0000000  0 11G28G 9G27G 8G26G17G18G15G21G10G24
 116516933.00148  90792408.77948  22172440.3974   22172442.1334   22172440.3934
       242.000         206.000
 118043878.60848  91982237.47148  22463006.9804   22463009.1974   22463006.9504
       234.000         189.000
 124343228.22048  96890818.50548  23661736.5704   23661739.5504   23661736.9164
       230.000         186.000
 126202841.31148  98339855.18948  24015619.3244   24015622.4584   24015618.3434
       211.000         159.000
 105945237.06548  82554708.32848  20160723.9874   20160726.4294   20160723.8594
       252.000         228.000
 130008354.94648 101305199.36248  24739777.9354   24739779.4534   24739777.8444
       215.000         164.000
 136544524.37448  88606117.27448  24080625.6524   24080627.1434   24080626.1734
       216.000         162.000
 108344180.49748  84424030.80848  20617216.5874   20617218.0704   20617216.3194
       250.000         234.000
 129652385.89148 101027820.47548  24672040.3014   24672041.4274   24672041.6534
       211.000         149.000
 118997178.51948  92725061.70148  22644418.7404   22644422.3744   22644419.5604
       235.000         194.000
 131549711.07348 102506254.21748  25033087.5694   25033090.6274   25033088.3594
       211.000         152.000
 09  1  8  0 16  0.0000000  0 11G28G 9G27G 8G26G17G18G15G21G10G24
 116564645.82948  90829587.60248  22181520.0394   22181521.4994   22181520.8474
       242.000         206.000
 117957358.55448  91914819.27048  22446542.4304   22446545.1264   22446543.1604
       233.000         190.000
 124414906.96348  96946672.07048  23675376.8354   23675379.5514   23675376.9914
       230.000         186.000
 126292882.54448  98410017.13948  24032753.0184   24032757.0714   24032754.4474
       210.000         161.000
 105962976.31948  82568531.12148  20164099.6234   20164102.1404   20164099.5814
       253.000         228.000
 129935363.21748 101248322.70048  24725888.5254   24725890.1354   24725888.2554
       218.000         166.000
 136454059.13248  88535624.89348  24063410.4684   24063412.3664   24063410.8994
       215.000         163.000
 108311089.28548  84398245.44448  20610919.5604   20610920.9584   20610919.2764
       251.000         234.000
 129685914.87548 101053946.92548  24678420.8454   24678422.2744   24678422.3424
       209.000         147.000
 119097406.51148  92803161.42648  22663491.2374   22663494.9234   22663491.6784
       233.000         192.000
 131624640.81648 102564641.00148  25047346.2254   25047349.7674   25047345.8514
       211.000         154.000
 09  1  8  0 16 30.0000000  0 11G28G 9G27G 8G26G17G18G15G21G10G24
 116612810.34248  90867118.38948  22190685.4754   22190686.9294   22190686.0254
       241.000         205.000
 117871066.67648  91847578.88448  22430121.7784   22430124.6784   22430122.0714
       233.000         193.000
 124486607.57848  97002542.66748  23689020.4364   23689023.7804   23689021.1174
       228.000         184.000
 126382959.73648  98480207.16148  24049893.9354   24049898.3094   24049893.0214
       210.000         160.000
 105981105.47448  82582657.73448  20167549.5764   20167551.9964   20167549.5664
       253.000         228.000
 129862527.47548 101191567.55548  24712027.3304   24712028.8994   24712027.0814
       211.000         163.000
 136363879.92748  88465355.38348  24046250.1764   24046252.3284   24046249.9304
       217.000         163.000
 108278315.57248  84372707.48948  20604683.0614   20604684.3914   20604682.8564
       251.000         235.000
 129719840.66348 101080382.58548  24684875.5514   24684877.8454   24684875.8504
       206.000         145.000
 119197873.07448  92881447.05748  22682609.5824   22682612.9854   22682610.1584
       235.000         192.000
 131699626.52448 102623071.38948  25061615.2944   25061619.2244   25061615.6834
       207.000         149.000
 09  1  8  0 17  0.0000000  0 11G28G 9G27G 8G26G17G18G15G21G10G24
 116661424.58648  90904999.61848  22199936.0914   22199937.6694   22199936.4424
       240.000         204.000
 117785003.39648  91780516.62048  22413744.2404   22413747.3614   22413743.9554
       233.000         193.000
 124558329.28048  97058429.68248  23702668.7884   23702671.6984   23702669.2564
       228.000         183.000
 126473071.82048  98550424.34848  24067042.3854   24067045.1474   24067041.9934
       212.000         158.000
 105999624.33648  82597088.01248  20171073.6374   20171075.9534   20171073.5614
       253.000         228.000
 129789850.32548 101134936.02248  24698197.3894   24698199.5554   24698197.0154
       219.000         170.000
 136273989.04748  88395310.56348  24029144.3004   24029146.3184   24029147.3914
       218.000         161.000
 108245860.77048  84347418.02448  20598507.1154   20598508.5524   20598506.8604
       251.000         235.000
 129754160.81448 101107125.52348  24691407.3764   24691408.1364   24691407.0224
       209.000         141.000
 119298575.25248  92959916.28348  22701772.9984   22701775.9014   22701774.1504
       236.000         193.000
 131774665.29248 102681543.14748  25075894.5814   25075898.7644   25075894.2954
       203.000         145.000
 09  1  8  0 17 30.0000000  0 11G28G 9G27G 8G26G17G18G15G21G10G24
 116710485.59848  90943228.97948  22209272.2614   22209273.9784   22209273.0734
       241.000         204.000
 117699168.26348  91713632.13648  22397410.5334   22397413.4404   22397410.5314
       234.000         194.000
 124630070.40048  97114331.84448  23716320.6764   23716323.6424   23716320.6024
       229.000         183.000
 126563216.27348  98620666.78148  24084196.6184   24084199.3424   24084197.8454
       212.000         157.000
 106018532.32748  82611821.50248  20174671.7384   20174674.0254   20174671.6974
       252.000         228.000
 129717333.45648 101078429.34848  24684398.1624   24684399.9574   24684398.6104
       216.000         163.000
 136184388.12248  88325491.68348  24012094.0964   24012095.7824   24012095.8774
       220.000         160.000
 108213725.10948  84322377.25048  20592391.8124   20592393.2544   20592391.6364
       251.000         235.000
 129788872.12648 101134173.33148  24698012.8454   24698013.4004   24698013.5864
       208.000         138.000
 119399509.44448  93038566.30248  22720979.9904   22720983.1064   22720981.1684
       234.000         192.000
 131849753.27148 102740053.18048  25090182.1964   25090187.0224   25090183.1334
       200.000         138.000
 09  1  8  0 18  0.0000000  0 11G28G 9G27G 8G26G17G18G15G21G10G24
 116759992.27348  90981805.60148  22218692.8814   22218694.7524   22218693.4954
       239.000         203.000
 117613562.33048  91646926.23148  22381120.5744   22381122.9954   22381121.0434
       234.000         192.000
 124701831.00148  97170249.17148  23729976.1394   23729979.5264   23729976.7414
       228.000         182.000
 126653392.79448  98690934.18448  24101356.2154   24101359.7784   24101357.1614
       215.000         158.000
 106037830.07348  82626858.70348  20178344.0144   20178346.2854   20178343.9744
       253.000         228.000
 129644980.42848 101022050.36748  24670628.9004   24670632.0334   24670628.7104
       219.000         167.000
 136095080.02248  88255900.89948  23995099.6724   23995100.7094   23995101.6744
       218.000         162.000
 108181910.52848  84297586.66448  20586337.6724   20586339.2014   20586337.4964
       251.000         235.000
 129823972.99748 101161524.67548  24704691.9004   24704692.8064   24704691.8874
       217.000         149.000
 119500673.68248  93117395.57248  22740230.7564   22740234.1984   22740231.4704
       233.000         191.000
 131924887.68948 102798599.48748  25104480.7294   25104484.0254   25104480.9364
       201.000         137.000
 09  1  8  0 18 30.0000000  0 11G28G 9G27G 8G26G17G18G15G21G10G24
 116809943.71748  91020728.80448  22228198.4784   22228200.1974   22228198.7104
       240.000         203.000
 117528187.36648  91580400.31648  22364873.7134   22364876.5204   22364874.3934
       234.000         192.000
 124773611.40048  97226181.92548  23743635.6734   23743638.6384   23743636.1534
       225.000         182.000
 126743601.36848  98761226.54348  24118522.0814   24118525.7854   24118524.4254
       213.000         160.000
 106057518.70948  82642200.48948  20182090.5854   20182092.8754   20182090.6894
       253.000         228.000
 129572794.90448 100965801.85848  24656893.9754   24656895.4514   24656894.3504
       220.000         172.000
 136006067.73248  88186540.68248  23978160.7604   23978162.3754   23978161.8374
       218.000         162.000
 108150419.12548  84273047.90948  20580344.9574   20580346.5604   20580344.6464
       251.000         235.000
 129859462.30448 101189178.64048  24711446.0074   24711447.9124   24711446.5404
       210.000         155.000
 119602066.03648  93196402.58748  22759524.9564   22759528.6274   22759526.1264
       233.000         191.000
 132000066.74848 102857180.63048  25118785.7774   25118790.0684   25118784.9064
       211.000         135.000
 09  1  8  0 19  0.0000000  0 11G28G 9G27G 8G26G17G18G15G21G10G24
 116860337.78748  91059996.91148  22237788.0404   22237789.4514   22237788.5354
       240.000         202.000
 117443044.07548  91514054.90548  22348671.9304   22348674.3354   22348672.2384
       236.000         194.000
 124845410.40748  97282129.20848  23757298.1914   23757301.4714   23757298.4934
       224.000         180.000
 126833840.24148  98831542.52148  24135694.5564   24135697.7994   24135695.9694
       214.000         159.000
 106077598.07948  82657846.75448  20185911.4144   20185913.8684   20185911.3054
       253.000         228.000
 129500779.75548 100909686.17948  24643189.3284   24643191.9024   24643190.5384
       216.000         166.000
 135917353.79748  88117412.96548  23961279.0164   23961281.4554   23961278.7794
       216.000         164.000
 108119251.88448  84248761.74448  20574414.0894   20574415.6104   20574413.9424
       250.000         235.000
 129895337.35948 101217133.16348  24718273.0614   24718274.5464   24718272.5374
       220.000         161.000
 119703683.62848  93275585.11748  22778862.1944   22778865.8334   22778862.5174
       232.000         190.000
 132075287.10048 102915793.90848  25133100.7144   25133104.9054   25133101.6214
       211.000         141.000
 09  1  8  0 19 30.0000000  0 11G28G 9G27G 8G26G17G18G15G21G10G24
 116911173.08648  91099608.83548  22247461.9194   22247463.2274   22247462.7704
       240.000         203.000
 117358133.20048  91447890.60148  22332513.8634   22332516.6194   22332514.4104
       233.000         194.000
 124917228.23148  97338091.13548  23770964.6674   23770968.0034   23770964.7284
       226.000         178.000
 126924109.19348  98901881.97148  24152871.5984   24152875.4544   24152872.3874
       210.000         159.000
 106098069.04448  82673798.15048  20189806.8754   20189809.3904   20189806.7774
       253.000         228.000
 129428938.31148 100853705.79548  24629517.9304   24629519.9064   24629518.6754
       219.000         165.000
 135828941.09548  88048519.97048  23944455.0004   23944457.1304   23944454.5034
       218.000         166.000
 108088411.01348  84224729.89748  20568545.1964   20568546.6864   20568544.8554
       252.000         236.000
 129931596.32248 101245386.90548  24725172.1064   24725174.0404   24725173.7094
       217.000         160.000
 119805524.14248  93354941.36148  22798241.9364   22798245.4844   22798242.3564
       233.000         192.000
 132150546.40248 102974437.54248  25147422.1334   25147426.7834   25147423.0344
       208.000         143.000
 09  1  8  0 20  0.0000000  0 11G28G 9G27G 8G26G17G18G15G21G10G24
 116962447.63348  91139563.02548  22257218.8094   22257220.9024   22257218.8484
       241.000         203.000
 117273455.14048  91381907.72448  22316399.8934   22316403.0504   22316399.6624
       234.000         194.000
 124989063.83448  97394066.91948  23784634.3054   23784637.8914   23784634.5154
       227.000         178.000
 127014406.83748  98972243.76748  24170055.5804   24170058.0084   24170056.2134
       216.000         158.000
 106118931.48948  82690054.59148  20193777.0194   20193779.4504   20193776.9764
       251.000         228.000
 129357273.30648 100797862.95848  24615881.1614   24615882.7114   24615882.1694
       218.000         169.000
 135740832.14348  87979863.64848  23927688.2914   23927689.9304   23927688.9974
       221.000         166.000
 108057896.98048  84200952.72848  20562738.7854   20562740.0434   20562738.6014
       251.000         235.000
 129968236.95848 101273938.02848  24732144.1434   24732146.7764   24732144.4054
       216.000         156.000
 119907584.47448  93434468.88348  22817663.4164   22817667.1074   22817664.4684
       234.000         190.000
 132225841.81548 103033109.32648  25161750.6754   25161755.7114   25161750.8024
       206.000         147.000
 09  1  8  0 20 30.0000000  0  9G28G 9G27G 8G18G15G21G10G24
 117014159.28848  91179857.82648  22267059.5944   22267061.3004   22267060.3034
       240.000         203.000
 117189010.60248  91316106.81048  22300330.7784   22300333.7404   22300330.7034
       233.000         194.000
 125060916.48948  97450055.98848  23798307.9464   23798311.2334   23798308.5274
       227.000         181.000
 127104732.00248  99042626.98248  24187243.5154   24187246.6594   24187244.5154
       212.000         158.000
 135653029.05748  87911445.67548  23910980.2734   23910980.8214   23910979.8424
       219.000         163.000
 108027711.17848  84177431.32348  20556994.5054   20556995.8994   20556994.3304
       252.000         236.000
 130005256.42248 101302784.34248  24739189.0834   24739190.9754   24739188.3134
       212.000         152.000
 120009862.36748  93514165.93548  22837126.2624   22837129.6784   22837126.8994
       231.000         188.000
 132301170.01648 103091806.60248  25176085.2034   25176090.5204   25176086.3154
       205.000         148.000
 09  1  8  0 21  0.0000000  0 11G28G 9G27G 8G26G17G18G15G21G10G24
 117066306.54648  91220492.04548  22276982.5824   22276984.2364   22276982.9264
       240.000         202.000
 117104800.78048  91250488.80248  22284306.0104   22284308.8854   22284306.1194
       233.000         192.000
 125132786.22248  97506058.37348  23811984.4814   23811987.4124   23811984.8004
       226.000         181.000
 127195084.41248  99113031.45148  24204436.9554   24204440.1294   24204437.6654
       211.000         156.000
 106161830.90748  82723482.69548  20201940.5054   20201942.8494   20201940.4824
       251.000         228.000
 129214483.13448 100686597.84148  24588709.4574   24588710.5644   24588709.6524
       212.000         167.000
 135565534.75948  87843268.27448  23894330.4634   23894331.3074   23894329.6734
       221.000         165.000
 107997855.42348  84154167.09848  20551313.2044   20551314.5964   20551313.0884
       252.000         236.000
 130042653.01248 101331924.53048  24746305.3644   24746307.8164   24746306.3644
       209.000         149.000
 120112355.18948  93594030.48148  22856629.9944   22856633.2114   22856630.7274
       232.000         188.000
 132376528.61348 103150527.52648  25190425.7354   25190430.6054   25190425.4294
       209.000         150.000
 09  1  8  0 21 30.0000000  0 11G28G 9G27G 8G26G17G18G15G21G10G24
 117118887.29348  91261464.06848  22286988.5194   22286989.5504   22286989.0154
       241.000         202.000
 117020825.79748  91185053.76948  22268325.8664   22268328.5504   22268326.6264
       233.000         192.000
 125204672.31848  97562073.49548  23825663.9884   23825666.8014   23825664.0924
       226.000         181.000
 127285462.23648  99183455.71848  24221635.0104   24221638.3574   24221634.8594
       213.000         159.000
 106183868.89848  82740655.15648  20206134.1424   20206136.5684   20206134.0324
       252.000         228.000
 129143364.41148 100631180.66148  24575176.0754   24575177.3904   24575175.3904
       219.000         170.000
 135478351.54948  87775333.33548  23877739.3904   23877741.5184   23877741.0274
       220.000         166.000
 107968330.92648  84131160.99248  20545694.8524   20545696.2514   20545694.7664
       252.000         236.000
 130080424.56148 101361356.84948  24753493.5164   24753495.0054   24753494.8384
       208.000         147.000
 120215060.13348  93674060.30148  22876173.8114   22876177.4964   22876174.6044
       231.000         188.000
 132451914.68948 103209269.89748  25204771.5304   25204775.6854   25204772.1394
       210.000         151.000
 09  1  8  0 22  0.0000000  0 11G28G 9G27G 8G26G17G18G15G21G10G24
 117171899.85448  91302772.54948  22297076.3984   22297077.9794   22297076.8684
       239.000         202.000
 116937086.62148  91119802.48048  22252390.9204   22252393.8324   22252391.0974
       234.000         194.000
 125276574.17048  97618100.88948  23839346.5344   23839349.8054   23839346.7634
       226.000         180.000
 127375865.07948  99253899.48348  24238837.9644   24238841.7484   24238837.8234
       213.000         161.000
 106206299.40748  82758133.46348  20210402.6184   20210404.9284   20210402.5274
       251.000         228.000
 129072433.49648 100575909.79748  24561676.8584   24561679.1614   24561677.2144
       213.000         165.000
 135391482.03348  87707642.75748  23861209.7554   23861210.9054   23861209.7484
       220.000         165.000
 107939138.99548  84108414.02848  20540139.7474   20540141.1474   20540139.5484
       252.000         236.000
 130118568.64848 101391079.46248  24760752.5754   24760753.5504   24760752.6824
       208.000         151.000
 120317975.03548  93754253.71548  22895757.8134   22895761.5284   22895758.6104
       231.000         187.000
 132527325.56348 103268031.61248  25219122.1864   25219125.2684   25219122.4054
       208.000         148.000
 09  1  8  0 22 30.0000000  0 11G28G 9G27G 8G26G17G18G15G21G10G24
 117225342.02248  91344415.79648  22307246.1474   22307248.2274   22307246.4284
       240.000         202.000
 116853583.65348  91054735.23748  22236501.0344   22236503.7074   22236500.8384
       235.000         195.000
 125348491.00148  97674139.95948  23853032.1054   23853034.9204   23853032.7174
       227.000         180.000
 127466291.07348  99324361.28448  24256045.9854   24256049.7594   24256047.7014
       215.000         163.000
 106229121.97948  82775917.28248  20214745.5364   20214748.0044   20214745.4484
       251.000         228.000
 129001693.53048 100520787.73848  24548216.1814   24548218.5894   24548215.2124
       216.000         168.000
 135304928.31548  87640198.34048  23844739.0764   23844740.5834   23844740.1634
       220.000         168.000
 107910280.51148  84085926.89748  20534648.1944   20534649.6904   20534648.0544
       251.000         236.000
 130157082.50648 101421090.23048  24768081.4224   24768082.9204   24768081.1024
       209.000         153.000
 120421096.38648  93834608.00048  22915381.2194   22915384.7824   22915382.1874
       230.000         188.000
 132602757.89248 103326810.01748  25233475.9964   25233479.6444   25233475.8214
       201.000         139.000
 09  1  8  0 23  0.0000000  0 11G28G 9G27G 8G26G17G18G15G21G10G24
 117279211.80248  91386392.25548  22317497.0594   22317499.1094   22317497.4104
       240.000         202.000
 116770317.19448  90989852.29848  22220655.8254   22220658.8604   22220656.3194
       233.000         195.000
 125420422.13548  97730190.18648  23866719.8374   23866722.7994   23866720.4034
       226.000         178.000
 127556739.56248  99394840.59048  24273257.8324   24273261.6114   24273257.7934
       213.000         162.000
 106252336.95248  82794006.86548  20219163.2124   20219165.6244   20219163.1344
       251.000         228.000
 128931147.28048 100465816.59548  24534792.7344   24534794.1324   24534792.6134
       217.000         167.000
 135218692.97548  87573001.96348  23828328.4704   23828330.2404   23828328.4434
       221.000         168.000
 107881756.92148  84063700.71748  20529220.2074   20529221.7374   20529219.8764
       253.000         236.000
 130195963.81948 101451387.35048  24775479.3614   24775482.1764   24775480.5214
       211.000         153.000
 120524421.94348  93915121.41048  22935043.6174   22935046.9614   22935043.9464
       232.000         189.000
 132678208.74648 103385602.87148  25247833.7124   25247837.0144   25247834.8114
       191.000         129.000
 09  1  8  0 23 30.0000000  0 10G28G 9G27G 8G26G17G18G15G21G10
 117333508.21948  91428701.14948  22327829.5804   22327831.1164   22327830.0074
       241.000         202.000
 116687288.73348  90925154.82148  22204855.7194   22204858.9854   22204855.8144
       234.000         194.000
 125492367.63948  97786251.60548  23880410.6584   23880413.8994   23880411.1104
       225.000         179.000
 127647210.04748  99465337.05048  24290473.4224   24290476.7504   24290473.6474
       215.000         161.000
 106275945.08048  82812402.80748  20223655.7994   20223658.1204   20223655.7004
       252.000         228.000
 128860797.97848 100410998.95148  24521405.0064   24521406.6724   24521404.4854
       214.000         165.000
 135132779.41648  87506056.33748  23811979.2744   23811981.0284   23811981.8324
       221.000         167.000
 107853570.25948  84041737.07848  20523856.6424   20523858.0254   20523856.4194
       253.000         237.000
 130235210.99648 101481969.51948  24782948.4744   24782950.8334   24782948.5564
       202.000         146.000
 120627949.32748  93995792.09248  22954744.2564   22954747.7144   22954744.9824
       230.000         186.000
 09  1  8  0 24  0.0000000  0 10G28G 9G27G 8G26G17G18G15G21G10
 117388228.84748  91471340.60148  22338242.4054   22338243.9584   22338242.8754
       240.000         202.000
 116604499.27048  90860643.56048  22189101.6894   22189104.8664   22189101.8854
       237.000         198.000
 125564327.18348  97842323.97648  23894104.0534   23894107.2714   23894104.1244
       224.000         178.000
 127737701.69848  99535850.00548  24307693.8444   24307696.6124   24307694.4734
       212.000         158.000
 106299946.47348  82831105.18148  20228223.2154   20228225.4704   20228223.2954
       252.000         228.000
 128790648.86548 100356337.29748  24508055.6414   24508057.8294   24508055.5564
       213.000         166.000
 135047189.62448  87439363.02148  23795692.5454   23795694.0444   23795693.1214
       222.000         169.000
 107825722.01648  84020037.14948  20518557.2874   20518558.6554   20518557.0754
       253.000         237.000
 130274821.79148 101512835.04948  24790485.2384   24790487.5204   24790486.4314
       203.000         140.000
 120731675.96348  94076618.03748  22974482.8544   22974485.8944   22974483.3514
       231.000         186.000
 09  1  8  0 24 30.0000000  0 10G28G 9G27G 8G26G17G18G15G21G10
 117443372.31148  91514309.54448  22348736.0484   22348737.7124   22348736.5324
       241.000         202.000
 116521949.54448  90796319.09648  22173393.6224   22173396.0254   22173393.7404
       237.000         199.000
 125636300.61048  97898407.15248  23907800.0784   23907803.6024   23907800.5134
       224.000         177.000
 127828213.74848  99606378.87748  24324917.2954   24324920.1854   24324918.0184
       212.000         159.000
 106324341.75448  82850114.48548  20232865.3914   20232867.6744   20232865.3164
       251.000         228.000
 128720703.04848 100301834.07548  24494744.7974   24494747.8094   24494744.1554
       219.000         167.000
 134961926.27648  87372924.02148  23779467.7994   23779469.4684   23779467.3684
       221.000         170.000
 107798213.33848  83998601.81048  20513322.5674   20513323.9074   20513322.1624
       254.000         237.000
 130314793.94548 101543982.16048  24798091.5894   24798093.6034   24798093.5224
       191.000         128.000
 120835599.62648  94157597.50848  22994259.0484   22994262.0724   22994260.2664
       231.000         185.000
 09  1  8  0 25  0.0000000  0 10G28G 9G27G 8G26G17G18G15G21G10
 117498935.60148  91557605.60748  22359309.3414   22359311.5544   22359310.1934
       240.000         202.000
 116439639.13448  90732181.13248  22157730.1014   22157732.9444   22157730.5874
       235.000         196.000
 125708286.34348  97954499.89848  23921498.9184   23921502.0494   23921499.6334
       223.000         177.000
 127918744.47148  99676922.26048  24342145.1894   24342148.0604   24342146.2154
       215.000         160.000
 106349129.82948  82869429.85448  20237582.3524   20237584.7344   20237582.0994
       251.000         228.000
 128650962.31748 100247490.63448  24481474.9784   24481476.9464   24481475.2634
       217.000         167.000
 134876990.98248  87306740.70248  23763304.4534   23763306.8744   23763304.5004
       219.000         167.000
 107771044.66148  83977431.40848  20508152.5604   20508153.8654   20508152.3334
       254.000         237.000
 130355124.06648 101575408.15048  24805765.8284   24805767.3944   24805766.9434
       193.000         124.000
 120939716.51248  94238727.55348  23014071.8004   23014074.4554   23014072.8384
       231.000         184.000
 09  1  8  0 25 30.0000000  0  9G28G 9G27G 8G26G17G18G15G10
 117554917.52748  91601227.88848  22369962.2994   22369964.2304   22369962.7864
       240.000         201.000
 116357569.57548  90668230.83248  22142112.6724   22142115.1334   22142113.1394
       235.000         196.000
 125780284.75748  98010602.54748  23935199.7784   23935202.7534   23935199.4544
       225.000         177.000
 128009293.63448  99747480.01148  24359375.8754   24359379.1414   24359376.2374
       210.000         162.000
 106374311.84148  82889052.19748  20242374.3884   20242376.7274   20242374.2634
       252.000         228.000
 128581430.33348 100193309.86448  24468243.0064   24468245.6944   24468242.3884
       217.000         168.000
 134792387.44448  87240815.84248  23747205.4784   23747206.4164   23747205.0604
       223.000         168.000
 107744218.18248  83956527.65548  20503047.6464   20503048.9224   20503047.2304
       254.000         237.000
 121044025.24248  94320007.07848  23033921.0354   23033924.0824   23033922.1514
       229.000         185.000
 09  1  8  0 26  0.0000000  0  9G28G 9G27G 8G26G17G18G15G10
 117611316.09348  91645174.83048  22380694.5774   22380696.2464   22380694.8444
       240.000         201.000
 116275741.37148  90604468.61448  22126541.3084   22126544.1874   22126541.3454
       236.000         197.000
 125852295.26148  98066714.60548  23948902.7364   23948905.7484   23948902.8744
       224.000         175.000
 128099860.38248  99818051.48448  24376610.1284   24376613.5194   24376610.2134
       213.000         163.000
 106399887.95948  82908981.63148  20247241.5614   20247243.7064   20247241.4894
       252.000         228.000
 128512110.06948 100139294.05548  24455052.0384   24455053.5654   24455052.5584
       213.000         164.000
 134708117.92248  87175151.27048  23731169.6854   23731170.6714   23731170.7414
       221.000         170.000
 107717735.23648  83935891.59148  20498008.2064   20498009.4774   20498007.9954
       254.000         237.000
 121148522.93948  94401433.83748  23053806.4304   23053810.0614   23053806.8364
       230.000         186.000
 09  1  8  0 26 30.0000000  0  9G28G 9G27G 8G26G17G18G15G10
 117668130.02448  91689445.41348  22391505.8804   22391507.4194   22391506.9234
       239.000         200.000
 116194155.62348  90540895.32048  22111015.8534   22111018.6644   22111015.2964
       235.000         197.000
 125924317.67648  98122835.94348  23962607.6724   23962611.1184   23962607.6894
       223.000         176.000
 128190443.79848  99888635.93648  24393847.5594   24393851.5314   24393848.2564
       214.000         163.000
 106425858.38148  82929218.32248  20252183.4624   20252185.5894   20252183.4994
       252.000         228.000
 128443004.67248 100085445.67448  24441901.5194   24441903.2584   24441900.6164
       217.000         168.000
 134624185.08948  87109749.08248  23715197.4554   23715199.2044   23715196.6944
       221.000         169.000
 107691597.60248  83915524.60148  20493034.2624   20493035.7544   20493034.0474
       254.000         238.000
 121253206.96048  94483005.79148  23073727.0844   23073730.6904   23073728.0554
       229.000         187.000
 09  1  8  0 27  0.0000000  0  9G28G 9G27G 8G26G17G18G15G10
 117725357.24048  91734038.06048  22402395.7084   22402398.0344   22402395.9604
       239.000         201.000
 116112813.06148  90477511.52648  22095536.6674   22095539.4744   22095536.8394
       236.000         198.000
 125996351.98548  98178966.55148  23976315.7224   23976318.9424   23976315.9544
       224.000         176.000
 128281043.42048  99959232.99948  24411088.0034   24411091.7534   24411087.6614
       216.000         165.000
 106452223.72148  82949762.73048  20257200.6204   20257202.7964   20257200.4634
       252.000         228.000
 128374117.52148 100031767.37848  24428792.2694   24428795.0824   24428791.9514
       217.000         167.000
 134540592.01548  87044611.60948  23699289.8364   23699292.1924   23699290.0704
       223.000         170.000
 107665806.43948  83895427.59148  20488126.4074   20488127.8104   20488126.0804
       254.000         238.000
 121358074.98248  94564721.12848  23093682.5704   23093686.4984   23093683.2454
       228.000         185.000
 09  1  8  0 27 30.0000000  0  9G28G 9G27G 8G26G17G18G15G10
 117782994.61548  91778950.29848  22413363.9064   22413366.4864   22413364.0844
       239.000         201.000
 116031713.51948  90414317.08448  22080104.4144   22080107.0324   22080104.4354
       238.000         198.000
 126068396.75748  98235105.31848  23990025.5144   23990028.4604   23990026.0204
       223.000         174.000
 128371657.35748 100029841.25848  24428331.6764   24428335.1414   24428332.5134
       217.000         166.000
 106478983.00448  82970614.11348  20262292.5964   20262295.0714   20262292.3764
       251.000         227.000
 128305450.41848  99978260.52748  24415726.3504   24415727.0124   24415725.7184
       219.000         173.000
 134457339.70148  86979739.67348  23683447.6094   23683449.4724   23683448.2964
       223.000         171.000
 107640362.55548  83875601.18348  20483284.5964   20483286.0414   20483284.3864
       254.000         238.000
 121463123.51048  94646577.10748  23113672.5924   23113676.7414   23113673.0034
       230.000         185.000
 09  1  8  0 28  0.0000000  0 10G28G 9G27G 8G26G17G18G15G12G10
 117841040.45348  91824180.82148  22424409.7064   22424411.9974   22424410.0934
       239.000         200.000
 115950857.68148  90351312.55348  22064717.6654   22064720.7284   22064718.4054
       238.000         198.000
 126140451.28548  98291251.69048  24003736.8264   24003739.6994   24003736.9594
       222.000         173.000
 128462284.80448 100100460.02348  24445577.2934   24445581.2464   24445578.1074
       218.000         166.000
 106506136.52648  82991772.69448  20267459.7764   20267462.2664   20267459.6694
       252.000         228.000
 128237006.18748  99924927.36648  24402701.3104   24402703.5354   24402701.6854
       216.000         170.000
 134374430.93148  86915135.43248  23667671.0644   23667672.2564   23667670.8024
       221.000         172.000
 107615267.13648  83856046.30748  20478509.1474   20478510.5554   20478508.9254
       254.000         238.000
 142473918.86258  93226402.99558  25208969.2615   25208975.8765   25208969.4395
       197.000         146.000
 121568349.82648  94728571.63648  23133696.6184   23133700.4584   23133697.9154
       228.000         183.000
 09  1  8  0 28 30.0000000  0 10G28G 9G27G 8G26G17G18G15G12G10
 117899493.51348  91869728.65148  22435532.8954   22435534.5604   22435533.9634
       239.000         200.000
 115870247.03548  90288499.05548  22049378.2084   22049380.8434   22049378.6104
       238.000         198.000
 126212516.24448  98347406.21348  24017449.9584   24017453.0414   24017450.0284
       221.000         172.000
 128552925.68248 100171089.22848  24462825.7324   24462829.3834   24462826.6494
       219.000         167.000
 106533685.00148  83013239.03048  20272702.1204   20272704.5054   20272702.0234
       252.000         228.000
 128168788.68748  99871770.85048  24389720.1004   24389722.0634   24389719.5514
       214.000         169.000
 134291868.82948  86850801.35648  23651959.4784   23651961.3424   23651959.6174
       222.000         170.000
 107590522.14948  83836764.49848  20473800.4344   20473801.7554   20473800.2284
       255.000         238.000
 142358462.55948  93136437.03048  25186999.3314   25187004.5924   25186998.8384
       201.000         142.000
 121673752.14548  94810703.30648  23153753.6484   23153757.9894   23153754.1614
       228.000         183.000
 09  1  8  0 29  0.0000000  0 10G28G 9G27G 8G26G17G18G15G12G10
 117958351.62048  91915592.10948  22446733.0024   22446734.6464   22446733.3204
       239.000         199.000
 115789881.70948  90225876.74348  22034084.9274   22034087.9314   22034085.5414
       239.000         200.000
 126284590.78748  98403568.14548  24031165.1384   24031168.5294   24031165.3064
       221.000         172.000
 128643578.67348 100241727.92148  24480076.9714   24480079.7644   24480077.2224
       218.000         166.000
 106561628.30848  83035013.02748  20278019.6194   20278021.8804   20278019.5374
       252.000         227.000
 128100800.46248  99818793.03848  24376781.6524   24376784.2724   24376781.2424
       220.000         176.000
 134209655.44048  86786738.96848  23636315.1274   23636316.7824   23636315.7144
       224.000         173.000
 107566128.62748  83817756.55748  20469158.5174   20469159.8684   20469158.3634
       255.000         238.000
 142243025.67648  93046486.26448  25165036.0834   25165036.6204   25165036.7964
       209.000         144.000
 121779327.16348  94892969.55348  23173843.7024   23173847.9234   23173844.6284
       226.000         181.000
 09  1  8  0 29 30.0000000  0 10G28G 9G27G 8G26G17G18G15G12G10
 118017612.81548  91961769.67548  22458010.0864   22458012.0174   22458010.5734
       239.000         199.000
 115709762.74748  90163446.38748  22018839.1094   22018841.7794   22018839.1684
       239.000         201.000
 126356674.73448  98459737.43048  24044882.5754   24044885.8684   24044882.6584
       224.000         174.000
 128734243.10148 100312375.53948  24497329.4294   24497332.3754   24497330.0304
       218.000         167.000
 106589966.87448  83057095.02048  20283412.2034   20283414.5284   20283412.1894
       251.000         227.000
 128033044.53448  99765996.19048  24363889.4004   24363890.8944   24363889.7114
       218.000         172.000
 134127793.82848  86722950.70448  23620737.1014   23620738.4214   23620737.9834
       223.000         170.000
 107542088.18848  83799023.74348  20464583.6454   20464585.1464   20464583.3824
       254.000         238.000
 142127610.45348  92956552.34248  25143074.4064   25143073.0824   25143074.5134
       209.000         144.000
 121885072.94848  94975368.85248  23193966.7294   23193970.7074   23193967.1304
       228.000         181.000
 09  1  8  0 30  0.0000000  0 10G28G 9G27G 8G26G17G18G15G12G10
 118077274.65348  92008259.42148  22469363.4244   22469365.7094   22469364.5344
       238.000         199.000
 115629890.38848  90101208.20248  22003639.8074   22003642.4164   22003639.6694
       238.000         200.000
 126428767.21548  98515913.37148  24058601.7164   24058604.5994   24058601.8844
       225.000         174.000
 128824917.94548 100383031.22648  24514584.8414   24514588.1214   24514585.8924
       219.000         166.000
 106618700.25648  83079484.66048  20288880.0064   20288882.2324   20288879.8664
       252.000         227.000
 127965523.53748  99713382.43548  24351039.7764   24351041.9864   24351039.3804
       220.000         174.000
 134046286.00348  86659438.09648  23605227.2874   23605227.8834   23605227.6234
       226.000         172.000
 107518401.76048  83780566.78448  20460076.2484   20460077.7054   20460075.9284
       254.000         238.000
 142012219.00448  92866636.89448  25121115.2394   25121114.3154   25121115.4624
       208.000         145.000
 121990986.18748  95057898.65848  23214121.5014   23214124.8704   23214122.5634
       226.000         180.000
 09  1  8  0 30 30.0000000  0 10G28G 9G27G 8G26G17G18G15G12G10
 118137335.92648  92055060.42048  22480792.7654   22480794.8574   22480793.3464
       238.000         198.000
 115550265.84948  90039163.12548  21988487.8934   21988490.5264   21988488.4234
       239.000         201.000
 126500868.34848  98572096.05148  24072322.2814   24072324.9944   24072322.5774
       224.000         173.000
 128915602.74648 100453694.67648  24531841.4674   24531845.1634   24531842.5374
       219.000         167.000
 106647829.15548  83102182.49748  20294423.0704   20294425.3344   20294423.0364
       251.000         227.000
 127898240.71948  99660954.28648  24338236.7354   24338238.6814   24338236.9424
       219.000         173.000
 133965134.79648  86596203.38648  23589785.0454   23589785.5864   23589785.8564
       226.000         174.000
 107495071.36548  83762387.25048  20455636.7254   20455638.0814   20455636.5354
       254.000         239.000
 141896853.69348  92776741.87348  25099160.9974   25099160.5214   25099158.7914
       208.000         145.000
 122097065.15748  95140557.58648  23234306.9974   23234311.1464   23234307.7774
       225.000         180.000
 09  1  8  0 31  0.0000000  0 10G28G 9G27G 8G26G17G18G15G12G10
 118197794.26048  92102170.80548  22492297.5724   22492298.8554   22492297.6974
       237.000         197.000
 115470889.57748  89977311.48448  21973382.9774   21973385.4154   21973383.1014
       238.000         201.000
 126572977.53048  98628285.01548  24086044.1214   24086047.1844   24086045.0684
       222.000         171.000
 129006296.56248 100524365.14848  24549099.4764   24549103.6134   24549099.5474
       216.000         168.000
 106677353.35948  83125188.36348  20300041.4494   20300043.7294   20300041.3464
       252.000         227.000
 127831199.04648  99608714.02948  24325478.8814   24325480.6574   24325479.0524
       218.000         172.000
 133884342.58848  86533248.41948  23574410.1454   23574411.7594   23574410.7774
       225.000         174.000
 107472097.90048  83744485.84548  20451264.9084   20451266.4654   20451264.6474
       254.000         239.000
 141781516.87948  92686869.07148  25077213.2914   25077213.1734   25077211.6904
       211.000         148.000
 122203306.61148  95223343.11948  23254524.4954   23254528.4024   23254525.4514
       227.000         180.000
 09  1  8  0 31 30.0000000  0 10G28G 9G27G 8G26G17G18G15G12G10
 118258647.44948  92149588.87348  22503877.5174   22503877.9194   22503877.5004
       238.000         197.000
 115391761.91448  89915653.58348  21958325.2434   21958328.4964   21958325.4844
       238.000         201.000
 126645094.41748  98684479.97848  24099767.4334   24099770.1244   24099767.3544
       221.000         168.000
 129096998.06148 100595041.61848  24566359.1584   24566363.2144   24566359.3704
       216.000         166.000
 106707272.81748  83148502.21748  20305734.9954   20305737.2404   20305735.0084
       252.000         227.000
 127764401.12648  99556663.67548  24312767.8334   24312769.8304   24312767.9694
       218.000         171.000
 133803911.67348  86470574.98248  23559104.9324   23559106.7254   23559105.1824
       225.000         175.000
 107449482.67548  83726863.58548  20446961.4024   20446962.9434   20446961.0714
       254.000         238.000
 141666210.59248  92597020.01948  25055270.9724   25055271.6424   25055271.2074
       205.000         145.000
 122309708.00848  95306253.29248  23274772.4574   23274775.7944   23274773.9474
       226.000         181.000
 09  1  8  0 32  0.0000000  0 10G28G 9G27G 8G26G17G18G15G12G10
 118319893.52348  92197313.08448  22515532.5114   22515532.8364   22515532.8974
       239.000         198.000
 115312883.93948  89854190.23948  21943315.3564   21943318.4304   21943315.9724
       238.000         202.000
 126717218.63548  98740680.64348  24113491.9304   24113495.0024   24113492.3494
       222.000         168.000
 129187706.87848 100665723.78048  24583620.3764   24583624.4704   24583620.6194
       216.000         164.000
 106737587.83048  83172124.29748  20311503.8034   20311505.9794   20311503.7664
       252.000         227.000
 127697849.99148  99504805.62848  24300103.9544   24300105.0364   24300104.8394
       218.000         170.000
 133723844.43048  86408184.92048  23543868.4664   23543869.8944   23543869.4614
       224.000         175.000
 107427226.94348  83709521.45548  20442726.2934   20442727.7944   20442726.1034
       254.000         239.000
 141550937.14648  92507196.59948  25033333.8704   25033336.7524   25033333.1484
       208.000         151.000
 122416266.48848  95389285.87148  23295049.8044   23295053.2824   23295050.5834
       227.000         181.000
 09  1  8  0 32 30.0000000  0 10G28G 9G27G 8G26G17G18G15G12G10
 118381530.46748  92245341.86548  22527261.6084   22527262.8494   22527262.6834
       239.000         199.000
 115234256.23548  89792921.90248  21928353.2474   21928356.1114   21928353.3634
       241.000         202.000
 126789350.03148  98796886.91748  24127218.1164   24127221.2344   24127218.4214
       224.000         168.000
 129278422.64848 100736411.35848  24600883.3054   24600886.8824   24600884.0334
       214.000         164.000
 106768298.71048  83196054.84648  20317347.7914   20317350.0334   20317347.6394
       252.000         227.000
 127631548.80348  99453142.38748  24287486.7654   24287489.2984   24287486.3014
       217.000         173.000
 133644144.05248  86346080.75148  23528701.8424   23528703.7604   23528702.1604
       225.000         177.000
 107405332.16848  83692460.58548  20438559.9004   20438561.2994   20438559.6474
       254.000         239.000
 141435699.25848  92417400.88448  25011404.7754   25011408.9984   25011404.5184
       208.000         154.000
 122522979.85048  95472439.13248  23315356.5414   23315360.5194   23315357.1234
       225.000         181.000
 09  1  8  0 33  0.0000000  0 10G28G 9G27G 8G26G17G18G15G12G10
 118443556.43648  92293673.79848  22539064.5704   22539067.0324   22539065.3304
       238.000         201.000
 115155879.19548  89731848.88948  21913438.6094   21913441.1154   21913439.0934
       240.000         201.000
 126861488.10548  98853098.38648  24140945.7444   24140949.4044   24140946.1214
       223.000         169.000
 129369144.40148 100807103.63548  24618146.4134   24618150.2594   24618146.7104
       212.000         160.000
 106799405.35548  83220293.77948  20323267.2174   20323269.4694   20323267.1884
       252.000         227.000
 127565500.16848  99401675.93348  24274918.2174   24274919.9344   24274917.9974
       217.000         170.000
 133564812.52748  86284263.98048  23513605.8884   23513607.6244   23513604.9164
       225.000         177.000
 107383799.80748  83675682.11948  20434462.4644   20434463.8754   20434462.2544
       254.000         239.000
 141320498.98048  92327634.43448  24989482.2784   24989487.4144   24989481.2624
       208.000         154.000
 122629845.44548  95555711.01148  23335692.1424   23335696.4434   23335692.6904
       227.000         181.000
 09  1  8  0 33 30.0000000  0 10G28G 9G27G 8G26G17G18G15G12G10
 118505969.61548  92342307.45948  22550941.3404   22550944.5584   22550941.5844
       238.000         200.000
 115077754.08248  89670972.19448  21898571.9304   21898574.3494   21898572.2214
       240.000         202.000
 126933632.61248  98909314.86748  24154674.4124   24154678.0184   24154674.6754
       221.000         168.000
 129459871.28048 100877799.89148  24635411.7774   24635415.3694   24635411.9734
       215.000         163.000
 106830907.81648  83244841.14248  20329262.0224   20329264.2724   20329261.9624
       252.000         227.000
 127499707.26848  99350408.75848  24262397.8864   24262400.3444   24262398.1104
       217.000         168.000
 133485852.49148  86222736.68048  23498580.2324   23498581.7534   23498579.3344
       227.000         178.000
 107362630.99348  83659186.93248  20430434.0324   20430435.5904   20430433.6814
       254.000         239.000
 141205338.47048  92237899.04848  24967568.0274   24967572.1304   24967568.1194
       212.000         153.000
 122736860.34548  95639099.24148  23356056.7584   23356060.4174   23356058.1044
       225.000         179.000
 09  1  8  0 34  0.0000000  0 10G28G 9G27G 8G26G17G18G15G12G10
 118568767.86648  92391241.17448  22562891.4354   22562894.7134   22562892.0704
       238.000         200.000
 114999881.46748  89610292.25248  21883753.1044   21883755.6654   21883753.2294
       239.000         202.000
 127005783.44048  98965536.25548  24168404.3964   24168407.3334   24168404.5114
       221.000         166.000
 129550602.57848 100948499.58248  24652677.7644   24652680.6254   24652678.2744
       219.000         165.000
 106862806.51348  83269697.26048  20335332.0284   20335334.3584   20335331.9244
       252.000         227.000
 127434173.16948  99299343.20548  24249927.7234   24249929.4794   24249927.7294
       218.000         167.000
 133407266.24648  86161500.64148  23483625.9204   23483627.6074   23483625.2374
       227.000         179.000
 107341827.50548  83642976.41348  20426475.3914   20426476.7884   20426475.1514
       254.000         239.000
 141090220.49448  92148196.73848  24945663.6774   24945665.4184   24945664.8684
       215.000         154.000
 122844022.33348  95722602.07048  23376448.6024   23376452.3904   23376448.7494
       226.000         178.000
 09  1  8  0 34 30.0000000  0 10G28G 9G27G 8G26G17G18G15G12G10
 118631948.28548  92440472.67948  22574914.5224   22574917.3964   22574914.7384
       238.000         200.000
 114922261.07148  89549808.83748  21868982.2684   21868984.9124   21868982.1974
       239.000         200.000
 127077939.60448  99021761.83548  24182135.2324   24182138.1754   24182135.8374
       219.000         165.000
 129641336.69248 101019201.45648  24669943.7424   24669947.2944   24669945.1974
       214.000         166.000
 106895100.43548  83294861.34348  20341477.2464   20341479.5644   20341477.1704
       252.000         227.000
 127368899.51548  99248480.60448  24237505.9174   24237507.3714   24237506.5484
       217.000         168.000
 133329055.53948  86100557.24148  23468743.1714   23468744.5834   23468743.8144
       228.000         179.000
 107321389.62748  83627050.79648  20422586.0794   20422587.5634   20422585.8364
       255.000         239.000
 140975146.34148  92058528.57148  24923765.9994   24923766.4854   24923766.3084
       214.000         153.000
 122951328.00048  95806216.87448  23396868.7354   23396872.0814   23396869.8124
       227.000         178.000
 09  1  8  0 35  0.0000000  0 10G28G 9G27G 8G26G17G18G15G12G10
 118695509.14848  92490000.63248  22587009.7394   22587012.3074   22587010.0734
       238.000         198.000
 114844893.94548  89489522.76748  21854259.8284   21854262.0414   21854260.4304
       238.000         201.000
 127150100.96748  99077991.45448  24195867.2584   24195870.1684   24195867.6194
       221.000         166.000
 129732073.58048 101089905.48148  24687210.5784   24687214.2144   24687210.3134
       219.000         165.000
 106927790.01048  83320333.73048  20347697.9094   20347700.1504   20347697.8824
       251.000         227.000
 127303889.83548  99197823.71048  24225135.3764   24225137.0104   24225135.5024
       214.000         164.000
 133251223.23148  86039908.69948  23453931.9214   23453933.4844   23453931.8754
       227.000         177.000
 107301319.16348  83611411.46748  20418766.9044   20418768.2824   20418766.7324
       255.000         239.000
 140860118.62048  91968896.60448  24901876.6134   24901877.3644   24901876.1254
       212.000         150.000
 123058775.20548  95889941.95748  23417315.0184   23417318.6234   23417316.0694
       226.000         179.000
 09  1  8  0 35 30.0000000  0 10G28G 9G27G 8G26G17G18G15G12G10
 118759448.11348  92539823.20948  22599176.9764   22599178.9444   22599177.7364
       237.000         196.000
 124767747.33858  79429400.26358  21839585.8515   21839588.8755   21839585.9785
       239.000         203.000
 127222266.84948  99134224.59048  24209599.6324   24209602.5944   24209599.6074
       219.000         164.000
 129822811.97048 101160610.70948  24704477.6074   24704480.9564   24704477.9694
       218.000         162.000
 106960875.18548  83346114.37948  20353993.7344   20353996.0864   20353993.6904
       251.000         227.000
 127239146.88248  99147374.70048  24212814.8784   24212816.8924   24212814.6114
       215.000         167.000
 113173764.71058 105979549.85058  23439193.3225   23439194.7075   23439194.1405
       226.000         177.000
 117281621.00058  73596063.12958  20415017.6345   20415018.9855   20415017.7305
       254.000         239.000
 130745269.33158 101879431.37958  24879996.8955   24879996.7605   24879997.3315
       213.000         152.000
 133166342.25358  85973756.23158  23437788.2435   23437791.5625   23437788.7105
       227.000         178.000
 09  1  8  0 36  0.0000000  0 10G28G 9G27G 8G26G17G18G15G12G10
 118823763.48048  92589939.08448  22611415.7994   22611417.1204   22611416.7384
       238.000         195.000
 124690888.13248  79369509.98448  21824959.9924   21824962.6714   21824960.0684
       238.000         203.000
 127294437.24648  99190461.23948  24223333.2694   24223335.9084   24223333.6224
       223.000         163.000
 129913551.18348 101231316.57448  24721744.3644   24721747.8454   24721745.3114
       216.000         161.000
 106994356.11148  83372203.39848  20360365.1214   20360367.3124   20360364.8464
       252.000         227.000
 127174673.41848  99097135.62748  24200546.0324   24200547.4504   24200546.1084
       215.000         166.000
 113096696.25448 105919496.52548  23424527.5964   23424529.3404   23424527.7954
       228.000         179.000
 117262288.46848  73580998.81348  20411338.8114   20411340.1624   20411338.5584
       255.000         239.000
 130630340.99848 101789876.83648  24858126.2914   24858126.8834   24858127.9234
       211.000         151.000
 133274064.35748  86057695.53548  23458286.9544   23458290.3514   23458288.0644
       227.000         177.000
 09  1  8  0 36 30.0000000  0 10G28G 9G27G 8G26G17G18G15G12G10
 118888453.51148  92640346.88148  22623725.7144   22623726.4704   22623726.8774
       236.000         191.000
 124614284.46848  79309818.82748  21810382.7424   21810385.5774   21810382.6154
       240.000         204.000
 127366612.31348  99246701.55548  24237068.0134   24237070.4934   24237068.7934
       219.000         163.000
 130004290.73748 101302022.71148  24739011.3844   24739014.9884   24739011.7554
       217.000         161.000
 107028233.15448  83398601.08848  20366811.6894   20366814.0784   20366811.6374
       252.000         227.000
 127110472.83948  99047109.19148  24188329.6974   24188330.7064   24188329.3554
       218.000         168.000
 113020013.78748 105859743.97048  23409935.5494   23409936.9474   23409936.9714
       230.000         179.000
 117243327.52448  73566224.04748  20407730.6634   20407732.0344   20407730.3514
       255.000         239.000
 130515466.60648 101700364.34848  24836266.1624   24836267.3874   24836267.5114
       211.000         151.000
 133381920.08148  86141738.94248  23478810.3274   23478814.5434   23478811.8044
       223.000         175.000
 09  1  8  0 37  0.0000000  0 10G28G 9G27G 8G26G17G18G15G12G10
 118953515.61648  92691044.61948  22636106.6034   22636106.1004   22636107.2934
       236.000         190.000
 124537936.73648  79250327.10548  21795854.0794   21795856.9624   21795854.7534
       239.000         203.000
 127438791.44948  99302945.02848  24250803.3044   24250805.8954   24250803.9054
       220.000         163.000
 130095030.22348 101372728.81948  24756279.2194   24756282.4764   24756280.2544
       219.000         160.000
 107062506.27548  83425307.40448  20373333.4754   20373336.1734   20373333.4124
       252.000         227.000
 127046547.97748  98997297.59048  24176164.9064   24176166.6334   24176165.1974
       220.000         170.000
 112943719.51248 105800293.86748  23395417.1084   23395418.7444   23395418.2604
       228.000         180.000
 117224739.31748  73551739.72548  20404193.4624   20404194.7784   20404193.3704
       253.000         239.000
 130400647.75148 101610895.10148  24814417.1094   24814418.1544   24814416.1234
       208.000         154.000
 133489907.17348  86225884.70748  23499359.9904   23499363.9954   23499360.6744
       226.000         174.000
 09  1  8  0 37 30.0000000  0 10G28G 9G27G 8G26G17G18G15G12G10
 119018948.15948  92742031.01748  22648558.2164   22648557.1524   22648558.5914
       236.000         190.000
 124461845.71748  79191035.41748  21781374.3604   21781377.1904   21781374.1774
       238.000         204.000
 127510974.41548  99359191.48948  24264538.7344   24264541.6974   24264540.0444
       214.000         162.000
 130185768.79948 101443434.18948  24773545.8144   24773548.8744   24773546.7254
       217.000         162.000
 107097175.42648  83452322.32548  20379931.0194   20379933.4324   20379931.1024
       252.000         227.000
 126982901.72248  98947703.10348  24164053.1904   24164055.9684   24164052.7754
       219.000         172.000
 112867815.94648 105741148.23148  23380973.3854   23380975.0564   23380974.1384
       228.000         180.000
 117206525.05848  73537546.79148  20400727.4614   20400728.7544   20400727.2534
       253.000         240.000
 130285886.98048 101521471.14748  24792578.1824   24792580.6534   24792577.1544
       207.000         152.000
 133598022.52548  86310130.42948  23519933.7514   23519937.4484   23519935.3924
       225.000         174.000
 09  1  8  0 38  0.0000000  0 10G28G 9G27G 8G26G17G18G15G12G10
 119084749.62448  92793304.87448  22661079.6604   22661079.0014   22661080.3084
       235.000         191.000
 124386012.60548  79131944.70048  21766943.7584   21766946.5964   21766943.7214
       238.000         203.000
 127583161.55648  99415441.17848  24278275.5164   24278278.6084   24278275.7054
       217.000         161.000
 130276506.67448 101514139.01048  24790812.4354   24790816.2324   24790812.8054
       217.000         161.000
 107132241.25148  83479646.33748  20386603.7614   20386606.0754   20386603.7994
       251.000         226.000
 126919537.33548  98898328.27548  24151995.9064   24151996.8084   24151996.5054
       219.000         174.000
 112792306.13448 105682309.40948  23366604.3164   23366605.6524   23366605.3244
       228.000         180.000
 117188686.77648  73523646.83048  20397332.8894   20397334.2834   20397332.7684
       253.000         240.000
 130171187.57748 101432095.02748  24770752.2354   24770754.3314   24770750.9414
       210.000         155.000
 133706264.47148  86394474.78648  23540531.7244   23540534.9624   23540531.8084
       224.000         173.000
 09  1  8  0 38 30.0000000  0 10G28G 9G27G 8G26G17G18G15G12G10
 119150916.75448  92844863.67648  22673670.8724   22673671.1874   22673671.0594
       235.000         191.000
 124310437.36048  79073054.91048  21752562.3324   21752564.9264   21752562.6364
       239.000         203.000
 127655351.87148  99471693.36248  24292012.7944   24292016.0344   24292012.6904
       217.000         161.000
 130367241.89148 101584841.75048  24808079.1464   24808082.8264   24808079.2404
       215.000         160.000
 107167702.80448  83507278.71448  20393351.7544   20393354.1634   20393351.5674
       251.000         226.000
 126856456.97648  98849174.74048  24139991.4974   24139993.9284   24139990.6944
       221.000         173.000
 112717191.68348 105623778.67148  23352310.3454   23352311.4344   23352310.6384
       228.000         178.000
 117171224.80148  73510040.09448  20394009.9924   20394011.3214   20394009.6894
       253.000         240.000
 130056550.53948 101342767.50148  24748937.8974   24748940.2324   24748938.2324
       213.000         156.000
 133814629.51848  86478915.06548  23561152.7214   23561156.5614   23561154.2484
       226.000         174.000
 09  1  8  0 39  0.0000000  0 10G28G 9G27G 8G26G17G18G15G12G10
 119217448.13348  92896706.31348  22686331.2984   22686332.5354   22686331.9944
       235.000         193.000
 124235121.19048  79014366.99848  21738230.0904   21738232.8604   21738230.0614
       240.000         204.000
 127727545.56348  99527948.17948  24305751.4484   24305753.6374   24305751.8184
       214.000         161.000
 130457974.32248 101655542.33048  24825344.4394   24825348.1624   24825344.9714
       217.000         159.000
 107203560.76248  83535219.97248  20400175.4134   20400177.7594   20400175.3284
       252.000         226.000
 126793664.15648  98800245.27948  24128042.6864   24128044.7354   24128042.5194
       217.000         173.000
 112642475.41948 105565558.21448  23338092.3764   23338093.4414   23338092.2704
       227.000         177.000
 117154141.00548  73496728.04648  20390758.9944   20390760.4084   20390758.8224
       253.000         240.000
 129941978.65648 101253490.77148  24727135.2244   24727137.6544   24727135.2634
       208.000         156.000
 133923115.82348  86563449.85248  23581796.4304   23581800.6854   23581797.4864
       223.000         172.000
 09  1  8  0 39 30.0000000  0 10G28G 9G27G 8G26G17G18G15G12G10
 119284339.13148  92948829.17748  22699060.1384   22699062.1374   22699060.6004
       236.000         193.000
 124160061.59948  78955879.01648  21723946.7994   21723949.4984   21723947.0884
       238.000         203.000
 127799739.54848  99584203.24848  24319489.5794   24319492.1154   24319489.8874
       213.000         161.000
 130548700.78848 101726238.25348  24842609.6004   24842613.0764   24842610.4014
       223.000         162.000
 107239812.25448  83563467.87848  20407073.8524   20407076.2674   20407073.7584
       252.000         226.000
 126731158.70648  98751539.72148  24116148.1694   24116150.8374   24116147.6904
       218.000         176.000
 112568156.90448 105507647.68348  23323949.7004   23323951.4644   23323950.0194
       226.000         178.000
 117137433.96848  73483709.56848  20387579.7944   20387581.1804   20387579.5804
       253.000         240.000
 129827471.82148 101164264.70148  24705345.4104   24705347.9454   24705343.2014
       207.000         157.000
 134031717.53048  86648074.55148  23602462.6264   23602466.8154   23602462.1714
       225.000         173.000
 09  1  8  0 40  0.0000000  0 10G28G 9G27G 8G26G17G18G15G12G10
 119351590.67148  93001232.98648  22711857.7334   22711860.2434   22711857.8444
       237.000         195.000
 124085262.79548  78897594.25148  21709712.8884   21709715.7614   21709713.2504
       239.000         203.000
 127871937.23748  99640461.14548  24333228.4264   24333231.4494   24333228.7884
       216.000         163.000
 130639423.68348 101796931.36848  24859873.7844   24859876.7344   24859874.2234
       218.000         161.000
 107276460.71948  83592025.11848  20414047.8204   20414050.3144   20414047.7184
       251.000         226.000
 126668946.76448  98703062.92248  24104309.7344   24104311.7094   24104309.8644
       220.000         173.000
 112494242.01148 105450051.66548  23309883.9944   23309885.6404   23309883.9124
       228.000         179.000
 117121108.06648  73470988.08348  20384473.2624   20384474.4684   20384473.0134
       254.000         240.000
 129713035.39748 101075093.53748  24683568.4904   24683570.7874   24683565.1994
       207.000         155.000
 134140435.53348  86732789.87248  23623151.6374   23623155.2174   23623152.8444
       226.000         174.000
 09  1  8  0 40 30.0000000  0 10G28G 9G27G 8G26G17G18G15G12G10
 119419200.20848  93053915.74648  22724723.3754   22724725.9994   22724723.7774
       236.000         195.000
 124010725.14048  78839512.96348  21695529.0174   21695531.6714   21695529.0464
       239.000         204.000
 127944137.69048  99696721.21348  24346966.9944   24346970.8124   24346967.4824
       212.000         160.000
 130730142.01248 101867620.96048  24877136.5574   24877140.1034   24877136.9924
       216.000         162.000
 107313505.45748  83620891.13948  20421097.1634   20421099.6564   20421097.0934
       252.000         226.000
 126607030.60748  98654816.53548  24092527.2104   24092529.5664   24092526.9864
       217.000         173.000
 112420732.49448 105392771.51348  23295895.8274   23295897.7984   23295896.1364
       228.000         181.000
 117105164.27948  73458564.35348  20381439.1234   20381440.4874   20381438.8974
       253.000         240.000
 129598671.32048 100985978.72948  24661805.6994   24661807.9144   24661803.9394
       214.000         160.000
 134249266.79648  86817593.44848  23643861.8374   23643865.2824   23643862.8514
       225.000         174.000
 09  1  8  0 41  0.0000000  0 10G28G 9G27G 8G26G17G18G15G12G10
 119487165.25948  93106875.53448  22737656.7184   22737659.4694   22737657.3024
       235.000         195.000
 123936448.27948  78781634.89848  21681394.4144   21681397.2934   21681394.4674
       238.000         203.000
 128016340.33648  99752983.03248  24360706.6644   24360710.7394   24360706.3894
       212.000         160.000
 130820854.68648 101938306.12248  24894398.6014   24894402.4544   24894398.9494
       218.000         165.000
 107350946.14448  83650065.69648  20428221.9104   20428224.2804   20428221.9844
       251.000         226.000
 126545413.14648  98606802.96148  24080802.2294   24080803.9034   24080802.0404
       218.000         172.000
 112347630.23148 105335808.70048  23281985.2554   23281986.8974   23281985.7924
       228.000         180.000
 117089603.47848  73446439.04748  20378477.9924   20378479.3664   20378477.7894
       253.000         240.000
 129484381.82048 100896921.98448  24640059.0704   24640058.3114   24640058.1544
       217.000         161.000
 134358208.70348  86902483.24048  23664592.7104   23664596.2404   23664593.7284
       224.000         174.000
 09  1  8  0 41 30.0000000  0 10G28G 9G27G 8G26G17G18G15G12G10
 119555483.66248  93160110.66148  22750657.3544   22750660.1174   22750658.1864
       236.000         196.000
 123862433.20348  78723960.83048  21667309.9634   21667312.3494   21667309.9854
       240.000         204.000
 128088544.85848  99809246.27848  24374446.6534   24374450.7074   24374447.2734
       213.000         159.000
 130911561.30748 102008986.60148  24911659.9434   24911663.5434   24911660.8984
       219.000         166.000
 107388782.69048  83679548.71048  20435421.9374   20435424.4604   20435421.9034
       251.000         226.000
 126484096.90148  98559024.05648  24069133.9944   24069135.2874   24069133.7614
       215.000         170.000
 112274937.63648 105279165.12648  23268152.0364   23268154.1314   23268152.0684
       230.000         183.000
 117074426.66748  73434612.95648  20375589.8974   20375591.2874   20375589.5904
       253.000         240.000
 129370168.66848 100807924.75548  24618323.6334   24618323.9994   24618323.7934
       212.000         157.000
 134467257.87748  86987456.62848  23685343.6994   23685347.7444   23685344.1644
       223.000         173.000
 09  1  8  0 42  0.0000000  0 10G28G 9G27G 8G26G17G18G15G12G10
 119624153.22448  93213619.42248  22763724.5274   22763727.6324   22763725.1614
       236.000         195.000
 123788680.04548  78666490.85448  21653275.1284   21653277.6154   21653275.2934
       240.000         204.000
 128160750.72348  99865510.55748  24388187.4154   24388190.5614   24388187.3554
       214.000         159.000
 131002260.58148 102079661.35448  24928919.2064   24928923.1194   24928920.2234
       217.000         164.000
 107427014.85548  83709339.99548  20442697.3624   20442699.7574   20442697.2044
       251.000         226.000
 126423084.32148  98511481.79748  24057523.4554   24057525.8074   24057522.4014
       214.000         170.000
 112202657.05348 105222842.60148  23254397.8344   23254398.8374   23254398.7624
       227.000         180.000
 117059635.08948  73423087.04748  20372775.1284   20372776.5254   20372774.7764
       254.000         240.000
 129256033.99148 100718988.70148  24596603.3444   24596604.9904   24596604.7774
       215.000         159.000
 134576411.92148  87072511.72348  23706115.2084   23706119.2594   23706114.9414
       223.000         172.000
 09  1  8  0 42 30.0000000  0 10G28G 9G27G 8G26G17G18G15G12G10
 119693171.95348  93267400.26148  22776858.5554   22776861.2004   22776859.3904
       236.000         195.000
 123715189.94248  78609225.85148  21639290.3684   21639292.7904   21639290.6274
       239.000         204.000
 128232957.97548  99921775.96148  24401927.6434   24401931.5054   24401927.0744
       210.000         160.000
 131092952.30248 102150330.18648  24946177.4684   24946181.0414   24946178.2314
       222.000         171.000
 107465642.68748  83739439.59948  20450047.8504   20450050.3294   20450047.8564
       251.000         226.000
 126362378.48348  98464178.55048  24045970.9614   24045973.5554   24045970.5884
       217.000         171.000
 112130791.22048 105166843.25948  23240721.6974   23240723.2024   23240722.4074
       226.000         178.000
 117045230.27448  73411862.51648  20370034.0204   20370035.3904   20370033.6994
       253.000         240.000
 129141980.44948 100630115.80748  24574900.0544   24574900.9374   24574900.3704
       214.000         159.000
 134685668.38648  87157646.63148  23726905.6784   23726909.7574   23726906.8374
       222.000         171.000
 09  1  8  0 43  0.0000000  0 10G28G 9G27G 8G26G17G18G15G12G10
 119762537.34748  93321451.20648  22790058.4854   22790061.0754   22790059.4314
       234.000         195.000
 123641963.50548  78552166.30848  21625355.7994   21625358.2134   21625355.8594
       239.000         204.000
 128305166.51748  99978042.34248  24415668.5694   24415672.4054   24415667.3704
       209.000         160.000
 131183635.75648 102220992.58848  24963433.9084   24963437.5184   24963434.4384
       221.000         170.000
 107504666.04948  83769847.40248  20457473.9194   20457476.3764   20457473.7914
       252.000         226.000
 126301982.29248  98417116.62348  24034477.9194   24034480.6864   24034477.6744
       215.000         169.000
 112059341.97248 105111168.51548  23227125.2304   23227126.6094   23227125.7184
       228.000         180.000
 117031213.21148  73400940.12648  20367366.6504   20367368.0594   20367366.3354
       254.000         240.000
 129028010.39148 100541308.00648  24553212.2874   24553213.7774   24553213.2534
       217.000         161.000
 134795025.26248  87242859.77248  23747715.9434   23747720.1434   23747716.1964
       223.000         171.000
 09  1  8  0 43 30.0000000  0 10G28G 9G27G 8G26G17G18G15G12G10
 119832246.74448  93375770.22848  22803323.8844   22803325.9184   22803324.2844
       235.000         194.000
 123569000.26148  78495311.84448  21611471.5474   21611473.8324   21611471.9654
       240.000         204.000
 128377375.18348 100034308.80448  24429410.2904   24429413.4544   24429410.3984
       213.000         159.000
 131274309.19848 102291647.22248  24980688.4224   24980692.2574   24980689.1104
       216.000         161.000
 107544084.07648  83800562.74448  20464974.8484   20464977.3704   20464974.8714
       251.000         226.000
 126241897.25648  98370297.11948  24023044.7984   24023046.1494   24023044.6654
       221.000         172.000
 111988310.84948 105055819.59748  23213608.4674   23213610.1014   23213609.9484
       227.000         179.000
 117017584.24648  73390320.15348  20364773.1514   20364774.5644   20364772.9474
       254.000         240.000
 128914125.35848 100452566.46048  24531541.7914   24531542.9264   24531542.9324
       216.000         166.000
 134904478.21448  87328147.78948  23768544.5524   23768548.2994   23768545.9624
       223.000         171.000
 09  1  8  0 44  0.0000000  0 10G28G 9G27G 8G26G17G18G15G12G10
 119902298.43348  93430355.96648  22816653.8064   22816655.9434   22816654.4144
       233.000         193.000
 123496301.23748  78438663.25048  21597637.3564   21597639.7354   21597637.0934
       240.000         205.000
 128449584.42248 100090575.71348  24443150.7984   24443154.1364   24443152.4864
       210.000         159.000
 131364972.76148 102362294.13948  24997941.2044   24997945.0684   24997941.9734
       216.000         151.000
 107583897.02448  83831585.81148  20472550.9594   20472553.3834   20472550.9174
       251.000         226.000
 126182127.09248  98323722.93948  24011671.0054   24011672.9034   24011671.3374
       216.000         172.000
 111917700.52948 105000798.56548  23200171.5734   23200172.9384   23200172.6844
       229.000         180.000
 117004345.21448  73380004.02148  20362253.8424   20362255.3104   20362253.6804
       253.000         241.000
 128800327.95548 100363893.19048  24509886.4944   24509888.2834   24509886.8624
       220.000         169.000
 135014025.44248  87413509.23948  23789389.9264   23789393.8354   23789391.2984
       222.000         169.000
 09  1  8  0 44 30.0000000  0 10G28G 9G27G 8G26G17G18G15G12G10
 119972690.42348  93485206.85748  22830048.8854   22830050.8324   22830049.0314
       235.000         193.000
 123423867.82048  78382221.63748  21583853.6104   21583856.2754   21583853.8484
       239.000         205.000
 128521794.11148 100146843.02248  24456891.8214   24456894.5094   24456891.7714
       208.000         156.000
 131455626.49248 102432933.39448  25015192.5524   25015195.3354   25015193.1134
       203.000         136.000
 107624105.40048  83862917.01048  20480202.5574   20480204.8164   20480202.3854
       252.000         226.000
 126122674.92548  98277396.62148  24000357.8064   24000359.4414   24000357.8494
       218.000         171.000
 111847513.94448 104946107.72848  23186815.5044   23186817.0674   23186816.2924
       229.000         181.000
 116991497.70348  73369992.97248  20359809.1114   20359810.5104   20359808.8064
       254.000         241.000
 128686620.92848 100275290.35248  24488249.0714   24488250.3384   24488248.5594
       219.000         168.000
 135123664.85548  87498942.55348  23810254.2604   23810257.2264   23810254.3374
       224.000         171.000
 09  1  8  0 45  0.0000000  0 10G28G 9G27G 8G26G17G18G15G12G10
 120043420.32248  93540321.07248  22843508.6824   22843510.1354   22843509.6224
       234.000         192.000
 123351700.33848  78325987.25348  21570120.5564   21570123.2874   21570120.2634
       241.000         206.000
 128594003.77148 100203110.29548  24470632.6494   24470635.9144   24470633.0254
       210.000         155.000
 141546363.36658  92503660.16058  25032440.5905   25032442.8275   25032441.6895
       192.000         125.000
 107664708.68848  83894555.93048  20487928.9874   20487931.5464   20487928.9244
       252.000         226.000
 126063543.19048  98231319.91948  23989104.8614   23989106.9394   23989105.2564
       215.000         171.000
 111777752.97548 104891748.49248  23173540.9034   23173542.1674   23173540.9804
       226.000         181.000
 116979042.45048  73360287.57448  20357439.0134   20357440.5014   20357438.9054
       254.000         241.000
 128573006.51448 100186759.67848  24466629.1364   24466630.5534   24466630.5264
       222.000         168.000
 135233393.57348  87584445.45048  23831134.8334   23831138.3724   23831136.1534
       222.000         169.000
 09  1  8  0 45 30.0000000  0  9G28G 9G27G26G17G18G15G12G10
 120114486.43648  93595697.25848  22857031.7904   22857033.5014   22857032.2394
       233.000         191.000
 123279799.53448  78269960.64748  21556438.7394   21556440.7254   21556439.1384
       241.000         206.000
 128666213.62448 100259377.65448  24484373.9064   24484377.2594   24484374.1204
       209.000         157.000
 107705707.04648  83926502.70048  20495730.8464   20495733.2804   20495730.8044
       252.000         226.000
 126004734.66248  98185495.09148  23977915.1464   23977915.7524   23977914.6444
       221.000         174.000
 111708420.13448 104837722.91448  23160346.9154   23160349.0194   23160347.1894
       228.000         182.000
 116966981.07548  73350889.10048  20355143.7864   20355145.3564   20355143.3984
       254.000         241.000
 128459486.70248 100098302.69248  24445027.3644   24445028.4534   24445028.3934
       220.000         169.000
 135343209.00348  87670015.91148  23852031.7604   23852035.5284   23852032.4734
       223.000         169.000
 09  1  8  0 46  0.0000000  0  9G28G 9G27G26G17G18G15G12G10
 120185885.83848  93651333.14848  22870619.1004   22870620.5894   22870619.7664
       234.000         192.000
 123208165.47648  78214141.91748  21542806.7794   21542809.3364   21542806.8054
       238.000         206.000
 128738422.84648 100315644.56348  24498115.0874   24498118.2744   24498115.9344
       212.000         158.000
 107747099.71148  83958756.71848  20503607.6724   20503609.9024   20503607.5614
       252.000         226.000
 125946251.56948  98139923.84848  23966785.0394   23966787.4664   23966784.9904
       219.000         171.000
 111639517.10748 104784032.23148  23147235.7504   23147237.3664   23147237.5504
       228.000         182.000
 116955314.32048  73341798.12048  20352923.6504   20352925.1024   20352923.6564
       254.000         241.000
 128346063.63548 100009921.11148  24423442.2724   24423444.6674   24423442.9434
       218.000         165.000
 135453108.51648  87755651.87848  23872944.9704   23872948.5074   23872945.8274
       221.000         169.000
 09  1  8  0 46 30.0000000  0  9G28G 9G27G26G17G18G15G12G10
 120257617.23748  93707227.74348  22884268.9424   22884270.5854   22884269.2664
       232.000         191.000
 123136799.07348  78158531.75148  21529225.8544   21529228.9724   21529225.4174
       239.000         206.000
 128810632.04148 100371911.45948  24511855.8034   24511858.9914   24511854.5174
       209.000         157.000
 107788887.24048  83991318.42048  20511559.3274   20511561.8204   20511559.2794
       251.000         226.000
 125888097.63848  98094609.12048  23955719.1504   23955720.9614   23955719.6914
       219.000         173.000
 111571046.81548 104730678.75848  23134205.7864   23134207.6374   23134207.1864
       229.000         180.000
 116944044.02848  73333016.06848  20350779.0304   20350780.3294   20350778.7184
       254.000         241.000
 128232740.16048  99921617.11148  24401877.0134   24401879.4394   24401876.4494
       218.000         166.000
 135563089.80448  87841351.58548  23893874.4264   23893877.6694   23893874.8174
       222.000         172.000
 09  1  8  0 47  0.0000000  0  9G28G 9G27G26G17G18G15G12G10
 120329677.77548  93763378.81548  22897981.2794   22897983.0904   22897981.6044
       230.000         190.000
 123065700.55548  78103130.31048  21515696.7974   21515699.1484   21515696.9534
       241.000         207.000
 128882840.55648 100428177.84548  24525597.1524   24525599.2654   24525598.1994
       209.000         154.000
 107831069.08548  84024187.39348  20519586.7104   20519588.7964   20519586.4614
       252.000         226.000
 125830274.96748  98049552.48648  23944715.5034   23944717.5724   23944716.0934
       219.000         173.000
 111503011.28748 104677664.05848  23121259.5694   23121260.6324   23121260.8904
       227.000         181.000
 116933170.64148  73324543.29348  20348709.9374   20348711.1614   20348709.7474
       254.000         241.000
 128119518.18548  99833392.17448  24380331.6184   24380333.4254   24380332.1544
       216.000         165.000
 135673149.61148  87927112.45948  23914817.9394   23914821.7234   23914818.6684
       223.000         169.000
 09  1  8  0 47 30.0000000  0  9G28G 9G27G26G17G18G15G12G10
 120402065.37348  93819784.73348  22911756.2394   22911758.1694   22911755.8694
       232.000         191.000
 122994870.68048  78047938.22448  21502218.1134   21502220.9534   21502218.1004
       239.000         207.000
 128955048.42248 100484443.67948  24539336.4694   24539340.6744   24539337.0054
       209.000         155.000
 107873645.14848  84057363.53348  20527688.0534   20527690.7264   20527688.0974
       251.000         225.000
 125772786.21948  98004756.07148  23933776.0584   23933777.4854   23933775.6924
       220.000         174.000
 111435412.55148 104624989.72548  23108395.3624   23108397.2004   23108397.0834
       226.000         180.000
 116922695.62648  73316380.94348  20346716.4924   20346717.8254   20346716.1874
       254.000         241.000
 128006400.02648  99745248.17648  24358805.6304   24358807.7844   24358804.8684
       214.000         163.000
 135783285.88348  88012932.90248  23935775.1904   23935779.1094   23935776.8334
       219.000         164.000
 09  1  8  0 48  0.0000000  0  9G28G 9G27G26G17G18G15G12G10
 120474778.19348  93876444.06748  22925593.1704   22925594.7274   22925593.7234
       231.000         189.000
 122924310.69248  77992956.43748  21488790.8704   21488793.7754   21488791.1034
       241.000         207.000
 129027255.98548 100540709.31448  24553077.6174   24553081.1784   24553079.0804
       204.000         155.000
 107916615.63148  84090847.03348  20535865.5934   20535867.7394   20535865.3084
       252.000         226.000
 125715634.49348  97960222.26948  23922900.1804   23922901.7104   23922899.9384
       221.000         174.000
 111368253.45048 104572657.96248  23095615.4594   23095617.3474   23095616.2244
       230.000         182.000
 116912620.59648  73308530.26448  20344799.3144   20344800.6094   20344799.0174
       255.000         241.000
 127893388.58548  99657187.29248  24337301.5394   24337302.2364   24337301.6094
       217.000         165.000
 135893496.57748  88098811.37748  23956748.3454   23956750.9154   23956748.8594
       222.000         168.000
 09  1  8  0 48 30.0000000  0  9G28G 9G27G26G17G18G15G12G10
 120547813.48248  93933354.68348  22939491.3584   22939492.7644   22939491.9144
       233.000         189.000
 122854020.26548  77938184.67348  21475415.4244   21475417.8714   21475415.4904
       241.000         207.000
 129099461.87448 100596973.63748  24566818.6104   24566821.3694   24566817.9094
       211.000         156.000
 107959979.58348  84124637.10848  20544116.8724   20544119.7694   20544116.8104
       251.000         226.000
 125658821.87148  97915952.71448  23912089.5714   23912091.0944   23912089.4344
       216.000         173.000
 111301535.26448 104520669.75548  23082919.8794   23082921.1764   23082920.7724
       228.000         181.000
 116902945.97448  73300991.59348  20342958.4444   20342959.6414   20342958.2224
       254.000         241.000
 127780485.16748  99569210.58148  24315816.9554   24315817.9724   24315816.4864
       218.000         166.000
 136003777.91148  88184744.87548  23977734.3824   23977737.9484   23977734.8804
       222.000         168.000
 09  1  8  0 49  0.0000000  0  9G28G 9G27G26G17G18G15G12G10
 120621168.96448  93990514.79848  22953450.3704   22953451.7594   22953451.4484
       231.000         188.000
 122784000.23548  77883623.61848  21462090.8494   21462093.2884   21462091.1654
       241.000         208.000
 129171666.42448 100653236.90348  24580557.7124   24580561.2954   24580558.6414
       210.000         155.000
 108003737.03148  84158733.82048  20552444.1934   20552446.5284   20552444.3174
       251.000         225.000
 125602351.29548  97871949.66248  23901343.2274   23901345.0174   23901341.8274
       219.000         173.000
 111235260.57448 104469027.14548  23070307.7324   23070309.8214   23070307.9354
       228.000         181.000
 116893672.76948  73293765.72048  20341193.7834   20341195.0504   20341193.7414
       255.000         241.000
 127667692.43148  99481320.13548  24294352.7514   24294354.5384   24294352.8384
       216.000         166.000
 136114127.32248  88270731.41348  23998733.4224   23998737.1824   23998734.4954
       221.000         167.000
 09  1  8  0 49 30.0000000  0  9G28G 9G27G26G17G18G15G12G10
 120694843.00548  94047923.12848  22967470.0664   22967471.4034   22967470.7634
       231.000         188.000
 122714251.09148  77829273.64848  21448818.2234   21448820.9594   21448817.9744
       242.000         209.000
 129243869.59348 100709499.09448  24594298.1234   24594300.5804   24594298.3254
       211.000         155.000
 108047888.01148  84193137.16948  20560845.4514   20560848.1084   20560845.2984
       252.000         226.000
 125546225.44748  97828215.25948  23890663.0694   23890664.9074   23890662.4034
       222.000         175.000
 111169431.55448 104417731.78248  23057780.7614   23057782.6664   23057780.2264
       228.000         181.000
 116884802.73148  73286853.99048  20339505.8744   20339507.1994   20339505.4494
       254.000         241.000
 127555012.77948  99393517.76148  24272910.8124   24272912.4244   24272909.9554
       218.000         169.000
 136224542.96148  88356769.55448  24019744.8984   24019747.7814   24019746.7014
       224.000         168.000
 09  1  8  0 50  0.0000000  0  9G28G 9G27G26G17G18G15G12G10
 120768833.06648  94105577.72948  22981549.9014   22981551.3384   22981549.7714
       231.000         187.000
 122644773.45248  77775135.23848  21435596.9684   21435599.7114   21435597.1754
       240.000         208.000
 129316071.14248 100765760.03848  24608037.4244   24608040.3444   24608037.5834
       207.000         156.000
 108092432.29448  84227846.99148  20569322.2094   20569324.7104   20569322.0964
       252.000         226.000
 125490447.06448  97784751.58548  23880048.6194   23880050.2694   23880048.6534
       219.000         175.000
 111104050.56448 104366785.55648  23045339.7774   23045341.2244   23045340.0464
       230.000         182.000
 116876336.91648  73280257.25448  20337894.7674   20337896.1744   20337894.7724
       255.000         242.000
 127442448.52048  99305805.36348  24251489.9184   24251492.7334   24251489.1934
       215.000         167.000
 136335021.95648  88442857.07448  24040768.3944   24040771.0524   24040769.4394
       222.000         165.000
 09  1  8  0 50 30.0000000  0  9G28G 9G27G26G17G18G15G12G10
 120843137.18448  94163477.03848  22995689.4304   22995691.0424   22995689.5244
       230.000         187.000
 122575568.10648  77721209.01748  21422427.3704   21422430.3324   21422427.7064
       241.000         209.000
 129388271.00248 100822019.68248  24621776.5864   24621779.6364   24621775.6554
       210.000         158.000
 108137369.70148  84262863.13848  20577873.5794   20577875.9764   20577873.4114
       252.000         226.000
 125435018.78548  97741560.71848  23869501.1474   23869502.4414   23869500.7214
       219.000         173.000
 111039119.64448 104316190.03748  23032983.9604   23032985.4054   23032984.8474
       229.000         183.000
 116868276.43948  73273976.35648  20336360.9334   20336362.2694   20336360.5014
       255.000         242.000
 127330002.25648  99218184.91748  24230091.7934   24230094.6594   24230091.2324
       217.000         169.000
 136445561.70348  88528991.94648  24061803.0704   24061806.6214   24061803.3294
       220.000         165.000
 09  1  8  0 51  0.0000000  0  9G28G 9G27G26G17G18G15G12G10
 120917752.77148  94221619.05848  23009888.5284   23009890.0934   23009888.2244
       232.000         187.000
 122506635.45148  77667495.26048  21409310.3284   21409312.8334   21409310.5794
       243.000         210.000
 129460468.83548 100878277.73848  24635515.7084   24635519.2894   24635515.8924
       213.000         161.000
 108182699.66648  84298185.17948  20586499.6184   20586501.8514   20586499.6464
       253.000         225.000
 125379943.00248  97698644.51948  23859020.3704   23859022.2694   23859019.8204
       221.000         175.000
 110974640.71348 104265946.71548  23020713.7554   23020715.7044   23020714.4544
       228.000         181.000
 116860622.10948  73268011.93548  20334904.4704   20334905.7684   20334904.3664
       255.000         242.000
 127217675.45148  99130657.54748  24208717.6424   24208719.3184   24208717.3464
       221.000         171.000
 136556159.79448  88615172.23248  24082848.3764   24082852.3084   24082849.4554
       220.000         164.000
 09  1  8  0 51 30.0000000  0  9G28G 9G27G26G17G18G15G12G10
 120992677.52348  94280001.98048  23024146.3024   23024147.7144   23024146.4814
       231.000         187.000
 122437975.57548  77613994.06848  21396244.5774   21396247.4814   21396245.0274
       240.000         209.000
 129532664.19148 100934533.84148  24649254.1574   24649257.2164   24649254.2704
       214.000         162.000
 108228421.76948  84333812.78548  20595200.1914   20595202.6004   20595199.9884
       253.000         225.000
 125325222.16348  97656004.90048  23848606.7164   23848608.9304   23848606.3924
       218.000         174.000
 110910615.54248 104216056.97048  23008530.1744   23008531.8794   23008530.8734
       231.000         184.000
 116853374.58748  73262364.51448  20333525.3554   20333526.6314   20333525.2084
       255.000         242.000
 127105470.13948  99043224.82348  24187365.6064   24187366.7824   24187365.9644
       218.000         165.000
 136666812.97748  88701395.50648  24103906.3014   24103908.1184   24103906.8914
       223.000         162.000
 09  1  8  0 52  0.0000000  0  9G28G 9G27G26G17G18G15G12G10
 121067908.95648  94338623.87348  23038462.1414   23038463.7284   23038462.6084
       231.000         185.000
 122369589.17948  77560705.97948  21383230.7534   21383233.6964   21383230.7434
       241.000         209.000
 129604857.11548 100990788.03648  24662992.1494   24662994.9684   24662992.4504
       212.000         163.000
 108274535.80948  84369745.79548  20603975.2604   20603977.7324   20603975.0804
       253.000         225.000
 125270859.08748  97613644.06948  23838262.2374   23838264.6854   23838261.5334
       225.000         175.000
 110847046.69848 104166522.80948  22996433.8104   22996435.0884   22996434.4464
       231.000         182.000
 116846535.38248  73257035.26348  20332223.8034   20332225.0674   20332223.5124
       255.000         242.000
 126993388.99248  98955888.85648  24166037.3354   24166038.1974   24166036.6524
       219.000         169.000
 136777518.84648  88787659.79748  24124973.6784   24124976.0254   24124975.1254
       221.000         165.000
 09  1  8  0 52 30.0000000  0  9G28G 9G27G26G17G18G15G12G10
 121143444.95248  94397483.08848  23052836.1614   23052837.5664   23052836.8664
       231.000         186.000
 122301477.02948  77507631.58748  21370269.6854   21370272.5624   21370269.9314
       242.000         210.000
 129677047.51048 101047040.27148  24676729.3034   24676732.4574   24676729.0574
       213.000         161.000
 108321041.36048  84405983.87648  20612825.2804   20612827.5154   20612825.3194
       254.000         226.000
 125216856.15848  97571563.85948  23827985.7384   23827987.5214   23827986.6244
       219.000         172.000
 110783936.00748 104117345.64248  22984423.9924   22984425.2424   22984424.6134
       228.000         182.000
 116840105.28648  73252024.79548  20331000.1254   20331001.4124   20330999.9234
       254.000         241.000
 126881434.23648  98868651.38848  24144732.9544   24144734.6594   24144732.7114
       219.000         171.000
 136888274.92248  88873963.20548  24146049.0344   24146052.7124   24146051.0734
       220.000         167.000
 09  1  8  0 53  0.0000000  0  9G28G 9G27G26G17G18G15G12G10
 121219284.22648  94456578.62248  23067267.9634   23067269.4484   23067268.1734
       232.000         187.000
 122233640.37848  77454771.88048  21357360.6134   21357363.6134   21357361.3474
       241.000         209.000
 129749235.81148 101103290.90948  24690465.9544   24690469.7544   24690465.9254
       212.000         161.000
 108367938.98148  84442527.46648  20621749.5864   20621751.9464   20621749.6034
       254.000         226.000
 125163216.41548  97529766.67048  23817778.6764   23817780.0324   23817778.3954
       217.000         170.000
 110721286.28848 104068527.67448  22972502.0204   22972503.4744   22972502.2784
       231.000         183.000
 116834085.98348  73247334.42248  20329854.7774   20329856.0124   20329854.5274
       255.000         241.000
 126769608.82148  98781514.69548  24123453.5894   24123454.9964   24123453.4294
       219.000         168.000
 136999079.13348  88960304.14948  24167133.9794   24167137.6154   24167134.9534
       216.000         164.000
 09  1  8  0 53 30.0000000  0  9G28G 9G27G26G17G18G15G12G10
 121295423.28748  94515907.75048  23081756.7374   23081758.1564   23081757.4984
       232.000         187.000
 122166078.44148  77402126.22348  21344504.2994   21344506.7084   21344504.4874
       242.000         210.000
 129821421.14448 101159539.20748  24704202.9124   24704205.7034   24704203.1784
       217.000         164.000
 108415227.51748  84479375.66748  20630748.1644   20630750.5704   20630748.0724
       254.000         225.000
 125109942.11448  97488254.23348  23807640.4374   23807642.4004   23807640.8424
       221.000         173.000
 110659098.61848 104020069.74848  22960668.2594   22960669.8554   22960669.9464
       231.000         183.000
 116828477.89648  73242964.47848  20328787.5674   20328788.8724   20328787.2664
       255.000         241.000
 126657914.02148  98694479.78048  24102198.9624   24102200.0024   24102198.5874
       220.000         170.000
 137109928.35148  89046680.10948  24188226.4394   24188231.5764   24188227.1654
       214.000         163.000
 09  1  8  0 54  0.0000000  0 10G28G 9G27G26G17G18G15G12G10G 5
 121371860.41248  94575469.14748  23096302.3474   23096303.7754   23096303.4004
       230.000         188.000
 122098791.90648  77349695.17348  21331699.8214   21331702.6584   21331700.1274
       241.000         210.000
 129893603.60148 101215785.25148  24717938.4764   24717941.7854   24717938.4804
       212.000         165.000
 108462906.80648  84516528.34848  20639821.1574   20639823.6204   20639821.1254
       253.000         225.000
 125057035.63848  97447028.39348  23797572.9704   23797574.6024   23797573.5994
       219.000         173.000
 110597375.34248 103971973.68548  22948922.4124   22948924.0024   22948923.8284
       231.000         183.000
 116823282.61748  73238916.20748  20327798.9474   20327800.2334   20327798.7914
       255.000         241.000
 126546352.79948  98607548.98748  24080969.3994   24080970.2754   24080969.7414
       219.000         170.000
 137220820.02748  89133089.16348  24209329.2354   24209333.3914   24209329.2244
       219.000         165.000
 133344243.81158 103904580.29058  25374586.8905   25374592.1135   25374587.9235
       200.000         144.000
 09  1  8  0 54 30.0000000  0 10G28G 9G27G26G17G18G15G12G10G 5
 121448594.00148  94635261.53548  23110904.1754   23110905.6844   23110904.4264
       231.000         187.000
 122031782.38048  77297479.97448  21318948.2474   21318951.2944   21318948.0954
       242.000         210.000
 129965783.67048 101272029.47148  24731673.7894   24731677.5744   24731674.3534
       211.000         165.000
 108510977.36848  84553985.92248  20648968.6984   20648971.1504   20648968.5684
       253.000         225.000
 125004500.08948  97406091.62648  23787575.8554   23787577.7654   23787576.1604
       218.000         173.000
 110536119.39548 103924241.78048  22937266.3294   22937267.5044   22937268.2944
       231.000         183.000
 116818501.26348  73235190.47148  20326889.2024   20326890.4154   20326888.9394
       255.000         242.000
 126434927.49548  98520724.14248  24059765.0224   24059766.8454   24059764.5944
       221.000         170.000
 137331752.37648  89219529.94848  24230440.0474   24230442.5254   24230440.2454
       221.000         162.000
 133227902.70848 103813924.93148  25352448.1534   25352452.6424   25352448.8734
       201.000         143.000
 09  1  8  0 55  0.0000000  0 10G28G 9G27G26G17G18G15G12G10G 5
 121525621.50148  94695282.96648  23125562.2894   23125563.4854   23125562.8284
       231.000         188.000
 121965050.37848  77245481.01748  21306249.7524   21306252.2624   21306249.7274
       240.000         209.000
 130037961.17148 101328271.63948  24745408.6594   24745412.3824   24745408.7374
       214.000         165.000
 108559438.69748  84591747.98948  20658190.6544   20658193.1674   20658190.6234
       253.000         226.000
 124952338.31648  97365446.09448  23777649.0224   23777651.9114   23777649.2444
       220.000         175.000
 110475332.61148 103876875.44648  22925698.6144   22925700.3034   22925699.0324
       231.000         186.000
 116814134.79848  73231788.02148  20326058.3374   20326059.4984   20326058.2174
       255.000         242.000
 126323640.50448  98434007.04048  24038588.1984   24038589.1884   24038587.3754
       222.000         170.000
 137442722.54348  89306000.22348  24251556.3454   24251559.2934   24251557.2444
       216.000         160.000
 133111595.38548 103723295.80448  25330314.6864   25330319.9964   25330318.2014
       201.000         144.000
 09  1  8  0 55 30.0000000  0 10G28G 9G27G26G17G18G15G12G10G 5
 121602940.83448  94755531.78848  23140275.5514   23140276.9364   23140276.4964
       231.000         187.000
 121898596.26148  77193698.59048  21293603.7884   21293606.2734   21293603.2224
       240.000         209.000
 130110135.89848 101384511.67548  24759143.0324   24759146.3454   24759143.2654
       216.000         166.000
 108608290.59048  84629814.38948  20667486.9844   20667489.4424   20667486.8964
       253.000         226.000
 124900552.87148  97325093.80348  23767795.0144   23767797.2684   23767794.9384
       220.000         176.000
 110415016.97148 103829876.24648  22914220.8544   22914222.3924   22914221.0354
       231.000         186.000
 116810184.70948  73228710.02648  20325306.5014   20325307.8264   20325306.3344
       255.000         242.000
 126212494.06548  98347399.43648  24017437.3704   24017439.0984   24017437.2124
       219.000         170.000
 137553728.15948  89392498.09048  24272680.0904   24272683.1484   24272679.9954
       219.000         161.000
 132995323.81948 103632694.60648  25308188.7384   25308194.3084   25308185.9054
       197.000         145.000
 09  1  8  0 56  0.0000000  0 10G28G 9G27G26G17G18G15G12G10G 5
 121680549.28348  94816005.89848  23155043.9524   23155045.2024   23155044.0534
       231.000         185.000
 121832420.06948  77142132.74248  21281010.9704   21281013.5504   21281010.6904
       242.000         210.000
 130182307.23448 101440749.05848  24772877.0424   24772879.8784   24772876.9584
       216.000         166.000
 108657531.96048  84668184.28248  20676857.1484   20676859.7124   20676857.1024
       252.000         225.000
 124849145.64948  97285036.22948  23758012.6334   23758014.9484   23758012.5804
       224.000         177.000
 110355173.86948 103783245.26048  22902833.1924   22902834.6004   22902833.5804
       231.000         186.000
 116806651.11148  73225956.56948  20324634.1424   20324635.4644   20324633.7184
       255.000         242.000
 126101489.84448  98260902.69048  23996313.5894   23996316.1744   23996313.4284
       220.000         168.000
 137664766.03848  89479021.11748  24293810.5064   24293813.0094   24293811.2594
       219.000         162.000
 132879089.43548 103542122.38148  25286070.1024   25286076.1144   25286069.0374
       204.000         145.000
 09  1  8  0 56 30.0000000  0 10G28G 9G27G26G17G18G15G12G10G 5
 121758444.55148  94876703.49648  23169867.1114   23169868.0914   23169867.3874
       230.000         187.000
 121766522.68548  77090784.13548  21268471.4104   21268473.4614   21268471.9044
       242.000         209.000
 130254475.37748 101496983.96248  24786610.1584   24786613.3844   24786610.2024
       215.000         167.000
 108707162.76348  84706857.63048  20686301.5404   20686304.1334   20686301.2844
       252.000         225.000
 124798119.24848  97245275.41748  23748302.8204   23748304.0794   23748302.8144
       223.000         179.000
 110295805.48148 103736984.17248  22891535.9804   22891537.5364   22891536.1444
       232.000         187.000
 116803535.29148  73223528.65348  20324041.3244   20324042.4954   20324041.1964
       255.000         242.000
 125990630.26148  98174518.64148  23975217.9804   23975220.3324   23975218.3154
       220.000         170.000
 137775833.75948  89565567.36348  24314946.0394   24314949.3454   24314946.9304
       220.000         164.000
 132762894.41448 103451580.78548  25263961.5094   25263964.5884   25263962.4074
       209.000         146.000
 09  1  8  0 57  0.0000000  0 10G28G 9G27G26G17G18G15G12G10G 5
 121836623.98448  94937622.53748  23184744.1074   23184745.0144   23184744.4974
       231.000         184.000
 121700904.05148  77039652.74448  21255984.3484   21255986.6534   21255984.5044
       242.000         209.000
 130326639.89348 101553216.03448  24800342.1774   24800345.6014   24800341.9674
       217.000         166.000
 108757182.05548  84745833.68448  20695819.9894   20695822.5504   20695819.9674
       253.000         225.000
 124747475.62148  97205812.84448  23738665.1254   23738667.5454   23738665.2404
       224.000         176.000
 110236913.43248 103691094.25448  22880329.1274   22880330.4314   22880330.3224
       232.000         187.000
 116800837.87548  73221426.76748  20323527.8394   20323529.2634   20323527.4634
       254.000         242.000
 125879917.26148  98088248.79948  23954150.3574   23954151.5794   23954149.6684
       224.000         172.000
 137886928.45948  89652134.63248  24336086.7384   24336089.6914   24336087.6154
       218.000         164.000
 132646740.28348 103361071.09948  25241858.2824   25241860.1754   25241860.2154
       209.000         149.000
 09  1  8  0 57 30.0000000  0 10G28G 9G27G26G17G18G15G12G10G 5
 121915086.01448  94998761.77848  23199674.9864   23199675.8644   23199675.9204
       231.000         184.000
 121635565.33348  76988739.47848  21243550.6544   21243553.2724   21243551.4614
       242.000         210.000
 130398800.83648 101609445.33048  24814074.8774   24814077.0474   24814074.7554
       217.000         168.000
 108807590.01748  84785112.60848  20705412.3264   20705414.8504   20705412.2874
       252.000         225.000
 124697217.73348  97166650.88548  23729102.1474   23729103.3544   23729102.0324
       223.000         178.000
 110178500.04848 103645577.33948  22869213.5264   22869214.9954   22869213.6874
       233.000         188.000
 116798560.48948  73219652.17448  20323094.3804   20323095.9064   20323094.0344
       255.000         242.000
 125769353.49248  98002095.23348  23933110.9744   23933111.7804   23933110.7624
       223.000         173.000
 137998047.93048  89738721.20048  24357231.7904   24357233.4884   24357232.3304
       221.000         159.000
 132530629.48148 103270595.19948  25219763.6514   25219766.0254   25219766.9744
       204.000         148.000
 09  1  8  0 58  0.0000000  0 10G28G 9G27G26G17G18G15G12G10G 5
 121993828.09848  95060119.23548  23214659.0434   23214660.0964   23214659.8364
       229.000         183.000
 121570506.86648  76938044.58148  21231170.4174   21231172.9464   21231170.8944
       241.000         209.000
 130470958.21748 101665671.84548  24827805.7374   24827808.9434   24827806.4864
       218.000         168.000
 108858386.34548  84824694.15548  20715078.5114   20715081.0434   20715078.3604
       253.000         224.000
 124647348.03448  97127791.36648  23719611.9324   23719614.2134   23719611.1454
       225.000         178.000
 110120567.25248 103600434.90248  22858189.0944   22858190.6754   22858189.7914
       230.000         187.000
 116796703.67848  73218205.30648  20322741.1574   20322742.5684   20322740.9614
       255.000         242.000
 125658941.12848  97916059.67348  23912099.9054   23912101.2904   23912099.6574
       223.000         173.000
 138109189.62348  89825325.12248  24378382.1734   24378382.7344   24378383.0084
       219.000         155.000
 132414563.94948 103180154.61748  25197674.7554   25197679.3494   25197675.6854
       205.000         148.000
 09  1  8  0 58 30.0000000  0 10G28G 9G27G26G17G18G15G12G10G 5
 122072848.32848  95121693.42948  23229695.9634   23229697.0114   23229696.2804
       231.000         183.000
 121505728.89548  76887568.24248  21218843.4324   21218846.0824   21218843.6834
       243.000         210.000
 130543112.07448 101721895.61348  24841536.8374   24841539.3194   24841537.5634
       219.000         169.000
 108909570.42348  84864577.84348  20724818.5494   20724820.9494   20724818.4364
       252.000         224.000
 124597869.03848  97089236.31348  23710196.7754   23710198.5764   23710196.4064
       221.000         177.000
 110063117.05748 103555668.53048  22847256.6194   22847258.5764   22847257.4824
       231.000         186.000
 116795268.62548  73217087.07948  20322468.0834   20322469.5484   20322467.8824
       255.000         242.000
 125548682.27448  97830143.72048  23891117.9374   23891119.5564   23891118.2104
       223.000         173.000
 138220350.69648  89911944.15748  24399534.3184   24399536.0094   24399535.8574
       214.000         154.000
 132298545.70748 103089750.82748  25175597.1214   25175601.8694   25175598.0574
       204.000         146.000
 09  1  8  0 59  0.0000000  0 10G28G 9G27G26G17G18G15G12G10G 5
 122152144.12448  95183482.36348  23244785.4184   23244786.7964   23244787.1064
       230.000         185.000
 121441232.23148  76837311.10148  21206570.3694   21206572.9164   21206570.7784
       242.000         211.000
 130615262.25248 101778116.50048  24855265.8684   24855269.0454   24855267.1534
       216.000         166.000
 108961142.29248  84904763.70948  20734632.3394   20734634.7854   20734632.3444
       252.000         224.000
 124548783.25148  97050987.64848  23700855.4544   23700857.0974   23700854.7894
       222.000         176.000
 110006151.57048 103511279.81848  22836416.5584   22836417.9824   22836416.8474
       232.000         186.000
 116794256.53948  73216298.43648  20322275.5094   20322276.8304   20322275.2084
       255.000         242.000
 125438579.44348  97744349.34948  23870165.6644   23870168.1274   23870165.4574
       221.000         175.000
 138331529.53848  89998576.97948  24420690.7114   24420693.7444   24420690.6984
       214.000         158.000
 132182576.81848 102999385.53648  25153527.8854   25153533.7714   25153529.7834
       204.000         146.000
 09  1  8  0 59 30.0000000  0 10G28G 9G27G26G17G18G15G12G10G 5
 122231713.65548  95245484.59148  23259926.7664   23259928.5944   23259926.9694
       229.000         183.000
 121377017.52448  76787273.68148  21194350.6444   21194353.1664   21194350.8644
       243.000         211.000
 130687408.72648 101834334.53148  24868994.5514   24868997.9744   24868995.2754
       215.000         166.000
 109013101.33848  84945251.27148  20744519.8254   20744522.2714   20744519.7014
       251.000         224.000
 124500093.45048  97013047.53548  23691590.5324   23691591.9334   23691589.9454
       224.000         176.000
 109949672.77048 103467270.37148  22825668.6744   22825670.4384   22825669.4904
       232.000         186.000
  96793672.02058  93215843.84958  20322163.6175   20322164.8145   20322163.4165
       255.000         242.000
 125328634.99348  97658678.37848  23849244.1284   23849247.1214   23849244.0664
       223.000         176.000
 138442723.14948  90085221.32848  24441850.3524   24441853.9224   24441851.5944
       219.000         164.000
 132066659.44848 102909060.38748  25131470.4844   25131474.9244   25131473.2364
       209.000         147.000
 09  1  8  1  0  0.0000000  0 10G28G 9G27G26G17G18G15G12G10G 5
 122311554.28448  95307698.06948  23275119.9824   23275121.9004   23275120.8364
       229.000         183.000
 121313085.20348  76737456.29148  21182184.9494   21182187.2054   21182185.6474
       244.000         211.000
 130759551.58048 101890549.72748  24882722.5134   24882726.3824   24882722.8064
       215.000         167.000
 109065447.23148  84986040.27348  20754480.8914   20754483.3194   20754480.8994
       251.000         224.000
 124451801.76148  96975417.65848  23682400.6074   23682402.7814   23682401.1534
       220.000         175.000
 109893682.31548 103423641.45048  22815014.3984   22815015.4764   22815014.6024
       231.000         187.000
  96793508.28448  93215716.25948  20322132.5034   20322133.6344   20322132.2584
       255.000         242.000
 125218851.05248  97573132.48348  23828353.2434   23828356.2934   23828353.2934
       223.000         177.000
 138553928.87848  90171875.12648  24463012.6224   24463016.1664   24463015.2164
       217.000         160.000
 131950795.31148 102818776.69048  25109423.0144   25109426.2604   25109425.8494
       205.000         148.000
 09  1  8  1  0 30.0000000  0 10G28G 9G27G26G17G18G15G12G10G 5
 122391664.11448  95370121.30148  23290364.1194   23290366.4634   23290365.3754
       228.000         183.000
 121249435.82248  76687859.38848  21170072.4494   21170075.3144   21170073.1404
       242.000         211.000
 130831690.75848 101946762.05948  24896450.4234   24896454.2054   24896450.5454
       214.000         165.000
 109118179.61848  85027130.43948  20764515.4454   20764518.0864   20764515.3794
       250.000         224.000
 124403910.71548  96938099.97248  23673287.6054   23673288.9314   23673287.2844
       222.000         176.000
 109838182.20748 103380394.59948  22804452.9974   22804453.7794   22804453.2374
       231.000         185.000
  96793770.24048  93215920.37348  20322182.3814   20322183.4694   20322182.0274
       255.000         242.000
 125109229.90848  97487713.43748  23807493.1854   23807495.7644   23807492.3594
       225.000         178.000
 138665144.29848  90258536.47948  24484175.8904   24484179.8394   24484177.1224
       214.000         155.000
 131834986.50248 102728536.16948  25087384.1804   25087388.6674   25087387.1414
       210.000         149.000
 09  1  8  1  1  0.0000000  0 10G28G 9G27G26G17G18G15G12G10G 5
 122472040.91548  95432752.56948  23305659.8104   23305661.5324   23305659.2064
       230.000         184.000
 121186070.34748  76638483.69748  21158014.4594   21158017.0684   21158014.3974
       243.000         212.000
 130903826.32248 102002971.56948  24910177.3734   24910180.7674   24910176.9624
       215.000         165.000
 109171298.17848  85068521.51448  20774623.5404   20774626.3204   20774623.4474
       251.000         223.000
 124356422.70148  96901096.31548  23664250.5464   23664252.9244   23664250.3974
       221.000         177.000
 109783174.51948 103337531.45748  22793985.1194   22793986.6944   22793985.9014
       230.000         186.000
 106794459.92458  83216458.00258  20322313.4515   20322314.4585   20322313.1405
       255.000         242.000
 124999773.77448  97402422.97148  23786664.4534   23786666.7904   23786665.2844
       225.000         179.000
 138776367.01148  90345203.49748  24505340.5094   24505344.4004   24505341.6114
       210.000         155.000
 131719235.26648 102638340.41848  25065359.4304   25065363.2094   25065364.2914
       208.000         149.000
 09  1  8  1  1 30.0000000  0 10G28G 9G27G26G17G18G15G12G10G 5
 122552682.75148  95495590.35048  23321005.4454   23321007.1374   23321005.1744
       230.000         183.000
 121122989.02148  76589329.42148  21146010.9094   21146013.2094   21146010.6704
       243.000         212.000
 130975958.21848 102059178.22348  24923903.9924   24923906.8474   24923904.4074
       217.000         166.000
 109224802.67648  85110213.31748  20784805.2864   20784807.8214   20784805.1294
       251.000         224.000
 124309340.53648  96864408.91848  23655291.1814   23655293.3294   23655290.8744
       223.000         177.000
 109728661.00348 103295053.39448  22783611.5994   22783612.9884   22783611.6654
       233.000         188.000
 106795576.36548  83217327.94948  20322525.7504   20322526.9194   20322525.4504
       255.000         242.000
 124890484.92048  97317262.86948  23765866.7874   23765869.6054   23765867.1974
       223.000         177.000
 138887594.63348  90431874.37848  24526506.6604   24526509.2894   24526506.6104
       214.000         154.000
 131603543.45648 102548191.01748  25043342.7764   25043346.5914   25043343.8044
       207.000         150.000
 09  1  8  1  2  0.0000000  0 10G28G 9G27G26G17G18G15G12G10G 5
 122633586.51148  95558632.23948  23336401.1804   23336402.3524   23336401.6414
       229.000         182.000
 121060192.06748  76540396.74048  21134060.8544   21134063.4454   21134060.9054
       244.000         213.000
 131048086.13248 102115381.77548  24937629.2424   24937632.7524   24937629.5144
       217.000         166.000
 109278691.88648  85152204.90948  20795060.0614   20795062.5514   20795059.9244
       251.000         223.000
 124262665.68548  96828038.91348  23646409.6184   23646410.8834   23646409.0814
       223.000         177.000
 109674643.21648 103252961.60348  22773332.7714   22773334.1674   22773333.0874
       232.000         188.000
 106797121.03448  83218531.58248  20322819.6524   20322820.9094   20322819.3614
       255.000         242.000
 124781365.31548  97232234.63248  23745102.3154   23745104.7334   23745101.6134
       223.000         178.000
 138998824.29748  90518546.83948  24547672.8004   24547675.7304   24547674.4104
       215.000         153.000
 131487912.74848 102458089.18648  25021339.4584   25021343.6264   25021339.1694
       211.000         152.000
 09  1  8  1  2 30.0000000  0 10G28G 9G27G26G17G18G15G12G10G 5
 122714750.02748  95621876.52648  23351845.9264   23351847.1984   23351846.6914
       229.000         183.000
 120997679.74348  76491685.84048  21122165.1974   21122167.6654   21122165.3744
       244.000         213.000
 131120209.71048 102171581.95948  24951353.5944   24951357.1574   24951353.9584
       217.000         167.000
 109332965.49848  85194496.03148  20805388.0374   20805390.5154   20805387.9954
       251.000         223.000
 124216400.51248  96791988.13448  23637604.9944   23637607.3674   23637605.2184
       222.000         178.000
 109621122.67148 103211257.29248  22763147.8144   22763149.6694   22763149.0134
       233.000         188.000
 106799094.52848  83220069.36248  20323195.2224   20323196.4114   20323195.0184
       255.000         242.000
 124672417.18248  97147340.03048  23724369.3374   23724372.5794   23724369.2674
       221.000         178.000
 139110053.05848  90605218.62048  24568839.4194   24568842.4694   24568840.6244
       216.000         152.000
 131372344.86548 102368036.29048  24999348.2314   24999351.2304   24999349.5694
       211.000         154.000
 09  1  8  1  3  0.0000000  0 10G28G 9G27G26G17G18G15G12G10G 5
 122796171.42948  95685321.77848  23367339.9294   23367341.0324   23367340.6374
       229.000         183.000
 120935452.98848  76443197.47648  21110323.3874   21110326.4644   21110323.5244
       244.000         213.000
 131192329.30448 102227779.03148  24965077.7584   24965081.0624   24965077.7634
       216.000         164.000
 109387623.26648  85237086.49748  20815788.9774   20815791.4254   20815788.8624
       251.000         223.000
 124170547.63548  96756258.65148  23628879.8754   23628881.8134   23628880.2164
       224.000         177.000
 109568101.81848 103169942.34048  22753058.1424   22753059.9914   22753058.9714
       232.000         188.000
 106801498.35848  83221942.47148  20323652.6324   20323653.8414   20323652.4034
       255.000         242.000
 124563642.90848  97062580.87148  23703670.1284   23703673.3784   23703669.9054
       222.000         178.000
 139221279.18748  90691888.32048  24590005.2064   24590008.0364   24590005.8664
       215.000         157.000
 131256842.34248 102278034.37248  24977367.8674   24977372.6424   24977368.3864
       210.000         156.000
 09  1  8  1  3 30.0000000  0 10G28G 9G27G26G17G18G15G12G10G 5
 122877848.26248  95748966.04548  23382882.5384   23382883.9094   23382882.3964
       230.000         181.000
 120873512.17348  76394931.90248  21098536.8814   21098539.2364   21098536.8954
       244.000         213.000
 131264444.73448 102283972.84848  24978800.5704   24978804.2614   24978801.2124
       214.000         163.000
 109442664.78048  85279975.97848  20826263.0764   20826265.4914   20826263.0724
       250.000         223.000
 124125109.47648  96720852.29848  23620233.4674   23620234.9934   23620233.4544
       224.000         177.000
 109515582.25348 103129017.99248  22743064.4834   22743065.8944   22743064.7654
       232.000         188.000
 106804333.12648  83224151.37648  20324192.1324   20324193.3774   20324191.8964
       255.000         242.000
 124455044.53948  96977958.79048  23683005.3294   23683007.9754   23683004.5284
       226.000         179.000
 139332499.78348  90778553.70348  24611169.9444   24611173.5814   24611170.7434
       215.000         158.000
 131141406.97148 102188084.76248  24955401.6424   24955405.7494   24955400.6654
       212.000         157.000
 09  1  8  1  4  0.0000000  0 10G28G 9G27G26G17G18G15G12G10G 5
 122959776.74848  95812806.43648  23398472.7834   23398474.0054   23398473.6244
       229.000         181.000
 120811856.40148  76346888.45048  21086804.0174   21086806.6824   21086804.3064
       244.000         214.000
 131336554.62148 102340162.37148  24992523.3514   24992526.2044   24992523.3084
       217.000         164.000
 109498087.99048  85323162.88648  20836809.6744   20836812.2114   20836809.4904
       250.000         222.000
 124080086.74148  96685769.64148  23611666.0584   23611667.4694   23611666.5234
       224.000         178.000
 109463564.17948 103088484.43048  22733165.7304   22733166.9584   22733166.6364
       233.000         189.000
 106807598.33948  83226695.69348  20324813.4354   20324814.8084   20324813.1384
       255.000         242.000
 124346622.95148  96893474.43848  23662374.2344   23662375.8774   23662374.6264
       228.000         180.000
 139443711.41648  90865212.05948  24632332.2854   24632336.3294   24632333.3594
       209.000         153.000
 131026039.19148 102098187.78548  24933447.9324   24933452.0554   24933447.7924
       212.000         156.000
 09  1  8  1  4 30.0000000  0 10G28G 9G27G26G17G18G15G12G10G 5
 123041956.60748  95876842.67448  23414111.1074   23414112.6074   23414111.5524
       229.000         181.000
 120750487.99748  76299068.91548  21075126.2294   21075128.5314   21075126.3964
       246.000         214.000
 131408660.88548 102396349.06748  25006244.0734   25006248.2374   25006244.0854
       217.000         164.000
 109553894.28548  85366648.30948  20847429.3864   20847431.6464   20847429.2254
       251.000         221.000
 124035483.51648  96651013.89648  23603177.9394   23603179.9014   23603178.2364
       223.000         177.000
 109412051.07548 103048344.35848  22723362.9334   22723364.4954   22723363.3004
       233.000         189.000
 106811296.46148  83229577.34148  20325517.2244   20325518.5204   20325517.0294
       255.000         242.000
 124238382.10048  96809130.93348  23641776.9334   23641778.7964   23641776.6634
       227.000         181.000
 139554912.94148  90951862.57348  24653492.4934   24653497.1814   24653493.1804
       214.000         153.000
 130910742.80448 102008346.45548  24911507.5834   24911511.5394   24911508.2534
       207.000         155.000
 09  1  8  1  5  0.0000000  0 10G28G 9G27G26G17G18G15G12G10G 5
 123124385.86548  95941073.26048  23429796.8644   23429798.6134   23429797.2574
       228.000         182.000
 120689407.60448  76251473.80848  21063502.7514   21063505.3254   21063503.1394
       245.000         215.000
 131480763.43548 102452532.85848  25019965.2934   25019968.4254   25019965.6034
       218.000         164.000
 109610083.22748  85410431.90548  20858121.7434   20858123.9754   20858121.7454
       251.000         221.000
 123991302.63548  96616587.25548  23594770.5274   23594772.2544   23594770.3444
       223.000         179.000
 109361044.97648 103008599.35148  22713656.1634   22713658.3244   22713656.9254
       233.000         187.000
 106815428.59748  83232797.18448  20326303.5034   20326304.7994   20326303.3624
       255.000         242.000
 124130324.44748  96724930.17648  23621213.9894   23621216.0854   23621213.9744
       224.000         178.000
 139666102.04748  91038503.47648  24674651.9384   24674655.2924   24674653.3554
       214.000         152.000
 130795520.19848 101918562.61548  24889581.0824   24889585.1694   24889581.1924
       210.000         155.000
 09  1  8  1  5 30.0000000  0 10G28G 9G27G26G17G18G15G12G10G 5
 123207060.56348  96005495.08348  23445529.2554   23445531.3524   23445530.1474
       228.000         182.000
 120628614.22148  76204102.34548  21051934.4284   21051937.0454   21051934.5894
       246.000         215.000
 131552860.69048 102508712.52348  25033684.9044   25033687.4924   25033686.0614
       220.000         163.000
 109666652.75048  85454512.04948  20868886.5444   20868888.8344   20868886.5744
       249.000         221.000
 123947544.60848  96582490.09948  23586443.6764   23586446.1504   23586443.9724
       224.000         179.000
 109310546.13248 102969249.59048  22704046.6534   22704048.7114   22704047.7184
       231.000         188.000
 106819994.20248  83236354.79548  20327172.3884   20327173.6374   20327172.2324
       255.000         242.000
 124022450.77348  96640872.78648  23600685.4674   23600688.1414   23600685.5024
       224.000         180.000
 139777274.56548  91125131.42148  24695807.0164   24695810.5784   24695808.2554
       213.000         151.000
 130680371.68548 101828836.47448  24867669.9824   24867671.9494   24867670.5594
       210.000         155.000
 09  1  8  1  6  0.0000000  0 10G28G 9G27G26G17G18G15G12G10G 5
 123289980.34448  96070107.90648  23461308.3854   23461310.3504   23461308.7594
       230.000         181.000
 120568110.35648  76156956.47048  21040420.7094   21040423.4654   21040420.5234
       246.000         215.000
 131624954.61748 102564889.60348  25047404.1444   25047406.9254   25047405.7404
       219.000         166.000
 109723604.35248  85498889.91448  20879724.0034   20879726.3914   20879723.9024
       249.000         221.000
 123904213.48248  96548725.59448  23578198.0194   23578199.8614   23578197.5074
       223.000         178.000
 109260557.92648 102930297.72948  22694534.7184   22694536.3894   22694535.0964
       232.000         189.000
 106824995.79548  83240252.13548  20328124.1204   20328125.4214   20328123.7814
       254.000         242.000
 123914764.81148  96556961.66448  23580192.9114   23580195.9354   23580192.5134
       223.000         179.000
 139888430.19648  91211746.18348  24716958.8094   24716962.5404   24716959.8074
       208.000         151.000
 130565301.11348 101739171.09748  24845772.1724   24845774.3724   24845772.4894
       212.000         156.000
 09  1  8  1  6 30.0000000  0 10G28G 9G27G26G17G18G15G12G10G 5
 123373142.79848  96134909.82048  23477133.5744   23477135.4264   23477134.7524
       228.000         179.000
 120507896.00348  76110036.20948  21028962.4634   21028965.0564   21028962.7074
       246.000         215.000
 131697044.78648 102621063.76348  25061122.0934   25061125.0334   25061123.2914
       218.000         163.000
 109780937.25548  85543564.88048  20890634.1934   20890636.5144   20890634.1274
       249.000         221.000
 123861311.49448  96515295.46448  23570034.4194   23570035.7814   23570034.3384
       224.000         179.000
 109211082.18348 102891745.20248  22685119.5794   22685121.2234   22685120.2844
       232.000         187.000
 106830433.96248  83244489.66648  20329158.8984   20329160.2914   20329158.6644
       255.000         242.000
 123807268.80948  96473198.54148  23559737.2624   23559739.6854   23559737.0114
       224.000         180.000
 139999566.29248  91298345.72448  24738107.0654   24738110.9324   24738106.7234
       210.000         155.000
 130450310.18648 101649567.75548  24823890.9384   24823892.3794   24823890.9264
       215.000         157.000
 09  1  8  1  7  0.0000000  0 10G28G 9G27G26G17G18G15G12G10G 5
 123456544.99248  96199898.53948  23493004.5304   23493006.1624   23493005.3264
       227.000         179.000
 120447971.31348  76063341.64848  21017559.0914   21017561.7454   21017559.3204
       247.000         215.000
 131769130.34648 102677234.30548  25074838.9574   25074842.8244   25074839.9464
       219.000         166.000
 109838649.96648  85588535.81248  20901616.6334   20901618.9384   20901616.3724
       250.000         221.000
 123818839.68648  96482200.53348  23561951.4744   23561954.1914   23561951.6024
       221.000         179.000
 109162119.42048 102853592.39648  22675802.1654   22675803.9834   22675803.0804
       230.000         187.000
 106836308.89848  83249067.53248  20330276.8864   20330278.2754   20330276.7994
       255.000         241.000
 123699963.76548  96389584.24348  23539317.8994   23539319.6784   23539318.2584
       226.000         180.000
 140110679.24348  91384927.25048  24759251.8604   24759254.8984   24759252.1634
       212.000         156.000
 130335400.11548 101560027.42248  24802024.4504   24802027.1344   24802026.0414
       213.000         156.000
 09  1  8  1  7 30.0000000  0 10G28G 9G27G26G17G18G15G12G10G 5
 123540185.09848  96265072.63848  23508920.7264   23508922.6244   23508921.8344
       228.000         179.000
 120388336.81348  76016873.21248  21006210.9534   21006213.3554   21006211.0914
       245.000         215.000
 131841212.31548 102733402.06148  25088556.4314   25088559.8454   25088556.9164
       220.000         167.000
 109896742.77748  85633802.94748  20912671.3064   20912673.6104   20912671.2554
       251.000         221.000
 123776801.27748  96449443.35648  23553952.1664   23553954.1154   23553951.1214
       224.000         179.000
 109113672.01048 102815841.17248  22666582.8714   22666584.6774   22666583.3124
       233.000         188.000
 106842621.98148  83253986.81748  20331478.1444   20331479.5804   20331477.9074
       254.000         241.000
 123592852.89048  96306121.25048  23518936.1224   23518936.9184   23518936.4594
       230.000         183.000
 140221767.66848  91471489.65748  24780391.5714   24780395.0034   24780391.8744
       210.000         154.000
 130220573.58448 101470552.21048  24780173.2104   24780176.9744   24780172.8294
       207.000         154.000
 09  1  8  1  8  0.0000000  0 10G28G 9G27G26G17G18G15G12G10G 5
 123624060.37948  96330429.99148  23524882.2304   23524883.5144   23524882.9104
       227.000         180.000
 120328992.68248  75970631.04148  20994918.1084   20994920.7074   20994918.3434
       247.000         215.000
 131913289.83548 102789566.34448  25102272.2164   25102276.1294   25102273.3574
       218.000         165.000
 109955214.31348  85679365.17148  20923798.0484   20923800.3954   20923798.0064
       251.000         221.000
 123735197.73248  96417025.02948  23546035.4884   23546037.2704   23546036.3094
       222.000         179.000
 109065741.02648 102778492.35048  22657462.2134   22657463.6914   22657462.2454
       232.000         188.000
 106849373.24648  83259247.54048  20332762.8434   20332764.3374   20332762.5814
       254.000         241.000
 123485937.84748  96222810.84548  23498591.8454   23498591.3024   23498591.7014
       228.000         183.000
 140332828.41548  91558030.46448  24801524.6264   24801528.9744   24801523.9134
       209.000         149.000
 130105831.93148 101381143.13648  24758337.4644   24758342.3804   24758337.7054
       205.000         152.000
 09  1  8  1  8 30.0000000  0 10G28G 9G27G26G17G18G15G12G10G 5
 123708168.79648  96395969.02148  23540886.9944   23540888.8294   23540886.9314
       228.000         179.000
 120269939.66148  75924615.70248  20983680.7944   20983683.1484   20983681.6304
       246.000         215.000
 131985363.30448 102845727.48748  25115987.0234   25115990.6264   25115987.6014
       219.000         165.000
 110014064.36048  85725222.34448  20934996.7984   20934999.2464   20934996.7884
       249.000         221.000
 123694031.24848  96384947.25748  23538202.0044   23538203.4964   23538202.0894
       222.000         178.000
 109018328.44348 102741547.47248  22648439.9544   22648441.5094   22648440.0674
       235.000         188.000
 106856563.79048  83264850.55648  20334131.1884   20334132.7234   20334130.9294
       254.000         241.000
 123379220.91248  96139654.81248  23478283.8474   23478284.0024   23478284.1364
       227.000         181.000
 140443859.03048  91644547.81248  24822653.8244   24822656.5114   24822653.1914
       207.000         146.000
 129991177.36248 101291801.95648  24736519.0044   24736523.7434   24736519.5204
       207.000         152.000
 09  1  8  1  9  0.0000000  0 10G28G 9G27G26G17G18G15G12G10G 5
 123792508.08648  96461687.93848  23556936.5244   23556938.1494   23556937.5614
       227.000         178.000
 120211178.41048  75878827.71948  20972498.7894   20972501.3194   20972499.0814
       247.000         216.000
 132057432.80848 102901885.54648  25129701.6624   25129704.6504   25129702.4034
       219.000         164.000
 110073292.41948  85771374.06948  20946267.4894   20946270.0094   20946267.3984
       249.000         220.000
 123653304.32248  96353211.99748  23530451.5854   23530453.1494   23530451.4044
       224.000         177.000
 108971435.79048 102705007.75348  22639516.3824   22639518.1764   22639517.5754
       232.000         189.000
 106864194.62548  83270796.65848  20335583.4114   20335584.8204   20335583.2944
       254.000         242.000
 123272704.24848  96056654.82148  23458013.9324   23458014.9664   23458013.6264
       225.000         180.000
 140554857.16648  91731039.89248  24843776.3954   24843778.6264   24843776.1914
       212.000         152.000
 129876611.98448 101202530.23648  24714718.3064   24714722.7334   24714719.3344
       209.000         154.000
 09  1  8  1  9 30.0000000  0 10G28G 9G27G26G17G18G15G12G10G 5
 123877075.68148  96527584.75248  23573028.7414   23573030.7214   23573029.2064
       227.000         178.000
 120152709.05048  75833267.18448  20961372.6284   20961375.1074   20961373.1634
       247.000         216.000
 132129497.98648 102958040.21448  25143415.2844   25143418.8464   25143416.1774
       215.000         163.000
 110132897.56848  85817819.62548  20957610.0584   20957612.5824   20957609.8654
       250.000         221.000
 123613018.86348  96321820.73448  23522785.3884   23522787.0974   23522785.3594
       223.000         178.000
 108925064.04248 102668873.93048  22630692.2254   22630693.8754   22630693.0544
       232.000         187.000
 106872265.71948  83277085.81448  20337119.3954   20337120.6184   20337119.1364
       254.000         242.000
 123166389.72548  95973812.35948  23437782.6124   23437784.4274   23437782.8224
       227.000         184.000
 140665820.06848  91817504.48748  24864891.9694   24864895.9404   24864893.0014
       215.000         160.000
 129762137.34648 101113329.25248  24692934.9214   24692937.6514   24692935.0444
       211.000         154.000
 09  1  8  1 10  0.0000000  0 10G28G 9G27G26G17G18G15G12G10G 5
 123961869.73348  96593658.02348  23589164.4814   23589166.6704   23589164.9334
       226.000         179.000
 120094532.16448  75787934.54848  20950301.8404   20950304.2644   20950301.8994
       247.000         216.000
 132201559.01748 103014191.67748  25157127.3904   25157130.5844   25157128.0874
       215.000         162.000
 110192879.23548  85864558.58548  20969024.1644   20969026.6644   20969024.1794
       250.000         220.000
 123573176.92348  96290775.04648  23515203.9844   23515205.4744   23515203.8474
       224.000         177.000
 108879215.44148 102633147.73748  22621967.5134   22621969.0594   22621968.5264
       234.000         189.000
 106880778.29248  83283718.98548  20338739.2734   20338740.4784   20338739.0684
       255.000         241.000
 123060279.61148  95891129.16348  23417590.6164   23417592.8544   23417590.6734
       227.000         183.000
 140776745.35448  91903939.74848  24885999.5514   24886004.9704   24886000.4234
       212.000         158.000
 129647755.70748 101024200.69948  24671169.5164   24671171.0814   24671171.1114
       212.000         154.000
 09  1  8  1 10 30.0000000  0 10G28G 9G27G26G17G18G15G12G10G 5
 124046888.10748  96659906.10048  23605343.1844   23605345.0424   23605343.3144
       228.000         179.000
 120036648.45148  75742830.37648  20939287.0754   20939289.3524   20939287.6184
       248.000         216.000
 132273615.88348 103070339.87348  25170840.0324   25170843.6364   25170839.9504
       219.000         163.000
 110253237.08948  85911590.68148  20980509.7804   20980512.3254   20980509.8154
       249.000         220.000
 123533780.80648  96260076.78848  23507707.0274   23507708.1744   23507707.0664
       225.000         178.000
 108833891.41048 102597830.30048  22613342.7604   22613344.5334   22613343.4864
       234.000         189.000
 106889732.84748  83290696.56048  20340443.2234   20340444.4394   20340442.9644
       254.000         241.000
 122954376.38348  95808607.17848  23397438.0294   23397439.9374   23397438.2594
       228.000         184.000
 140887630.79748  91990343.94148  24907100.2904   24907105.6874   24907100.6624
       205.000         141.000
 129533468.97048 100935146.10448  24649421.8444   24649422.8834   24649421.8804
       210.000         154.000
 09  1  8  1 11  0.0000000  0 10G28G 9G27G26G17G18G15G12G10G 5
 124132128.01148  96726326.79548  23621563.6884   23621565.3594   23621565.2444
       227.000         178.000
 119979057.83248  75697954.56448  20928327.8984   20928330.1664   20928328.1944
       247.000         217.000
 132345668.25748 103126484.60548  25184551.0114   25184554.2934   25184551.8574
       217.000         163.000
 110313970.01248  85958915.02848  20992066.8584   20992069.4744   20992066.6894
       250.000         220.000
 123494832.16548  96229727.19648  23500295.6394   23500297.1624   23500295.4684
       225.000         180.000
 108789092.99148 102562922.45348  22604817.7784   22604819.6364   22604818.6814
       234.000         189.000
 106899129.96248  83298018.98048  20342231.4374   20342232.6814   20342231.2234
       254.000         241.000
 122848681.57448  95726247.58648  23377325.2394   23377326.6324   23377325.1164
       226.000         184.000
 140998473.72348  92076715.08748  24928192.5024   24928195.1264   24928194.5564
       210.000         138.000
 129419278.76348 100846166.72748  24627691.5144   24627694.4694   24627691.5514
       211.000         154.000
 09  1  8  1 11 30.0000000  0 10G28G 9G27G26G17G18G15G12G10G 5
 124217589.11748  96792919.86148  23637826.5014   23637828.1754   23637826.8994
       226.000         176.000
 119921762.45148  75653308.82148  20917424.7214   20917427.6194   20917425.1344
       247.000         217.000
 132417718.09148 103182627.31948  25198261.3954   25198265.0844   25198262.0464
       213.000         162.000
 110375079.16648  86006532.54048  21003695.7594   21003698.0724   21003695.7824
       250.000         220.000
 123456334.76948  96199729.21948  23492969.3434   23492971.5034   23492969.7234
       224.000         180.000
 108744823.32048 102528426.60348  22596393.2464   22596395.1994   22596393.5154
       234.000         189.000
 106908972.10348  83305688.18348  20344104.3354   20344105.6134   20344104.1074
       254.000         241.000
 122743198.98548  95644053.37548  23357251.9884   23357253.5844   23357251.3154
       227.000         184.000
 141109272.88148  92163052.14648  24949278.4864   24949281.3354   24949280.0884
       218.000         156.000
 129305188.85848 100757265.50248  24605980.5844   24605984.2174   24605981.4524
       210.000         155.000
 09  1  8  1 12  0.0000000  0 10G28G 9G27G26G17G18G15G12G10G 5
 124303267.94648  96859682.56248  23654130.3934   23654132.3644   23654130.7474
       225.000         177.000
 119864761.97848  75608892.87248  20906578.0294   20906580.4744   20906578.4604
       247.000         217.000
 132489764.28548 103238767.15248  25211971.8624   25211975.1934   25211971.9344
       216.000         163.000
 110436563.06948  86054442.07448  21015395.7654   21015398.0224   21015395.8524
       250.000         219.000
 123418289.87848  96170083.88648  23485729.6284   23485731.1384   23485729.8434
       225.000         181.000
 108701083.19048 102494343.37548  22588069.9734   22588071.1154   22588070.3874
       236.000         189.000
 106919259.09048  83313704.01548  20346061.8734   20346063.1544   20346061.7834
       253.000         241.000
 122637930.14648  95562025.73348  23337220.0914   23337221.6814   23337220.4854
       227.000         185.000
 141220025.38148  92249352.77248  24970355.0594   24970357.9264   24970354.8364
       213.000         157.000
 129191200.24548 100668443.20748  24584290.2044   24584293.2474   24584290.2444
       214.000         158.000
 09  1  8  1 12 30.0000000  0 10G28G 9G27G26G17G18G15G12G10G 5
 124389161.60148  96926612.68748  23670475.6894   23670477.4374   23670475.5484
       226.000         177.000
 119808056.10148  75564706.48848  20895787.2764   20895789.7284   20895787.5274
       248.000         218.000
 132561806.08148 103294903.63348  25225680.3764   25225684.0944   25225680.8814
       217.000         162.000
 110498420.22148  86102642.44548  21027166.6904   21027169.0854   21027166.6184
       249.000         219.000
 123380698.72448  96140792.06548  23478576.6314   23478578.4924   23478576.4594
       226.000         181.000
 108657873.20848 102460673.25748  22579847.5774   22579848.4204   22579848.1174
       237.000         189.000
 106929990.49848  83322066.14848  20348103.8424   20348105.3354   20348103.6334
       253.000         241.000
 122532876.11248  95480165.45148  23317229.0714   23317230.4204   23317228.2994
       228.000         184.000
 141330728.23048  92335614.62448  24991420.3304   24991424.5924   24991420.7934
       208.000         151.000
 129077314.14148 100579700.79548  24562616.9014   24562621.1514   24562618.3404
       211.000         159.000
 09  1  8  1 13  0.0000000  0 10G28G 9G27G26G17G18G15G12G10G 5
 124475267.66348  96993708.29948  23686861.4544   23686862.9804   23686862.4534
       228.000         178.000
 119751645.03948  75520749.82048  20885052.5694   20885055.0124   20885053.0034
       248.000         218.000
 132633843.04348 103351036.38748  25239389.0964   25239392.6904   25239390.4034
       212.000         158.000
 110560649.46448  86151132.76248  21039008.5044   21039011.0304   21039008.4354
       249.000         219.000
 123343563.04448  96111855.18048  23471509.6004   23471511.3734   23471509.1224
       227.000         182.000
 108615194.36848 102427417.02048  22571725.9304   22571727.2694   22571726.4234
       235.000         189.000
 106941166.71048  83330774.88248  20350230.5314   20350232.1064   20350230.1254
       254.000         241.000
 122428038.94048  95398474.15948  23297279.0644   23297280.9984   23297279.1544
       227.000         185.000
 141441378.55648  92421835.65448  25012475.9924   25012479.1804   25012476.2574
       216.000         149.000
 128963532.05448 100491039.44548  24540964.5754   24540968.9564   24540965.9184
       212.000         159.000
 09  1  8  1 13 30.0000000  0 10G28G 9G27G26G17G18G15G12G10G 5
 124561584.09948  97060967.84748  23703286.7854   23703288.1234   23703287.5844
       227.000         176.000
 119695529.50548  75477023.44048  20874374.2254   20874376.6014   20874374.5444
       248.000         218.000
 132705875.82248 103407165.77048  25253096.4474   25253099.8624   25253096.6264
       214.000         157.000
 110623250.68848  86199912.92948  21050920.9734   21050923.8134   21050920.8564
       249.000         219.000
 123306885.06148  96083274.93348  23464530.4504   23464532.3694   23464530.2424
       227.000         180.000
 108573048.46148 102394576.03948  22563706.0044   22563707.2724   22563706.5564
       236.000         190.000
 106952789.05248  83339831.24548  20352442.3314   20352443.7074   20352442.2094
       254.000         241.000
 122323420.82848  95316953.57048  23277370.7354   23277373.0254   23277370.0194
       227.000         185.000
 141551973.91848  92508013.94848  25033521.6674   25033524.1294   25033523.2654
       215.000         149.000
 128849856.43548 100402461.03648  24519333.3664   24519336.7784   24519334.0224
       215.000         160.000
 09  1  8  1 14  0.0000000  0 10G28G 9G27G26G17G18G15G12G10G 5
 124648109.19048  97128389.97948  23719752.0124   23719753.4024   23719752.9004
       226.000         175.000
 119639710.49148  75433528.11748  20863752.0654   20863754.5644   20863752.4834
       247.000         217.000
 132777904.76648 103463292.23448  25266803.1974   25266805.9464   25266804.0864
       214.000         157.000
 110686223.72148  86248982.82348  21062904.3904   21062906.9624   21062904.2284
       249.000         219.000
 123270667.55948  96055053.50948  23457638.1464   23457639.9134   23457637.2394
       225.000         181.000
 108531437.65448 102362152.03248  22555787.5534   22555789.2184   22555788.1974
       235.000         190.000
 106964858.29948  83349235.85248  20354739.0204   20354740.3534   20354738.8474
       254.000         241.000
 122219024.71048  95235605.95148  23257504.8484   23257506.6914   23257504.5634
       229.000         186.000
 141662512.51048  92594147.91648  25054556.3104   25054561.0184   25054557.3644
       210.000         149.000
 128736289.75948 100313967.50648  24497723.4374   24497725.7764   24497725.0564
       213.000         159.000
 09  1  8  1 14 30.0000000  0 10G28G 9G27G26G17G18G15G12G10G 5
 124734840.81548  97195973.05248  23736256.4174   23736258.0544   23736256.7744
       225.000         176.000
 119584188.29548  75390264.06948  20853186.5514   20853188.9394   20853186.5154
       247.000         218.000
 132849929.74248 103519415.59848  25280508.4874   25280512.6324   25280508.7384
       212.000         156.000
 110749567.32048  86298341.47248  21074958.2994   21074960.7554   21074958.0424
       249.000         219.000
 123234911.81348  96027191.88748  23450833.5724   23450835.7794   23450832.7594
       226.000         180.000
 108490363.08948 102330145.87248  22547971.5144   22547972.8854   22547971.9394
       236.000         192.000
 106977374.79148  83358988.95948  20357120.7394   20357122.1664   20357120.4564
       253.000         240.000
 122114852.27248  95154432.63548  23237681.7274   23237683.2934   23237682.0534
       227.000         186.000
 141772991.91148  92680235.67848  25075579.0134   25075583.1894   25075580.6654
       207.000         147.000
 128622833.71848 100225560.25448  24476132.6574   24476136.0904   24476132.8954
       211.000         159.000
 09  1  8  1 15  0.0000000  0 10G28G 9G27G26G17G18G15G12G10G 5
 124821776.76348  97263715.33748  23752799.7014   23752801.7424   23752799.7084
       224.000         176.000
 119528963.37448  75347231.66848  20842677.3554   20842680.0884   20842677.2824
       246.000         218.000
 132921951.16748 103575536.13148  25294213.9994   25294217.0904   25294214.4254
       213.000         159.000
 110813281.41348  86347988.81648  21087082.6144   21087085.2944   21087082.4864
       249.000         218.000
 123199620.46148  95999692.14048  23444117.9724   23444119.8554   23444117.9424
       225.000         179.000
 108449826.29948 102298558.76548  22540257.8934   22540258.8974   22540258.5564
       237.000         193.000
 106990339.35448  83369091.21248  20359587.8484   20359589.3684   20359587.6054
       254.000         241.000
 122010905.89148  95073435.47248  23217901.0564   23217902.9484   23217900.6784
       229.000         185.000
 141883409.71348  92766275.50848  25096591.7024   25096594.5714   25096591.8574
       213.000         152.000
 128509490.48348 100137240.87348  24454564.1304   24454568.2234   24454563.6474
       213.000         162.000
 09  1  8  1 15 30.0000000  0 10G28G 9G27G26G17G18G15G12G10G 5
 124908914.33148  97331614.72948  23769381.5184   23769383.1754   23769382.3814
       227.000         176.000
 119474036.27448  75304431.33848  20832225.1954   20832227.8214   20832225.2044
       247.000         218.000
 132993968.55848 103631653.57648  25307918.4804   25307922.2464   25307918.0304
       215.000         165.000
 110877364.91348  86397924.00548  21099277.4444   21099280.0784   21099277.4914
       249.000         218.000
 123164794.94948  95972555.37048  23437491.2594   23437493.1194   23437490.4704
       229.000         182.000
 108409827.86748 102267391.16048  22532645.9514   22532647.7944   22532646.5854
       235.000         193.000
 107003752.53448  83379543.03348  20362140.4264   20362141.8214   20362140.3014
       253.000         241.000
 121907187.34148  94992615.81848  23198164.3304   23198165.4574   23198164.6564
       228.000         184.000
 141993763.65548  92852265.61148  25117592.0184   25117593.7204   25117593.2074
       213.000         150.000
 128396261.68748 100049010.64748  24433016.9544   24433021.6624   24433017.6144
       215.000         164.000
 09  1  8  1 16  0.0000000  0 10G28G 9G27G26G17G18G15G12G10G 5
 124996250.95848  97399669.24548  23786001.0554   23786002.7184   23786002.4074
       222.000         170.000
 119419407.00648  75261863.08348  20821829.5994   20821832.2414   20821829.9444
       246.000         218.000
 133065981.56848 103687767.59348  25321622.1354   25321625.0934   25321622.1684
       219.000         163.000
 110941816.44848  86448145.98748  21111542.1024   21111544.7194   21111542.1384
       248.000         218.000
 123130436.77648  95945782.76848  23430953.1294   23430955.1054   23430953.5044
       227.000         181.000
 108370369.04448 102236644.02448  22525137.2384   22525138.9884   22525137.4144
       237.000         193.000
 107017614.39848  83390344.48148  20364778.2714   20364779.6844   20364778.1054
       253.000         241.000
 121803698.28548  94911975.01448  23178470.8614   23178472.0504   23178470.8974
       228.000         186.000
 142104050.45748  92938203.37348  25138578.6854   25138580.6814   25138578.3364
       207.000         144.000
 128283148.75748  99960870.70348  24411492.8504   24411496.8844   24411493.4524
       216.000         163.000
 09  1  8  1 16 30.0000000  0 10G28G 9G27G26G17G18G15G12G10G 5
 125083785.54148  97467878.01148  23802658.0714   23802659.8294   23802657.6504
       225.000         169.000
 119365076.66848  75219527.75948  20811491.0574   20811493.5114   20811490.7084
       247.000         218.000
 133137991.09648 103743878.90448  25335324.7404   25335328.6444   25335325.5824
       215.000         161.000
 111006636.20748  86498654.89248  21123876.8444   21123879.4644   21123876.5784
       249.000         218.000
 123096548.58048  95919376.39248  23424504.5364   23424505.9754   23424504.3344
       227.000         182.000
 108331452.05248 102206319.10948  22517731.5474   22517733.6854   22517731.8784
       237.000         194.000
 107031926.40348  83401496.68948  20367501.7034   20367503.1774   20367501.3514
       253.000         240.000
 121700441.80548  94831515.43048  23158821.5584   23158823.1454   23158820.7584
       228.000         187.000
 142214268.73548  93024087.71748  25159551.1524   25159554.8324   25159551.6864
       203.000         144.000
 128170154.67448  99872823.36748  24389991.1964   24389994.4344   24389992.1464
       217.000         164.000
 09  1  8  1 17  0.0000000  0 10G28G 9G27G26G17G18G15G12G10G 5
 125171515.34848  97536238.90448  23819352.8574   23819354.1324   23819353.6574
       222.000         168.000
 119311045.52748  75177425.58248  20801208.9584   20801211.6844   20801209.3624
       247.000         218.000
 133209996.88448 103799987.31348  25349027.5084   25349030.7894   25349027.3954
       217.000         157.000
 111071823.31048  86549450.03248  21136281.7934   21136284.1484   21136281.7964
       249.000         218.000
 123063132.00348  95893337.49848  23418145.2314   23418147.3584   23418145.2284
       225.000         184.000
 108293077.62848 102176416.95148  22510429.6184   22510430.8094   22510430.1674
       237.000         195.000
 107046688.58548  83412999.68048  20370310.8124   20370312.2584   20370310.5124
       253.000         240.000
 121597419.60848  94751238.40748  23139217.0704   23139219.1234   23139216.8774
       226.000         188.000
 142324415.66048  93109916.49748  25180511.4334   25180515.7164   25180510.8034
       208.000         149.000
 128057280.93848  99784869.85148  24368512.1634   24368515.2774   24368512.7184
       217.000         164.000
 09  1  8  1 17 30.0000000  0 10G28G 9G27G26G17G18G15G12G10G 5
 125259438.39348  97604750.36848  23836084.0434   23836085.2394   23836083.9624
       225.000         170.000
 119257314.18348  75135556.99548  20790984.4374   20790986.9394   20790984.1624
       247.000         218.000
 133281999.35848 103856093.12148  25362728.5454   25362732.2514   25362728.7034
       211.000         152.000
 111137377.20648  86600530.98348  21148756.1404   21148758.6864   21148756.1134
       248.000         217.000
 123030189.11748  95867667.72748  23411876.5994   23411878.8814   23411875.9924
       228.000         185.000
 108255247.58048 102146938.98448  22503230.6104   22503231.8334   22503231.2014
       238.000         195.000
 107061902.07948  83424854.34348  20373205.8484   20373207.2894   20373205.6684
       253.000         240.000
 121494634.06748  94671145.78448  23119657.3254   23119659.4884   23119656.4374
       228.000         186.000
 142434489.04948  93195687.97648  25201458.6524   25201461.9404   25201459.3634
       212.000         147.000
 127944529.95048  99697011.95448  24347056.4954   24347059.7234   24347057.9514
       216.000         162.000
 09  1  8  1 18  0.0000000  0 10G28G 9G27G26G17G18G15G12G10G 5
 125347551.72348  97673410.08448  23852852.2004   23852853.0214   23852852.8514
       226.000         173.000
 119203882.24848  75093921.72948  20780816.7274   20780819.1464   20780816.9264
       249.000         219.000
 133353997.54548 103912195.63348  25376430.1104   25376433.4044   25376431.2204
       209.000         148.000
 111203296.16148  86651896.39648  21161300.1544   21161302.6264   21161300.0364
       249.000         217.000
 122997721.21448  95842368.08648  23405698.3584   23405700.1944   23405698.3374
       227.000         186.000
 108217962.15948 102117885.41048  22496135.4024   22496136.7534   22496135.9464
       239.000         195.000
 107077566.30648  83437060.22548  20376186.6794   20376188.1664   20376186.4224
       253.000         240.000
 121392086.36248  94591238.48048  23100143.2274   23100145.4054   23100143.7804
       226.000         186.000
 142544485.78248  93281399.70748  25222391.0514   25222393.2874   25222392.7594
       210.000         143.000
 127831902.57948  99609250.41848  24325622.9664   24325627.4064   24325624.1054
       212.000         161.000
 09  1  8  1 18 30.0000000  0 10G28G 9G27G26G17G18G15G12G10G 5
 125435853.69848  97742216.81548  23869655.4144   23869656.3504   23869655.8614
       225.000         172.000
 119150750.97448  75052520.74148  20770706.4194   20770708.9324   20770706.6814
       248.000         220.000
 133425992.35448 103968295.49048  25390130.3974   25390134.1954   25390130.8724
       205.000         141.000
 111269580.36848  86703546.41948  21173913.5904   21173916.0734   21173913.4334
       248.000         217.000
 122965730.63048  95817440.36648  23399610.7544   23399613.0964   23399610.8044
       228.000         186.000
 108181223.24048 102089257.67848  22489144.3674   22489145.8054   22489144.7894
       240.000         196.000
 107093682.33248  83449618.16448  20379253.4554   20379254.9174   20379253.2384
       253.000         240.000
 121289779.38548  94511518.77848  23080674.5184   23080676.8854   23080674.3644
       227.000         186.000
 142654404.58448  93367050.71348  25243306.8064   25243309.2994   25243308.9104
       202.000         137.000
 127719401.65348  99521587.36948  24304214.6894   24304219.1934   24304214.6984
       214.000         163.000
 09  1  8  1 19  0.0000000  0 10G28G 9G27G26G17G18G15G12G10G 5
 125524342.38048  97811169.01548  23886493.7674   23886495.1094   23886494.8194
       225.000         169.000
 119097921.01548  75011354.53848  20760652.9904   20760655.6744   20760653.2124
       249.000         220.000
 133497983.98248 104024392.83448  25403829.5214   25403833.8014   25403830.0574
       201.000         140.000
 111336228.97148  86755480.39348  21186596.4114   21186598.8564   21186596.2654
       249.000         217.000
 122934219.52348  95792886.25148  23393614.1954   23393616.1934   23393614.2934
       229.000         185.000
 108145032.51948 102061057.11348  22482257.6164   22482258.7324   22482258.4454
       239.000         195.000
 107110251.25648  83462529.00248  20382406.3754   20382407.7894   20382406.1984
       253.000         239.000
 121187715.08448  94431988.16948  23061252.9024   23061254.8394   23061253.0094
       228.000         187.000
 142764243.07348  93452639.14148  25264208.9234   25264211.0054   25264208.0494
       204.000         143.000
 127607029.24248  99434024.46148  24282831.1554   24282835.3774   24282830.8074
       221.000         166.000
 09  1  8  1 19 30.0000000  0 10G28G 9G27G26G17G18G15G12G10G 5
 125613014.99648  97880264.56148  23903367.4784   23903368.3774   23903368.2514
       221.000         164.000
 119045392.24748  74970423.03648  20750657.0674   20750659.5664   20750657.5474
       247.000         220.000
 133569971.93748 104080487.31648  25417528.8644   25417532.8344   25417527.9024
       197.000         132.000
 111403240.86648  86807697.45048  21199348.3644   21199350.9374   21199348.3894
       249.000         217.000
 122903188.75748  95768706.45348  23387709.0534   23387711.2624   23387709.0074
       228.000         184.000
 108109390.30648 102033283.94648  22475475.0954   22475476.1524   22475475.4824
       239.000         195.000
 107127272.76448  83475792.50748  20385645.5924   20385646.9264   20385645.4164
       253.000         239.000
 121085895.12348  94352647.93748  23041877.5394   23041878.9904   23041878.0404
       228.000         188.000
 142873998.30448  93538162.66848  25285094.5254   25285097.1884   25285094.4864
       207.000         146.000
 127494786.57248  99346562.67248  24261472.7464   24261476.3994   24261473.7544
       218.000         169.000
 09  1  8  1 20  0.0000000  0 10G28G 9G27G26G17G18G15G12G10G 5
 125701870.46048  97949502.57548  23920276.4534   23920277.1784   23920277.0454
       223.000         164.000
 118993165.77848  74929727.09048  20740718.6654   20740721.3024   20740718.6064
       248.000         220.000
 143641939.18158  94136561.80058  25431226.0255   25431230.5965   25431228.2495
       196.000         131.000
 111470615.94748  86860197.49948  21212169.4364   21212172.0464   21212169.5104
       248.000         217.000
 122872641.35348  95744903.25948  23381895.9854   23381898.7774   23381895.4964
       228.000         184.000
 108074298.63048 102005939.78748  22468797.3314   22468798.3644   22468798.7774
       239.000         195.000
 107144748.18848  83489409.71448  20388970.9194   20388972.4004   20388970.7674
       253.000         239.000
 120984322.44048  94273500.41548  23022548.3164   23022550.5884   23022547.5644
       228.000         189.000
 142983668.89648  93623620.24848  25305963.8444   25305966.7464   25305963.6684
       204.000         142.000
 127382676.63448  99259204.34048  24240138.4984   24240142.5884   24240138.4144
       218.000         166.000
 09  1  8  1 20 30.0000000  0 10G28G 9G27G26G17G18G15G12G10G 5
 125790905.64448  98018880.65548  23937218.9574   23937219.8504   23937220.6684
       222.000         165.000
 118941241.58548  74889266.68548  20730837.8874   20730840.3234   20730838.2464
       248.000         221.000
 143713921.34748  94192651.75048  25444925.6144   25444929.0334   25444923.7874
       191.000         126.000
 111538352.74148  86912979.42248  21225059.3694   21225061.8344   21225059.5204
       248.000         217.000
 122842578.16848  95721477.42048  23376175.4524   23376177.3914   23376175.3054
       229.000         184.000
 108039757.91948 101979024.94148  22462224.5594   22462225.7144   22462224.7034
       239.000         196.000
 107162677.34848  83503380.48148  20392382.7944   20392384.1914   20392382.5354
       253.000         239.000
 120882998.43848  94194546.64748  23003267.3784   23003269.5084   23003267.1214
       230.000         190.000
 143093251.82848  93709009.54148  25326816.1894   25326819.0074   25326815.7564
       201.000         141.000
 127270700.56848  99171950.27848  24218830.4444   24218833.8894   24218832.3234
       218.000         166.000
 09  1  8  1 21  0.0000000  0 10G28G 9G27G26G17G18G15G12G10G 5
 125880118.23848  98088396.95148  23954195.5544   23954196.4054   23954196.3174
       222.000         165.000
 118889619.90948  74849042.00148  20721014.5744   20721017.2084   20721014.2124
       247.000         221.000
 143785899.96648  94248738.97948  25458619.6064   25458624.9014   25458622.1654
       191.000         125.000
 111606450.23648  86966042.40048  21238017.8904   21238020.4654   21238017.6974
       248.000         217.000
 122813000.65748  95698429.99648  23370546.7864   23370549.1884   23370546.3444
       229.000         186.000
 108005769.35348 101952540.34348  22455756.7514   22455758.0444   22455757.5984
       237.000         196.000
 107181060.17048  83517704.75348  20395880.9224   20395882.3494   20395880.6534
       252.000         239.000
 120781924.92748  94115788.08148  22984034.0164   22984035.7494   22984034.4094
       230.000         191.000
 143202744.35148  93794328.38548  25347651.1804   25347655.7144   25347650.7244
       199.000         139.000
 127158859.97248  99084801.74748  24197547.4294   24197551.5744   24197547.8194
       215.000         165.000
 09  1  8  1 21 30.0000000  0  9G28G 9G26G17G18G15G12G10G 5
 125969506.54948  98158050.18748  23971205.6924   23971206.7324   23971205.7094
       220.000         165.000
 118838301.97948  74809054.00048  20711249.1764   20711251.6424   20711249.0974
       249.000         221.000
 111674908.19948  87019386.26548  21251044.8984   21251047.5094   21251044.7394
       248.000         216.000
 122783911.35548  95675763.00048  23365011.6954   23365013.4004   23365011.3074
       230.000         185.000
 107972334.12248 101926486.92048  22449394.1284   22449395.4674   22449394.4424
       237.000         194.000
 107199898.01948  83532383.59048  20399465.5954   20399467.1074   20399465.2144
       253.000         239.000
 120681104.47248  94037226.68748  22964849.0044   22964850.4784   22964849.1094
       231.000         192.000
 143312144.91948  93879575.58348  25368468.9734   25368474.2554   25368468.6494
       200.000         138.000
 127047157.58548  98997760.96748  24176290.6404   24176294.9454   24176291.1774
       219.000         165.000
 09  1  8  1 22  0.0000000  0  9G28G 9G26G17G18G15G12G10G 5
 126059068.76248  98227838.91048  23988248.9084   23988249.9544   23988248.6864
       222.000         165.000
 118787288.07148  74769302.90448  20701541.5804   20701544.1404   20701542.1764
       249.000         221.000
 111743725.99848  87073010.51948  21264140.6244   21264143.0474   21264140.4484
       248.000         216.000
 122755312.08948  95653477.86648  23359569.2134   23359571.1934   23359568.9374
       229.000         185.000
 107939453.80148 101900865.87748  22443137.1064   22443138.3214   22443137.3644
       235.000         193.000
 107219191.58748  83547417.52948  20403137.0874   20403138.6154   20403136.8774
       252.000         239.000
 120580539.19348  93958864.13548  22945711.7804   22945713.4694   22945711.9454
       230.000         191.000
 143421451.22148  93964749.36948  25389269.7794   25389274.0654   25389270.4184
       199.000         137.000
 126935595.44248  98910829.43848  24155062.1964   24155065.0144   24155063.0604
       223.000         168.000
 09  1  8  1 22 30.0000000  0  9G28G 9G26G17G18G15G12G10G 5
 126148802.40948  98297761.22648  24005324.3194   24005325.5894   24005325.0504
       221.000         163.000
 118736578.57148  74729789.00448  20691891.8714   20691894.2964   20691892.2474
       249.000         221.000
 111812902.55448  87126914.32648  21277304.5454   21277306.8764   21277304.5414
       249.000         216.000
 122727204.13148  95631575.57448  23354220.5974   23354222.0804   23354220.1034
       231.000         186.000
 107907128.96048 101875677.69448  22436985.5304   22436987.1334   22436985.8774
       237.000         194.000
 107238941.05548  83562806.71548  20406895.2334   20406896.7994   20406894.9654
       252.000         239.000
 120480231.21948  93880702.08148  22926623.2634   22926625.4254   22926622.8384
       229.000         191.000
 143530660.66448  94049847.66148  25410051.2534   25410056.5814   25410052.3204
       201.000         138.000
 126824175.25048  98824008.56848  24133859.9054   24133862.6344   24133860.4824
       221.000         170.000
 09  1  8  1 23  0.0000000  0  9G28G 9G26G17G18G15G12G10G 5
 126238704.74748  98367814.98848  24022432.3804   24022433.6314   24022433.3774
       221.000         164.000
 118686173.62148  74690512.42248  20682300.0014   20682302.6954   20682299.8354
       249.000         222.000
 111882436.55748  87181096.66548  21290536.3964   21290538.7884   21290536.4324
       247.000         216.000
 122699588.81648  95610057.15648  23348965.3134   23348967.2974   23348965.6284
       230.000         185.000
 107875360.61648 101850923.13548  22430940.5364   22430941.8204   22430941.4584
       237.000         194.000
 107259146.35048  83578551.09448  20410740.3044   20410741.7574   20410740.0684
       252.000         239.000
 120380181.70348  93802741.42448  22907584.3624   22907586.4104   22907584.1064
       230.000         192.000
 143639770.71648  94134868.47248  25430815.6104   25430819.2284   25430815.9434
       204.000         139.000
 126712898.49848  98737299.44248  24112684.8214   24112687.2424   24112685.0994
       221.000         170.000
 09  1  8  1 23 30.0000000  0  9G28G 9G26G17G18G15G12G10G 5
 126328773.65848  98437998.55348  24039571.7684   24039574.0104   24039572.6664
       222.000         164.000
 118636073.25448  74651473.17548  20672766.2934   20672768.6504   20672766.5574
       249.000         221.000
 111952327.00148  87235556.74548  21303836.0364   21303838.6374   21303835.8444
       247.000         216.000
 122672467.65848  95588923.78148  23343804.2914   23343806.1394   23343804.2564
       231.000         187.000
 107844149.76348 101826602.98348  22425001.4644   22425002.7454   22425002.2504
       236.000         193.000
 107279807.33448  83594650.55348  20414671.8764   20414673.3804   20414671.7414
       252.000         238.000
 120280392.72548  93724983.78848  22888595.3344   22888597.4584   22888595.7364
       231.000         193.000
 143748778.93248  94219809.87748  25451559.5504   25451562.7864   25451560.0874
       201.000         140.000
 126601766.88948  98650703.39348  24091536.7594   24091539.6374   24091537.6174
       223.000         170.000
 09  1  8  1 24  0.0000000  0  9G28G 9G26G17G18G15G12G10G 5
 126419006.93248  98508310.18348  24056743.0274   24056744.5574   24056744.5284
       217.000         160.000
 118586278.08048  74612671.74748  20663290.5554   20663293.2944   20663290.6414
       249.000         222.000
 112022573.30648  87290294.10948  21317203.5704   21317206.1424   21317203.5364
       246.000         216.000
 122645842.41148  95568176.84648  23338737.8424   23338740.0674   23338738.1514
       229.000         187.000
 107813496.93448 101802717.65748  22419168.0144   22419169.7224   22419168.6574
       236.000         193.000
 107300924.64848  83611105.59548  20418690.2904   20418691.8574   20418689.9184
       252.000         238.000
 120180866.60448  93647430.98048  22869656.3134   22869658.1654   22869656.3594
       230.000         194.000
 143857682.78348  94304670.03948  25472283.0694   25472285.3024   25472282.8684
       202.000         142.000
 126490782.46048  98564222.05148  24070416.4244   24070420.1654   24070417.1854
       220.000         170.000
 09  1  8  1 24 30.0000000  0  9G28G 9G26G17G18G15G12G10G 5
 126509403.54248  98578749.09048  24073944.9534   24073946.9454   24073945.1764
       216.000         160.000
 118536789.52048  74574109.23148  20653873.2344   20653875.5194   20653873.6854
       249.000         221.000
 112093175.37848  87345308.70948  21330638.6534   21330641.1734   21330638.5634
       246.000         215.000
 122619715.72648  95547818.39848  23333766.0074   23333768.0434   23333766.1554
       231.000         187.000
 107783404.35148 101779268.88048  22413441.8394   22413443.2344   22413442.1024
       236.000         194.000
 107322499.93248  83627917.49548  20422795.9764   20422797.5134   20422795.7094
       252.000         238.000
 120081605.96148  93570085.04648  22850767.5114   22850769.6054   22850767.0274
       232.000         193.000
 143966481.36648  94389448.15948  25492985.5604   25492990.6904   25492985.2734
       198.000         139.000
 126379948.14748  98477857.65948  24049325.1274   24049329.2524   24049325.4774
       222.000         171.000
 09  1  8  1 25  0.0000000  0  9G28G 9G26G17G18G15G12G10G 5
 126599960.89648  98649313.23948  24091177.1194   24091179.0064   24091177.3344
       218.000         158.000
 118487607.86748  74535785.87248  20644514.4134   20644516.6314   20644515.0494
       250.000         222.000
 112164132.13248  87400599.68448  21344141.2754   21344143.6084   21344141.1144
       247.000         215.000
 122594088.67148  95527849.26148  23328889.5124   23328891.3364   23328889.3264
       231.000         189.000
 107753872.39348 101756256.96848  22407822.1974   22407823.3204   22407822.9244
       236.000         194.000
 107344533.03748  83645086.14048  20426988.7624   20426990.3084   20426988.5024
       252.000         238.000
 119982612.80548  93492947.53448  22831929.8224   22831931.8624   22831929.9284
       232.000         194.000
 144075172.01348  94474142.18148  25513668.1914   25513673.2754   25513668.7574
       199.000         135.000
 126269265.55548  98391611.48048  24028263.1204   24028267.1884   24028263.4164
       220.000         172.000
 09  1  8  1 25 30.0000000  0  9G28G 9G26G17G18G15G12G10G 5
 126690676.02048  98720000.33448  24108439.6254   24108441.3564   24108441.9264
       220.000         160.000
 118438732.77048  74497701.38948  20635213.5914   20635215.9464   20635214.0824
       249.000         222.000
 112235441.74248  87456165.60848  21357711.1114   21357713.5354   21357711.0604
       246.000         215.000
 122568961.87848  95508269.94048  23324108.1404   23324109.9694   23324108.3694
       232.000         189.000
 107724901.17148 101733681.98548  22402308.9314   22402310.6154   22402309.3954
       235.000         194.000
 107367023.28548  83662610.99848  20431268.5204   20431270.0414   20431268.2724
       252.000         237.000
 119883887.90348  93416019.05048  22813143.2094   22813145.0974   22813143.2614
       234.000         194.000
 144183751.65148  94558749.67348  25534330.8984   25534336.3804   25534331.9524
       201.000         138.000
 126158735.62948  98305484.29848  24007230.2604   24007234.0514   24007231.0424
       220.000         171.000
 09  1  8  1 26  0.0000000  0  9G28G 9G26G17G18G15G12G10G 5
 126781545.70648  98790807.86048  24125731.4344   24125733.5684   24125733.3924
       218.000         159.000
 118390163.41748  74459855.14548  20625971.2414   20625973.6394   20625971.2234
       249.000         222.000
 112307102.02548  87512004.78148  21371347.3464   21371350.0954   21371347.4144
       245.000         215.000
 122544335.90948  95489080.88948  23319421.7004   23319423.7294   23319421.8394
       232.000         189.000
 107696490.82248 101711544.05648  22396902.4924   22396904.2204   22396903.1014
       236.000         194.000
 107389969.92248  83680491.48548  20435635.0504   20435636.6464   20435634.8084
       252.000         237.000
 119785432.40148  93339300.47048  22794407.7384   22794409.1934   22794407.6034
       232.000         192.000
 144292216.31648  94643267.58948  25554971.7614   25554974.7544   25554972.5314
       203.000         135.000
 126048359.24648  98219476.75948  23986225.9764   23986229.7984   23986227.0734
       220.000         171.000
 09  1  8  1 26 30.0000000  0  9G28G 9G26G17G18G15G12G10G 5
 126872569.99248  98861735.89648  24143052.4884   24143054.7694   24143051.8914
       217.000         160.000
 118341902.14648  74422248.96048  20616787.4104   20616789.9004   20616787.6644
       249.000         222.000
 112379114.50048  87568118.38448  21385050.9334   21385053.7114   21385050.7284
       246.000         214.000
 122520214.58848  95470285.05448  23314831.6124   23314833.2924   23314830.8624
       232.000         189.000
 107668643.76848 101689845.04848  22391603.6094   22391605.3894   22391604.0444
       237.000         195.000
 107413375.30048  83698729.43348  20440088.9894   20440090.5054   20440088.7394
       252.000         237.000
 119687250.19348  93262794.87048  22775723.6624   22775726.0694   22775723.6244
       233.000         194.000
 144400566.29948  94727696.14648  25575591.6874   25575593.9874   25575592.4204
       204.000         138.000
 125938140.42848  98133591.97748  23965252.1314   23965255.4744   23965253.2484
       223.000         172.000
 09  1  8  1 27  0.0000000  0  9G28G 9G26G17G18G15G22G12G 5
 126963747.25748  98932783.08148  24160403.1304   24160405.1564   24160402.9784
       218.000         159.000
 118293949.96348  74384883.62648  20607662.3294   20607664.8614   20607662.3984
       249.000         223.000
 112451478.57348  87624505.97048  21398821.3064   21398823.8664   21398821.2334
       245.000         214.000
 122496599.78948  95451883.90648  23310338.2184   23310339.7034   23310337.8684
       232.000         189.000
 107641361.87848 101668586.43348  22386412.0664   22386413.6184   22386412.9314
       238.000         195.000
 107437240.45348  83717325.65248  20444630.5164   20444631.8544   20444630.3354
       252.000         237.000
 138025284.96758  89759955.71258  24362406.7965   24362408.3555   24362406.0245
       216.000         166.000
 119589343.69848  93186504.10848  22757092.7884   22757095.1674   22757092.8044
       232.000         195.000
 125828081.57648  98047831.83048  23944309.2584   23944312.1474   23944309.6374
       221.000         172.000
 09  1  8  1 27 30.0000000  0  9G28G 9G26G17G18G15G22G12G 5
 127055075.28648  99003947.79048  24177782.4134   24177784.7954   24177783.4924
       213.000         157.000
 118246307.61648  74347759.72348  20598596.5534   20598598.9244   20598596.7144
       249.000         223.000
 112524193.47748  87681166.92648  21412658.5294   21412661.1974   21412658.4184
       245.000         214.000
 122473492.86748  95433878.52148  23305941.1314   23305942.4974   23305940.8114
       231.000         189.000
 107614645.89148 101647768.78048  22381328.2764   22381329.6114   22381328.9294
       237.000         195.000
 107461565.62148  83736280.32348  20449259.3894   20449260.8914   20449259.0454
       252.000         237.000
 137953083.65048  89703694.87448  24348668.0704   24348669.0574   24348667.8764
       221.000         167.000
 119491715.03448  93110429.85648  22738514.5544   22738516.7674   22738514.3254
       232.000         194.000
 125718184.64348  97962197.87448  23923395.7534   23923399.5404   23923396.3634
       217.000         172.000
 09  1  8  1 28  0.0000000  0  9G28G 9G26G17G18G15G22G12G 5
 127146551.53548  99075227.95348  24195189.4724   24195191.9254   24195189.6394
       217.000         156.000
 118198975.31348  74310877.40548  20589589.2724   20589591.8834   20589589.4554
       249.000         223.000
 112597257.71348  87738100.09648  21426562.2704   21426564.9344   21426562.1764
       245.000         214.000
 122450895.01648  95416269.81348  23301640.4234   23301642.2464   23301640.0584
       230.000         188.000
 107588496.01448 101627392.24248  22376352.0094   22376353.4074   22376352.3884
       237.000         195.000
 107486350.46448  83755593.17648  20453975.8194   20453977.4024   20453975.5874
       252.000         237.000
 137881270.23848  89647736.40548  24335002.5824   24335002.4374   24335002.5124
       218.000         169.000
 119394365.74648  93034573.26848  22719989.8804   22719991.3974   22719989.8634
       233.000         194.000
 125608451.13148  97876691.25548  23902514.1744   23902518.2384   23902514.2104
       219.000         173.000
 09  1  8  1 28 30.0000000  0  9G28G 9G26G17G18G15G22G12G 5
 127238173.17948  99146621.42348  24212625.5874   24212626.8204   24212627.9484
       215.000         157.000
 118151952.06748  74274235.92148  20580640.9044   20580643.5194   20580641.3134
       249.000         223.000
 112670669.42248  87795304.02148  21440532.0434   21440534.6854   21440532.0474
       245.000         214.000
 122428806.69048  95399058.13148  23297437.1564   23297439.0124   23297436.3584
       230.000         189.000
 107562912.20348 101607456.79948  22371483.3844   22371484.7034   22371484.2594
       237.000         194.000
 107511594.27548  83775263.67148  20458779.5664   20458781.1924   20458779.3204
       251.000         237.000
 137809845.82348  89592081.00648  24321410.6484   24321411.4034   24321411.0114
       214.000         165.000
 119297296.80248  92958935.13748  22701518.3554   22701519.6894   22701518.2824
       234.000         194.000
 125498881.88748  97791312.64248  23881664.1274   23881668.0814   23881664.4144
       221.000         176.000
 09  1  8  1 29  0.0000000  0  9G28G 9G26G17G18G15G22G12G 5
 127329938.07548  99218126.51548  24230087.4184   24230089.3294   24230087.6874
       218.000         157.000
 118105238.83048  74237835.99848  20571751.7454   20571754.4194   20571752.0454
       248.000         223.000
 112744428.03348  87852778.25848  21454567.8664   21454570.4454   21454567.6874
       245.000         214.000
 122407229.73548  95382244.90148  23293331.3194   23293333.0704   23293331.2284
       232.000         190.000
 107537895.53448 101587963.28948  22366723.0884   22366724.2944   22366723.7864
       237.000         196.000
 107537297.85948  83795292.43048  20463670.7734   20463672.3554   20463670.5714
       251.000         237.000
 137738813.29048  89536731.03548  24307893.8374   24307894.6574   24307893.3474
       223.000         176.000
 119200510.37948  92883517.15448  22683100.5234   22683101.8714   22683100.4164
       234.000         195.000
 125389479.13848  97706063.74748  23860845.5854   23860849.6104   23860846.0534
       224.000         177.000
 09  1  8  1 29 30.0000000  0  9G28G 9G26G17G18G15G22G12G 5
 127421844.47148  99289741.89448  24247576.6014   24247578.0804   24247577.9114
       218.000         155.000
 118058836.28148  74201678.17748  20562921.5654   20562924.2594   20562921.8604
       248.000         223.000
 112818532.80048  87910522.22848  21468669.4324   21468672.1954   21468669.3364
       245.000         213.000
 122386165.43048  95365831.16048  23289323.2144   23289324.4624   23289323.2894
       233.000         190.000
 107513447.14848 101568912.58848  22362070.5564   22362072.0024   22362070.8474
       238.000         195.000
 107563461.44048  83815679.62948  20468649.4774   20468651.0464   20468649.2694
       252.000         237.000
 137668174.60348  89481687.92548  24294452.1334   24294452.1234   24294452.5354
       224.000         169.000
 119104008.69548  92808321.04448  22664737.0634   22664738.2084   22664737.0074
       233.000         196.000
 125280245.03048  97620946.26548  23840058.8514   23840062.8254   23840059.4654
       221.000         175.000
 09  1  8  1 30  0.0000000  0  9G28G 9G26G17G18G15G22G12G 5
 127513890.26248  99361465.87848  24265092.5254   24265093.2494   24265093.0294
       217.000         156.000
 118012744.47148  74165762.48648  20554150.5924   20554153.2684   20554150.7024
       249.000         223.000
 112892982.39248  87968534.88448  21482836.7684   21482839.5384   21482836.7104
       244.000         213.000
 122365615.38748  95349818.14148  23285412.2854   23285414.1354   23285412.7254
       232.000         191.000
 107489566.92048 101550304.61348  22357526.5164   22357527.7024   22357527.3414
       238.000         195.000
 107590085.07948  83836425.31448  20473715.9154   20473717.4104   20473715.8004
       252.000         237.000
 137597931.63548  89426953.14548  24281084.7754   24281084.4694   24281085.5184
       219.000         168.000
 119007793.40048  92733348.10348  22646427.4164   22646428.9594   22646427.2144
       235.000         196.000
 125171181.21648  97535961.50148  23819304.4194   23819308.6824   23819304.4394
       223.000         175.000
 09  1  8  1 30 30.0000000  0  9G28G 9G26G17G18G15G22G12G 5
 127606073.60248  99433297.02348  24282633.7634   24282635.3124   24282633.6414
       215.000         154.000
 117966964.22748  74130089.56748  20545438.9934   20545441.5974   20545439.1294
       249.000         224.000
 112967776.45348  88026815.96248  21497069.5974   21497072.5454   21497069.4444
       244.000         213.000
 122345580.95148  95334206.90148  23281600.1944   23281601.7724   23281600.0194
       232.000         192.000
 107466256.49848 101532140.64248  22353090.5304   22353091.8314   22353091.0294
       236.000         195.000
 107617169.36948  83857529.94948  20478869.8374   20478871.4074   20478869.5254
       251.000         237.000
 137528087.21748  89372528.85548  24267793.8424   24267794.1284   24267792.0484
       218.000         167.000
 118911866.85348  92658600.16248  22628173.2664   22628174.7284   22628173.5154
       234.000         196.000
 125062289.97548  97451111.18648  23798583.8514   23798587.3564   23798585.0044
       220.000         176.000
 09  1  8  1 31  0.0000000  0  9G28G 9G26G17G18G15G22G12G 5
 127698392.37848  99505233.71148  24300201.9964   24300203.1284   24300203.3824
       214.000         154.000
 117921496.21548  74094659.95048  20536786.6884   20536789.3404   20536786.7984
       249.000         223.000
 113042913.85948  88085364.57448  21511367.6874   21511370.4504   21511367.7054
       245.000         212.000
 122326063.87948  95318998.79548  23277886.0814   23277887.8374   23277886.2794
       232.000         191.000
 107443516.46948 101514421.13648  22348763.2414   22348764.7814   22348763.7894
       237.000         195.000
 107644714.50548  83878993.67948  20484111.5554   20484113.0184   20484111.3494
       252.000         236.000
 137458643.11348  89318416.56148  24254578.8094   24254579.8744   24254580.0764
       223.000         167.000
 118816231.11848  92584078.81448  22609974.3014   22609975.8294   22609974.0144
       235.000         197.000
 124953573.25048  97366396.89248  23777895.3774   23777898.9864   23777895.0934
       223.000         176.000
 09  1  8  1 31 30.0000000  0  9G28G 9G26G17G18G15G22G12G 5
 127790843.41548  99577273.49248  24317794.6454   24317795.7744   24317796.1214
       213.000         151.000
 117876339.72148  74059473.07448  20528193.6894   20528196.1524   20528194.1394
       249.000         224.000
 113118392.60448  88144179.16748  21525730.9594   21525733.5274   21525731.0404
       245.000         212.000
 122307064.26448  95304193.90148  23274270.8224   23274272.3074   23274270.7394
       234.000         192.000
 107421346.51548 101497145.84048  22344544.3904   22344545.6984   22344544.9484
       237.000         195.000
 107672719.42448  83900815.68648  20489440.6204   20489442.1124   20489440.2904
       251.000         236.000
 137389600.57648  89264617.18748  24241441.0014   24241441.0194   24241441.5524
       217.000         166.000
 118720887.02448  92509784.72848  22591831.0974   22591832.6924   22591830.9114
       235.000         198.000
 124845031.82448  97281819.15948  23757240.6064   23757243.7854   23757242.9404
       223.000         176.000
 09  1  8  1 32  0.0000000  0  9G28G 9G26G17G18G15G22G12G 5
 127883425.53148  99649415.40748  24335411.6404   24335413.6434   24335411.8714
       214.000         152.000
 117831495.92148  74024529.85848  20519660.3144   20519662.7454   20519660.5194
       249.000         224.000
 113194212.41448  88203259.53348  21540159.0994   21540161.4154   21540159.0074
       244.000         212.000
 122288584.01948  95289793.73248  23270753.8664   23270755.7134   23270753.8534
       234.000         192.000
 107399747.90248 101480315.74448  22340434.5564   22340435.8174   22340435.4354
       237.000         196.000
 107701184.98348  83922996.63748  20494857.4004   20494858.8744   20494857.0524
       252.000         236.000
 137320962.33648  89211132.83948  24228378.6334   24228379.6374   24228378.5254
       216.000         166.000
 118625836.89148  92435719.69948  22573743.8674   22573745.3914   22573743.8344
       234.000         198.000
 124736668.31848  97197380.08148  23736620.0894   23736623.1334   23736620.5854
       225.000         177.000
 09  1  8  1 32 30.0000000  0  9G28G 9G26G17G18G15G22G12G 5
 127976136.66648  99721657.85648  24353054.0774   24353055.9044   24353055.7884
       211.000         149.000
 117786965.40948  73989830.76348  20511186.4904   20511188.8334   20511186.7364
       250.000         224.000
 113270372.49648  88262605.04748  21554651.9184   21554654.2964   21554651.9894
       245.000         212.000
 122270624.82748  95275799.56348  23267336.2234   23267337.8534   23267335.8664
       231.000         191.000
 107378721.43348 101463931.47848  22336433.5434   22336434.8264   22336433.7854
       237.000         196.000
 107730111.89848  83945537.08148  20500362.0564   20500363.5794   20500361.7794
       251.000         236.000
 137252730.58648  89157965.23748  24215394.5674   24215396.4194   24215396.9364
       216.000         169.000
 118531083.10548  92361885.58748  22555712.5234   22555714.1514   22555712.6464
       235.000         197.000
 124628484.79848  97113081.26348  23716032.7814   23716036.4184   23716033.7944
       224.000         178.000
 09  1  8  1 33  0.0000000  0  9G28G 9G26G17G18G15G22G12G 5
 128068975.18348  99793999.52748  24370720.7424   24370722.9334   24370720.8374
       211.000         153.000
 117742748.73748  73955376.21548  20502772.2334   20502774.6824   20502772.5584
       249.000         224.000
 113346872.13648  88322215.15148  21569209.4074   21569211.8384   21569209.4114
       245.000         212.000
 122253188.23948  95262212.62748  23264018.2654   23264019.8914   23264018.2234
       234.000         192.000
 107358267.98848 101447993.72348  22332541.2274   22332542.5084   22332542.2814
       237.000         196.000
 107759500.43248  83968437.22948  20505954.5964   20505956.1874   20505954.3404
       251.000         236.000
 137184907.88448  89105116.39548  24202488.3324   24202490.1854   24202487.8514
       217.000         170.000
 118436627.62648  92288283.92248  22537738.1384   22537739.9284   22537737.9764
       235.000         198.000
 124520483.41448  97028924.36548  23695481.1144   23695484.5414   23695481.3774
       224.000         176.000
 09  1  8  1 33 30.0000000  0  9G28G 9G26G17G18G15G22G12G 5
 128161938.92748  99866438.80248  24388411.5734   24388413.6724   24388411.9744
       213.000         153.000
 117698846.57648  73921166.74348  20494418.0264   20494420.3034   20494418.4014
       249.000         224.000
 113423710.34348  88382089.07448  21583831.0834   21583833.7734   21583831.0804
       244.000         212.000
 122236275.16148  95249033.59348  23260799.7884   23260801.7794   23260800.1244
       232.000         192.000
 107338388.08248 101432502.87548  22328758.0544   22328759.5424   22328758.4954
       236.000         195.000
 107789350.54748  83991697.05148  20511634.8584   20511636.4414   20511634.5124
       252.000         236.000
 137117496.18748  89052587.81048  24189661.1654   24189661.4814   24189660.4724
       221.000         170.000
 118342472.72848  92214916.48048  22519820.8514   22519822.8324   22519820.8384
       235.000         199.000
 124412666.08448  96944910.86348  23674963.7634   23674967.2174   23674964.5314
       223.000         175.000
 09  1  8  1 34  0.0000000  0  9G28G 9G26G17G18G15G22G12G 5
 128255025.19848  99938973.53348  24406125.1284   24406127.4404   24406124.3244
       212.000         154.000
 117655258.77048  73887202.22448  20486123.3174   20486125.9264   20486123.5554
       249.000         224.000
 113500885.40548  88442225.47248  21598516.8654   21598519.5844   21598516.7034
       243.000         211.000
 122219885.99248  95236262.82548  23257681.0134   23257682.7044   23257680.7674
       232.000         191.000
 107319081.37648 101417458.68748  22325084.0614   22325085.6284   22325085.0684
       235.000         195.000
 107819661.54948  84015316.00548  20517402.7944   20517404.4654   20517402.6374
       251.000         236.000
 137050496.62548  89000380.41248  24176911.7964   24176911.6794   24176912.7804
       222.000         170.000
 118248619.08548  92141783.77548  22501961.2254   22501962.9404   22501961.0624
       235.000         199.000
 124305033.97548  96861041.68448  23654481.9934   23654485.3644   23654481.8174
       224.000         176.000
 09  1  8  1 34 30.0000000  0  9G28G 9G26G17G18G15G22G12G 5
 128348232.11348 100011602.28248  24423862.3194   24423864.3334   24423863.0734
       214.000         155.000
 117611985.93348  73853483.14248  20477888.6764   20477891.3604   20477888.9304
       249.000         224.000
 113578396.12648  88502623.43248  21613266.7764   21613269.3784   21613266.5774
       244.000         211.000
 122204022.73348  95223901.85248  23254662.3134   23254663.9974   23254662.2704
       233.000         193.000
 107300348.33848 101402861.51348  22321519.1064   22321520.5024   22321519.4924
       236.000         194.000
 107850433.69848  84039294.29848  20523258.4924   20523260.1324   20523258.2664
       251.000         236.000
 136983911.84248  88948496.11948  24164241.0994   24164241.4374   24164240.7674
       225.000         171.000
 118155068.72948  92068887.41748  22484159.1154   22484161.1974   22484158.9724
       235.000         199.000
 124197588.86948  96777318.24248  23634036.1544   23634039.6124   23634037.9914
       225.000         177.000
 09  1  8  1 35  0.0000000  0  9G28G 9G26G17G18G15G22G12G 5
 128441557.17248 100084323.09948  24441621.2704   24441623.2534   24441621.2234
       212.000         156.000
 117569027.98548  73820009.41448  20469714.2104   20469716.6564   20469714.2434
       249.000         224.000
 113656241.30948  88563282.00948  21628080.2804   21628082.8894   21628080.2324
       244.000         211.000
 122188685.76748  95211950.97348  23251744.0464   23251745.6514   23251743.9414
       233.000         193.000
 107282189.66948 101388711.89448  22318063.6664   22318065.0194   22318063.9854
       237.000         194.000
 107881666.77948  84063631.75648  20529201.9724   20529203.6544   20529201.5534
       251.000         236.000
 136917743.17148  88896936.10048  24151650.4114   24151649.1204   24151651.6374
       222.000         169.000
 118061823.24548  91996228.60548  22466414.9394   22466416.8284   22466414.5914
       236.000         199.000
 124090332.40548  96693741.77348  23613626.1344   23613629.6924   23613626.3014
       225.000         180.000
 09  1  8  1 35 30.0000000  0  9G28G 9G26G17G18G15G22G12G 5
 128534999.06248 100157134.95648  24459402.8764   24459404.3744   24459402.6214
       212.000         154.000
 117526386.13448  73786782.00048  20461599.6384   20461602.2884   20461599.8254
       250.000         225.000
 113734420.48548  88624200.84548  21642957.1804   21642959.8794   21642956.9234
       244.000         211.000
 122173876.86948  95200411.56848  23248925.6574   23248927.4584   23248925.1574
       234.000         193.000
 107264606.22648 101375010.50348  22314717.6074   22314719.0564   22314718.6624
       236.000         195.000
 107913361.38848  84088328.84248  20535233.3944   20535234.9984   20535233.2244
       251.000         235.000
 136851993.27748  88845702.45148  24139137.2294   24139136.7974   24139137.8274
       217.000         164.000
 117968885.16048  91923809.32148  22448729.6924   22448731.3224   22448729.7184
       236.000         199.000
 123983267.01948  96610314.22948  23593252.1844   23593255.5184   23593253.4344
       227.000         179.000
 09  1  8  1 36  0.0000000  0  9G28G 9G26G17G18G15G22G12G 5
 128628555.51848 100230036.07448  24477206.5304   24477207.6214   24477206.0114
       212.000         153.000
 117484060.26048  73753800.80548  20453545.5274   20453547.9894   20453545.8694
       249.000         225.000
 113812932.40348  88685378.95548  21657897.5384   21657900.2254   21657897.5224
       244.000         211.000
 122159596.77848  95189284.24648  23246208.6734   23246210.0234   23246208.6574
       233.000         193.000
 107247598.04348 101361757.37148  22311481.1484   22311482.4844   22311481.7764
       236.000         195.000
 107945517.55248  84113385.58648  20541352.5134   20541354.0044   20541352.3424
       251.000         235.000
 136786663.85848  88794796.41748  24126705.0344   24126705.6374   24126705.5754
       218.000         165.000
 117876256.00748  91851630.76548  22431103.0874   22431104.6984   22431103.1314
       238.000         202.000
 123876394.34348  96527036.81648  23572915.3364   23572918.0014   23572915.6874
       227.000         180.000
 09  1  8  1 36 30.0000000  0  9G28G 9G26G17G18G15G22G12G 5
 128722224.32548 100303024.73948  24495031.7364   24495032.2104   24495032.3164
       214.000         153.000
 117442050.83948  73721066.18948  20445551.2114   20445553.8954   20445551.0974
       250.000         225.000
 113891775.73448  88746815.30848  21672900.9354   21672903.7274   21672900.7324
       243.000         210.000
 122145846.86148  95178570.03548  23243591.8664   23243593.7304   23243591.9214
       233.000         195.000
 107231165.68648 101348952.93548  22308354.0864   22308355.9774   22308354.6744
       236.000         197.000
 107978134.90648  84138801.69848  20547559.2334   20547560.8054   20547558.8804
       250.000         234.000
 136721756.72848  88744219.42848  24114354.3824   24114354.4154   24114355.5284
       217.000         167.000
 117783937.50848  91779694.28148  22413535.5174   22413537.5534   22413535.3984
       238.000         204.000
 123769716.13848  96443910.96748  23552614.9474   23552618.3264   23552615.3944
       225.000         181.000
 09  1  8  1 37  0.0000000  0  9G28G 9G26G17G18G15G22G12G 5
 128816003.68548 100376099.54848  24512876.4604   24512877.6934   24512877.1024
       214.000         151.000
 117400358.43148  73688578.60348  20437617.5014   20437619.9764   20437617.5894
       249.000         225.000
 113970949.54248  88808509.17448  21687967.2304   21687969.9744   21687967.3364
       243.000         210.000
 122132628.06748  95168269.69848  23241076.6524   23241078.3114   23241076.6994
       233.000         195.000
 107215309.27748 101336597.28548  22305336.8424   22305338.6684   22305337.5834
       237.000         197.000
 108011213.63148  84164577.31848  20553853.7584   20553855.3714   20553853.4224
       250.000         234.000
 136657274.15748  88693973.26348  24102083.3894   24102084.7034   24102082.8844
       219.000         167.000
 117691931.60948  91708001.38248  22396027.4424   22396029.4284   22396027.4494
       238.000         204.000
 123663234.35948  96360938.15848  23532352.1384   23532355.3304   23532352.7514
       226.000         181.000
 09  1  8  1 37 30.0000000  0  9G28G 9G26G17G18G15G22G12G 5
 128909891.57348 100449258.94848  24530743.3144   24530743.7894   24530743.3424
       216.000         151.000
 117358983.52648  73656338.42048  20429743.9864   20429746.5974   20429744.1044
       249.000         225.000
 114050452.94848  88870459.87348  21703096.2094   21703098.8924   21703095.8864
       243.000         209.000
 122119941.70548  95158384.22548  23238662.3994   23238664.1144   23238662.5244
       234.000         195.000
 107200029.68348 101324691.10848  22302429.0964   22302430.9104   22302429.6124
       236.000         197.000
 108044753.90248  84190712.58448  20560236.4074   20560238.0154   20560236.2194
       250.000         234.000
 136593218.18148  88644059.49248  24089893.4674   24089894.7614   24089895.6974
       219.000         168.000
 117600240.02548  91636553.41948  22378578.9314   22378581.1774   22378578.9754
       237.000         203.000
 123556950.80348  96278119.81948  23512126.9124   23512130.4894   23512127.7814
       226.000         182.000
 09  1  8  1 38  0.0000000  0  9G28G 9G26G17G18G15G22G12G 5
 129003885.87748 100522501.26648  24548629.9774   24548629.5584   24548631.2764
       211.000         151.000
 117317926.10448  73624345.62448  20421931.0444   20421933.6264   20421931.4424
       249.000         225.000
 114130284.34748  88932666.15448  21718287.5924   21718290.3414   21718287.2094
       243.000         209.000
 122107788.21748  95148913.98348  23236349.7414   23236351.3844   23236349.5584
       233.000         195.000
 107185326.60848 101313234.16548  22299631.2814   22299633.4374   22299631.8884
       236.000         198.000
 108078755.02548  84217206.95648  20566706.6734   20566708.2354   20566706.4604
       250.000         234.000
 136529590.16348  88594479.28748  24077786.2684   24077786.7024   24077786.9494
       221.000         173.000
 117508864.34248  91565351.60448  22361190.6054   22361192.7914   22361190.6504
       238.000         204.000
 123450866.99948  96195457.11548  23491939.8784   23491943.6004   23491940.3034
       225.000         182.000
 09  1  8  1 38 30.0000000  0  9G28G 9G26G17G18G15G22G12G 5
 129097985.32548 100595825.47548  24566535.7144   24566536.1924   24566535.9854
       210.000         149.000
 117277187.74548  73592601.45148  20414178.8644   20414181.4094   20414179.0324
       250.000         226.000
 114210443.80948  88995128.06448  21733541.3344   21733544.1584   21733541.3404
       242.000         209.000
 122096169.61248  95139860.53648  23234138.4614   23234140.2674   23234138.3644
       233.000         193.000
 107171201.46848 101302227.55948  22296943.3194   22296945.5854   22296943.8994
       237.000         197.000
 108113217.94348  84244061.17548  20573264.7484   20573266.3364   20573264.5384
       250.000         234.000
 136466393.44348  88545235.07848  24065760.7954   24065760.5314   24065759.8054
       218.000         169.000
 117417807.54848  91494398.27248  22343863.4444   22343865.2564   22343863.2674
       241.000         206.000
 123344985.86248  96112952.34948  23471791.3834   23471794.8534   23471791.8224
       227.000         182.000
 09  1  8  1 39  0.0000000  0  9G28G 9G26G17G18G15G22G12G 5
 129192187.03748 100669229.40548  24584461.5474   24584461.8424   24584463.7494
       210.000         148.000
 117236767.85748  73561105.44348  20406487.2404   20406489.7874   20406487.3584
       250.000         226.000
 114290929.23548  89057843.97648  21748857.2954   21748859.8694   21748857.1914
       242.000         208.000
 122085086.33948  95131224.23148  23232029.4344   23232030.9714   23232029.2994
       233.000         193.000
 107157653.52348 101291670.71748  22294365.3264   22294367.3734   22294366.0334
       236.000         197.000
 108148141.94648  84271274.68048  20579910.5304   20579912.1484   20579910.0674
       251.000         234.000
 136403628.91948  88496327.64648  24053816.5444   24053817.0714   24053816.5364
       218.000         169.000
 117327069.92148  91423693.62748  22326597.0524   22326598.2794   22326597.0844
       241.000         206.000
 123239308.32848  96030606.23348  23451681.4244   23451684.9544   23451682.7974
       226.000         180.000
 09  1  8  1 39 30.0000000  0  9G28G 9G26G17G18G15G22G12G 5
 129286489.32248 100742711.68048  24602406.9314   24602407.7844   24602408.1314
       208.000         150.000
 117196667.41648  73529858.34948  20398856.3494   20398858.9524   20398856.8714
       249.000         225.000
 114371739.66048  89120813.13348  21764235.2304   21764237.6504   21764235.1024
       242.000         209.000
 122074539.54548  95123005.93748  23230022.8174   23230024.3224   23230022.4614
       235.000         194.000
 107144683.32848 101281564.05548  22291897.3954   22291899.0244   22291897.8144
       237.000         197.000
 108183527.48548  84298847.81648  20586644.2514   20586645.9034   20586643.9994
       250.000         234.000
 136341298.69748  88447758.67248  24041955.5084   24041956.1884   24041955.9234
       224.000         175.000
 117236653.90148  91353239.58848  22309391.3344   22309392.7104   22309391.1184
       240.000         205.000
 123133836.38148  95948420.30748  23431610.3764   23431614.2284   23431610.7194
       226.000         180.000
 09  1  8  1 40  0.0000000  0  9G28G 9G26G17G18G15G22G12G 5
 129380889.67148 100816270.35348  24620370.2084   24620371.9814   24620372.9724
       207.000         150.000
 117156886.06848  73498859.90448  20391286.1704   20391288.6724   20391286.2954
       250.000         226.000
 114452873.52548  89184034.31648  21779674.4234   21779676.9834   21779674.3494
       243.000         208.000
 122064529.25848  95115205.72848  23228117.9564   23228119.2334   23228117.6724
       233.000         194.000
 107132290.51548 101271907.32848  22289539.1424   22289540.8374   22289539.6524
       238.000         197.000
 108219373.68448  84326779.91348  20593465.4914   20593467.3374   20593465.3054
       250.000         234.000
 136279404.55848  88399529.48848  24030178.1474   24030177.6284   24030178.5484
       223.000         173.000
 117146560.89148  91283037.26548  22292246.8264   22292248.3254   22292246.8224
       239.000         204.000
 123028571.29948  95866395.57048  23411579.3664   23411582.6134   23411579.9844
       225.000         180.000
 09  1  8  1 40 30.0000000  0  9G28G 9G26G17G18G15G22G12G 5
 129475387.09748 100889904.70148  24638353.1134   24638354.0024   24638354.0494
       211.000         153.000
 117117425.22548  73468111.20448  20383777.0814   20383779.5064   20383777.0754
       250.000         226.000
 114534330.65248  89247507.40448  21795175.0504   21795177.7724   21795174.8894
       242.000         207.000
 122055057.48148  95107825.13448  23226315.0414   23226316.8494   23226315.0894
       233.000         195.000
 107120476.60048 101262701.67748  22287291.0044   22287292.5604   22287291.8084
       237.000         197.000
 108255681.51548  84355071.72548  20600374.5104   20600376.4574   20600374.1664
       250.000         234.000
 136217948.69348  88351641.82348  24018482.4564   24018482.9884   24018482.3564
       221.000         168.000
 117056793.36848  91213088.57648  22275164.4114   22275165.9154   22275164.3964
       239.000         205.000
 122923515.84848  95784534.18948  23391587.7804   23391591.3144   23391588.7994
       227.000         182.000
 09  1  8  1 41  0.0000000  0  9G28G 9G26G17G18G15G22G12G 5
 129569979.18248 100963612.80148  24656353.3914   24656354.9464   24656356.0174
       209.000         152.000
 117078284.78148  73437612.15748  20376328.9884   20376331.3334   20376329.0554
       251.000         226.000
 114616109.20348  89311230.94048  21810737.1304   21810739.7374   21810736.9354
       243.000         208.000
 122046124.74048  95100864.57248  23224615.5074   23224617.0284   23224615.6514
       233.000         194.000
 107109240.86448 101253946.54248  22285152.8004   22285154.5234   22285152.9944
       237.000         197.000
 108292449.71548  84383722.26248  20607371.3064   20607373.2084   20607370.9434
       250.000         233.000
 136156932.72448  88304096.90748  24006872.1424   24006872.1564   24006872.9784
       221.000         167.000
 116967352.33248  91143394.27148  22258144.4654   22258145.9414   22258144.0774
       240.000         206.000
 122818671.33048  95702837.16548  23371637.2604   23371640.1994   23371638.0264
       225.000         183.000
 09  1  8  1 41 30.0000000  0  9G28G 9G26G17G18G15G22G12G 5
 129664663.69648 101037392.89848  24674371.2864   24674373.0014   24674372.3024
       205.000         153.000
 117039464.72148  73407362.76448  20368941.7604   20368944.1394   20368942.2344
       251.000         226.000
 114698207.61348  89375203.73048  21826360.0064   21826362.3184   21826359.7934
       241.000         207.000
 122037731.40748  95094324.32548  23223018.1934   23223019.7334   23223018.1644
       232.000         193.000
 107098583.15948 101245641.83648  22283124.4894   22283126.2684   22283125.0084
       237.000         196.000
 108329678.15448  84412731.42648  20614455.6734   20614457.3814   20614455.4354
       250.000         233.000
 136096357.98148  88256895.81748  23995344.3384   23995344.6804   23995346.4764
       220.000         163.000
 116878239.29148  91073955.55848  22241186.5344   22241188.3254   22241186.5014
       240.000         206.000
 122714039.07248  95621305.54748  23351726.1124   23351729.3804   23351726.1194
       226.000         182.000
 09  1  8  1 42  0.0000000  0  9G28G 9G26G17G18G15G22G12G 5
 129759439.44248 101111244.13148  24692407.0284   24692408.4934   24692406.3434
       206.000         155.000
 117000966.73148  73377364.33248  20361615.8564   20361618.0964   20361615.9664
       250.000         226.000
 114780626.05848  89439425.88448  21842043.5724   21842046.0794   21842043.4284
       242.000         207.000
 122029879.67548  95088206.11048  23221524.0874   23221525.7234   23221524.3504
       232.000         193.000
 107088504.96448 101237788.68548  22281206.8274   22281208.6234   22281207.3264
       236.000         197.000
 108367368.16248  84442100.25748  20621628.0184   20621629.5514   20621627.7844
       250.000         233.000
 136036227.78948  88210041.06848  23983902.1944   23983901.8474   23983901.9234
       221.000         168.000
 116789457.08348  91004774.61548  22224292.0994   22224293.5394   22224292.0564
       241.000         206.000
 122609622.15448  95539941.73648  23331856.0664   23331859.4424   23331857.0634
       225.000         182.000
 09  1  8  1 42 30.0000000  0  9G28G 9G26G17G18G15G22G12G 5
 129854304.31348 101185164.76448  24710458.9284   24710460.8694   24710458.2534
       210.000         154.000
 116962791.05048  73347617.05348  20354351.1484   20354353.5394   20354351.3964
       251.000         227.000
 114863362.99848  89503896.21948  21857787.8474   21857790.5414   21857787.7274
       242.000         207.000
 122022569.82248  95082510.12048  23220132.7914   23220134.8124   23220132.7924
       233.000         194.000
 107079005.92148 101230386.82348  22279399.1664   22279401.2944   22279399.7414
       236.000         197.000
 108405518.96548  84471828.15048  20628887.9394   20628889.3684   20628887.8304
       250.000         233.000
 135976543.26948  88163533.65248  23972545.2074   23972545.1224   23972545.7344
       220.000         173.000
 116701007.11648  90935852.57348  22207460.5494   22207462.1994   22207460.4504
       240.000         206.000
 122505421.92248  95458746.77048  23312027.2494   23312031.1324   23312027.8914
       226.000         182.000
 09  1  8  1 43  0.0000000  0  9G28G 9G26G17G18G15G22G12G 5
 129949256.15748 101259153.22348  24728527.7924   24728529.2804   24728529.0814
       206.000         155.000
 116924937.46748  73318120.75448  20347148.0914   20347150.2064   20347148.3554
       251.000         227.000
 114946417.02348  89568613.64448  21873592.6894   21873595.1594   21873592.6944
       241.000         206.000
 122015802.51248  95077236.90848  23218845.1384   23218846.8894   23218845.6814
       234.000         194.000
 107070085.86348 101223436.12548  22277701.6824   22277703.6894   22277702.2714
       237.000         197.000
 108444130.14648  84501914.78448  20636235.4084   20636236.7934   20636235.2324
       250.000         233.000
 135917306.40748  88117375.09948  23961272.3434   23961273.0264   23961271.7914
       221.000         167.000
 116612891.02948  90867190.70848  22190692.5394   22190694.1834   22190692.6714
       240.000         206.000
 122401439.95948  95377721.87348  23292240.2144   23292243.8184   23292240.6424
       228.000         182.000
 09  1  8  1 43 30.0000000  0  9G28G 9G26G17G18G15G22G12G 5
 130044291.82348 101333206.95848  24746611.3724   24746614.2554   24746612.2934
       206.000         152.000
 116887405.24548  73288874.86548  20340005.7344   20340008.3794   20340005.6594
       251.000         227.000
 115029785.68848  89633576.23548  21889457.1704   21889459.7014   21889457.1374
       242.000         206.000
 122009577.50148  95072386.25148  23217660.6824   23217662.3304   23217660.8094
       233.000         195.000
 107061743.74148 101216935.76348  22276114.4704   22276116.1824   22276114.9364
       236.000         197.000
 108483200.41348  84532359.14048  20643670.0854   20643671.5864   20643669.7964
       250.000         232.000
 135858517.88748  88071565.84748  23950085.4164   23950085.0944   23950087.1124
       222.000         169.000
 116525109.15248  90798789.25948  22173988.2534   22173990.0934   22173988.0424
       241.000         207.000
 122297676.95648  95296867.60148  23272494.7634   23272498.6944   23272495.7914
       226.000         183.000
 09  1  8  1 44  0.0000000  0  9G28G 9G26G17G18G15G22G12G 5
 130139410.46648 101407325.33448  24764712.6774   24764713.9464   24764711.9484
       207.000         153.000
 116850196.39248  73259880.95348  20332925.1354   20332927.5824   20332925.4144
       251.000         227.000
 115113468.81848  89698783.86248  21905381.4124   21905384.0124   21905381.1914
       242.000         206.000
 122003896.37348  95067959.40548  23216579.6754   23216581.4294   23216579.7134
       231.000         193.000
 107053980.73248 101210886.66848  22274637.1974   22274638.7154   22274637.7764
       237.000         196.000
 108522730.42648  84563161.74148  20651192.2814   20651193.9304   20651192.0764
       249.000         232.000
 135800179.97848  88026107.76248  23938984.5564   23938984.2504   23938985.6044
       221.000         170.000
 116437664.19548  90730650.34748  22157348.2304   22157349.6524   22157348.4074
       241.000         207.000
 122194135.72448  95216186.13348  23252791.6944   23252795.4784   23252792.3114
       226.000         182.000
 09  1  8  1 44 30.0000000  0  9G28G 9G26G17G18G15G22G12G 5
 130234610.48648 101481507.18348  24782828.4644   24782830.0824   24782828.0554
       202.000         153.000
 116813310.81048  73231138.94148  20325906.0184   20325908.5364   20325906.2524
       250.000         227.000
 115197465.47248  89764235.79848  21921365.6314   21921367.8074   21921365.5454
       242.000         205.000
 121998759.82848  95063956.91048  23215601.9914   23215603.4574   23215601.5064
       232.000         192.000
 107046796.69348 101205288.72148  22273270.0024   22273271.6314   22273270.5824
       238.000         196.000
 108562720.09148  84594322.50748  20658802.1234   20658803.8974   20658801.7754
       250.000         232.000
 135742294.81448  87981002.43948  23927969.4264   23927969.4324   23927968.3554
       224.000         174.000
 116350558.05348  90662775.44548  22140772.6074   22140773.8744   22140772.3654
       241.000         208.000
 122090817.99048  95135678.82348  23233130.9944   23233134.5804   23233132.2734
       227.000         184.000
 09  1  8  1 45  0.0000000  0  9G28G 9G26G17G18G15G22G12G 5
 130329890.00148 101555750.90948  24800958.4544   24800961.7474   24800957.8934
       201.000         153.000
 116776749.59148  73202649.67648  20318948.5474   20318951.2354   20318948.6154
       251.000         227.000
 115281774.58948  89829931.20348  21937409.0084   21937411.7174   21937408.8344
       241.000         206.000
 121994169.16348  95060379.77348  23214728.6334   23214729.9654   23214728.4834
       231.000         193.000
 107040192.08348 101200142.25948  22272013.2604   22272014.9034   22272013.8274
       237.000         197.000
 108603169.74348  84625841.70848  20666499.4824   20666501.2784   20666499.2224
       250.000         232.000
 135684864.44648  87936251.49448  23917039.9654   23917040.3714   23917038.8964
       222.000         170.000
 116263792.42248  90595165.87248  22124261.4394   22124262.9064   22124261.5244
       240.000         208.000
 121987725.99048  95055347.41848  23213513.3514   23213516.7784   23213514.0384
       227.000         183.000
 09  1  8  1 45 30.0000000  0  9G28G 9G26G17G18G15G22G12G 5
 130425246.52848 101630054.66348  24819104.9164   24819107.6604   24819104.7274
       207.000         156.000
 116740512.52548  73174412.99948  20312052.9824   20312055.4964   20312053.2894
       251.000         227.000
 115366394.37748  89895868.68348  21953511.6024   21953514.2744   21953511.4614
       242.000         206.000
 121990124.42448  95057228.03348  23213958.4904   23213960.4764   23213958.2294
       230.000         190.000
 107034166.46148 101195446.95448  22270866.7444   22270868.3914   22270867.5314
       237.000         197.000
 108644077.83448  84657718.13348  20674284.0414   20674285.8694   20674283.7564
       250.000         232.000
 135627890.39248  87891856.14448  23906198.3264   23906198.6294   23906200.6144
       225.000         171.000
 116177368.66548  90527822.70248  22107815.2214   22107816.9884   22107814.9804
       241.000         208.000
 121884860.80748  94975192.73848  23193938.6064   23193942.0274   23193939.5654
       225.000         182.000
 09  1  8  1 46  0.0000000  0  9G28G 9G26G17G18G15G22G12G 5
 130520677.57048 101704416.47448  24837265.5494   24837267.6294   24837265.7774
       208.000         156.000
 116704599.49048  73146428.81748  20305218.8854   20305221.3504   20305219.0734
       251.000         228.000
 115451323.07548  89962046.88948  21969673.1844   21969675.6714   21969673.2304
       240.000         204.000
 121986625.56448  95054501.65748  23213293.0624   23213294.2094   23213292.8224
       231.000         191.000
 107028718.72848 101191201.95448  22269830.4224   22269831.5664   22269831.3164
       237.000         196.000
 108685444.24448  84689951.69548  20682156.0164   20682157.5404   20682155.7364
       250.000         232.000
 135571373.86148  87847817.25948  23895443.6624   23895443.9034   23895444.5714
       223.000         171.000
 116091287.64548  90460746.60248  22091434.5954   22091436.2354   22091434.7334
       239.000         208.000
 121782223.55948  94895215.69348  23174407.3374   23174410.7074   23174408.3254
       225.000         182.000
 09  1  8  1 46 30.0000000  0  9G28G 9G26G17G18G15G22G12G 5
 130616182.10548 101778835.58448  24855439.3044   24855441.2484   24855439.9104
       211.000         157.000
 116669012.04448  73118698.34448  20298446.8744   20298449.4184   20298447.0594
       251.000         228.000
 115536560.23848  90028465.45348  21985892.9844   21985895.8194   21985892.7574
       241.000         205.000
 121983674.23748  95052201.94248  23212731.5414   23212732.6734   23212731.6874
       230.000         191.000
 107023849.83748 101187407.99548  22268903.3724   22268905.1514   22268903.7364
       237.000         195.000
 108727269.34948  84722542.68048  20690114.9644   20690116.6174   20690114.6404
       249.000         232.000
 135515316.38748  87804136.11648  23884776.1744   23884776.8214   23884776.2954
       225.000         176.000
 116005551.72748  90393939.41048  22075119.3184   22075121.2774   22075119.1394
       240.000         208.000
 121679816.94048  94815418.33948  23154919.6904   23154923.2904   23154919.7424
       226.000         183.000
 09  1  8  1 47  0.0000000  0  9G28G 9G26G17G18G15G22G12G 5
 130711757.94948 101853310.25448  24873626.0314   24873628.4324   24873626.5534
       212.000         156.000
 116633749.65448  73091221.15548  20291736.6224   20291739.3074   20291736.9894
       251.000         228.000
 115622104.13848  90095123.03248  22002171.7514   22002174.2904   22002171.7614
       241.000         205.000
 121981270.44248  95050328.85948  23212273.6264   23212275.3864   23212273.4264
       230.000         192.000
 107019559.17448 101184064.61648  22268086.7004   22268088.4484   22268087.2054
       236.000         196.000
 108769552.49048  84755490.57448  20698161.1164   20698162.8534   20698160.7644
       249.000         232.000
 135459720.24748  87760814.45748  23874197.1724   23874197.5134   23874197.1844
       224.000         171.000
 115920162.47348  90327402.32248  22058870.6074   22058872.1624   22058870.3104
       241.000         209.000
 121577642.28648  94735801.76548  23135476.5784   23135479.7644   23135477.1774
       226.000         182.000
 09  1  8  1 47 30.0000000  0  9G28G 9G26G17G18G15G22G12G 5
 130807403.38448 101927839.16248  24891826.9134   24891828.6574   24891827.4414
       214.000         158.000
 116598813.30248  73063998.02048  20285088.5264   20285091.0384   20285088.6204
       251.000         228.000
 115707953.91648  90162018.96948  22018508.4154   22018510.9534   22018508.4214
       241.000         204.000
 121979415.35548  95048883.35448  23211920.8634   23211922.2804   23211920.6724
       232.000         191.000
 107015846.98148 101181172.00348  22267380.7544   22267382.1094   22267381.4074
       237.000         196.000
 108812293.40348  84788795.18148  20706294.3914   20706296.0374   20706294.1604
       249.000         231.000
 135404587.23648  87717853.65348  23863705.5804   23863704.7984   23863707.2924
       225.000         172.000
 115835121.59748  90261136.71648  22042687.9554   22042689.3244   22042687.9454
       240.000         209.000
 121475701.55448  94656367.44348  23116077.8624   23116080.9044   23116078.3294
       226.000         182.000
 09  1  8  1 48  0.0000000  0  9G28G 9G26G17G18G15G22G12G 5
 130903116.51548 102002420.80848  24910040.8254   24910042.3654   24910041.7244
       212.000         159.000
 116564203.16348  73037029.07748  20278502.5044   20278504.9644   20278502.9274
       251.000         228.000
 115794108.24248  90229152.21048  22034902.9024   22034905.7324   22034902.7524
       241.000         205.000
 121978109.55148  95047865.85448  23211672.4124   23211673.9114   23211672.2774
       231.000         193.000
 107012713.20648 101178730.08748  22266784.1804   22266785.9304   22266784.9234
       236.000         196.000
 108855491.85448  84822456.30148  20714514.6914   20714516.3834   20714514.5614
       248.000         231.000
 135349919.32448  87675255.26748  23853302.0624   23853302.7394   23853302.0834
       222.000         173.000
 115750430.60148  90195143.73348  22026571.7444   22026573.2254   22026571.5294
       241.000         209.000
 121373996.51548  94577116.77848  23096724.1834   23096726.9264   23096724.7344
       228.000         181.000
 09  1  8  1 48 30.0000000  0  9G28G 9G26G17G18G15G22G12G 5
 130998895.24748 102077053.57848  24928267.0444   24928268.1234   24928268.0574
       218.000         158.000
 116529919.52748  73010314.55448  20271978.4854   20271981.0324   20271978.4444
       252.000         228.000
 115880565.72148  90296521.67148  22051355.3394   22051358.0464   22051355.1584
       241.000         204.000
 121977353.12048  95047276.43948  23211528.2904   23211530.3164   23211528.2464
       231.000         192.000
 107010157.40948 101176738.54848  22266298.0784   22266299.6354   22266298.4284
       237.000         197.000
 108899147.30248  84856473.53248  20722821.9594   20722823.7834   20722821.5274
       249.000         231.000
 135295717.29348  87633019.93748  23842988.1204   23842988.7764   23842988.6544
       220.000         171.000
 115666090.91448  90129424.49748  22010522.3224   22010523.9174   22010522.1444
       241.000         210.000
 121272528.69048  94498050.94948  23077415.3874   23077418.2174   23077416.0314
       228.000         182.000
 09  1  8  1 49  0.0000000  0  9G28G 9G26G17G18G15G22G12G 5
 131094738.12348 102151736.33448  24946505.5684   24946506.3814   24946507.6044
       217.000         159.000
 116495963.26248  72983855.12548  20265516.8304   20265519.3414   20265517.2384
       251.000         228.000
 115967325.44948  90364126.64748  22067865.0014   22067867.6254   22067864.9194
       241.000         202.000
 121977146.96548  95047115.80948  23211489.3324   23211490.8384   23211489.2654
       232.000         193.000
 107008179.81748 101175197.55948  22265921.2734   22265923.4314   22265921.6914
       236.000         196.000
 108943259.69848  84890846.81248  20731216.3744   20731218.1024   20731216.0294
       249.000         231.000
 135241982.93848  87591149.02348  23832762.7584   23832762.6824   23832763.6874
       223.000         172.000
 115582104.26148  90063980.37048  21994540.1824   21994542.0054   21994540.3674
       239.000         210.000
 121171300.05948  94419171.51948  23058152.1374   23058155.4194   23058152.7794
       227.000         183.000
 09  1  8  1 49 30.0000000  0  9G28G 9G26G17G18G15G22G12G 5
 131190642.64148 102226467.12248  24964755.8004   24964756.5004   24964757.0544
       215.000         161.000
 116462333.93148  72957650.45048  20259117.3414   20259119.7954   20259117.5974
       252.000         228.000
 116054385.30048  90431965.49048  22084432.0284   22084434.4544   22084432.1074
       239.000         202.000
 121977490.89448  95047383.82248  23211554.8574   23211556.3024   23211554.9724
       232.000         193.000
 107006779.08148 101174106.08348  22265654.9234   22265656.6594   22265655.8104
       236.000         196.000
 108987828.00748  84925575.35748  20739697.5364   20739699.1414   20739697.3064
       249.000         231.000
 135188717.75848  87549643.67548  23822626.8084   23822626.8424   23822627.4304
       224.000         173.000
 115498471.85448  89998812.27448  21978625.4114   21978627.3094   21978624.9554
       242.000         211.000
 121070311.66048  94340479.26448  23038935.1474   23038937.9264   23038935.9114
       229.000         183.000
 09  1  8  1 50  0.0000000  0  9G28G 9G26G17G18G15G22G12G 5
 131286608.49048 102301245.70348  24983017.3514   24983018.2774   24983017.1134
       213.000         160.000
 116429033.64448  72931702.17548  20252780.4534   20252783.0254   20252780.8254
       251.000         228.000
 116141745.54048  90500038.39148  22101056.0994   22101058.5264   22101055.8454
       241.000         203.000
 121978387.04548  95048082.13548  23211725.0924   23211726.6734   23211725.5564
       231.000         192.000
 107005956.58248 101173465.17348  22265498.5434   22265500.4184   22265498.8564
       237.000         197.000
 109032853.18548  84960659.90948  20748265.8014   20748267.0744   20748265.6544
       250.000         231.000
 135135924.83448  87508506.34348  23812580.4004   23812580.6314   23812581.8284
       222.000         174.000
 115415196.64248  89933922.50748  21962778.8654   21962780.5564   21962778.9344
       241.000         211.000
 120969566.72548  94261976.73548  23019763.4754   23019766.7814   23019763.7994
       227.000         183.000
 09  1  8  1 50 30.0000000  0  9G28G 9G26G17G18G15G22G12G 5
 131382632.84748 102376069.88048  25001290.0754   25001291.7134   25001288.9904
       215.000         161.000
 116396061.76448  72906009.79948  20246506.1444   20246508.6374   20246506.1584
       251.000         228.000
 116229403.92748  90568343.62848  22117737.0314   22117739.3404   22117737.0114
       240.000         202.000
 121979834.74248  95049210.22948  23212000.5424   23212001.9474   23212000.6614
       231.000         191.000
 107005711.21648 101173273.97848  22265451.6104   22265453.8344   22265452.4854
       236.000         196.000
 109078334.09848  84996099.57548  20756920.3594   20756921.9574   20756920.1214
       250.000         231.000
 135083604.76448  87467737.46748  23802624.0694   23802624.7504   23802623.7364
       225.000         176.000
 115332279.10048  89869311.44048  21947000.2674   21947001.8434   21946999.9194
       242.000         211.000
 120869066.03148  94183664.52548  23000638.9324   23000642.5294   23000639.4624
       228.000         184.000
 09  1  8  1 51  0.0000000  0  9G28G 9G26G17G18G15G22G12G 5
 131478713.78448 102450938.12648  25019574.0884   25019575.6624   25019573.9064
       214.000         160.000
 116363418.95448  72880573.84748  20240294.4454   20240296.8824   20240294.7194
       251.000         228.000
 116317359.13648  90636880.15748  22134474.2424   22134476.6344   22134474.1164
       239.000         201.000
 121981834.64048  95050768.58748  23212381.0434   23212382.6964   23212380.9894
       231.000         191.000
 107006042.63948 101173532.20848  22265514.5574   22265516.5984   22265514.8034
       237.000         196.000
 109124270.08948  85031893.84648  20765661.6654   20765663.4284   20765661.3554
       249.000         231.000
 135031759.33248  87427338.40348  23792758.5134   23792759.0434   23792757.6134
       226.000         179.000
 115249721.10248  89804980.54248  21931290.0794   21931291.6424   21931290.0064
       242.000         211.000
 120768811.35748  94105544.01148  22981560.9364   22981564.6644   22981561.6424
       228.000         184.000
 09  1  8  1 51 30.0000000  0  9G28G 9G26G17G18G15G22G12G 5
 131574850.18148 102525849.59648  25037867.8314   25037869.9244   25037868.5154
       216.000         160.000
 116331105.84248  72855394.79848  20234145.4004   20234147.8324   20234145.4334
       252.000         228.000
 116405610.33948  90705647.32048  22151267.8864   22151270.3614   22151267.9194
       240.000         201.000
 121984387.22048  95052757.62648  23212866.9774   23212868.4024   23212866.1714
       231.000         191.000
 107006950.98248 101174240.00148  22265687.8434   22265689.2104   22265688.0534
       238.000         196.000
 109170661.29648  85068042.83148  20774489.6134   20774491.5114   20774489.2314
       249.000         230.000
 134980390.63148  87387310.87948  23782983.4324   23782983.7724   23782982.6344
       226.000         179.000
 115167524.11748  89740930.95648  21915648.4444   21915650.0214   21915648.2184
       242.000         212.000
 120668804.73448  94027616.78448  22962530.2614   22962534.0384   22962531.0164
       228.000         184.000
 09  1  8  1 52  0.0000000  0  9G28G 9G26G17G18G15G22G12G 5
 131671039.54448 102600802.33748  25056172.3704   25056174.3304   25056172.3724
       214.000         160.000
 116299122.22748  72830472.50048  20228059.3264   20228061.6474   20228059.6724
       253.000         229.000
 116494155.74848  90774643.73548  22168117.3054   22168120.1114   22168117.2124
       239.000         201.000
 121987492.63048  95055177.43648  23213457.8484   23213459.5434   23213457.3224
       230.000         193.000
 107008435.26848 101175396.59048  22265970.2754   22265971.7464   22265970.9804
       236.000         196.000
 109217506.78448  85104545.80348  20783404.0714   20783405.9014   20783403.8004
       249.000         230.000
 134929499.21048  87347655.21648  23773299.5254   23773299.5374   23773299.1714
       230.000         182.000
 115085689.14648  89677163.45948  21900075.7304   21900077.2674   21900075.6174
       240.000         211.000
 120569047.40948  93949883.78748  22943547.3324   22943550.8464   22943548.1834
       228.000         184.000
 09  1  8  1 52 30.0000000  0  9G28G 9G26G17G18G15G22G12G 5
 131767279.21948 102675794.28748  25074485.9944   25074488.0254   25074486.5214
       214.000         160.000
 116267467.92948  72805806.81048  20222035.5944   20222038.0424   20222035.9074
       252.000         229.000
 116582993.25248  90843867.76348  22185022.5684   22185025.1804   22185022.6234
       238.000         200.000
 121991150.38648  95058027.64548  23214153.7654   23214155.6994   23214153.3374
       231.000         193.000
 107010494.60248 101177001.25448  22266362.0814   22266363.7654   22266362.7464
       236.000         196.000
 109264805.32548  85141401.80148  20792404.5974   20792406.4124   20792404.3934
       249.000         230.000
 134879086.01848  87308372.20248  23763706.2124   23763705.7974   23763705.8884
       223.000         178.000
 115004217.24548  89613678.87848  21884571.9534   21884573.7014   21884572.0484
       240.000         212.000
 120469540.36648  93872345.84148  22924611.3754   22924615.3154   22924611.5664
       228.000         184.000
 09  1  8  1 53  0.0000000  0  9G28G 9G26G17G18G15G22G12G 5
 131863568.73348 102750825.05848  25092808.7034   25092811.3864   25092808.7024
       215.000         161.000
 116236144.40448  72781398.87048  20216074.9884   20216077.4284   20216075.0964
       252.000         229.000
 116672122.76248  90913319.32748  22201983.5224   22201986.0864   22201983.2464
       239.000         201.000
 121995362.16348  95061309.55248  23214955.3834   23214957.0784   23214954.5494
       231.000         192.000
 107013129.29248 101179054.26248  22266863.2614   22266865.0484   22266864.0034
       236.000         196.000
 109312557.78948  85178611.51048  20801491.5674   20801493.2704   20801491.3474
       249.000         230.000
 134829153.91448  87269464.11548  23754203.6504   23754204.6074   23754202.2214
       226.000         178.000
 114923111.19048  89550479.37248  21869137.9204   21869139.7034   21869137.6214
       241.000         212.000
 120370286.40948  93795005.10048  22905723.6914   22905727.7254   22905724.2744
       227.000         183.000
 09  1  8  1 53 30.0000000  0  9G28G 9G26G17G18G15G22G12G 5
 131959905.61448 102825892.73848  25111141.1504   25111143.7484   25111141.1164
       214.000         158.000
 116205151.67548  72757248.68948  20210177.1994   20210179.7814   20210177.4094
       252.000         229.000
 116761542.25248  90982996.84648  22218999.5674   22219002.3024   22218999.7534
       238.000         202.000
 122000127.73848  95065023.00348  23215862.1504   23215863.7394   23215862.2324
       230.000         191.000
 107016338.66448 101181555.06648  22267474.3684   22267475.7604   22267474.8844
       237.000         198.000
 109360762.96648  85216173.97548  20810664.7284   20810666.4884   20810664.4794
       249.000         230.000
 134779703.72248  87230931.48048  23744793.9604   23744793.8904   23744794.4124
       228.000         178.000
 114842371.70448  89487565.48948  21853773.8884   21853775.3884   21853773.8314
       242.000         212.000
 120271286.63648  93717862.41948  22886884.5964   22886888.8604   22886885.1464
       227.000         185.000
 09  1  8  1 54  0.0000000  0  9G28G 9G26G17G18G15G22G12G 5
 132056287.63748 102900995.60248  25129482.1314   25129484.1154   25129482.7794
       216.000         158.000
 116174489.66148  72733356.21148  20204342.5514   20204345.0824   20204342.7294
       253.000         230.000
 116851249.96648  91052898.94448  22236070.3344   22236072.9994   22236070.0824
       238.000         199.000
 122005446.75248  95069167.71948  23216873.8804   23216875.6234   23216873.2334
       231.000         191.000
 107020121.80248 101184502.95548  22268194.2414   22268195.8994   22268194.9334
       237.000         197.000
 109409419.57348  85254088.20348  20819923.8704   20819925.6164   20819923.7094
       249.000         230.000
 134730736.31948  87192775.06548  23735475.5714   23735475.5794   23735475.2824
       227.000         176.000
 114761999.52248  89424937.81748  21838479.5414   21838481.0274   21838479.5054
       241.000         212.000
 120172542.12648  93640918.67348  22868094.2204   22868098.6094   22868094.6104
       227.000         185.000
 09  1  8  1 54 30.0000000  0  9G28G 9G26G17G18G15G22G12G 5
 132152713.48548 102976132.62248  25147831.4654   25147833.3734   25147832.8384
       216.000         159.000
 116144159.33248  72709722.18848  20198570.9114   20198573.3504   20198571.2994
       253.000         230.000
 116941244.95148  91123024.91048  22253195.7634   22253198.4274   22253195.8004
       238.000         199.000
 122011319.90648  95073744.20348  23217991.8914   23217993.5994   23217992.1834
       232.000         192.000
 107024478.64748 101187897.88848  22269023.3754   22269024.8374   22269023.4994
       238.000         197.000
 109458527.80048  85292354.35148  20829268.8824   20829270.5824   20829268.5904
       249.000         229.000
 134682253.84848  87154996.49448  23726249.6744   23726249.6274   23726250.6174
       225.000         178.000
 114681996.78048  89362598.02748  21823255.5024   21823256.8124   21823255.4704
       240.000         212.000
 120074055.16048  93564175.58748  22849352.8864   22849357.0194   22849352.9734
       228.000         187.000
 09  1  8  1 55  0.0000000  0  9G28G 9G26G17G18G15G22G12G 5
 132249181.00248 103051302.08448  25166188.6684   25166190.7134   25166190.7914
       216.000         157.000
 116114160.46748  72686346.44848  20192862.2974   20192864.7624   20192862.3724
       254.000         230.000
 117031525.51748  91193373.40248  22270375.6624   22270378.2834   22270375.4054
       239.000         200.000
 122017746.77548  95078752.16648  23219215.1814   23219216.5224   23219215.5174
       233.000         191.000
 107029408.19948 101191739.08748  22269961.6024   22269962.9974   22269962.1964
       239.000         197.000
 109508086.56248  85330971.56248  20838699.6564   20838701.2634   20838699.3024
       249.000         229.000
 134634257.19248  87117596.53648  23717115.8154   23717117.1114   23717116.2024
       224.000         176.000
 114602364.58748  89300546.98348  21808101.7714   21808103.5304   21808101.5914
       241.000         213.000
 119975826.83948  93487634.05648  22830661.0154   22830664.8734   22830661.5924
       229.000         187.000
 09  1  8  1 55 30.0000000  0  9G28G 9G26G17G18G15G22G12G 5
 132345688.70048 103126502.89148  25184552.9464   25184555.3284   25184553.6114
       213.000         155.000
 116084493.74048  72663229.51948  20187216.9594   20187219.3294   20187217.2464
       254.000         230.000
 117122090.40948  91263943.43248  22287609.5094   22287612.1154   22287609.2754
       237.000         199.000
 122024728.42648  95084192.43648  23220543.4934   23220545.0884   23220543.7334
       232.000         191.000
 107034910.17848 101196026.32948  22271008.5634   22271009.8974   22271009.2584
       238.000         197.000
 109558095.81248  85369939.80648  20848216.0054   20848217.6014   20848215.7784
       249.000         229.000
 134586748.13348  87080576.48148  23708075.5874   23708075.6474   23708075.6654
       225.000         177.000
 114523104.57748  89238785.95148  21793019.2714   21793021.0384   21793019.0774
       241.000         213.000
 119877859.21348  93411295.65348  22812018.6554   22812022.0974   22812019.3194
       231.000         188.000
 09  1  8  1 56  0.0000000  0 10G28G 9G30G26G17G18G15G22G12G 5
 132442234.76948 103201733.60648  25202924.9964   25202927.0224   25202924.3734
       213.000         153.000
 116055159.55948  72640371.71648  20181634.6704   20181637.2404   20181634.6944
       254.000         230.000
 141808772.74258  92708123.10458  25082384.1485   25082387.3425   25082384.0065
       206.000         146.000
 117212938.43748  91334734.10248  22304897.3834   22304900.0104   22304897.3884
       237.000         199.000
 122032264.64448  95090064.81148  23221977.3594   23221979.3024   23221976.9624
       230.000         192.000
 107040984.17048 101200759.31248  22272164.3884   22272166.1494   22272165.1304
       237.000         197.000
 109608554.93848  85409258.59848  20857818.0294   20857819.6594   20857817.8724
       249.000         228.000
 134539728.30348  87043937.65848  23699127.6074   23699128.2334   23699127.1994
       224.000         178.000
 114444218.04648  89177315.93948  21778007.5634   21778009.1234   21778007.3994
       243.000         213.000
 119780153.78548  93335161.56948  22793426.0144   22793429.4454   22793426.6804
       230.000         188.000
 09  1  8  1 56 30.0000000  0 10G28G 9G30G26G17G18G15G22G12G 5
 132538818.18548 103276993.40248  25221304.6764   25221306.3224   25221304.8664
       214.000         153.000
 116026159.34548  72617774.15048  20176116.2424   20176118.5484   20176116.5314
       254.000         230.000
 141696300.34148  92620482.31648  25060981.9554   25060985.0784   25060981.1034
       211.000         150.000
 117304068.83248  91405744.79648  22322238.9164   22322241.3614   22322238.7384
       238.000         198.000
 122040356.69448  95096370.30548  23223517.2454   23223519.1764   23223516.9454
       231.000         191.000
 107047629.93648 101205937.82248  22273428.6874   22273430.5354   22273429.5164
       236.000         196.000
 109659463.83848  85448927.86348  20867505.5104   20867507.3044   20867505.1834
       249.000         228.000
 134493199.82148  87007681.73648  23690273.8254   23690274.5004   23690274.2234
       228.000         180.000
 114365707.49448  89116138.88948  21763067.7574   21763069.1104   21763067.7804
       243.000         215.000
 119682713.08648  93259233.76848  22774883.6474   22774887.0944   22774884.2044
       231.000         189.000
 09  1  8  1 57  0.0000000  0 10G28G 9G30G26G17G18G15G22G12G 5
 132635436.11448 103352280.09848  25239690.4384   25239691.4704   25239693.0554
       216.000         152.000
 115997492.16848  72595436.09348  20170660.9874   20170663.4184   20170661.2154
       254.000         229.000
 141583900.55448  92532898.06448  25039593.6024   25039596.7084   25039594.6964
       212.000         154.000
 117395479.14048  91476973.60448  22339633.6264   22339636.4434   22339633.6474
       237.000         198.000
 122049003.24048  95103107.89248  23225162.8414   23225164.4064   23225162.3324
       230.000         191.000
 107054845.85548 101211560.60048  22274802.0514   22274803.5954   22274802.7914
       236.000         197.000
 109710820.75148  85488946.22748  20877278.5334   20877280.2924   20877278.1534
       248.000         228.000
 134447162.75748  86971808.68848  23681513.2554   23681513.7334   23681514.3004
       227.000         182.000
 114287572.84048  89055254.75248  21748199.2134   21748200.8614   21748198.9374
       242.000         215.000
 119585537.52348  93183512.57348  22756392.0854   22756395.0384   22756392.8194
       233.000         190.000
 09  1  8  1 57 30.0000000  0 10G28G 9G30G26G17G18G15G22G12G 5
 132732087.07848 103427592.55748  25258082.5234   25258083.2964   25258084.6004
       213.000         153.000
 115969158.80748  72573358.14848  20165269.2894   20165271.7144   20165269.4084
       254.000         230.000
 141471575.26048  92445371.90848  25018218.2624   25018221.9474   25018216.6634
       211.000         154.000
 117487168.20648  91548419.62448  22357081.5064   22357084.0744   22357081.6994
       237.000         197.000
 122058204.92348  95110278.01748  23226914.0744   23226915.6824   23226913.8554
       232.000         192.000
 107062631.84648 101217627.59848  22276283.6004   22276285.6164   22276284.5224
       236.000         196.000
 109762625.69648  85529313.71748  20887136.7414   20887138.6474   20887136.4474
       249.000         228.000
 134401618.68648  86936319.79548  23672846.9124   23672847.0624   23672846.6914
       229.000         183.000
 114209815.70648  88994664.79248  21733402.4604   21733404.1194   21733402.6304
       242.000         215.000
 119488628.99348  93107999.43748  22737951.1084   22737953.5234   22737952.1014
       232.000         189.000
 09  1  8  1 58  0.0000000  0 10G28G 9G30G26G17G18G15G22G12G 5
 132828769.27548 103502929.33848  25276480.6784   25276480.9914   25276480.6304
       214.000         155.000
 115941159.36948  72551540.40348  20159941.2164   20159943.5804   20159941.4804
       255.000         230.000
 141359326.16148  92357905.09448  24996858.0244   24996861.8284   24996858.3004
       209.000         153.000
 117579134.45148  91620081.62048  22374582.1584   22374584.6774   22374582.0724
       237.000         197.000
 122067961.34248  95117880.44048  23228770.8724   23228771.9724   23228771.4844
       233.000         191.000
 107070986.74448 101224137.90248  22277873.5564   22277874.8974   22277873.9454
       236.000         196.000
 109814877.51248  85570029.40748  20897080.0274   20897081.6774   20897080.0064
       248.000         228.000
 134356568.87848  86901216.05848  23664274.2024   23664274.2374   23664274.6804
       227.000         182.000
 114132437.31848  88934369.94748  21718677.8544   21718679.3734   21718677.6184
       243.000         215.000
 119391988.90248  93032695.48948  22719560.8644   22719563.6714   22719561.5614
       232.000         190.000
 09  1  8  1 58 30.0000000  0 10G28G 9G30G26G17G18G15G22G12G 5
 132925481.92248 103578289.86848  25294884.7674   25294885.0444   25294883.4504
       211.000         152.000
 115913495.23348  72529983.93748  20154676.8324   20154679.1524   20154676.8694
       255.000         230.000
 141247155.72448  92270499.54848  24975512.5454   24975516.2704   24975512.2914
       213.000         152.000
 117671377.38048  91691959.23248  22392135.5664   22392137.6444   22392135.4804
       236.000         196.000
 122078273.92548  95125916.22548  23230732.9034   23230734.5134   23230733.0454
       232.000         190.000
 107079911.26748 101231092.06248  22279571.7184   22279573.3344   22279571.8794
       236.000         196.000
 109867576.71148  85611093.71348  20907108.2734   20907109.9554   20907107.8424
       248.000         228.000
 134312015.05948  86866498.81148  23655795.4644   23655795.0104   23655795.9724
       227.000         177.000
 114055440.15648  88874372.17348  21704025.6474   21704027.2114   21704025.6244
       243.000         215.000
 119295619.84848  92957602.75248  22701222.3914   22701225.1774   22701223.2054
       232.000         191.000
 09  1  8  1 59  0.0000000  0 10G28G 9G30G26G17G18G15G22G12G 5
 133022222.84748 103653672.40748  25313293.5884   25313294.0294   25313293.7704
       212.000         150.000
 115886166.52448  72508688.83448  20149476.4974   20149478.8644   20149476.6984
       254.000         230.000
 141135065.05848  92183156.16548  24954182.5714   24954185.7714   24954182.0764
       212.000         152.000
 117763895.14348  91764050.98948  22409741.1784   22409743.5254   22409741.2094
       237.000         195.000
 122089141.96148  95134384.84148  23232800.9054   23232802.4434   23232800.8964
       231.000         191.000
 107089403.80648 101238488.84148  22281378.1094   22281379.8564   22281378.3014
       235.000         195.000
 109920721.91848  85652505.55048  20917221.5764   20917223.3194   20917221.2784
       249.000         228.000
 134267959.00948  86832169.42148  23647412.4274   23647411.5984   23647412.4354
       227.000         182.000
 113978824.91948  88814671.99548  21689446.3244   21689447.8644   21689446.2214
       244.000         216.000
 119199522.92548  92882722.04148  22682935.6204   22682938.2084   22682935.8614
       231.000         189.000
 09  1  8  1 59 30.0000000  0 10G28G 9G30G26G17G18G15G22G12G 5
 133118990.82648 103729076.06948  25331708.2124   25331709.3564   25331709.9134
       209.000         150.000
 115859174.18048  72487655.84248  20144340.0084   20144342.3534   20144340.3634
       254.000         230.000
 141023056.56948  92095876.79948  24932868.3064   24932871.2164   24932868.1904
       214.000         154.000
 117856687.04148  91836356.35048  22427398.9174   22427401.0614   22427398.7634
       236.000         198.000
 122100566.30348  95143286.93448  23234974.6744   23234976.3214   23234974.4304
       231.000         191.000
 107099464.50248 101246328.32548  22283292.5404   22283294.3364   22283292.0814
       236.000         195.000
 109974313.39548  85694265.13848  20927419.6684   20927421.3634   20927419.5284
       248.000         228.000
 134224402.18248  86798229.05948  23639122.9664   23639124.3874   23639122.7434
       225.000         180.000
 113902593.80948  88755271.13848  21674940.1264   21674941.4474   21674940.1574
       244.000         216.000
 119103700.49148  92808055.21948  22664701.0914   22664703.5064   22664701.4484
       232.000         190.000
 09  1  8  2  0  0.0000000  0 10G28G 9G30G26G17G18G15G22G12G 5
 133215784.06348 103804499.35148  25350126.6064   25350128.9724   25350127.3184
       209.000         149.000
 115832518.22348  72466884.96948  20139267.4444   20139270.0024   20139267.3974
       255.000         230.000
 140911131.61448  92008662.50348  24911569.3544   24911573.4964   24911569.0884
       212.000         154.000
 117949751.08748  91908873.78248  22445108.4854   22445111.1124   22445108.5164
       237.000         197.000
 122112546.54948  95152622.18948  23237254.6294   23237256.5204   23237254.5034
       232.000         192.000
 107110092.04648 101254609.53048  22285314.9564   22285316.7534   22285315.0514
       237.000         195.000
 110028349.87548  85736371.47548  20937702.3064   20937704.1974   20937701.8434
       248.000         227.000
 134181345.33348  86764678.23848  23630930.0204   23630929.8604   23630930.1714
       226.000         175.000
 113826747.42048  88696170.06648  21660506.8684   21660508.5044   21660506.7014
       244.000         217.000
 119008153.58448  92733603.11148  22646519.0684   22646522.1504   22646519.4144
       232.000         191.000
 09  1  8  2  0 30.0000000  0 10G28G 9G30G26G17G18G15G22G12G 5
 133312600.49248 103879940.73348  25368549.5354   25368552.2834   25368549.2224
       204.000         146.000
 115806198.96048  72446376.45148  20134259.1254   20134261.5464   20134259.4814
       254.000         230.000
 140799291.73148  91921514.48048  24890286.6884   24890291.0294   24890287.0674
       211.000         154.000
 118043085.96548  91981602.25148  22462869.5394   22462871.8504   22462869.2724
       235.000         195.000
 122125082.32948  95162390.34148  23239640.3844   23239641.8214   23239640.4344
       233.000         192.000
 107121285.27748 101263331.52848  22287444.9804   22287446.5844   22287445.3524
       236.000         195.000
 110082830.47748  85778823.88848  20948069.8054   20948071.4194   20948069.6574
       248.000         227.000
 134138789.18648  86731517.60848  23622831.9064   23622832.0244   23622830.1834
       227.000         181.000
 113751286.99348  88637369.75248  21646147.2314   21646148.9264   21646147.0924
       244.000         217.000
 118912883.78648  92659366.91848  22628389.3584   22628392.7584   22628389.9734
       231.000         190.000
 09  1  8  2  1  0.0000000  0 10G28G 9G30G26G17G18G15G22G12G 5
 133409436.92248 103955397.67848  25386977.6724   25386979.8314   25386978.4374
       207.000         145.000
 115780215.16548  72426129.34248  20129314.4814   20129316.9374   20129314.6684
       254.000         230.000
 140687537.14848  91834432.94948  24869021.0754   24869024.3984   24869020.9594
       213.000         155.000
 118136688.55948  92054539.34248  22480681.2814   22480683.9104   22480681.1444
       235.000         195.000
 122138172.19748  95172590.25548  23242131.4604   23242132.8744   23242131.2394
       232.000         194.000
 107133042.53148 101272493.01348  22289682.0814   22289684.2414   22289682.2144
       235.000         194.000
 110137753.04848  85821620.69248  20958521.0254   20958522.7674   20958520.6324
       248.000         227.000
 134096734.59848  86698747.84048  23614829.0414   23614829.1674   23614829.2834
       226.000         179.000
 113676212.61048  88578870.24548  21631861.0624   21631862.6654   21631860.8574
       245.000         217.000
 118817891.21448  92585346.74948  22610313.0824   22610316.2834   22610313.5634
       234.000         192.000
 09  1  8  2  1 30.0000000  0 10G28G 9G30G26G17G18G15G22G12G 5
 133506293.47348 104030870.32148  25405408.7214   25405411.7364   25405410.8904
       209.000         147.000
 115754568.68548  72406145.07548  20124434.1334   20124436.5084   20124434.3144
       255.000         230.000
 140575871.04248  91747420.40048  24847772.0944   24847774.3174   24847771.8154
       216.000         157.000
 118230559.10348  92127685.22048  22498544.2884   22498546.8854   22498544.5534
       235.000         196.000
 122151817.81748  95183223.20648  23244727.7874   23244729.6204   23244726.9804
       233.000         193.000
 107145364.12048 101282094.24448  22292027.1144   22292028.8034   22292027.4454
       236.000         194.000
 110193118.56548  85864762.63948  20969056.8584   20969058.6294   20969056.5524
       249.000         227.000
 134055183.57848  86666370.39048  23606921.9384   23606921.9674   23606920.8914
       224.000         177.000
 113601527.05648  88520673.71648  21617648.7874   21617650.4584   21617648.5004
       244.000         217.000
 118723178.94848  92511544.98748  22592290.1684   22592292.9684   22592290.6694
       233.000         192.000
 09  1  8  2  2  0.0000000  0 10G28G 9G30G26G17G18G15G22G12G 5
 133603169.02048 104106357.74248  25423844.4724   25423846.8244   25423845.7324
       206.000         144.000
 115729260.47948  72386424.39548  20119618.1884   20119620.5114   20119618.4524
       254.000         230.000
 140464295.46748  91660478.38048  24826540.2964   24826543.0384   24826541.0574
       212.000         158.000
 118324696.21748  92201038.80948  22516458.0144   22516460.7344   22516457.7924
       234.000         195.000
 122166019.53048  95194289.47948  23247430.2774   23247431.8684   23247429.9134
       234.000         192.000
 107158249.44948 101292134.75248  22294479.0904   22294480.5234   22294479.6874
       237.000         194.000
 110248926.55448  85908249.37948  20979676.8874   20979678.3744   20979676.6514
       249.000         227.000
 134014138.21548  86634387.02548  23599110.7044   23599111.9504   23599110.7444
       225.000         181.000
 113527231.82648  88462781.34648  21603510.8704   21603512.6124   21603510.8154
       245.000         218.000
 118628748.85848  92437963.11248  22574320.7664   22574323.8464   22574321.1844
       233.000         192.000
 09  1  8  2  2 30.0000000  0 10G28G 9G30G26G17G18G15G22G12G 5
 133700060.46448 104181857.54848  25442282.7624   25442284.2224   25442282.6264
       209.000         143.000
 115704289.90348  72366966.80948  20114866.5654   20114868.8534   20114866.8764
       255.000         230.000
 140352810.96448  91573607.34648  24805325.0474   24805327.9894   24805325.2064
       213.000         157.000
 118419097.75348  92274598.43948  22534421.7264   22534424.5334   22534421.6514
       234.000         193.000
 122180775.95748  95205787.97948  23250238.4064   23250239.9634   23250238.8154
       233.000         193.000
 107171696.66948 101302613.09548  22297038.0004   22297039.4684   22297038.5894
       236.000         194.000
 110305175.09148  85952079.39448  20990380.6164   20990382.1824   20990380.3294
       248.000         227.000
 133973598.30448  86602797.50048  23591396.6914   23591397.2274   23591396.4824
       222.000         174.000
 113453327.19248  88405193.32248  21589447.6634   21589449.0914   21589447.4394
       246.000         219.000
 118534601.33448  92364601.41148  22556404.9794   22556408.0744   22556405.0564
       232.000         191.000
 09  1  8  2  3  0.0000000  0 10G28G 9G30G26G17G18G15G22G12G 5
 133796966.16848 104257368.48048  25460722.4204   25460723.8224   25460721.7304
       205.000         140.000
 115679657.49048  72347772.72648  20110178.9004   20110181.5254   20110178.8944
       254.000         230.000
 140241419.38348  91486808.69448  24784127.8274   24784130.8384   24784127.5384
       211.000         156.000
 118513762.01748  92348362.80348  22552435.9464   22552438.4224   22552436.4584
       235.000         191.000
 122196086.94548  95217718.65248  23253152.1064   23253153.4424   23253152.2244
       232.000         192.000
 107185705.11148 101313528.74248  22299703.6974   22299705.1574   22299704.0804
       236.000         195.000
 110361863.46948  85996252.15348  21001167.8894   21001169.7104   21001167.5414
       249.000         227.000
 133933565.15748  86571602.83648  23583778.2474   23583778.2484   23583776.9834
       229.000         180.000
 113379814.43948  88347910.66448  21575458.5894   21575460.1804   21575458.5594
       246.000         219.000
 118440738.15748  92291461.29648  22538543.0074   22538546.5244   22538543.0674
       233.000         192.000
 09  1  8  2  3 30.0000000  0 10G28G 9G30G26G17G18G15G22G12G 5
 133893884.66148 104332889.35248  25479165.3544   25479166.6114   25479164.9614
       205.000         142.000
 115655363.79648  72328842.57948  20105556.0184   20105558.7114   20105556.1874
       254.000         230.000
 140130122.38448  91400083.76748  24762949.0464   24762951.5924   24762949.1084
       216.000         157.000
 118608687.85648  92422330.99548  22570499.3754   22570502.1254   22570499.4394
       233.000         192.000
 122211952.82248  95230081.68048  23256170.7394   23256172.6424   23256170.6754
       233.000         192.000
 107200273.65048 101324880.84148  22302476.2184   22302477.6784   22302477.0114
       236.000         194.000
 110418991.20148  86040767.26348  21012039.1114   21012040.8584   21012039.0684
       248.000         226.000
 133894040.01248  86540804.00448  23576257.9614   23576258.4494   23576258.6644
       226.000         182.000
 113306694.87148  88290934.38348  21561544.3394   21561546.1344   21561543.9484
       246.000         219.000
 118347160.94348  92218544.00148  22520735.9924   22520739.3324   22520736.3014
       233.000         192.000
 09  1  8  2  4  0.0000000  0 10G28G 9G30G26G17G18G15G22G12G 5
 133990814.88048 104408419.39748  25497610.4904   25497611.6264   25497610.4384
       209.000         141.000
 115631409.17648  72310176.64448  20100997.6454   20101000.1804   20100997.8584
       254.000         230.000
 140018921.80148  91313433.97448  24741788.9584   24741790.9794   24741789.9934
       215.000         157.000
 118703873.84048  92496501.88848  22588612.9124   22588615.6834   22588612.4624
       234.000         193.000
 122228373.31048  95242876.86648  23259296.0024   23259297.7394   23259295.7054
       235.000         194.000
 107215401.68648 101336668.91348  22305354.5924   22305356.3044   22305355.2624
       236.000         193.000
 110476557.49848  86085624.11148  21022993.5754   21022995.3714   21022993.3944
       248.000         226.000
 133855024.28548  86510402.15348  23568832.7714   23568833.1014   23568833.1564
       229.000         180.000
 113233970.23948  88234265.84848  21547705.2374   21547706.7444   21547705.0974
       246.000         219.000
 118253871.39348  92145850.87148  22502983.4964   22502986.9334   22502983.4704
       232.000         193.000
 09  1  8  2  4 30.0000000  0 10G28G 9G30G26G17G18G15G22G12G 5
 134087754.95748 104483957.08648  25516057.1984   25516058.9084   25516058.4154
       210.000         143.000
 115607794.19048  72291775.36148  20096503.8754   20096506.3134   20096504.0874
       254.000         230.000
 139907819.34248  91226860.64448  24720646.6844   24720648.8534   24720646.6384
       216.000         158.000
 118799318.42348  92570874.28748  22606775.6564   22606778.0764   22606775.5884
       233.000         193.000
 122245347.84648  95256103.77648  23262526.1944   23262527.5904   23262526.1274
       236.000         193.000
 107231088.23848 101348892.19448  22308339.7324   22308341.3454   22308340.0314
       236.000         194.000
 110534561.41748  86130821.95848  21034031.3374   21034033.0284   21034031.1634
       249.000         226.000
 133816518.82748  86480397.88048  23561506.0384   23561506.1884   23561506.0114
       225.000         182.000
 113161641.15248  88177905.52848  21533941.2854   21533942.8774   21533941.4074
       246.000         219.000
 118160870.98548  92073383.03748  22485286.0184   22485289.4074   22485285.3614
       234.000         193.000
 09  1  8  2  5  0.0000000  0 10G28G 9G30G26G17G18G15G22G12G 5
 134184702.28748 104559500.51548  25534506.7594   25534507.6054   25534506.4134
       209.000         141.000
 115584518.14348  72273638.17848  20092074.6824   20092077.0724   20092074.8624
       254.000         230.000
 139796815.67848  91140364.30048  24699523.2614   24699525.5164   24699523.2644
       218.000         158.000
 118895019.29748  92645446.38148  22624986.8174   22624989.4974   22624986.9754
       234.000         192.000
 122262875.54748  95269761.74048  23265861.7534   23265862.8174   23265861.6014
       234.000         192.000
 107247330.92548 101361548.82648  22311430.6454   22311432.4494   22311431.2154
       236.000         194.000
 110593000.92748  86176359.23148  21045152.0494   21045153.7484   21045151.8384
       248.000         226.000
 133778523.76548  86450791.36048  23554275.2904   23554276.3384   23554274.1494
       227.000         182.000
 113089707.87648  88121853.63948  21520252.8174   21520254.3974   21520252.5724
       245.000         219.000
 118068160.13648  92001140.82948  22467643.8334   22467646.8754   22467644.2104
       234.000         193.000
 09  1  8  2  5 30.0000000  0 10G28G 9G30G26G17G18G15G22G12G 5
 134281651.90248 104635045.62448  25552955.2594   25552957.3084   25552955.5384
       209.000         143.000
 115561578.45948  72255763.10348  20087709.2844   20087711.7024   20087709.4704
       254.000         230.000
 139685909.40148  91053943.84548  24678418.2954   24678420.4394   24678418.4954
       215.000         159.000
 118990971.64748  92720214.44448  22643246.0754   22643248.5304   22643246.3804
       234.000         193.000
 122280953.04648  95283848.10848  23269301.2024   23269302.7884   23269301.0274
       233.000         192.000
 107264125.84948 101374635.78048  22314627.0644   22314628.3054   22314627.9274
       236.000         195.000
 110651872.27148  86222233.00348  21056354.8184   21056356.5174   21056354.5654
       247.000         225.000
 133741037.25648  86421581.08648  23547141.7094   23547142.5054   23547143.3684
       224.000         180.000
 113018168.58348  88066108.74448  21506639.3834   21506640.8934   21506639.2564
       245.000         219.000
 117975737.40248  91929123.12848  22450056.3084   22450059.3914   22450056.0684
       234.000         194.000
 09  1  8  2  6  0.0000000  0  9G 9G30G26G17G18G15G22G12G 5
 115538982.19248  72238155.62348  20083409.2994   20083411.7374   20083409.5484
       254.000         229.000
 139575108.86048  90967605.80948  24657333.0774   24657336.0204   24657332.2514
       216.000         158.000
 119087180.93548  92795182.72848  22661553.9654   22661556.5494   22661553.6304
       233.000         192.000
 122299587.04048  95298368.10448  23272847.3374   23272848.7214   23272847.1004
       234.000         193.000
 107281478.78648 101388157.53548  22317929.0564   22317930.7004   22317929.5874
       237.000         194.000
 110711181.42748  86268447.92348  21067640.9604   21067642.7234   21067640.5674
       248.000         225.000
 133704067.04748  86392773.13648  23540106.5434   23540106.8524   23540105.6394
       228.000         180.000
 112947031.04348  88010676.90048  21493102.4544   21493103.6924   21493102.3324
       246.000         219.000
 117883611.19848  91857336.49248  22432525.4464   22432528.5584   22432525.7874
       235.000         195.000
 09  1  8  2  6 30.0000000  0  9G 9G30G26G17G18G15G22G12G 5
 115516727.88848  72220814.60648  20079174.4754   20079176.9784   20079174.5434
       254.000         230.000
 139464413.64148  90881349.83648  24636268.4454   24636271.2754   24636268.6724
       217.000         160.000
 119183643.63548  92870348.47048  22679910.3214   22679912.8594   22679910.3844
       232.000         191.000
 122318775.15348  95313319.87748  23276498.7354   23276500.2444   23276498.5824
       233.000         193.000
 107299387.09548 101402112.04648  22321336.7204   22321338.3374   22321337.3164
       236.000         194.000
 110770925.71348  86315001.90848  21079009.8834   21079011.6864   21079009.6774
       248.000         225.000
 133667612.11348  86364366.69248  23533170.0114   23533169.8234   23533170.1234
       222.000         177.000
 112876294.91148  87955557.84148  21479641.7554   21479642.9374   21479641.8024
       245.000         220.000
 117791780.82848  91785780.37048  22415051.0004   22415053.7264   22415051.2544
       235.000         196.000
 09  1  8  2  7  0.0000000  0  9G 9G30G26G17G18G15G22G12G 5
 115494815.67148  72203740.15548  20075004.6074   20075007.1234   20075004.6844
       254.000         230.000
 139353825.48748  90795177.29548  24615224.0544   24615226.7514   24615224.0364
       219.000         158.000
 119280357.94248  92945710.25648  22698314.3284   22698316.9214   22698314.4914
       230.000         191.000
 122338516.89648  95328703.06248  23280255.1824   23280257.2054   23280254.9944
       233.000         193.000
 107317849.26548 101416498.14948  22324849.9974   22324851.3424   22324850.7354
       236.000         194.000
 110831103.66848  86361893.81448  21090461.4924   21090463.1724   21090461.2824
       248.000         225.000
 133631673.29048  86336362.41148  23526329.9574   23526330.1944   23526328.8494
       222.000         175.000
 112805961.03348  87900752.23248  21466257.4574   21466259.0354   21466257.0854
       245.000         219.000
 117700247.77448  91714455.91748  22397632.7834   22397635.7514   22397633.1474
       237.000         197.000
 09  1  8  2  7 30.0000000  0  9G 9G30G26G17G18G15G22G12G 5
 115473246.20048  72186932.77748  20070900.0834   20070902.5464   20070900.3134
       254.000         229.000
 139243346.16148  90709089.58248  24594200.3724   24594203.1994   24594200.0224
       218.000         158.000
 119377322.73548  93021267.22748  22716765.9544   22716768.7834   22716766.1024
       233.000         192.000
 122358811.83448  95344517.28648  23284117.7434   23284119.2474   23284117.1044
       236.000         194.000
 107336863.92448 101431314.75748  22328468.5664   22328469.7384   22328469.3134
       236.000         193.000
 110891714.92648  86409123.36648  21101995.3524   21101997.0664   21101995.2164
       247.000         225.000
 133596251.87148  86308761.28048  23519590.3814   23519590.6174   23519590.3394
       225.000         180.000
 112736030.62148  87846261.01748  21452950.0904   21452951.7924   21452950.0984
       246.000         220.000
 117609013.66048  91643364.42248  22380271.1794   22380274.6684   22380271.7994
       238.000         197.000
 09  1  8  2  8  0.0000000  0  9G 9G30G26G17G18G15G22G12G 5
 115452018.64848  72170391.82948  20066860.8504   20066863.1594   20066861.0934
       254.000         230.000
 139132975.85148  90623086.79048  24573197.9494   24573200.8644   24573197.4824
       219.000         158.000
 119474535.22648  93097017.21748  22735265.0004   22735267.6454   22735265.3054
       231.000         191.000
 122379658.56148  95360761.49848  23288084.5834   23288086.2024   23288084.9074
       234.000         193.000
 107356429.07648 101446560.32448  22332191.6224   22332192.7604   22332192.0914
       235.000         192.000
 110952757.14348  86456688.72148  21113611.3554   21113613.0924   21113611.1024
       248.000         224.000
 133561347.50648  86281563.08648  23512947.7864   23512949.3114   23512947.9674
       226.000         182.000
 112666503.68248  87792084.18548  21439719.6254   21439721.3014   21439719.4374
       246.000         220.000
 117518078.69348  91572506.00648  22362967.0594   22362970.2434   22362968.1854
       236.000         198.000
 09  1  8  2  8 30.0000000  0  9G 9G30G26G17G18G15G22G12G 5
 115431133.73748  72154117.87548  20062886.5014   20062888.8184   20062886.6544
       253.000         230.000
 139022716.62548  90537170.55448  24552216.5784   24552218.9934   24552217.3094
       212.000         160.000
 119571994.20748  93172959.27948  22753810.8214   22753813.6004   22753810.2804
       232.000         190.000
 122401057.29548  95377435.83148  23292155.8844   23292158.1944   23292155.9894
       231.000         192.000
 107376543.79348 101462234.12248  22336019.1814   22336020.5494   22336019.5904
       235.000         191.000
 111014229.98348  86504589.63148  21125309.1464   21125311.0734   21125308.9584
       247.000         225.000
 133526961.58448  86254768.84548  23506405.4294   23506405.5864   23506405.3064
       227.000         182.000
 112597381.77748  87738222.97248  21426566.2914   21426567.9324   21426566.3674
       246.000         221.000
 117427444.79848  91501882.21148  22345719.7664   22345723.0204   22345720.3364
       236.000         197.000
 09  1  8  2  9  0.0000000  0  9G 9G30G26G17G18G15G22G12G 5
 115410592.27348  72138111.53948  20058977.6154   20058980.0104   20058977.8084
       253.000         230.000
 138912570.33848  90451342.33448  24531255.5624   24531259.2884   24531254.3534
       215.000         160.000
 119669698.44048  93249092.44748  22772403.4764   22772405.8644   22772403.7424
       231.000         188.000
 122423007.50748  95394539.90948  23296333.1074   23296335.0394   23296332.5374
       234.000         193.000
 107397207.48848 101478335.68948  22339951.3004   22339952.7194   22339951.3974
       234.000         192.000
 111076132.23348  86552825.13848  21137088.8774   21137090.6584   21137088.5944
       248.000         224.000
 133493095.08648  86228379.39748  23499960.1444   23499960.7874   23499959.7084
       225.000         179.000
 112528666.00448  87684678.21448  21413490.2274   21413491.8174   21413490.0534
       247.000         221.000
 117337113.54448  91431494.23748  22328530.0964   22328533.4724   22328530.6904
       237.000         198.000
