     2.11           OBSERVATION DATA    G (GPS)             RINEX VERSION / TYPE
teqc  2008Oct2      gpsops              20090102 00:05:49UTCPGM / RUN BY / DATE
    30.0000                                                 INTERVAL
     1     1                                                WAVELENGTH FACT L1/2
     7    L1    L2    P1    P2    C1    S1    S2            # / TYPES OF OBSERV
Linux 2.4.20-8|Pentium IV|gcc -static|Linux|486/DX+         COMMENT
     2.10           OBSERVATION DATA    GPS                 COMMENT
soc2rnx ver 1.20    gpsops               2-Jan-2009 00:05:47COMMENT
S1, if present, is the SNR for the C/A data stream on L1.   COMMENT
 SNR is mapped to RINEX snr flag value [1,4-9]              COMMENT
    SNR:   >316  >100  >31.6  >10  >3.2    >0 bad=0         COMMENT
L1 & L2:      9     8     7     6     5     4     1         COMMENT
                                                            COMMENT
This data is provided as a public service by NASA/JPL.      COMMENT
No warranty is expressed or implied regarding suitability   COMMENT
for use.  For further information, contact:                 COMMENT
Dave Stowers, NASA/JPL m/s 238-600                          COMMENT
4800 Oak Grove Drive, Pasadena CA 91109 USA                 COMMENT
                                                            COMMENT
Forced Modulo Decimation to 30 seconds                      COMMENT
  2009     1     1     0     0    0.0000000     GPS         TIME OF FIRST OBS
DSN                 JPL                                     OBSERVER / AGENCY
451-U               AOAD/M_T        NONE                    ANT # / TYPE
  4849202.3940  -360328.9929  4114913.1862                  APPROX POSITION XYZ
        0.0254        0.0000        0.0000                  ANTENNA: DELTA H/E/N
LP03574             ASHTECH Z-XII3      CC00                REC # / TYPE / VERS
MADR                                                        MARKER NAME
13407S012                                                   MARKER NUMBER
                                                            END OF HEADER
 09  1  1  0  0  0.0000000  0  9G24G 9G10G28G27G21G15G 8G26
 125497882.08048  97790541.42848  23881465.3284   23881469.3224   23881465.6324
       213.000         159.000
 126505972.34848  98576072.64848  24073292.9984   24073296.4194   24073291.1074
       209.000         158.000
 111451346.40348  86845188.11348  21208498.3194   21208501.8284   21208499.2654
       247.000         217.000
 114227873.85148  89008725.43948  21736847.4924   21736849.7294   21736847.8074
       243.000         210.000
 120032907.33948  93532131.04448  22841505.1044   22841506.3314   22841505.5954
       235.000         194.000
 128465059.68248 100102625.77448  24446107.0334   24446104.7294   24446106.6694
       200.000         130.000
 112270946.21248  87483848.35348  21364455.0494   21364456.7604   21364454.4814
       246.000         222.000
 118565137.88348  92388408.06448  22562202.8734   22562206.6354   22562204.5904
       233.000         192.000
 105876792.43348  82501389.92348  20147688.3514   20147690.6954   20147688.0834
       251.000         228.000
 09  1  1  0  0 30.0000000  0  9G24G 9G10G28G27G21G15G 8G26
 125556591.67648  97836289.15148  23892637.5934   23892641.3214   23892637.1294
       211.000         159.000
 126402742.69148  98495634.00148  24053647.1684   24053652.2484   24053646.8134
       210.000         158.000
 111521583.70248  86899918.46548  21221863.9294   21221867.6284   21221864.7624
       247.000         216.000
 114230546.52348  89010808.04548  21737356.0314   21737358.1574   21737356.4774
       243.000         210.000
 120103630.10948  93587239.69948  22854963.1514   22854964.7884   22854963.4334
       234.000         195.000
 128457313.50948 100096589.80148  24444632.2094   24444629.1754   24444632.2564
       186.000         128.000
 112215530.78448  87440667.50648  21353909.7784   21353911.5304   21353909.6524
       245.000         221.000
 118647150.93948  92452314.30948  22577809.3494   22577813.7264   22577810.0484
       231.000         195.000
 105861803.45248  82489710.19548  20144835.9174   20144838.2674   20144835.8324
       251.000         228.000
 09  1  1  0  1  0.0000000  0  9G24G 9G10G28G27G21G15G 8G26
 125615608.03748  97882275.91748  23903867.3174   23903871.9154   23903867.5494
       213.000         158.000
 126299660.90448  98415310.54348  24034032.8924   24034037.1004   24034033.3654
       215.000         164.000
 111592258.76448  86954989.93048  21235313.0444   21235316.5534   21235313.8564
       247.000         216.000
 114233758.85448  89013311.16748  21737967.3694   21737969.4764   21737967.7394
       242.000         209.000
 120174430.32348  93642408.69148  22868435.6364   22868439.4354   22868435.3104
       233.000         196.000
 128450078.00848 100090951.68848  24443252.1524   24443257.0894   24443248.4364
       190.000         132.000
 112160319.07948  87397645.40548  21343403.0584   21343405.0074   21343402.5864
       246.000         221.000
 118729322.00248  92516343.67748  22593446.4134   22593450.9034   22593446.1834
       233.000         195.000
 105847158.93748  82478298.88348  20142049.1474   20142051.5474   20142049.0374
       251.000         228.000
 09  1  1  0  1 30.0000000  0  9G24G 9G10G28G27G21G15G 8G26
 125674927.29748  97928498.68848  23915154.6394   23915159.1084   23915154.8114
       211.000         156.000
 126196726.87148  98335102.23148  24014445.5434   24014449.3854   24014445.4834
       217.000         166.000
 111663367.94248  87010399.67648  21248844.7224   21248848.1684   21248845.4084
       247.000         216.000
 114237509.62648  89016233.86048  21738680.8584   21738683.2014   21738681.3924
       243.000         209.000
 120245305.40648  93697635.99748  22881922.9144   22881927.0984   22881922.8724
       235.000         195.000
 128443351.21148 100085710.03148  24441973.7914   24441975.5694   24441973.5624
       191.000         131.000
 112105310.78848  87354781.80348  21332935.5804   21332937.3744   21332935.4404
       246.000         222.000
 118811647.72348  92580493.56648  22609112.5544   22609115.9164   22609113.4254
       233.000         190.000
 105832858.32048  82467155.54348  20139327.8094   20139330.1834   20139327.7134
       251.000         228.000
 09  1  1  0  2  0.0000000  0  9G24G 9G10G28G27G21G15G 8G26
 125734546.01348  97974954.82748  23926500.4084   23926504.1364   23926500.0434
       216.000         158.000
 126093941.19948  98255009.55648  23994885.3934   23994889.8164   23994885.5934
       220.000         169.000
 111734909.13648  87066146.05148  21262458.6004   21262461.9244   21262459.2364
       247.000         216.000
 114241798.13648  89019575.55948  21739496.8924   21739499.0504   21739497.6164
       243.000         208.000
 120316253.88948  93752920.51548  22895424.2184   22895426.5044   22895425.2704
       233.000         194.000
 128437132.92048 100080864.54148  24440789.3474   24440792.4634   24440789.8274
       195.000         129.000
 112050506.68148  87312077.30948  21322506.7884   21322508.3634   21322506.5224
       246.000         222.000
 118894125.93348  92644762.29848  22624807.5914   22624809.2314   22624807.4684
       232.000         186.000
 105818901.97048  82456280.46648  20136671.9934   20136674.4954   20136671.9334
       251.000         228.000
 09  1  1  0  2 30.0000000  0  9G24G 9G10G28G27G21G15G 8G26
 125794461.13648  98021641.92748  23937901.7774   23937906.4844   23937902.7734
       212.000         157.000
 125991304.00048  98175032.52248  23975355.6524   23975358.7374   23975355.9914
       222.000         170.000
 111806879.95348  87122227.20248  21276154.2054   21276157.5664   21276155.1874
       248.000         216.000
 114246623.38048  89023335.50048  21740415.4104   21740417.3404   21740415.8984
       242.000         209.000
 120387273.94148  93808260.82748  22908938.8874   22908941.1724   22908939.0374
       232.000         194.000
 128431421.96648 100076414.47348  24439703.7874   24439703.1644   24439706.6234
       191.000         132.000
 111995907.41248  87269532.42548  21312116.9084   21312118.3234   21312116.9484
       245.000         222.000
 118976754.61348  92709148.29248  22640531.2974   22640532.6324   22640531.8024
       232.000         185.000
 105805289.80848  82445673.58848  20134081.6844   20134084.1854   20134081.6564
       251.000         228.000
 09  1  1  0  3  0.0000000  0  9G24G 9G10G28G27G21G15G 8G26
 125854671.12448  98068558.78048  23949359.1374   23949364.1294   23949358.6114
       216.000         158.000
 125888818.14348  98095173.47948  23955852.5524   23955856.2224   23955852.0704
       222.000         169.000
 111879280.13248  87178642.91848  21289931.6034   21289935.0224   21289932.2254
       247.000         216.000
 114251986.90548  89027514.87548  21741436.0124   21741437.9634   21741436.4934
       242.000         209.000
 120458366.06548  93863657.26648  22922466.9824   22922471.1834   22922466.3354
       232.000         194.000
 128426219.25248 100072360.50048  24438715.9884   24438714.7344   24438712.5794
       195.000         134.000
 111941515.56148  87227149.16848  21301766.3194   21301768.3464   21301765.8384
       247.000         222.000
 119059533.38248  92773651.23048  22656283.4434   22656285.3344   22656284.3194
       231.000         187.000
 105792023.99348  82435336.58948  20131557.2674   20131559.8004   20131557.1344
       251.000         228.000
 09  1  1  0  3 30.0000000  0  9G24G 9G10G28G27G21G15G 8G26
 125915173.60248  98115703.57348  23960872.7074   23960876.9054   23960872.1074
       218.000         158.000
 125786484.86748  98015433.30148  23936379.3784   23936382.6364   23936379.3254
       220.000         166.000
 111952107.86048  87235391.79348  21303789.9784   21303793.7324   21303790.9344
       247.000         215.000
 114257888.70048  89032113.68748  21742559.1124   21742561.0794   21742559.5104
       241.000         209.000
 120529529.28148  93919109.11648  22936008.7114   22936012.1134   22936008.9374
       231.000         192.000
 128421524.76348 100068702.41448  24437821.2974   24437825.0074   24437820.7874
       196.000         132.000
 111887332.40848  87184928.53148  21291455.4984   21291457.4464   21291455.3744
       245.000         222.000
 119142460.88148  92838270.05548  22672064.1254   22672067.5284   22672064.6874
       231.000         190.000
 105779105.22748  82425270.01448  20129098.9834   20129101.3504   20129098.9664
       251.000         228.000
 09  1  1  0  4  0.0000000  0  9G24G 9G10G28G27G21G15G 8G26
 125975965.18748  98163073.63948  23972441.0944   23972445.1514   23972442.1574
       218.000         160.000
 125684304.40448  97935812.16648  23916934.9164   23916938.3684   23916935.5584
       220.000         168.000
 112025360.06748  87292471.42548  21317729.5504   21317733.2324   21317730.3274
       246.000         216.000
 114264327.73948  89037131.12948  21743784.2494   21743786.3824   21743784.7364
       243.000         209.000
 120600761.75848  93974614.93748  22949564.0644   22949566.3464   22949564.0794
       233.000         193.000
 128417337.03848 100065439.21148  24437019.9024   24437025.8574   24437023.5064
       187.000         125.000
 111833358.50048  87142870.94048  21281184.7734   21281186.4364   21281184.3714
       246.000         222.000
 119225534.64248  92903002.83048  22687872.3794   22687877.2904   22687873.0384
       230.000         190.000
 105766533.43248  82415473.81348  20126706.6484   20126708.9894   20126706.6764
       251.000         228.000
 09  1  1  0  4 30.0000000  0  9G24G 9G10G28G27G21G15G 8G26
 126037043.76248  98210667.33348  23984064.1264   23984068.4374   23984063.5494
       221.000         163.000
 125582278.29848  97856311.30448  23897519.6354   23897523.1794   23897519.2554
       221.000         164.000
 112099035.79648  87349881.08248  21331749.5254   21331753.4144   21331750.0994
       247.000         215.000
 114271304.22548  89042567.36048  21745111.9494   21745113.9204   21745112.2754
       243.000         209.000
 120672063.08448  94030174.39348  22963132.4964   22963135.9984   22963132.8964
       232.000         194.000
 128413656.09548 100062570.90248  24436321.9374   24436323.4844   24436321.9784
       196.000         128.000
 111779595.50548  87100977.70248  21270953.8104   21270955.6684   21270953.4394
       246.000         223.000
 119308753.53748  92967848.70048  22703708.5944   22703712.3224   22703709.4074
       231.000         187.000
 105754309.79148  82405948.90048  20124380.4624   20124382.8504   20124380.4044
       251.000         228.000
 09  1  1  0  5  0.0000000  0  9G24G 9G10G28G27G21G15G 8G26
 126098405.77048  98258481.85348  23995740.6344   23995745.2044   23995741.0354
       220.000         163.000
 125480406.88448  97776930.95148  23878133.5974   23878137.7984   23878134.5404
       218.000         164.000
 112173131.76248  87407618.19448  21345849.5694   21345853.2934   21345850.7904
       246.000         215.000
 114278816.92048  89048421.41948  21746541.4744   21746543.5254   21746542.1374
       242.000         209.000
 120743431.00248  94085785.74048  22976713.1794   22976717.1124   22976713.4304
       233.000         194.000
 128410480.76848 100060096.62148  24435719.2024   24435721.4894   24435722.0404
       197.000         127.000
 111726043.56348  87059248.91848  21260763.2924   21260765.1234   21260763.1084
       247.000         223.000
 119392114.75348  93032805.49448  22719571.5464   22719573.6294   22719572.4914
       229.000         186.000
 105742434.01048  82396695.04448  20122120.4534   20122123.1304   20122120.2834
       250.000         228.000
 09  1  1  0  5 30.0000000  0  7G24G 9G10G28G27G21G26
 126160048.84748  98306515.42848  24007470.6464   24007475.1574   24007470.7034
       217.000         160.000
 125378691.50648  97697672.21848  23858777.9834   23858782.2984   23858777.1394
       218.000         166.000
 112247647.12248  87465682.10748  21360029.4274   21360033.0234   21360030.2344
       247.000         214.000
 114286866.15548  89054693.55848  21748073.1014   21748075.3174   21748073.4684
       242.000         209.000
 120814865.02748  94141448.60948  22990306.7364   22990309.1984   22990307.1274
       231.000         193.000
 128407810.73648 100058016.00648  24435211.7124   24435213.9244   24435213.7564
       190.000         125.000
 105730907.33348  82387713.21448  20119926.9744   20119929.6604   20119926.8884
       250.000         228.000
 09  1  1  0  6  0.0000000  0  9G24G 9G10G28G27G21G15G 8G26
 126221972.09348  98354767.27948  24019254.3574   24019259.1174   24019254.6344
       220.000         164.000
 125277134.61148  97618536.93948  23839452.1204   23839456.0204   23839452.5114
       217.000         161.000
 112322580.91348  87524072.06348  21374288.8934   21374292.3764   21374289.5714
       246.000         214.000
 114295452.70248  89061384.37748  21749707.2374   21749709.1404   21749707.8944
       241.000         208.000
 120886365.39648  94197163.18548  23003912.7124   23003915.3784   23003912.8104
       232.000         192.000
 128405647.03148 100056329.97748  24434798.7294   24434799.6074   24434793.8814
       191.000         123.000
 111619581.47848  86976291.45748  21240504.3284   21240506.1334   21240504.1294
       246.000         224.000
 119559261.11948  93163049.38448  22751378.1844   22751382.4214   22751378.3164
       231.000         189.000
 105719731.71648  82379004.94148  20117800.3144   20117803.1454   20117800.2424
       251.000         228.000
 09  1  1  0  6 30.0000000  0  9G24G 9G10G28G27G21G15G 8G26
 126284170.95548  98403233.93348  24031090.9244   24031095.1214   24031091.1774
       222.000         163.000
 125175736.14548  97539525.18048  23820156.4854   23820160.2164   23820156.4954
       218.000         162.000
 112397930.16248  87582785.75448  21388627.4114   21388630.9434   21388628.1264
       246.000         214.000
 114304575.39148  89068492.96848  21751443.2184   21751445.1694   21751443.7224
       242.000         208.000
 120957929.77248  94252927.60948  23017530.9194   23017534.3344   23017531.3274
       232.000         192.000
 138404026.60358  90055072.94458  24434483.8685   24434484.4575   24434480.9985
       192.000         129.000
 111566673.64248  86935064.57048  21230436.3064   21230438.1534   21230435.9354
       247.000         224.000
 119643043.24048  93228334.14048  22767321.9754   22767325.0454   22767323.3934
       229.000         187.000
 105708906.65248  82370569.82048  20115740.5244   20115743.0994   20115740.4694
       250.000         228.000
 09  1  1  0  7  0.0000000  0  9G24G 9G10G28G27G21G15G 8G26
 126346642.44048  98451912.97348  24042978.8144   24042982.4774   24042978.8804
       220.000         162.000
 125074496.54548  97460637.15648  23800891.6084   23800895.2354   23800891.4524
       220.000         166.000
 112473692.85548  87641821.60948  21403044.5604   21403048.0854   21403045.3224
       245.000         214.000
 114314233.54848  89076018.81548  21753280.9404   21753282.9524   21753281.3464
       242.000         208.000
 121029556.99948  94308741.00948  23031161.3084   23031164.1484   23031161.6284
       231.000         192.000
 138402870.66248  90054172.28148  24434262.4754   24434264.9634   24434262.0674
       193.000         131.000
 111513982.00748  86894006.15148  21220409.4764   21220411.2094   21220409.0884
       247.000         224.000
 119726961.56948  93293725.04348  22783291.3584   22783293.3134   22783291.6284
       230.000         188.000
 105698432.19248  82362407.90648  20113747.0854   20113749.8854   20113746.9464
       251.000         227.000
 09  1  1  0  7 30.0000000  0  9G24G 9G10G28G27G21G15G 8G26
 126409383.24348  98500801.93548  24054917.9284   24054921.8974   24054918.4104
       219.000         164.000
 124973416.39248  97381873.41548  23781656.4634   23781660.4404   23781656.6894
       220.000         167.000
 112549865.96348  87701177.26548  21417539.7334   21417543.2814   21417540.3874
       245.000         213.000
 114324425.74048  89083960.78948  21755220.7094   21755222.4924   21755221.2214
       243.000         209.000
 121101245.44348  94364602.13548  23044803.2194   23044805.6294   23044803.7204
       231.000         191.000
 138402216.77548  90053662.73648  24434138.1714   24434141.6334   24434138.7224
       188.000         128.000
 111461507.25148  86853116.73848  21210423.7294   21210425.7804   21210423.4664
       247.000         224.000
 119811014.00448  93359220.42748  22799286.1994   22799289.3404   22799287.2914
       230.000         190.000
 105688308.61448  82354519.39948  20111820.6984   20111823.4064   20111820.5984
       251.000         227.000
 09  1  1  0  8  0.0000000  0  9G24G 9G10G28G27G21G15G 8G26
 126472391.81648  98549899.54148  24066907.8334   24066912.2174   24066907.9344
       220.000         165.000
 124872497.80248  97303235.53348  23762453.6154   23762456.7414   23762453.4964
       222.000         170.000
 112626448.96048  87760852.32848  21432112.9404   21432116.3744   21432113.9164
       245.000         212.000
 114335153.36648  89092319.97948  21757261.9424   21757263.8104   21757262.4524
       242.000         209.000
 121172995.12648  94420510.97748  23058456.5474   23058459.3804   23058456.9614
       231.000         191.000
 138402065.70748  90053545.04448  24434108.8374   24434112.2914   24434108.4524
       191.000         123.000
 111409251.88248  86812398.27348  21200479.9294   21200481.8504   21200479.7144
       246.000         224.000
 119895199.98548  93424819.85948  22815306.0114   22815309.8284   22815306.4004
       228.000         188.000
 105678537.86048  82346905.82148  20109961.3794   20109963.9904   20109961.3184
       251.000         227.000
 09  1  1  0  8 30.0000000  0  9G24G 9G10G28G27G21G15G 8G26
 126535664.99548  98599203.30848  24078948.4894   24078952.7424   24078948.6614
       222.000         167.000
 124771741.42448  97224724.06748  23743280.2124   23743283.4434   23743280.7604
       220.000         168.000
 112703439.10248  87820844.63648  21446763.5684   21446767.1584   21446764.2994
       244.000         212.000
 114346414.85548  89101095.18048  21759405.1304   21759406.8484   21759405.8034
       242.000         209.000
 121244804.27148  94476466.12948  23072121.1964   23072124.5914   23072121.3174
       230.000         191.000
 118402437.42658 110053839.22758  24434177.4985   24434179.4735   24434178.4585
       190.000         126.000
 111357216.48248  86771851.21448  21190577.7544   21190579.8684   21190577.5184
       246.000         224.000
 119979517.50648  93490521.82248  22831351.0804   22831353.5574   22831351.3454
       229.000         187.000
 105669119.63348  82339566.94448  20108169.3144   20108171.8014   20108169.1634
       251.000         227.000
 09  1  1  0  9  0.0000000  0  9G24G 9G10G28G27G21G15G 8G26
 126599200.18748  98648711.26548  24091038.9394   24091042.9904   24091038.7284
       223.000         168.000
 124671148.25248  97146339.80448  23724137.0494   23724140.5834   23724137.1734
       219.000         166.000
 112780834.49248  87881152.72648  21461491.3274   21461495.1654   21461492.0924
       244.000         212.000
 114358210.34448  89110286.46748  21761649.7864   21761651.6204   21761650.2884
       243.000         210.000
 121316672.09348  94532467.01648  23085797.2364   23085800.6114   23085797.5304
       229.000         192.000
 138403278.99158  90054492.77558  24434338.6735   24434341.5145   24434343.0005
       197.000         132.000
 111305402.53548  86731476.71448  21180717.9554   21180719.9084   21180717.5694
       247.000         224.000
 120063965.06748  93556325.08548  22847420.7764   22847423.3764   22847421.4714
       228.000         188.000
 105660054.93248  82332503.54048  20106444.3764   20106446.8254   20106444.3514
       251.000         227.000
 09  1  1  0  9 30.0000000  0  9G24G 9G10G28G27G21G15G 8G26
 126662994.69848  98698421.29148  24103178.5734   24103183.2074   24103179.5324
       220.000         168.000
 124570719.44448  97068083.56948  23705026.2984   23705029.7434   23705026.1884
       221.000         165.000
 112858633.15248  87941775.05148  21476296.0204   21476300.0184   21476296.7424
       244.000         212.000
 114370539.21948  89119893.39148  21763995.8704   21763997.6834   21763996.5654
       241.000         209.000
 121388597.85648  94588513.06048  23099484.0544   23099487.4414   23099483.9884
       230.000         191.000
 138404630.58748  90055545.94748  24434597.0404   24434599.5344   24434599.0624
       200.000         136.000
 111253811.09048  86691275.59148  21170900.4324   21170902.3964   21170900.3844
       247.000         225.000
 120148541.01848  93622228.40948  22863514.6264   22863518.5834   22863515.5694
       226.000         187.000
 105651344.31448  82325716.04548  20104786.7414   20104789.3064   20104786.7034
       251.000         227.000
 09  1  1  0 10  0.0000000  0  9G24G 9G10G28G27G21G15G 8G26
 126727046.06048  98748331.46148  24115367.4534   24115371.3894   24115367.4214
       218.000         168.000
 124470456.43648  96989956.53148  23685946.6124   23685950.1014   23685947.2244
       219.000         164.000
 112936833.44648  88002710.34048  21491177.1174   21491181.0504   21491177.7294
       244.000         211.000
 114383401.17148  89129915.69348  21766443.0534   21766445.3324   21766443.3544
       243.000         210.000
 121460580.76448  94644603.62648  23113182.1294   23113185.5014   23113183.0104
       228.000         191.000
 138406482.17548  90056988.78748  24434949.2644   24434950.5394   24434948.9054
       197.000         133.000
 111202443.99048  86651249.27948  21161125.7454   21161127.5804   21161125.4144
       247.000         225.000
 120233244.59948  93688231.16548  22879632.9634   22879636.9094   22879632.6754
       227.000         185.000
 105642988.90648  82319205.33548  20103196.8524   20103199.1684   20103196.8264
       251.000         227.000
 09  1  1  0 10 30.0000000  0  9G24G 9G10G28G27G21G15G 8G26
 126791351.84748  98798439.83948  24127604.5454   24127608.6604   24127604.2174
       220.000         169.000
 124370360.54648  96911959.70948  23666898.8054   23666902.6794   23666899.2334
       216.000         162.000
 113015433.60448  88063957.21048  21506134.1174   21506138.0334   21506134.7994
       244.000         212.000
 114396796.33348  89140353.48648  21768992.2664   21768994.2284   21768992.7004
       241.000         209.000
 121532620.09748  94700738.16148  23126890.6854   23126894.3064   23126890.3964
       230.000         190.000
 138408833.41148  90058820.91748  24435397.0574   24435397.9234   24435397.6904
       198.000         134.000
 111151302.89448  86611399.07448  21151393.7614   21151395.6434   21151393.6784
       247.000         225.000
 120318074.13848  93754332.10248  22895775.5184   22895779.0164   22895776.5544
       227.000         185.000
 105634989.61648  82312972.12148  20101674.8044   20101676.9574   20101674.8084
       252.000         228.000
 09  1  1  0 11  0.0000000  0  9G24G 9G10G28G27G21G15G 8G26
 126855908.11648  98848743.41848  24139888.8494   24139893.4554   24139889.2754
       216.000         165.000
 124270431.54848  96834092.94348  23647883.0104   23647886.8314   23647882.4564
       221.000         165.000
 113094430.41848  88125513.15748  21521166.8734   21521170.6774   21521167.6324
       244.000         212.000
 114410723.01148  89151205.45048  21771642.2934   21771644.4894   21771642.3834
       242.000         209.000
 121604713.91048  94756915.14748  23140609.6394   23140612.9054   23140609.9894
       229.000         189.000
 138411682.34348  90061040.86648  24435937.0854   24435940.6374   24435941.3384
       200.000         138.000
 111100388.17248  86571725.26648  21141704.8964   21141707.1444   21141704.4044
       247.000         226.000
 120403027.40148  93820529.43148  22911941.7684   22911944.9194   22911942.0524
       227.000         184.000
 105627345.97648  82307016.04048  20100220.1814   20100222.4164   20100220.2174
       251.000         228.000
 09  1  1  0 11 30.0000000  0  9G24G 9G10G28G27G21G15G 8G26
 126920712.16448  98899240.03648  24152220.3564   24152225.3504   24152220.5214
       215.000         167.000
 124170670.64048  96756357.13248  23628899.8544   23628902.9664   23628901.1774
       222.000         168.000
 113173821.99048  88187376.71748  21536274.5724   21536278.4044   21536275.4884
       243.000         211.000
 114425180.71848  89162471.20748  21774393.5794   21774395.6614   21774393.9194
       241.000         209.000
 121676861.05648  94813133.68548  23154338.7934   23154341.8034   23154339.2104
       228.000         188.000
 138415028.19948  90063648.00348  24436574.6274   24436577.1544   24436578.0314
       201.000         140.000
 111049700.71748  86532228.54948  21132059.4964   21132061.3814   21132059.2674
       247.000         225.000
 120488102.52448  93886821.72648  22928131.3424   22928134.4034   22928132.1664
       226.000         184.000
 105620058.84348  82301337.75648  20098833.3944   20098835.7874   20098833.2094
       251.000         227.000
 09  1  1  0 12  0.0000000  0  9G24G 9G10G28G27G21G15G 8G26
 126985761.57148  98949927.86548  24164598.7164   24164603.6584   24164598.5114
       217.000         165.000
 124071079.06248  96678753.31448  23609948.4484   23609951.8034   23609948.4834
       225.000         173.000
 113253606.33548  88249546.32748  21551457.0994   21551460.8464   21551457.8634
       243.000         211.000
 114440169.29548  89174150.62248  21777245.7874   21777247.8664   21777246.1114
       241.000         209.000
 121749061.11548  94869393.46348  23168077.6614   23168081.3554   23168077.7864
       228.000         189.000
 138418870.56048  90066642.02448  24437308.0534   24437308.6294   24437306.8054
       210.000         142.000
 110999242.05248  86492910.11848  21122457.5354   21122459.3584   21122457.1924
       247.000         226.000
 120573298.57548  93953208.24848  22944343.3444   22944346.9744   22944343.3754
       227.000         184.000
 105613128.93848  82295937.82648  20097514.7514   20097517.0944   20097514.6144
       251.000         228.000
 09  1  1  0 12 30.0000000  0  9G24G 9G10G28G27G21G15G 8G26
 127051053.79548  99000804.89648  24177023.6774   24177027.8514   24177023.5224
       218.000         164.000
 123971658.19848  96601282.51648  23591029.1644   23591032.9024   23591029.8944
       224.000         173.000
 113333781.89748  88312020.78748  21566714.1444   21566717.7514   21566714.9664
       244.000         211.000
 114455688.34248  89186243.39248  21780199.1144   21780200.9924   21780199.4554
       241.000         209.000
 121821313.38148  94925693.91448  23181827.3004   23181830.4774   23181827.6654
       227.000         188.000
 138423208.49348  90070022.21348  24438132.7154   24438133.7094   24438134.4184
       211.000         143.000
 110949013.93748  86453771.32948  21112899.3574   21112901.4554   21112899.0604
       248.000         226.000
 120658613.94348  94019687.71848  22960578.4174   22960582.0894   22960579.1084
       228.000         183.000
 105606557.05448  82290816.87648  20096263.9984   20096266.5784   20096263.9944
       251.000         227.000
 09  1  1  0 13  0.0000000  0  9G24G 9G10G28G27G21G15G 8G26
 127116585.18448  99051868.33648  24189494.2194   24189498.2254   24189494.8244
       217.000         163.000
 123872408.07148  96523944.75548  23572142.4704   23572146.2284   23572142.5224
       224.000         171.000
 113414346.10848  88374798.08848  21582044.9654   21582048.9544   21582046.0174
       243.000         211.000
 114471736.45348  89198748.41248  21783252.9634   21783255.0034   21783253.2904
       242.000         210.000
 121893616.15748  94982033.72848  23195586.0014   23195589.5184   23195586.0194
       226.000         189.000
 138428040.79148  90073787.63748  24439050.9594   24439053.3634   24439053.7434
       213.000         149.000
 110899016.78448  86414812.51048  21103385.2004   21103387.1714   21103384.9944
       248.000         226.000
 120744046.41448  94086258.47148  22976835.9014   22976838.8744   22976836.2934
       227.000         183.000
 105600343.35548  82285975.02748  20095081.5674   20095084.2174   20095081.4074
       251.000         228.000
 09  1  1  0 13 30.0000000  0  9G24G 9G10G28G27G21G15G 8G26
 127182353.88948  99103116.69948  24202009.4824   24202013.7304   24202009.9844
       221.000         162.000
 123773330.33848  96446741.32948  23553288.5624   23553292.0764   23553289.0084
       221.000         170.000
 113495297.40348  88437877.00648  21597449.4324   21597453.4354   21597450.3364
       243.000         210.000
 114488313.81748  89211665.84948  21786407.5894   21786409.6814   21786407.9644
       242.000         210.000
 121965969.26448  95038412.75748  23209354.1284   23209357.8594   23209353.9384
       227.000         188.000
 138433367.11248  90077938.04948  24440064.5264   24440067.0164   24440065.1074
       211.000         150.000
 110849252.79948  86376035.38448  21093915.4184   21093917.4144   21093915.1524
       248.000         226.000
 120829595.36248  94152919.97848  22993115.2954   22993118.5204   22993115.5064
       228.000         184.000
 105594488.99148  82281413.18348  20093967.5804   20093970.2004   20093967.4504
       251.000         228.000
 09  1  1  0 14  0.0000000  0  9G24G 9G10G28G27G21G15G 8G26
 127248356.92348  99154547.63248  24214569.1534   24214573.4614   24214569.5224
       219.000         160.000
 123674426.35248  96369673.28348  23534467.0184   23534471.2044   23534467.7524
       223.000         171.000
 113576633.26448  88501255.59048  21612927.2024   21612930.7044   21612927.9984
       243.000         210.000
 114505419.88648  89224995.25548  21789662.6744   21789664.6704   21789663.1104
       242.000         209.000
 122038371.76548  95094830.27748  23223131.6364   23223135.5894   23223131.6454
       227.000         188.000
 138439186.71948  90082472.76348  24441172.0404   24441174.3044   24441171.2094
       205.000         151.000
 110799723.13948  86337440.84648  21084490.3634   21084492.2554   21084489.9734
       248.000         226.000
 120915259.55548  94219671.27748  23009416.5654   23009420.3884   23009418.0564
       229.000         183.000
 105588994.72448  82277131.92948  20092922.1804   20092924.5854   20092922.2084
       252.000         228.000
 09  1  1  0 14 30.0000000  0  9G24G 9G10G28G27G21G15G 8G26
 127314591.51448  99206159.02248  24227173.3944   24227177.3914   24227173.4774
       218.000         160.000
 123575697.26148  96292741.51148  23515680.0564   23515683.9354   23515680.2534
       224.000         170.000
 113658351.77448  88564932.34248  21628477.5574   21628481.1184   21628477.8084
       242.000         209.000
 114523053.95448  89238736.09148  21793018.1884   21793020.3744   21793018.5624
       242.000         209.000
 122110822.60548  95151285.45648  23236919.0764   23236922.6784   23236919.1064
       228.000         189.000
 138445498.80148  90087391.26648  24442372.3344   24442375.8264   24442371.7484
       207.000         151.000
 110750429.10148  86299029.91448  21075110.0524   21075111.9064   21075109.7884
       248.000         226.000
 121001037.21248  94286510.98948  23025739.5524   23025743.2314   23025739.5924
       227.000         182.000
 105583861.02348  82273131.63948  20091945.2934   20091947.6904   20091945.3294
       251.000         228.000
 09  1  1  0 15  0.0000000  0  9G24G 9G10G28G27G21G15G 8G26
 127381054.93948  99257948.71348  24239820.9194   24239825.3674   24239820.2834
       219.000         160.000
 123477143.21548  96215946.13448  23496925.5994   23496929.5114   23496925.8794
       221.000         170.000
 113740450.52348  88628905.38048  21644100.7154   21644104.2124   21644101.5994
       243.000         210.000
 114541215.12548  89252887.65648  21796474.2154   21796476.1694   21796474.6894
       242.000         209.000
 122183320.66048  95207777.42648  23250715.2924   23250718.5784   23250715.8024
       228.000         187.000
 138452301.79448  90092692.29548  24443668.0604   24443669.7304   24443666.0154
       211.000         155.000
 110701371.68148  86260803.34848  21065774.7544   21065776.4994   21065774.4634
       248.000         226.000
 121086926.50848  94353437.70448  23042083.9314   23042086.7094   23042084.9914
       228.000         181.000
 105579088.32748  82269412.65048  20091037.1484   20091039.4364   20091037.1544
       252.000         228.000
 09  1  1  0 15 30.0000000  0  9G24G 9G10G28G27G21G15G 8G26
 127447743.39848  99309913.76548  24252511.6304   24252515.6484   24252512.3824
       216.000         161.000
 123378765.01048  96139287.76648  23478205.1714   23478208.6774   23478205.2694
       224.000         173.000
 113822926.68348  88693172.50848  21659795.3744   21659798.9624   21659796.7564
       244.000         210.000
 114559901.97748  89267448.84448  21800030.1134   21800032.2584   21800030.8234
       242.000         209.000
 122255864.39448  95264304.99648  23264519.4954   23264522.8034   23264519.5144
       226.000         186.000
 138459594.29548  90098374.74248  24445056.7094   24445057.8404   24445057.7084
       217.000         157.000
 110652551.52448  86222761.67248  21056484.4504   21056486.6474   21056484.2444
       248.000         227.000
 121172925.15048  94420449.60748  23058448.5834   23058451.8414   23058449.0034
       228.000         180.000
 105574676.49148  82265974.85448  20090197.5164   20090199.8804   20090197.4934
       252.000         228.000
 09  1  1  0 16  0.0000000  0  9G24G 9G10G28G27G21G15G 8G26
 127514654.13948  99362052.00448  24265244.1284   24265248.1854   24265244.6674
       215.000         158.000
 123280563.51948  96062767.10748  23459518.0014   23459521.9924   23459517.8444
       223.000         174.000
 113905778.24448  88757732.16448  21675561.4904   21675565.0574   21675562.3164
       241.000         209.000
 114579113.94948  89282419.21848  21803685.9704   21803688.2124   21803686.3444
       241.000         209.000
 122328452.88248  95320867.45248  23278332.8384   23278336.2814   23278333.2174
       226.000         187.000
 138467375.03748  90104437.64948  24446536.9484   24446538.0394   24446539.4844
       217.000         158.000
 110603969.95848  86184905.91148  21047239.6354   21047241.7594   21047239.3794
       249.000         227.000
 121259031.95648  94487545.81048  23074834.2324   23074837.3564   23074834.9864
       227.000         178.000
 105570626.28048  82262818.84548  20089426.8724   20089429.1264   20089426.7274
       252.000         228.000
 09  1  1  0 16 30.0000000  0  9G24G 9G10G28G27G21G15G 8G26
 127581784.85348  99414361.63348  24278018.3184   24278023.2114   24278018.5554
       216.000         161.000
 123182540.37648  95986385.42848  23440864.7414   23440868.5304   23440865.0914
       224.000         172.000
 113989003.40548  88822582.93548  21691398.5814   21691402.1514   21691398.8484
       242.000         208.000
 114598850.65648  89297798.47248  21807441.8744   21807443.8814   21807442.5504
       241.000         209.000
 122401085.84348  95377464.54548  23292154.6834   23292158.1464   23292154.6944
       229.000         187.000
 138475643.84548  90110880.84748  24448110.1104   24448111.9724   24448110.4994
       218.000         159.000
 110555628.81748  86147237.49048  21038040.6184   21038042.6934   21038040.2934
       248.000         227.000
 121345245.82948  94554725.44548  23091240.2714   23091243.4234   23091240.6874
       228.000         177.000
 105566938.88148  82259945.54648  20088725.1754   20088727.4444   20088725.2264
       251.000         228.000
 09  1  1  0 17  0.0000000  0  9G24G 9G10G28G27G21G15G 8G26
 127649132.49348  99466840.30948  24290834.6504   24290838.6904   24290834.4194
       214.000         162.000
 123084695.87448  95910142.96648  23422245.5584   23422249.4414   23422245.7284
       223.000         172.000
 114072600.13148  88887723.23748  21707306.5044   21707310.1444   21707307.3784
       242.000         208.000
 114619111.15348  89313585.88448  21811297.0864   21811299.2464   21811297.1874
       241.000         208.000
 122473761.99848  95434095.29648  23305984.7954   23305987.8424   23305985.5704
       228.000         188.000
 138484399.11148  90117703.10448  24449776.2684   24449777.8214   24449776.5194
       217.000         159.000
 110507529.25148  86109757.30848  21028887.5554   21028889.8944   21028887.0634
       248.000         227.000
 121431564.99548  94621987.12348  23107666.0104   23107669.8354   23107666.6374
       226.000         178.000
 105563614.49148  82257355.11148  20088092.4834   20088094.7724   20088092.2404
       252.000         228.000
 09  1  1  0 17 30.0000000  0  9G24G 9G10G28G27G21G15G 8G26
 127716694.73148  99519486.22448  24303690.9774   24303695.2794   24303690.8014
       215.000         161.000
 122987031.83348  95834041.12348  23403660.5144   23403664.3154   23403660.5904
       224.000         171.000
 114156566.57148  88953151.62548  21723284.8924   21723288.5364   21723286.2034
       241.000         207.000
 114639895.21548  89329781.26848  21815252.1664   21815254.3024   21815252.7654
       241.000         208.000
 122546481.24148  95490759.64048  23319822.5284   23319825.6664   23319822.6324
       227.000         185.000
 138493640.76048  90124904.35748  24451534.8814   24451536.4644   24451535.9404
       209.000         155.000
 110459673.34048  86072466.99548  21019781.0314   21019782.9874   21019780.7414
       249.000         228.000
 121517988.97748  94689330.46348  23124112.6094   23124115.6254   23124113.3944
       228.000         178.000
 105560654.45048  82255048.58648  20087529.2274   20087531.4584   20087529.2904
       251.000         228.000
 09  1  1  0 18  0.0000000  0  9G24G 9G10G28G27G21G15G 8G26
 127784468.96348  99572297.29348  24316588.3234   24316591.5064   24316588.3754
       216.000         160.000
 122889549.07048  95758080.53848  23385110.2164   23385113.6554   23385110.1954
       228.000         172.000
 114240900.47448  89018866.34648  21739332.9184   21739336.7514   21739333.2954
       241.000         207.000
 114661202.15748  89346384.08348  21819307.0174   21819308.8444   21819307.4664
       242.000         209.000
 122619242.41848  95547456.65248  23333668.3744   23333671.5024   23333668.8394
       227.000         186.000
 138503367.56548  90132483.66348  24453384.9674   24453386.9814   24453385.4574
       209.000         153.000
 110412061.86248  86035367.14548  21010720.9404   21010722.7824   21010720.7684
       249.000         228.000
 121604516.04248  94756754.13248  23140577.8594   23140581.3244   23140578.0884
       224.000         178.000
 105558059.16848  82253026.28148  20087035.3064   20087037.6054   20087035.1054
       251.000         228.000
 09  1  1  0 18 30.0000000  0  9G24G 9G10G28G27G21G15G 8G26
 127852451.42648  99625270.63548  24329524.4824   24329528.6304   24329525.0904
       217.000         159.000
 122792248.28048  95682261.72848  23366595.1174   23366597.5054   23366595.8654
       229.000         172.000
 114325599.22948  89084865.36548  21755450.5184   21755454.2764   21755451.2614
       241.000         207.000
 114683030.30048  89363393.03148  21823460.7394   21823462.7124   21823461.2884
       241.000         208.000
 122692044.23348  95604185.33148  23347522.2214   23347525.5584   23347522.1104
       228.000         188.000
 138513577.92148  90140439.74648  24455328.4164   24455330.3694   24455327.3014
       215.000         156.000
 110364695.85848  85998458.56948  21001707.5814   21001709.4704   21001707.2444
       249.000         228.000
 121691144.27448  94824256.62548  23157062.7574   23157066.3874   23157063.3804
       228.000         178.000
 105555828.67148  82251288.23048  20086610.9384   20086613.1654   20086610.8274
       251.000         228.000
 09  1  1  0 19  0.0000000  0  9G24G 9G10G28G27G21G15G 8G26
 127920639.50048  99678404.20148  24342500.2344   24342504.2934   24342500.1724
       216.000         156.000
 122695130.24648  95606585.29748  23348114.2524   23348116.3874   23348114.0134
       229.000         173.000
 114410660.35548  89151146.75848  21771637.2464   21771640.7484   21771637.9154
       241.000         206.000
 114705379.02348  89380807.61648  21827713.6324   21827715.5144   21827714.0264
       242.000         209.000
 122764885.75048  95660944.93148  23361383.6564   23361387.0244   23361383.7574
       228.000         186.000
 138524270.66448  90148771.71448  24457363.7974   24457365.0764   24457363.4664
       211.000         156.000
 110317576.63248  85961742.29248  20992741.0424   20992743.0674   20992740.6884
       250.000         228.000
 121777872.40348  94891836.94448  23173566.7974   23173570.0694   23173567.7524
       226.000         178.000
 105553963.53848  82249834.87448  20086255.9994   20086258.3634   20086255.8384
       251.000         228.000
 09  1  1  0 19 30.0000000  0  9G24G 9G10G28G27G21G15G 8G26
 127989030.37948  99731695.76448  24355513.8544   24355518.6654   24355514.8964
       209.000         153.000
 122598195.77248  95531051.93548  23329668.0134   23329671.0104   23329669.0464
       228.000         176.000
 114496081.39448  89217708.60148  21787892.0354   21787895.8234   21787893.1514
       241.000         206.000
 114728247.30948  89398627.06848  21832065.2654   21832067.2444   21832065.7934
       241.000         209.000
 122837766.11248  95717734.81948  23375252.2724   23375255.4354   23375252.5504
       229.000         188.000
 138535444.62048  90157478.70948  24459489.8184   24459491.7804   24459490.1674
       214.000         156.000
 110270705.52548  85925219.35248  20983821.6734   20983823.5694   20983821.3284
       250.000         228.000
 121864698.52548  94959493.65748  23190089.0454   23190091.9704   23190089.4624
       227.000         175.000
 105552464.38148  82248666.70348  20085970.8004   20085973.1174   20085970.7374
       252.000         228.000
 09  1  1  0 20  0.0000000  0  9G24G 9G10G28G27G21G15G 8G26
 128057621.62848  99785143.46848  24368566.8864   24368571.1604   24368566.6554
       213.000         154.000
 122501446.36148  95455662.78848  23311256.8894   23311260.8704   23311256.7384
       226.000         175.000
 114581861.12348  89284549.93948  21804215.2984   21804219.2564   21804216.1534
       240.000         206.000
 114751635.24148  89416851.44048  21836515.6124   21836517.7494   21836516.1284
       241.000         209.000
 122910684.97948  95774554.69748  23389128.3834   23389131.7194   23389128.5254
       230.000         189.000
 138547099.28948  90166560.21948  24461707.9144   24461710.0384   24461709.4904
       212.000         157.000
 110224084.50448  85888891.28348  20974950.0154   20974951.7184   20974949.7574
       250.000         228.000
 121951621.69948  95027225.97548  23206629.9424   23206632.7864   23206630.1664
       226.000         176.000
 105551332.41348  82247784.64948  20085755.3874   20085757.7624   20085755.5104
       251.000         228.000
 09  1  1  0 20 30.0000000  0  9G24G 9G10G28G27G21G15G 8G26
 128126409.99548  99838744.79748  24381657.8584   24381661.2514   24381658.1374
       213.000         154.000
 122404882.59048  95380418.28648  23292881.4744   23292885.3864   23292881.7424
       226.000         175.000
 114667996.63548  89351668.50748  21820606.8764   21820610.3724   21820607.9064
       240.000         206.000
 114775540.95448  89435479.26348  21841064.9614   21841066.9794   21841065.3434
       242.000         209.000
 122983641.12248  95831403.61848  23403011.5104   23403014.8954   23403011.9474
       228.000         188.000
 138559232.61948  90176014.71148  24464016.5874   24464017.9494   24464017.7674
       217.000         160.000
 110177714.16448  85852758.55248  20966126.1434   20966127.8354   20966125.9004
       250.000         228.000
 122038640.19248  95095032.56748  23223188.8074   23223192.4484   23223189.3104
       226.000         175.000
 105550567.52848  82247188.63048  20085609.7814   20085612.1554   20085609.8684
       251.000         228.000
 09  1  1  0 21  0.0000000  0  9G24G 9G10G28G27G21G15G 8G26
 128195392.55348  99892497.43948  24394784.6604   24394788.6354   24394784.6834
       212.000         155.000
 122308505.13748  95305318.97548  23274541.3574   23274545.5764   23274541.4474
       225.000         175.000
 114754485.19248  89419062.18948  21837065.0324   21837068.4944   21837065.6614
       241.000         206.000
 114799963.32948  89454509.69248  21845712.4104   21845714.3054   21845712.8474
       241.000         208.000
 123056633.49048  95888280.76348  23416901.6254   23416904.8434   23416901.8764
       229.000         186.000
 138571843.42448  90185841.30848  24466416.6614   24466418.3074   24466419.5434
       214.000         160.000
 110131595.54148  85816821.96048  20957350.1244   20957351.7064   20957349.7684
       251.000         228.000
 122125752.46448  95162912.24548  23239765.9134   23239769.8224   23239766.8684
       227.000         176.000
 105550169.97248  82246878.84948  20085534.0294   20085536.3694   20085533.9334
       251.000         228.000
 09  1  1  0 21 30.0000000  0  9G24G 9G10G28G27G21G15G 8G26
 128264567.35448  99946399.85148  24407947.5394   24407951.7024   24407947.9514
       211.000         153.000
 122212315.65348  95230366.14148  23256236.8214   23256241.0494   23256236.8594
       226.000         176.000
 114841325.56348  89486730.00348  21853590.0364   21853593.8924   21853591.1354
       240.000         205.000
 114824902.36948  89473942.71448  21850458.2074   21850460.0774   21850458.6414
       243.000         209.000
 123129661.99148  95945186.07048  23430798.0144   23430801.2634   23430798.2924
       229.000         185.000
 138584931.36648  90196039.66248  24468905.9174   24468908.2144   24468904.5224
       199.000         146.000
 110085731.04248  85781083.39348  20948622.3794   20948624.0714   20948622.3114
       250.000         229.000
 122212958.32848  95230864.82948  23256360.4854   23256364.3214   23256360.0774
       226.000         175.000
 105550141.48148  82246856.64148  20085528.6794   20085530.9824   20085528.6064
       250.000         227.000
 09  1  1  0 22  0.0000000  0  9G24G 9G10G28G27G21G15G 8G26
 128333931.18748 100000449.61548  24421148.0124   24421151.1654   24421147.6214
       210.000         154.000
 122116314.97748  95155560.42048  23237968.8794   23237972.4624   23237969.2664
       228.000         176.000
 114928515.37248  89554670.10148  21870181.6734   21870185.5834   21870182.5944
       239.000         204.000
 114850357.11948  89493777.58848  21855302.0184   21855303.6534   21855302.5434
       241.000         208.000
 123202725.78548  96002118.88548  23444702.0534   23444704.6164   23444702.4074
       230.000         187.000
 138598495.37048  90206608.98448  24471486.7344   24471489.9344   24471486.1924
       206.000         151.000
 110040121.92748  85745543.83048  20939943.1044   20939945.1124   20939942.9764
       250.000         229.000
 122300256.16848  95298889.10048  23272972.5144   23272976.0014   23272973.4224
       227.000         176.000
 105550482.37448  82247122.27348  20085593.2594   20085595.8134   20085593.1724
       250.000         227.000
 09  1  1  0 22 30.0000000  0  9G24G 9G10G28G27G21G15G 8G26
 128403480.25748 100054643.70148  24434382.0494   24434385.7754   24434381.7714
       214.000         153.000
 122020503.10348  95080901.82448  23219736.8374   23219740.1354   23219738.0654
       225.000         175.000
 115016051.19848  89622879.83248  21886839.2014   21886842.7964   21886839.6934
       240.000         204.000
 114876325.29548  89514012.53548  21860243.3014   21860245.2734   21860243.7494
       240.000         207.000
 123275822.72948  96059077.54048  23458612.2044   23458614.7104   23458612.6774
       230.000         187.000
 138612532.69848  90217547.11848  24474159.3624   24474161.5404   24474160.2324
       214.000         157.000
 109994768.17648  85710203.24348  20931312.6384   20931314.5344   20931312.2344
       250.000         230.000
 122387643.23248  95366982.91048  23289601.9834   23289605.3684   23289601.7094
       228.000         175.000
 105551192.03348  82247675.25048  20085728.3524   20085730.8814   20085728.2264
       250.000         227.000
 09  1  1  0 23  0.0000000  0  9G24G 9G10G28G27G21G15G 8G26
 128473211.99348 100108980.08948  24447650.8864   24447655.8704   24447651.0504
       210.000         152.000
 121924881.30848  95006391.32348  23201540.6624   23201543.6934   23201540.7864
       226.000         175.000
 115103930.90248  89691357.51648  21903562.2774   21903565.9124   21903562.9584
       241.000         205.000
 114902806.45248  89534647.21648  21865282.2014   21865284.5984   21865282.5664
       240.000         207.000
 123348952.46848  96116061.73648  23472528.1294   23472530.9724   23472528.2374
       228.000         186.000
 138627042.44948  90228853.41448  24476920.0584   24476922.5724   24476921.1834
       212.000         156.000
 109949671.42748  85675062.91848  20922731.0004   20922732.9114   20922730.7264
       249.000         229.000
 122475118.34248  95435145.32448  23306248.2974   23306251.4304   23306249.0174
       227.000         175.000
 105552271.31248  82248516.24548  20085933.7984   20085936.3464   20085933.6904
       250.000         227.000
 09  1  1  0 23 30.0000000  0  9G24G 9G10G28G27G21G15G 8G26
 128543123.93948 100163456.93748  24460954.5704   24460959.0074   24460955.0864
       207.000         150.000
 121829451.00548  94932030.06848  23183380.7294   23183383.8324   23183380.8364
       224.000         177.000
 115192153.39548  89760102.30748  21920350.3954   21920354.3814   21920351.2564
       238.000         204.000
 114929799.92448  89555681.09248  21870419.2074   21870421.5014   21870419.7214
       241.000         208.000
 123422114.75148  96173071.27948  23486449.6624   23486453.1354   23486449.7724
       228.000         184.000
 138642023.92148  90240527.30748  24479771.3064   24479773.5604   24479769.8634
       214.000         158.000
 109904833.69348  85640124.42348  20914198.6554   20914200.5434   20914198.3774
       250.000         230.000
 122562680.81348  95503375.81348  23322911.1744   23322914.3764   23322911.6704
       230.000         176.000
 105553721.41248  82249646.19348  20086209.8384   20086212.3074   20086209.7304
       251.000         227.000
 09  1  1  0 24  0.0000000  0  9G24G 9G10G28G27G21G15G 8G26
 128613213.10048 100218071.84748  24474291.4094   24474296.8554   24474291.0984
       209.000         151.000
 121734213.21448  94857818.84248  23165257.0034   23165260.7004   23165257.1084
       224.000         178.000
 115280715.48048  89829111.72148  21937203.0784   21937206.9144   21937203.8044
       239.000         203.000
 114957304.91448  89577113.54948  21875653.3804   21875655.2674   21875654.2204
       241.000         207.000
 123495309.06948  96230105.77448  23500378.3424   23500381.7554   23500379.1994
       228.000         187.000
 138657475.62348  90252567.57248  24482711.6744   24482713.6844   24482712.6624
       216.000         157.000
 109860256.53648  85605388.98148  20905715.9224   20905717.8564   20905715.8114
       249.000         229.000
 122650329.35948  95571673.38748  23339589.7834   23339593.1944   23339590.4844
       228.000         175.000
 105555542.72448  82251065.39648  20086556.3734   20086558.9484   20086556.2494
       251.000         228.000
 09  1  1  0 24 30.0000000  0  9G24G 9G10G28G27G21G15G 8G26
 128683476.36348 100272822.44448  24487663.2154   24487667.9044   24487663.5214
       213.000         152.000
 121639168.22248  94783757.84448  23147170.3364   23147174.1624   23147170.6604
       224.000         178.000
 115369614.63948  89898383.78248  21954120.1304   21954123.5314   21954120.9994
       240.000         203.000
 114985319.77048  89598943.31448  21880984.6434   21880986.1444   21880985.1254
       243.000         208.000
 123568533.94848  96287164.11948  23514313.4614   23514316.0544   23514313.7214
       230.000         190.000
 138673395.98148  90264973.02348  24485740.5934   24485742.9464   24485743.1854
       212.000         155.000
 109815940.61148  85570857.09448  20897282.7984   20897284.6894   20897282.4774
       249.000         229.000
 122738062.16348  95640036.59148  23356284.3304   23356288.4214   23356284.7744
       225.000         174.000
 105557735.53248  82252774.07548  20086973.6474   20086976.2474   20086973.5394
       250.000         228.000
 09  1  1  0 25  0.0000000  0  9G24G 9G10G28G27G21G15G 8G26
 128753911.17548 100327706.68548  24501066.9754   24501071.2434   24501066.6794
       211.000         150.000
 121544317.09148  94709847.88348  23129121.5594   23129123.9264   23129121.1964
       227.000         180.000
 115458849.08648  89967917.12348  21971100.8884   21971104.4074   21971101.4124
       240.000         203.000
 115013843.62948  89621169.68648  21886412.5994   21886414.2014   21886413.1554
       243.000         209.000
 123641788.79748  96344245.81148  23528252.8104   23528255.9894   23528252.7054
       230.000         186.000
 138689783.77648  90277742.70848  24488860.2724   24488862.3824   24488859.3564
       211.000         156.000
 109771887.49748  85536529.99148  20888899.7974   20888901.6734   20888899.4414
       250.000         230.000
 122825878.14348  95708464.59848  23372995.0274   23372999.6284   23372995.3884
       226.000         175.000
 105560300.57148  82254772.80248  20087461.7874   20087464.2864   20087461.6014
       251.000         227.000
 09  1  1  0 25 30.0000000  0  9G24G 9G10G28G27G21G15G 8G26
 128824514.53348 100382722.29148  24514502.7584   24514506.6744   24514503.6094
       214.000         153.000
 121449660.74048  94636089.73748  23111109.3344   23111112.1104   23111109.5444
       228.000         181.000
 115548416.12848  90037709.61748  21988145.0174   21988148.7544   21988146.0204
       240.000         203.000
 115042875.49948  89643791.92748  21891937.4924   21891938.8964   21891938.2854
       242.000         209.000
 123715072.98348  96401350.34548  23542198.0184   23542201.4854   23542198.6234
       227.000         183.000
 138706637.51948  90290875.47848  24492067.1544   24492069.3904   24492068.0684
       212.000         152.000
 109728098.78148  85502408.91548  20880567.0714   20880568.8994   20880566.8814
       250.000         230.000
 122913775.92148  95776956.35348  23389721.7384   23389726.0074   23389722.1004
       225.000         175.000
 105563238.28648  82257061.93048  20088020.8094   20088023.2634   20088020.7864
       251.000         227.000
 09  1  1  0 26  0.0000000  0  9G24G 9G10G28G27G21G15G 8G26
 128895282.90848 100437866.48948  24527968.7384   24527973.4584   24527968.4484
       214.000         152.000
 121355199.09248  94562483.27848  23093133.5514   23093136.5314   23093133.3374
       228.000         181.000
 115638312.94348  90107759.07748  22005251.6284   22005255.5414   22005252.7734
       239.000         202.000
 115072413.50348  89666808.55348  21897557.9354   21897559.9204   21897558.3344
       241.000         208.000
 123788384.78848  96458476.40748  23556148.5434   23556152.2534   23556148.7384
       226.000         184.000
 138723955.15348  90304369.71048  24495362.6844   24495364.4634   24495363.1024
       204.000         150.000
 109684574.63548  85468493.99148  20872284.7914   20872286.4814   20872284.4574
       250.000         230.000
 123001753.38548  95845510.20748  23406463.7024   23406467.1334   23406464.0864
       227.000         176.000
 105566548.34248  82259641.19248  20088650.7174   20088653.0554   20088650.6164
       251.000         228.000
 09  1  1  0 26 30.0000000  0  9G24G 9G10G28G27G21G15G 8G26
 128966214.32448 100493137.70448  24541466.8634   24541471.2624   24541467.1484
       215.000         155.000
 121260934.46248  94489030.32048  23075195.7434   23075198.8174   23075196.0744
       230.000         182.000
 115728537.87448  90178064.21248  22022420.9434   22022424.5044   22022421.5884
       239.000         202.000
 115102457.48548  89690219.45448  21903275.0304   21903276.8044   21903275.6554
       241.000         206.000
 123861724.84048  96515624.47548  23570105.0924   23570108.7894   23570104.9934
       231.000         188.000
 138741736.38048  90318225.20448  24498744.9914   24498748.3474   24498744.5904
       209.000         147.000
 109641318.00448  85434787.52948  20864053.3354   20864055.0554   20864053.0144
       250.000         230.000
 123089810.19548  95914125.90548  23423220.4094   23423223.4434   23423221.1164
       227.000         175.000
 105570232.47048  82262511.93948  20089351.7564   20089354.1684   20089351.7484
       251.000         228.000
 09  1  1  0 27  0.0000000  0  9G24G 9G10G28G27G21G15G 8G26
 129037305.38348 100548533.35148  24554995.2514   24554999.2444   24554995.7494
       213.000         155.000
 121166867.32848  94415731.28148  23057295.1824   23057298.7164   23057295.6864
       225.000         180.000
 115819088.18848  90248622.89648  22039652.1434   22039655.7874   22039652.9334
       239.000         202.000
 115133005.67048  89714023.23648  21909087.9684   21909089.9034   21909088.5304
       240.000         207.000
 123935091.50848  96572793.30548  23584067.3744   23584070.0924   23584067.5164
       232.000         188.000
 138759978.76048  90332440.02948  24502217.4594   24502219.1204   24502219.1344
       207.000         149.000
 109598329.10448  85401289.69148  20855872.7414   20855874.5304   20855872.3904
       250.000         230.000
 123177944.34448  95982801.83548  23439991.3864   23439995.4294   23439992.4284
       224.000         174.000
 105574290.63648  82265674.13948  20090123.9794   20090126.4864   20090123.8154
       251.000         228.000
 09  1  1  0 27 30.0000000  0  9G24G 9G10G28G27G21G15G 8G26
 129108553.93548 100604051.68348  24568553.0484   24568557.6344   24568553.6804
       213.000         157.000
 121072998.86948  94342587.05348  23039431.6174   23039435.9204   23039431.2144
       224.000         180.000
 115909962.35048  90319433.91948  22056945.0914   22056948.4614   22056945.9294
       240.000         202.000
 115164057.54548  89738219.50048  21914996.9274   21914999.0344   21914997.3864
       241.000         207.000
 124008484.48948  96629982.62048  23598033.0014   23598036.0794   23598033.7684
       228.000         185.000
 138778681.59848  90347013.62048  24505776.9214   24505778.5654   24505775.6384
       210.000         150.000
 109555610.24948  85368002.26748  20847743.6344   20847745.3884   20847743.1984
       251.000         231.000
 123266155.34348  96051537.64948  23456777.1134   23456781.7804   23456777.1414
       224.000         175.000
 105578723.87248  82269128.60148  20090967.6274   20090970.1764   20090967.4084
       251.000         228.000
 09  1  1  0 28  0.0000000  0  9G24G 9G10G28G27G21G15G 8G26
 129179957.27448 100659690.64148  24582141.2204   24582145.5414   24582140.9554
       211.000         156.000
 120979330.20348  94269598.50948  23021607.4554   23021611.5004   23021607.3404
       226.000         179.000
 116001157.79748  90390495.30548  22074299.3574   22074302.5524   22074300.0614
       240.000         203.000
 115195612.14648  89762807.50448  21921001.6894   21921003.6664   21921002.1104
       241.000         207.000
 124081903.39248  96687192.14048  23612003.6314   23612007.2234   23612003.7914
       229.000         184.000
 138797843.67948  90361945.10748  24509422.7874   24509424.9614   24509424.7994
       210.000         149.000
 109513163.00948  85334926.49348  20839666.3084   20839668.0444   20839665.9354
       250.000         231.000
 123354442.07248  96120332.45848  23473578.5104   23473582.0154   23473578.5734
       227.000         177.000
 105583532.65548  82272875.70648  20091882.6874   20091885.2744   20091882.5834
       251.000         228.000
 09  1  1  0 28 30.0000000  0 10G24G 9G10G28G27G21G17G15G 8G26
 129251511.04948 100715446.81548  24595755.7514   24595761.0494   24595757.2814
       206.000         153.000
 120885860.65048  94196765.11048  23003820.9584   23003824.8384   23003821.1444
       226.000         180.000
 116092670.56848  90461803.95848  22091713.8044   22091716.8374   22091714.4334
       240.000         202.000
 115227666.86448  89787785.20748  21927101.5084   21927103.5154   21927102.0964
       242.000         208.000
 124155346.25048  96744420.31848  23625979.6304   23625982.9394   23625980.1994
       229.000         183.000
 138817462.30148  90377232.29848  24513155.8934   24513157.3194   24513158.5284
       208.000         144.000
 142366374.97158  93142621.56958  25188488.5945   25188491.5425   25188488.3035
       217.000         159.000
 109470987.14148  85302062.18148  20831640.5014   20831642.3114   20831640.2454
       250.000         231.000
 123442801.98748  96189184.33548  23490392.9804   23490395.6794   23490393.8734
       229.000         174.000
 105588716.43248  82276915.00848  20092869.1604   20092871.6714   20092869.0294
       251.000         228.000
 09  1  1  0 29  0.0000000  0 10G24G 9G10G28G27G21G17G15G 8G26
 129323213.70948 100771319.00248  24609400.8104   24609405.8344   24609400.1214
       209.000         152.000
 120792592.37248  94124088.55348  22986072.5464   22986076.1694   22986072.5834
       227.000         180.000
 116184500.08748  90533359.42648  22109188.0144   22109191.5234   22109188.7164
       239.000         202.000
 115260221.73748  89813152.64448  21933296.2614   21933298.7984   21933296.8674
       241.000         208.000
 124228813.92748  96801667.84248  23639960.1534   23639963.3634   23639960.0514
       232.000         184.000
 138837537.19148  90392874.99848  24516974.8774   24516978.1304   24516974.6364
       199.000         146.000
 142289925.96048  93083050.92348  25173940.6604   25173943.2884   25173940.3544
       212.000         161.000
 109429085.51348  85269411.56248  20823667.0014   20823668.5904   20823666.8274
       250.000         231.000
 123531235.01348  96258093.18048  23507221.3254   23507224.0024   23507221.8714
       227.000         170.000
 105594277.02548  82281247.93548  20093927.3804   20093929.7674   20093927.2424
       251.000         228.000
 09  1  1  0 29 30.0000000  0 10G24G 9G10G28G27G21G17G15G 8G26
 129395062.46348 100827305.02648  24623073.1384   24623078.1254   24623073.1364
       211.000         154.000
 120699526.50148  94051569.70948  22968363.0074   22968366.2074   22968363.4284
       228.000         180.000
 116276643.97148  90605159.83848  22126722.1864   22126726.2614   22126723.0934
       237.000         201.000
 115293275.95748  89838909.18448  21939586.4554   21939588.5604   21939586.9604
       242.000         209.000
 124302305.59048  96858934.07548  23653945.7674   23653948.5034   23653946.2504
       231.000         183.000
 138858066.80048  90408872.07748  24520882.5684   24520885.1814   24520882.1244
       212.000         151.000
 142213539.22348  93023528.84048  25159404.8234   25159407.1954   25159403.9154
       214.000         161.000
 109387459.28348  85236975.53848  20815745.6884   20815747.4384   20815745.2864
       251.000         231.000
 123619739.77448  96327057.89648  23524062.3484   23524065.8464   23524063.2954
       221.000         167.000
 105600214.79548  82285874.76648  20095057.2774   20095059.7204   20095057.2164
       252.000         228.000
 09  1  1  0 30  0.0000000  0 10G24G 9G10G28G27G21G17G15G 8G26
 129467053.84848 100883402.20948  24636772.1084   24636777.6594   24636773.1704
       209.000         153.000
 120606663.31248  93979208.79548  22950692.0134   22950694.8194   22950692.1964
       228.000         181.000
 116369099.11348  90677202.79248  22144315.7274   22144319.8244   22144316.6464
       238.000         201.000
 115326827.23748  89865053.03248  21945971.2624   21945973.3524   21945971.6114
       242.000         209.000
 124375819.67348  96916217.75448  23667933.9574   23667937.8224   23667934.8134
       228.000         181.000
 138879048.84948  90425221.70948  24524875.7854   24524877.3204   24524878.6624
       210.000         147.000
 142137216.92948  92964056.92748  25144881.4674   25144883.9614   25144881.0784
       216.000         161.000
 109346109.36548  85204754.82348  20807876.9684   20807878.8394   20807876.6744
       250.000         231.000
 123708314.42848  96396077.09648  23540917.3874   23540920.7564   23540917.5634
       223.000         168.000
 105606529.67448  82290795.44548  20096258.9754   20096261.4054   20096259.0104
       251.000         228.000
 09  1  1  0 30 30.0000000  0 10G24G 9G10G28G27G21G17G15G 8G26
 129539186.92348 100939609.75548  24650499.1204   24650504.2474   24650498.6804
       214.000         153.000
 120514005.77648  93907008.15048  22933059.3264   22933062.5644   22933059.4004
       229.000         181.000
 116461864.94648  90749487.84248  22161968.7214   22161972.2864   22161969.1744
       238.000         200.000
 115360876.51348  89891584.94148  21952450.6664   21952452.6804   21952451.1114
       241.000         208.000
 124449357.42948  96973519.87948  23681928.0564   23681931.5314   23681927.2984
       232.000         183.000
 138900483.84848  90441924.29448  24528954.3654   24528956.2694   24528953.6194
       211.000         149.000
 142060963.96548  92904639.01548  25130370.7394   25130372.2464   25130370.3304
       214.000         160.000
 109305039.33948  85172752.20948  20800061.5004   20800063.3924   20800061.1774
       250.000         231.000
 123796959.76248  96465151.37848  23557786.4814   23557789.5594   23557786.7254
       224.000         170.000
 105613224.32848  82296012.05248  20097532.9394   20097535.3494   20097532.7824
       251.000         228.000
 09  1  1  0 31  0.0000000  0 11G24G 9G10G28G27G18G21G17G15G 8G26
 129611454.77948 100995922.38648  24664252.1664   24664255.8864   24664253.4404
       210.000         154.000
 120421550.55748  93834965.14848  22915465.7274   22915469.3114   22915465.6234
       230.000         183.000
 116554934.77348  90822009.79048  22179679.5034   22179682.5884   22179679.9044
       239.000         200.000
 115395418.43148  89918500.72048  21959023.4054   21959025.5544   21959023.9064
       242.000         208.000
 124522914.25848  97030836.88448  23695926.3344   23695928.7254   23695927.2864
       229.000         181.000
 138904585.44658  90445126.72158  24529730.1995   24529731.4415   24529730.6015
       216.000         158.000
 138922366.16948  90458975.40248  24533119.3324   24533121.3544   24533119.4624
       208.000         147.000
 141984779.17148  92845274.23548  25115872.9204   25115875.2784   25115872.9594
       212.000         156.000
 109264246.36048  85140965.47048  20792298.9324   20792300.8664   20792298.6024
       250.000         231.000
 123885670.40048  96534276.52348  23574667.4564   23574670.9054   23574668.1254
       221.000         168.000
 105620294.95248  82301521.63048  20098878.5004   20098880.8464   20098878.4854
       252.000         228.000
 09  1  1  0 31 30.0000000  0 11G24G 9G10G28G27G18G21G17G15G 8G26
 129683856.20348 101052339.06848  24678029.3314   24678034.1244   24678029.2174
       208.000         153.000
 120329299.82048  93763081.47348  22897910.5934   22897914.5214   22897911.1134
       229.000         181.000
 116648307.82648  90894768.02348  22197447.6864   22197451.0524   22197448.6934
       239.000         200.000
 115430453.19648  89945800.54248  21965690.5074   21965692.7154   21965690.8514
       242.000         208.000
 124596490.84748  97088169.27248  23709926.1884   23709929.9754   23709926.5864
       225.000         178.000
 138807708.27248  90369638.10848  24511294.2164   24511295.9674   24511296.9124
       213.000         158.000
 138944695.41248  90476374.74448  24537368.0104   24537370.5544   24537368.6174
       198.000         146.000
 141908666.71848  92785965.84548  25101389.7694   25101390.8064   25101389.9054
       218.000         165.000
 109223732.90748  85109396.54748  20784589.4564   20784591.2944   20784589.2334
       250.000         231.000
 123974446.85848  96603452.97048  23591561.2794   23591564.7154   23591562.0774
       223.000         168.000
 105627743.47748  82307325.67448  20100295.8644   20100298.3034   20100295.9834
       251.000         228.000
 09  1  1  0 32  0.0000000  0 11G24G 9G10G28G27G18G21G17G15G 8G26
 129756388.59048 101108857.78548  24691832.5994   24691836.6654   24691832.8714
       216.000         157.000
 120237255.36748  93691358.53248  22880395.2954   22880398.5864   22880395.2304
       230.000         181.000
 116741982.29348  90967761.10448  22215273.1884   22215276.9114   22215274.5624
       238.000         200.000
 115465980.27548  89973483.97748  21972451.2314   21972453.0864   21972451.7404
       243.000         207.000
 124670087.25548  97145517.09948  23723931.9924   23723934.7764   23723931.7904
       229.000         180.000
 138711051.03248  90294320.80748  24492900.5824   24492903.5294   24492901.7044
       213.000         157.000
 138967470.84048  90494121.80548  24541701.0784   24541703.9184   24541700.6654
       200.000         144.000
 141832630.72548  92726717.01748  25086920.8254   25086922.7024   25086920.8834
       217.000         165.000
 109183501.56048  85078047.44148  20776933.7874   20776935.4544   20776933.3944
       251.000         231.000
 124063288.23448  96672679.98448  23608466.2694   23608470.7104   23608467.0134
       218.000         163.000
 105635570.96848  82313425.00748  20101785.3064   20101787.7834   20101785.1794
       251.000         228.000
 09  1  1  0 32 30.0000000  0 11G24G 9G10G28G27G18G21G17G15G 8G26
 129829049.47748 101165476.68948  24705659.8584   24705663.1284   24705660.9914
       213.000         155.000
 120145417.94548  93619796.92548  22862919.5554   22862922.7464   22862920.0904
       231.000         182.000
 116835956.48348  91040987.73448  22233155.7794   22233159.6184   22233156.3834
       237.000         199.000
 115501998.13248  90001549.84348  21979305.2314   21979307.0794   21979305.8534
       241.000         207.000
 124743703.35548  97202880.29948  23737940.4954   23737943.2974   23737940.8614
       227.000         178.000
 138614616.48548  90219177.01048  24474549.0844   24474552.9304   24474549.9944
       207.000         158.000
 138990691.17548  90512215.54448  24546120.4424   24546122.4484   24546119.3014
       209.000         148.000
 141756674.56648  92667530.38648  25072466.9644   25072468.5024   25072467.2074
       211.000         162.000
 109143553.80348  85046919.31448  20769331.9714   20769333.6504   20769331.6614
       251.000         231.000
 124152193.75048  96741956.95548  23625384.3894   23625388.7924   23625384.2304
       219.000         164.000
 105643778.31248  82319820.34348  20103346.9864   20103349.5274   20103346.8724
       251.000         228.000
 09  1  1  0 33  0.0000000  0 11G24G 9G10G28G27G18G21G17G15G 8G26
 129901836.24748 101222193.66448  24719509.4664   24719514.7254   24719509.1054
       211.000         151.000
 120053789.04248  93548397.79248  22845483.2504   22845485.9974   22845483.8334
       230.000         182.000
 116930228.02448  91114446.07448  22251095.0764   22251098.8414   22251095.2644
       238.000         200.000
 115538506.16348  90029997.66248  21986252.3364   21986254.0814   21986252.7424
       242.000         206.000
 124817338.31948  97260258.17248  23751951.8234   23751955.7374   23751951.6204
       225.000         176.000
 138518407.60648  90144209.13948  24456241.2474   24456244.9044   24456241.0604
       214.000         162.000
 139014354.69348  90530654.64048  24550623.4074   24550625.1544   24550625.6444
       210.000         150.000
 141680800.83148  92608408.04548  25058027.0804   25058030.0344   25058027.3444
       215.000         162.000
 109103891.27948  85016013.44648  20761784.5644   20761786.1384   20761784.3764
       251.000         232.000
 124241162.18848  96811283.02248  23642316.5474   23642318.7104   23642316.4384
       225.000         169.000
 105652366.27048  82326512.25348  20104981.1764   20104983.7824   20104981.0804
       250.000         228.000
 09  1  1  0 33 30.0000000  0 11G24G 9G10G28G27G18G21G17G15G 8G26
 129974745.43748 101279006.01648  24733384.3874   24733388.1944   24733384.3474
       209.000         149.000
 119962368.78048  93477161.25548  22828086.2684   22828088.8574   22828086.3354
       230.000         181.000
 117024793.68148  91188133.58848  22269090.5384   22269094.0374   22269091.5284
       240.000         200.000
 115575502.19748  90058825.75148  21993292.4974   21993294.2324   21993292.7654
       242.000         207.000
 124890991.04048  97317649.87748  23765968.0384   23765971.6444   23765968.1334
       228.000         178.000
 138422426.48648  90069418.66048  24437977.4714   24437980.2104   24437977.1534
       214.000         154.000
 139038459.25548  90549437.30148  24555211.0484   24555213.2454   24555212.0954
       209.000         154.000
 141605012.29248  92549352.02848  25043606.5964   25043608.4604   25043606.7034
       214.000         166.000
 109064514.88448  84985330.54048  20754291.4134   20754293.0854   20754291.2624
       250.000         232.000
 124330192.05348  96880656.94848  23659257.7044   23659260.3684   23659259.6844
       216.000         162.000
 105661334.71648  82333500.64748  20106687.9884   20106690.5264   20106687.8844
       251.000         228.000
 09  1  1  0 34  0.0000000  0 11G24G 9G10G28G27G18G21G17G15G 8G26
 130047774.07848 101335911.43448  24747280.1324   24747285.0214   24747280.8664
       206.000         148.000
 119871158.02148  93406087.95248  22810729.0394   22810732.3894   22810728.8444
       230.000         181.000
 117119650.55448  91262048.03548  22287141.3774   22287144.7094   22287142.5484
       237.000         199.000
 115612984.90848  90088033.05548  22000425.1964   22000427.0754   22000425.6584
       242.000         207.000
 124964660.82948  97375054.89348  23779987.2694   23779990.3554   23779987.3934
       227.000         175.000
 138326675.65248  89994807.60448  24419756.7994   24419757.9884   24419756.8554
       214.000         154.000
 139063003.52848  90568562.67148  24559881.9914   24559883.7834   24559880.3754
       217.000         156.000
 141529311.58548  92490364.45148  25029200.8804   25029202.7804   25029200.8074
       209.000         162.000
 109025425.86348  84954871.56048  20746852.9644   20746854.6224   20746852.6984
       251.000         231.000
 124419282.03248  96950077.67148  23676209.2154   23676213.8504   23676209.0454
       214.000         161.000
 105670683.97048  82340785.78348  20108467.0844   20108469.7104   20108466.9194
       251.000         228.000
 09  1  1  0 34 30.0000000  0 11G24G 9G10G28G27G18G21G17G15G 8G26
 130120920.06848 101392908.27348  24761199.0924   24761204.6084   24761198.2724
       208.000         148.000
 119780157.94248  93335178.80848  22793412.6534   22793415.5944   22793413.0544
       229.000         182.000
 117214797.37248  91336188.40848  22305247.0134   22305250.6904   22305247.6354
       238.000         198.000
 115650953.41348  90117618.90848  22007650.4684   22007652.1244   22007650.9084
       242.000         207.000
 125038347.76548  97432473.28148  23794009.1184   23794011.8714   23794009.8834
       226.000         174.000
 138231158.16148  89920378.39348  24401580.4494   24401581.3474   24401580.1714
       215.000         157.000
 139087985.89648  90588029.40748  24564636.7154   24564638.2104   24564639.6584
       214.000         158.000
 141453702.32848  92431448.18548  25014812.2264   25014814.2784   25014811.9864
       205.000         155.000
 108986626.24948  84924638.09848  20739469.5804   20739471.4244   20739469.3534
       251.000         232.000
 124508431.58948  97019544.83148  23693175.3744   23693178.6134   23693175.1634
       220.000         164.000
 105680415.10748  82348368.47948  20110318.9214   20110321.4774   20110318.8974
       251.000         228.000
 09  1  1  0 35  0.0000000  0 11G24G 9G10G28G27G18G21G17G15G 8G26
 130194179.27948 101449993.40648  24775140.3844   24775144.8164   24775141.8414
       209.000         148.000
 119689368.32648  93264433.68648  22776135.9354   22776138.9744   22776136.0034
       231.000         183.000
 117310230.14348  91410551.59648  22323407.1534   22323411.0694   22323407.8594
       238.000         198.000
 115689405.09348  90147581.25248  22014967.6104   22014969.4484   22014968.3674
       241.000         207.000
 125112049.77248  97489903.39548  23808034.2864   23808037.3214   23808034.6574
       226.000         175.000
 138135875.27048  89846132.01248  24383449.0564   24383450.0884   24383449.1344
       209.000         152.000
 139113403.25848  90607835.09448  24569472.3074   24569474.5704   24569471.3874
       211.000         152.000
 141378186.38448  92372604.57148  25000442.2264   25000444.3224   25000441.6804
       213.000         163.000
 108948115.88548  84894630.01448  20732141.4324   20732143.0584   20732141.1794
       251.000         232.000
 124597638.21148  97089056.48948  23710150.9874   23710153.8124   23710152.4604
       214.000         161.000
 105690527.37448  82356248.16648  20112243.0884   20112245.6744   20112242.9934
       251.000         227.000
 09  1  1  1 27 30.0000000  0  6G 9G10G28G18G17G26
 111478318.24048  86866214.98848  21213623.5694   21213625.9584   21213623.9324
       242.000         210.000
 128417365.37348 100065461.30748  24437025.1474   24437030.0014   24437025.5084
       218.000         162.000
 122072578.63348  95121482.50748  23229644.8984   23229646.8894   23229645.3044
       230.000         179.000
 129942120.91848  83461389.08848  22824228.4224   22824230.2594   22824228.4084
       230.000         183.000
 134556068.06748  87056668.65048  23702236.5044   23702238.2274   23702236.6314
       221.000         176.000
 108928935.10848  84879682.06548  20728492.1914   20728494.9054   20728492.0064
       250.000         223.000
 09  1  1  1 28  0.0000000  0  6G 9G10G28G18G17G26
 111413950.94948  86816058.67948  21201374.8104   21201377.6514   21201374.9594
       243.000         210.000
 128528588.09548 100152128.34148  24458190.7514   24458194.8834   24458191.8934
       216.000         159.000
 122151931.04748  95183315.56948  23244745.1004   23244746.9964   23244746.9064
       229.000         181.000
 129885877.36848  83417562.94648  22813525.7464   22813527.6234   22813525.6314
       230.000         185.000
 134507038.35248  87018463.69148  23692905.8024   23692908.2404   23692905.6974
       220.000         174.000
 108980620.79848  84919956.61648  20738327.8284   20738330.3514   20738327.8614
       250.000         222.000
 09  1  1  1 28 30.0000000  0  7G 9G10G28G18G17G12G26
 111349865.91948  86766122.28948  21189179.9664   21189182.4994   21189180.3124
       243.000         210.000
 128639821.78548 100238803.93748  24479356.9694   24479360.2954   24479358.3784
       209.000         153.000
 122231556.97348  95245361.74348  23259897.4704   23259899.5364   23259897.8574
       229.000         182.000
 129830123.76148  83374118.57048  22802916.5734   22802917.4854   22802916.7404
       232.000         184.000
 134458405.60748  86980568.01848  23683651.6594   23683653.3704   23683651.2064
       221.000         175.000
 125148231.08048  97518091.39948  23814924.2184   23814927.3914   23814923.9304
       221.000         176.000
 109032694.28048  84960533.35048  20748237.0044   20748239.5314   20748236.8924
       251.000         222.000
 09  1  1  1 29  0.0000000  0  7G 9G10G28G18G17G12G26
 111286062.93448  86716405.69348  21177038.4144   21177041.3924   21177039.4604
       242.000         210.000
 128751063.46348 100325485.74348  24500524.9814   24500528.5414   24500525.7364
       210.000         151.000
 122311453.14848  95307618.49548  23275101.2934   23275103.4134   23275102.3554
       230.000         181.000
 129774860.97848  83331056.66048  22792400.5124   22792401.8694   22792401.3284
       230.000         185.000
 134410171.62848  86942983.12648  23674473.2364   23674475.6564   23674473.3254
       220.000         174.000
 125038704.78748  97432746.23648  23794082.3944   23794085.1274   23794081.6754
       221.000         177.000
 109085154.56248  85001411.48848  20758219.9814   20758222.5724   20758220.0844
       250.000         222.000
 09  1  1  1 29 30.0000000  0  8G 9G10G28G27G18G17G12G26
 111222543.07948  86666909.72348  21164950.5844   21164953.8724   21164950.9864
       242.000         211.000
 128862310.43648 100412171.67648  24521694.6134   24521698.8694   24521695.1894
       212.000         154.000
 122391617.94748  95370084.56148  23290356.1694   23290358.3804   23290357.2084
       230.000         182.000
 143141411.16358  93746535.73658  25335982.0255   25335986.5275   25335979.0425
       200.000         140.000
 129720091.19048  83288378.91148  22781977.7304   22781979.7944   22781978.3124
       231.000         187.000
 134362338.99948  86905710.94448  23665370.7694   23665372.9784   23665370.6334
       222.000         175.000
 124929344.77548  97347530.66548  23773271.7084   23773274.5384   23773271.7874
       223.000         175.000
 109138001.43748  85042590.86048  20768276.1554   20768279.1194   20768276.0164
       249.000         222.000
 09  1  1  1 30  0.0000000  0  8G 9G10G28G18G17G12G15G26
 111159306.70848  86617634.62248  21152917.6504   21152920.4114   21152917.3854
       243.000         212.000
 128973561.25248 100498860.59648  24542866.3554   24542869.8684   24542866.8464
       213.000         152.000
 122472049.03048  95432758.11948  23305662.0484   23305663.8474   23305661.5344
       231.000         182.000
 129665816.44548  83246086.89648  22771649.9344   22771651.9074   22771649.9594
       233.000         188.000
 134314910.31148  86868753.53148  23656345.7774   23656347.1894   23656345.9284
       221.000         176.000
 124820153.05148  97262446.23048  23752493.0604   23752495.5664   23752493.6114
       222.000         177.000
 116792565.02558  73214978.76758  20321954.7975   20321956.4665   20321954.4235
       255.000         241.000
 109191234.76748  85084071.36548  20778406.3144   20778408.9664   20778406.1474
       250.000         222.000
 09  1  1  1 30 30.0000000  0  8G 9G10G28G27G18G17G12G26
 111096354.20248  86568580.72548  21140938.1944   21140940.8504   21140938.1134
       242.000         212.000
 129084812.21448 100585549.66148  24564035.7564   24564038.9914   24564037.8514
       211.000         149.000
 122552743.87348  95495637.21548  23321017.8694   23321019.2744   23321017.8604
       230.000         182.000
 123287496.27058 113860363.71058  25363784.7845   25363789.6705   25363780.6945
       187.000         129.000
 129612038.21148  83204181.78348  22761416.1854   22761418.2054   22761417.2094
       232.000         187.000
 134267887.56848  86832112.42148  23647397.4564   23647399.5274   23647396.8524
       223.000         176.000
 124711131.41348  97177494.33248  23731747.2104   23731749.2474   23731746.5344
       223.000         177.000
 109244853.23148  85125851.98148  20788609.6574   20788612.3414   20788609.6774
       250.000         222.000
 09  1  1  1 31  0.0000000  0  8G 9G10G28G27G18G17G12G26
 111033686.03648  86519748.38348  21129012.9024   21129015.6094   21129012.6804
       244.000         212.000
 129196061.56048 100672237.49448  24585205.8064   24585208.4114   24585205.8414
       212.000         153.000
 122633700.39048  95558720.20248  23336423.5104   23336424.6774   23336423.7584
       231.000         182.000
 123360522.61848 113917267.39948  25377681.5284   25377685.3264   25377681.4454
       190.000         124.000
 129558758.39348  83162665.04748  22751277.2214   22751279.3624   22751278.2134
       231.000         187.000
 134221273.06648  86795789.43648  23638527.3804   23638528.3184   23638527.1064
       224.000         176.000
 124602282.45348  97092676.97148  23711033.7174   23711036.2624   23711033.6714
       224.000         177.000
 109298856.93148  85167932.78048  20798886.1944   20798888.9094   20798886.2164
       250.000         222.000
 09  1  1  1 31 30.0000000  0  7G 9G10G28G18G17G12G26
 110971302.72248  86471138.02848  21117141.4254   21117144.6264   21117141.7714
       243.000         212.000
 129307306.12648 100758921.56148  24606374.7344   24606379.1484   24606374.7754
       205.000         154.000
 122714916.12048  95622005.18048  23351878.0554   23351879.6244   23351878.8174
       229.000         182.000
 129505978.54548  83121537.89748  22741233.3264   22741235.7674   22741234.0224
       230.000         186.000
 134175069.33448  86759786.55248  23629734.4524   23629736.0044   23629735.2054
       223.000         177.000
 124493608.42148  97007995.91648  23690353.4814   23690355.9354   23690353.6014
       224.000         176.000
 109353245.27848  85210313.29848  20809236.0924   20809238.5204   20809235.9514
       249.000         222.000
 09  1  1  1 32  0.0000000  0  7G 9G10G28G18G17G12G26
 110909204.98848  86422750.18348  21105324.6154   21105327.6454   21105324.6484
       243.000         212.000
 129418544.28648 100845600.56648  24627541.6404   24627547.7754   24627541.6534
       206.000         151.000
 122796389.65248  95685491.04848  23367381.8014   23367383.4844   23367382.0424
       230.000         182.000
 129453701.23748  83080802.32248  22731285.4794   22731287.8374   22731286.0774
       231.000         187.000
 134129279.21448  86724105.94348  23621021.4884   23621023.5754   23621020.9864
       227.000         178.000
 124385111.97148  96923453.21648  23669707.6604   23669709.7204   23669707.6134
       226.000         176.000
 109408018.26848  85252993.53748  20819658.8394   20819661.5314   20819658.8724
       248.000         221.000
 09  1  1  1 32 30.0000000  0  8G 9G10G28G18G17G12G15G26
 110847393.30548  86374585.24448  21093562.3244   21093565.1384   21093562.5724
       243.000         212.000
 129529773.02148 100932272.25748  24648709.0074   24648713.4224   24648710.0634
       213.000         152.000
 122878118.01448  95749175.47248  23382934.3544   23382936.0174   23382934.1304
       230.000         181.000
 129401927.58148  83040459.23648  22721433.1644   22721435.4654   22721433.4084
       232.000         186.000
 134083904.71048  86688749.18948  23612386.9414   23612388.4224   23612387.4464
       226.000         177.000
 124276794.69548  96839050.15448  23649096.2144   23649097.7614   23649095.3724
       225.000         178.000
  96806571.00758  93225892.49058  20324620.0305   20324621.7545   20324619.8985
       254.000         241.000
 109463174.90748  85295972.72148  20830154.8254   20830157.5914   20830154.5554
       249.000         221.000
 09  1  1  1 33  0.0000000  0  8G 9G10G28G18G17G12G15G26
 110785868.13548  86326643.55848  21081854.6834   21081857.5004   21081854.7214
       244.000         213.000
 129640989.46948 101018934.47548  24669873.7684   24669877.3084   24669873.9514
       214.000         152.000
 122960098.85848  95813056.65048  23398534.5264   23398536.3474   23398534.8644
       228.000         179.000
 129350659.17448  83000509.82848  22711677.4374   22711679.0904   22711678.3264
       232.000         186.000
 134038947.96048  86653717.96748  23603831.8624   23603833.5654   23603832.1284
       225.000         177.000
 124168658.76148  96754788.40248  23628518.8834   23628520.4144   23628518.0484
       228.000         180.000
  96810667.17148  93229084.29748  20325399.6304   20325401.1704   20325399.4454
       254.000         241.000
 109518714.72848  85339250.49448  20840723.6724   20840726.4534   20840723.5454
       249.000         221.000
 09  1  1  1 33 30.0000000  0  9G 5G 9G10G28G18G17G12G15G26
 140832300.06458  91947230.81458  24896570.6135   24896574.4695   24896570.9265
       216.000         155.000
 110724629.46748  86278925.12348  21070201.1704   21070203.9774   21070201.5954
       244.000         213.000
 129752191.34948 101105585.32248  24691034.5874   24691037.4034   24691035.3874
       212.000         149.000
 123042329.68848  95877132.60448  23414182.5324   23414184.3724   23414182.9134
       228.000         178.000
 129299897.86948  82960955.57748  22702016.9824   22702019.3524   22702018.4184
       230.000         185.000
 133994410.66348  86619013.58948  23595356.8284   23595358.5484   23595357.4524
       226.000         178.000
 124060706.09848  96670669.47748  23607975.6854   23607977.5094   23607976.4434
       226.000         177.000
  96815196.50448  93232613.64048  20326261.6524   20326263.1114   20326261.3514
       254.000         241.000
 109574637.06948  85382826.34248  20851365.1964   20851367.9414   20851365.2864
       249.000         220.000
 09  1  1  1 34  0.0000000  0  9G 5G 9G10G28G18G17G12G15G26
 140717128.69448  91857486.92148  24874654.4454   24874657.9534   24874654.9874
       210.000         155.000
 110663678.34448  86231430.74648  21058602.7004   21058605.7204   21058603.1314
       244.000         214.000
 129863376.44248 101192223.01948  24712192.1224   24712196.4444   24712193.5064
       207.000         149.000
 123124808.78048  95941402.03248  23429877.8654   23429879.8134   23429878.4454
       229.000         179.000
 129249645.66048  82921798.00148  22692454.7264   22692457.0344   22692454.5804
       232.000         187.000
 133950295.55148  86584638.19648  23586961.1414   23586963.4604   23586961.3904
       223.000         177.000
 123952939.56748  96586695.55848  23587468.2144   23587470.4884   23587469.2784
       224.000         179.000
  96820160.19948  93236481.45348  20327206.1204   20327207.6544   20327205.8984
       254.000         241.000
 109630941.57348  85426699.97748  20862079.7064   20862082.3964   20862079.6464
       247.000         220.000
 09  1  1  1 34 30.0000000  0  9G 5G 9G10G28G18G17G12G15G26
 140602030.73848  91767800.26548  24852751.2114   24852754.8354   24852751.7384
       213.000         155.000
 110603013.03648  86184159.07848  21047058.2664   21047061.4374   21047058.0934
       244.000         214.000
 129974539.89348 101278843.85548  24733346.0684   24733350.7734   24733347.2954
       211.000         154.000
 123207531.72448  96005861.45748  23445619.3954   23445621.7754   23445620.2404
       228.000         180.000
 129199902.36248  82883036.99148  22682989.1994   22682991.0784   22682989.2284
       232.000         187.000
 133906603.31448  86550592.29948  23578647.5854   23578649.1374   23578647.3224
       225.000         178.000
 123845359.09248  96502866.61548  23566995.2614   23566998.3414   23566994.7624
       224.000         178.000
  96825557.16348  93240686.87848  20328232.9614   20328234.6424   20328232.6334
       254.000         240.000
 109687625.93248  85470869.59148  20872866.1854   20872869.0994   20872865.8424
       247.000         220.000
 09  1  1  1 35  0.0000000  0  9G 5G 9G10G28G18G17G12G15G26
 140487011.22648  91678174.69448  24830864.5304   24830867.0464   24830865.1724
       217.000         157.000
 110542637.32348  86137113.07348  21035569.3694   21035572.3144   21035569.3564
       244.000         214.000
 130085682.61848 101365448.56348  24754496.0694   24754500.4164   24754497.5554
       210.000         154.000
 123290499.26448  96070511.48848  23461407.3944   23461409.9504   23461407.7934
       228.000         179.000
 129150671.95048  82844675.61248  22673621.0674   22673622.5854   22673621.7724
       231.000         186.000
 133863339.07048  86516879.90448  23570413.9174   23570416.5634   23570414.0814
       224.000         178.000
 123737969.90848  96419186.72448  23546560.0784   23546562.7554   23546559.8094
       226.000         180.000
  96831391.12748  93245232.82048  20329343.2954   20329344.8294   20329343.0264
       254.000         240.000
 109744692.51348  85515337.03848  20883725.9084   20883728.4324   20883725.6944
       248.000         220.000
 09  1  1  1 35 30.0000000  0  9G 5G 9G10G28G18G17G12G15G26
 140372072.19448  91588611.82348  24808993.0204   24808994.5714   24808994.1194
       212.000         157.000
 110482551.59848  86090293.02848  21024135.3814   21024138.1944   21024135.7824
       246.000         215.000
 130196802.06848 101452035.12548  24775640.0494   24775645.3614   24775640.0424
       208.000         152.000
 123373709.47948  96135350.61248  23477241.7944   23477244.0694   23477242.7744
       227.000         177.000
 129101956.53348  82806715.54448  22664350.7824   22664352.6234   22664351.1024
       232.000         187.000
 133820504.95048  86483502.66548  23562263.2814   23562265.2094   23562262.7674
       223.000         177.000
 123630774.33148  96335657.72448  23526161.5374   23526164.1954   23526162.1204
       225.000         181.000
  96837662.59548  93250119.67448  20330536.6904   20330538.2074   20330536.4594
       253.000         240.000
 109802140.82948  85560101.95548  20894657.7984   20894660.6244   20894657.5154
       249.000         220.000
 09  1  1  1 36  0.0000000  0  9G 5G 9G10G28G18G17G12G15G26
 140257215.06548  91499112.80748  24787135.9914   24787139.0534   24787135.8534
       212.000         157.000
 110422755.96448  86043699.02948  21012756.6474   21012759.3444   21012757.0064
       245.000         214.000
 130307895.58048 101538601.50548  24796780.7574   24796784.3994   24796781.2834
       213.000         151.000
 123457159.38148  96200376.50248  23493122.0064   23493123.8324   23493122.4274
       228.000         177.000
 129053757.58148  82769157.92048  22655178.7334   22655180.7254   22655179.5084
       231.000         186.000
 133778102.68648  86450461.93448  23554193.8454   23554196.6824   23554193.3684
       223.000         180.000
 123523774.00148  96252280.84648  23505800.6584   23505802.1214   23505799.6634
       227.000         180.000
  96844372.58248  93255348.23248  20331813.4814   20331815.0544   20331813.1814
       253.000         240.000
 109859969.75848  85605163.45748  20905662.2634   20905665.0344   20905662.0434
       249.000         220.000
 09  1  1  1 36 30.0000000  0  9G 5G 9G10G28G18G17G12G15G26
 140142441.74448  91409679.08148  24765294.1994   24765298.5854   24765294.9774
       206.000         153.000
 110363250.64448  85997331.25448  21001432.9864   21001435.7994   21001433.0204
       246.000         215.000
 130418960.48448 101625145.61048  24817915.9354   24817919.7744   24817917.8204
       211.000         147.000
 123540846.51548  96265587.25748  23509046.7834   23509048.9354   23509047.8734
       228.000         175.000
 129006076.42448  82732003.75548  22646105.3354   22646107.2814   22646105.3154
       234.000         188.000
 133736134.24548  86417759.25248  23546208.0974   23546210.2854   23546206.9004
       224.000         179.000
 123416970.93148  96169057.68148  23485477.0814   23485477.6944   23485477.1004
       228.000         179.000
  96851521.12148  93260918.52048  20333173.6834   20333175.4004   20333173.3894
       253.000         240.000
 109918178.68648  85650521.05848  20916739.1594   20916741.8604   20916739.1804
       248.000         220.000
 09  1  1  1 37  0.0000000  0  9G 5G 9G10G28G18G17G12G15G26
 140027753.63248  91320311.78248  24743468.9284   24743473.7234   24743469.6594
       205.000         151.000
 110304035.84648  85951189.85448  20990164.9824   20990167.7154   20990165.3064
       245.000         214.000
 130529993.25848 101711664.64048  24839044.3994   24839050.5054   24839046.2104
       209.000         149.000
 123624768.33748  96330980.88348  23525017.1224   23525018.7384   23525017.6454
       227.000         177.000
 128958913.75748  82695253.62948  22637130.7974   22637132.8584   22637131.6494
       232.000         188.000
 133694601.57948  86385396.15648  23538304.6174   23538306.9104   23538303.6854
       223.000         178.000
 123310366.86548  96085989.59148  23465190.9724   23465191.5454   23465190.7494
       228.000         180.000
  96859108.56048  93266830.80048  20334617.7614   20334619.3024   20334617.4944
       254.000         240.000
 109976766.59948  85696173.97148  20927888.0664   20927890.8364   20927887.8064
       247.000         219.000
 09  1  1  1 37 30.0000000  0  9G 5G 9G10G28G18G17G12G15G26
 139913153.12948  91231012.71148  24721661.3174   24721666.0934   24721662.2034
       208.000         152.000
 110245111.99448  85905275.17948  20978951.9674   20978954.7954   20978952.1734
       246.000         215.000
 130640992.08748 101798157.18948  24860168.1734   24860172.8024   24860168.8264
       215.000         158.000
 123708922.82848  96396555.80448  23541030.6104   23541033.3214   23541030.4884
       229.000         177.000
 128912271.88348  82658909.30548  22628255.0964   22628256.9264   22628255.9084
       233.000         187.000
 133653506.82848  86353374.27148  23530484.7174   23530486.1584   23530484.2134
       223.000         177.000
 123203964.20948  96003078.45248  23444942.9704   23444944.1784   23444943.0654
       228.000         181.000
  96867136.24948  93273086.13848  20336145.4584   20336146.9424   20336145.2684
       253.000         240.000
 110035733.33548  85742122.06148  20939109.1284   20939111.6894   20939108.9334
       248.000         219.000
 09  1  1  1 38  0.0000000  0  9G 5G 9G10G28G18G17G12G15G26
 139798641.57948  91141782.98648  24699871.3454   24699874.5034   24699871.6164
       211.000         153.000
 110186479.31448  85859587.38348  20967794.7584   20967797.4104   20967795.1614
       246.000         215.000
 130751954.03348 101884621.03548  24881283.7144   24881287.7464   24881285.2444
       215.000         160.000
 123793307.10048  96462309.77448  23557088.9514   23557090.8904   23557090.0834
       227.000         177.000
 128866151.65848  82622971.47648  22619478.5194   22619481.0004   22619479.4914
       231.000         187.000
 133612851.88948  86321695.08548  23522748.2124   23522749.9544   23522747.1994
       225.000         177.000
 123097764.58348  95920325.52848  23424733.4514   23424735.1144   23424733.4814
       228.000         180.000
  96875604.36048  93279684.65748  20337756.8764   20337758.4094   20337756.6834
       254.000         240.000
 110095077.46848  85788364.22848  20950401.9764   20950404.7024   20950401.8684
       248.000         219.000
 09  1  1  1 38 30.0000000  0  9G 5G 9G10G28G18G17G12G15G26
 139684221.60748  91052624.59248  24678098.3724   24678101.0414   24678099.7304
       214.000         155.000
 110128138.94548  85814127.36748  20956692.8934   20956695.7204   20956693.3354
       246.000         215.000
 130862877.29648 101971054.73148  24902391.4404   24902394.4544   24902393.1274
       205.000         144.000
 123877919.57448  96528241.55848  23573189.8474   23573192.0234   23573190.4604
       228.000         176.000
 128820555.32848  82587441.85448  22610801.6124   22610803.9264   22610801.8384
       232.000         187.000
 133572639.66348  86290360.89548  23515095.8364   23515097.7084   23515095.4324
       225.000         178.000
 122991770.84448  95837733.00148  23404563.6914   23404565.4024   23404563.1214
       228.000         183.000
  96884513.92548  93286627.17348  20339452.2824   20339453.7954   20339452.0464
       254.000         240.000
 110154799.06848  85834900.53748  20961766.5394   20961769.3874   20961766.2814
       249.000         219.000
 09  1  1  1 39  0.0000000  0  9G 5G 9G10G28G18G17G12G15G26
 139569894.83548  90963538.82048  24656342.4954   24656344.9094   24656342.9604
       211.000         155.000
 110070091.02648  85768895.22548  20945646.7334   20945649.2634   20945646.7594
       246.000         215.000
 130973759.34548 102057456.26648  24923490.1694   24923493.9414   24923491.2794
       208.000         138.000
 123962757.83648  96594349.27248  23589333.9924   23589336.4174   23589334.8944
       226.000         177.000
 128775484.10448  82552321.42548  22602224.9414   22602227.3064   22602226.3424
       233.000         186.000
 133532871.58148  86259372.78448  23507528.7334   23507530.2734   23507528.3814
       225.000         179.000
 122885984.66648  95755302.23748  23384433.3244   23384435.6084   23384432.9274
       227.000         184.000
  96893865.34848  93293913.99848  20341231.6804   20341233.2714   20341231.4234
       253.000         240.000
 110214897.51548  85881730.48848  20973202.9644   20973205.6194   20973203.0024
       248.000         219.000
 09  1  1  1 39 30.0000000  0  9G 5G 9G10G28G18G17G12G15G26
 139455664.69048  90874528.30248  24634605.3584   24634608.2224   24634605.2544
       211.000         153.000
 110012337.22248  85723892.25848  20934656.5994   20934659.1834   20934657.1694
       246.000         216.000
 131084598.71848 102143824.70248  24944584.0364   24944584.8824   24944584.9964
       218.000         152.000
 124047820.95148  96660632.20348  23605521.4014   23605523.0524   23605521.3054
       229.000         176.000
 128730940.94348  82517612.45948  22593748.9004   22593750.3464   22593749.3614
       233.000         188.000
 133493551.29248  86228733.58748  23500046.2314   23500047.6234   23500046.0854
       225.000         178.000
 122780409.69148  95673036.01148  23364343.2464   23364345.2644   23364343.1994
       226.000         184.000
  96903660.97348  93301546.94348  20343095.7634   20343097.4074   20343095.5004
       253.000         240.000
 110275373.27048  85928854.43848  20984710.9944   20984713.7174   20984710.9884
       248.000         219.000
 09  1  1  1 40  0.0000000  0  9G 5G 9G10G28G18G17G12G15G26
 139341532.06048  90785593.81148  24612886.3474   24612889.9214   24612887.6974
       208.000         153.000
 109954877.28348  85679118.29148  20923722.1994   20923725.1834   20923722.4164
       245.000         216.000
 131195392.10048 102230157.22148  24965665.8224   24965670.0244   24965668.1944
       211.000         154.000
 124133105.57248  96727087.75648  23621750.5144   23621752.1194   23621752.2634
       228.000         175.000
 128686926.20548  82483315.25048  22585373.2344   22585374.9154   22585373.8424
       233.000         188.000
 133454679.89448  86198444.18048  23492648.9564   23492650.8844   23492648.6484
       226.000         180.000
 122675047.09648  95590935.30448  23344293.2774   23344295.2194   23344293.1204
       228.000         184.000
  96913900.34748  93309525.68048  20345044.1894   20345045.9764   20345043.9624
       253.000         240.000
 110336224.82348  85976271.22648  20996290.7574   20996293.5904   20996290.6104
       247.000         218.000
 09  1  1  1 40 30.0000000  0  9G 5G 9G10G28G18G17G12G15G26
 139227498.06948  90696736.18248  24591186.2454   24591190.4364   24591186.3454
       213.000         156.000
 109897710.82148  85634572.99548  20912843.8504   20912846.7694   20912844.2814
       246.000         217.000
 131306136.20748 102316451.24248  24986738.9064   24986744.4364   24986739.2944
       202.000         145.000
 124218609.03048  96793713.82548  23638021.4184   23638022.9034   23638021.9824
       227.000         175.000
 128643440.44348  82449430.24048  22577097.7624   22577099.5874   22577098.2024
       234.000         188.000
 133416258.80448  86168505.68748  23485337.7604   23485340.0624   23485338.0874
       226.000         180.000
 122569897.98648  95509000.93248  23324283.8644   23324285.5714   23324283.6554
       227.000         182.000
  96924583.06048  93317849.86348  20347077.1434   20347078.8484   20347076.8804
       253.000         240.000
 110397450.65148  86023979.65148  21007941.6934   21007944.3294   21007941.6374
       248.000         218.000
 09  1  1  1 41  0.0000000  0  9G 5G 9G10G28G18G17G12G15G26
 139113565.15748  90607957.31248  24569505.6884   24569509.6574   24569506.0334
       212.000         158.000
 109840838.54448  85590256.94648  20902021.3914   20902024.2084   20902021.7444
       247.000         217.000
 131416829.26248 102402705.52448  25007804.2714   25007808.0044   25007805.6424
       216.000         148.000
 124304329.09348  96860508.66348  23654333.2054   23654334.7524   23654334.0024
       227.000         175.000
 128600485.59048  82415958.94248  22568923.9814   22568926.0244   22568924.3584
       235.000         188.000
 133378290.19248  86138919.76348  23478112.1454   23478113.8914   23478112.5714
       228.000         180.000
 122464965.32548  95427235.23548  23304315.9624   23304317.4474   23304315.7364
       227.000         183.000
  96935710.46048  93326520.56248  20349194.5524   20349196.3134   20349194.2884
       253.000         239.000
 110459050.47448  86071979.50548  21019663.8344   21019666.2984   21019663.8834
       248.000         218.000
 09  1  1  1 41 30.0000000  0  9G 5G 9G10G28G18G17G12G15G26
 138999735.20948  90519258.69048  24547843.7914   24547848.2164   24547844.2814
       207.000         159.000
 109784261.28748  85546170.77748  20891255.1684   20891257.8004   20891255.5854
       246.000         216.000
 131527468.58548 102488918.06448  25028859.8234   25028862.4044   25028861.0854
       217.000         149.000
 124390263.35948  96927470.44248  23670686.1104   23670687.4874   23670685.9424
       228.000         176.000
 128558063.05348  82382902.41548  22560851.2024   22560852.9454   22560852.0744
       234.000         189.000
 133340776.11348  86109688.02748  23470973.9664   23470975.9954   23470974.1854
       226.000         180.000
 122360250.97548  95345639.65848  23284389.2234   23284391.5254   23284389.8944
       227.000         185.000
  96947283.40148  93335538.43648  20351396.7794   20351398.5754   20351396.4654
       253.000         240.000
 110521023.73648  86120270.35448  21031456.8744   21031459.6954   21031456.7094
       248.000         218.000
 09  1  1  1 42  0.0000000  0  9G 5G 9G10G28G18G17G12G15G26
 138886010.95648  90430642.41148  24526202.6704   24526207.1494   24526203.2874
       214.000         160.000
 109727979.90948  85502315.16548  20880545.1104   20880547.8304   20880545.6054
       247.000         217.000
 131638052.68448 102575087.52448  25049903.1394   25049905.5424   25049904.2374
       211.000         146.000
 124476410.84448  96994598.32248  23687079.4334   23687081.0914   23687079.7114
       227.000         176.000
 128516175.22648  82350262.54448  22552880.0214   22552881.8964   22552880.2774
       232.000         187.000
 133303719.46548  86080812.71648  23463921.7404   23463924.0044   23463921.3324
       227.000         179.000
 122255757.94148  95264216.53748  23264505.0094   23264507.2634   23264504.4234
       227.000         185.000
  96959303.02848  93344904.37548  20353684.0724   20353685.7694   20353683.8634
       253.000         239.000
 110583370.60148  86168852.31348  21043320.9644   21043323.9364   21043320.7544
       248.000         218.000
 09  1  1  1 42 30.0000000  0  9G 5G 9G10G28G18G17G12G15G26
 138772393.46448  90342109.32748  24504583.1654   24504585.9684   24504583.5794
       212.000         160.000
 109671994.32048  85458690.03848  20869891.4724   20869894.1234   20869892.1054
       246.000         216.000
 131748578.39948 102661211.38448  25070934.6484   25070938.2074   25070936.0774
       209.000         147.000
 124562768.26148  97061889.80348  23703512.7034   23703514.2684   23703513.1454
       226.000         173.000
 128474822.52048  82318039.65248  22545011.0074   22545012.2514   22545011.8564
       233.000         189.000
 133267121.47348  86052294.81048  23456957.7804   23456959.3894   23456958.1844
       227.000         178.000
 122151487.40348  95182966.78648  23244662.7844   23244665.0034   23244662.6154
       227.000         184.000
  96971768.96448  93354618.08548  20356056.3574   20356057.8874   20356056.1354
       254.000         239.000
 110646089.56548  86217724.22248  21055255.9664   21055258.8404   21055255.9074
       247.000         217.000
 09  1  1  1 43  0.0000000  0  9G 5G 9G10G28G18G17G12G15G26
 138658885.05548  90253661.25148  24482982.6074   24482986.1664   24482983.3134
       212.000         158.000
 109616305.01448  85415295.78148  20859293.8784   20859296.6284   20859294.0364
       246.000         216.000
 131859043.31548 102747287.90648  25091955.4244   25091958.5804   25091955.9574
       215.000         152.000
 124649333.78648  97129343.45148  23719985.4244   23719986.8914   23719986.2664
       226.000         171.000
 128434006.82848  82286235.22648  22537243.9144   22537245.9874   22537244.6514
       233.000         190.000
 133230984.64548  86024136.25348  23450080.5334   23450083.2564   23450080.1344
       223.000         180.000
 122047441.63348  95101892.17648  23224863.5014   23224865.6304   23224863.6884
       228.000         184.000
  96984681.90148  93364680.11148  20358513.5744   20358515.1894   20358513.4034
       253.000         239.000
 110709180.09848  86266885.66848  21067261.7044   21067264.4874   21067261.5064
       247.000         217.000
 09  1  1  1 43 30.0000000  0  9G 5G 9G10G28G18G17G12G15G26
 138545487.54948  90165299.58548  24461403.4944   24461407.9364   24461404.8684
       214.000         159.000
 109560912.26748  85372132.60748  20848752.9864   20848755.9304   20848752.8914
       245.000         217.000
 131969445.18448 102833315.36348  25112964.2044   25112968.6784   25112965.1354
       212.000         149.000
 124736104.71448  97196957.17248  23736497.3564   23736498.8384   23736497.6684
       226.000         171.000
 128393729.01248  82254849.91448  22529579.7924   22529581.5184   22529580.5184
       235.000         192.000
 133195310.33148  85996338.08348  23443291.7444   23443294.1924   23443290.7094
       226.000         180.000
 121943622.84648  95020994.41748  23205108.0604   23205109.1744   23205108.6024
       227.000         184.000
  96998043.01948  93375091.36748  20361055.9914   20361057.7704   20361055.6784
       253.000         239.000
 110772641.34248  86316335.98348  21079338.1204   21079340.6584   21079338.0324
       247.000         217.000
 09  1  1  1 44  0.0000000  0  9G 5G 9G10G28G18G17G12G15G26
 138432203.27248  90077026.17448  24439845.8924   24439850.3884   24439846.7794
       213.000         160.000
 109505817.18848  85329201.38648  20838268.7344   20838271.6804   20838268.6654
       247.000         217.000
 132079781.69048 102919291.87748  25133960.6554   25133964.3064   25133960.6114
       213.000         147.000
 124823079.52948  97264729.75448  23753048.0294   23753050.0504   23753048.0954
       225.000         172.000
 128353990.96848  82223885.20048  22522017.7874   22522019.5704   22522018.5634
       236.000         192.000
 133160101.00648  85968902.24648  23436592.5224   23436594.1584   23436591.9984
       226.000         180.000
 121840033.52848  94940275.47948  23185395.3654   23185396.9354   23185394.6804
       228.000         186.000
  97011852.81548  93385852.24048  20363683.9824   20363685.7524   20363683.6434
       253.000         239.000
 110836472.97448  86366074.90748  21091484.6654   21091487.6034   21091484.6114
       248.000         217.000
 09  1  1  1 44 30.0000000  0  9G 5G 9G10G28G18G17G12G15G26
 138319033.80948  89988842.15448  24418311.1254   24418315.4844   24418311.5344
       213.000         161.000
 109451019.93248  85286502.23448  20827841.2804   20827844.1674   20827841.5664
       246.000         217.000
 132190050.45448 103005215.53348  25154944.1104   25154947.9864   25154945.8554
       213.000         146.000
 124910255.60748  97332659.15048  23769637.0134   23769639.2414   23769637.9844
       229.000         172.000
 128314793.50548  82193341.73748  22514558.6264   22514560.8994   22514559.2404
       236.000         192.000
 133125358.08548  85941829.83248  23429980.9094   23429983.1604   23429980.5334
       226.000         180.000
 121736675.12248  94859736.47748  23165726.8944   23165728.5374   23165727.1664
       229.000         186.000
  97026111.63848  93396963.00848  20366397.5684   20366399.1324   20366397.4604
       253.000         239.000
 110900673.87248  86416101.57648  21103701.7764   21103704.6494   21103701.7394
       246.000         217.000
 09  1  1  1 45  0.0000000  0  9G 5G 9G10G28G18G17G12G15G26
 138205981.03148  89900749.08348  24396797.9174   24396801.8244   24396798.4674
       216.000         162.000
 109396520.37548  85244035.05348  20817470.3444   20817473.1254   20817470.1594
       247.000         217.000
 132300248.82548 103091084.39148  25175915.2234   25175918.0494   25175917.0404
       217.000         151.000
 124997630.98948  97400743.86548  23786264.4034   23786265.8404   23786265.3764
       223.000         169.000
 128276137.96648  82163220.53348  22507202.9474   22507204.4054   22507203.2974
       236.000         193.000
 133091083.64048  85915122.46448  23423459.1584   23423461.0184   23423458.8694
       228.000         180.000
 121633549.86848  94779379.14648  23146102.4724   23146104.3124   23146102.4284
       227.000         186.000
  97040819.62248  93408423.77148  20369196.3094   20369197.9674   20369196.0324
       252.000         239.000
 110965243.54948  86466415.60548  21115988.8644   21115991.7154   21115988.7754
       247.000         216.000
 09  1  1  1 45 30.0000000  0  9G 5G 9G10G28G18G17G12G15G26
 138093046.85348  89812748.42748  24375307.7204   24375311.1024   24375308.5494
       219.000         164.000
 109342319.60348  85201800.70348  20807156.2474   20807159.0314   20807156.4914
       247.000         217.000
 132410374.15748 103176896.35148  25196870.9084   25196873.9724   25196873.3504
       213.000         150.000
 125085202.88748  97468981.68848  23802928.4944   23802930.2264   23802928.6474
       224.000         166.000
 128238025.58148  82133522.56348  22499950.3534   22499951.9744   22499951.4284
       236.000         194.000
 133057279.74248  85888781.75648  23417026.2024   23417028.0654   23417025.9704
       228.000         181.000
 121530660.09748  94699205.31548  23126522.8334   23126525.0524   23126522.7144
       227.000         186.000
  97055978.09148  93420235.55648  20372080.7774   20372082.5054   20372080.5614
       252.000         239.000
 111030180.99048  86517016.19448  21128346.2794   21128348.9884   21128346.1314
       247.000         216.000
 09  1  1  1 46  0.0000000  0  9G 5G 9G10G28G18G17G12G15G26
 137980233.19348  89724841.71148  24353839.9354   24353843.6404   24353842.0944
       218.000         162.000
 109288417.73148  85159799.25048  20796899.0214   20796901.9514   20796899.0664
       247.000         218.000
 132520424.51248 103262649.85448  25217811.8014   25217815.5154   25217812.3964
       207.000         144.000
 125172969.36348  97537371.17148  23819630.4584   23819631.2734   23819631.4764
       225.000         163.000
 128200457.86248  82104249.01848  22492801.8584   22492803.7504   22492802.0394
       238.000         196.000
 133023947.98348  85862808.96548  23410683.2264   23410685.4474   23410683.3874
       228.000         184.000
 121428007.36548  94619216.17948  23106988.9814   23106991.2824   23106988.8554
       225.000         186.000
  97071586.84548  93432398.21948  20375050.9614   20375052.7354   20375050.7454
       252.000         239.000
 111095485.43848  86567902.76948  21140773.3024   21140776.0454   21140773.2424
       246.000         216.000
 09  1  1  1 46 30.0000000  0  9G 5G 9G10G28G18G17G12G15G26
 137867542.02448  89637030.44748  24332395.4494   24332399.0044   24332396.4874
       213.000         159.000
 109234815.12848  85118030.99848  20786698.8894   20786701.4664   20786698.7884
       249.000         218.000
 132630397.29248 103348342.88548  25238738.7374   25238741.8204   25238740.0014
       208.000         140.000
 125260928.04448  97605910.42548  23836368.2784   23836368.7674   23836369.2834
       225.000         165.000
 128163435.82148  82075400.68148  22485756.5844   22485758.1564   22485757.5024
       237.000         194.000
 132991090.32348  85837205.60148  23404430.8364   23404433.5204   23404430.5214
       226.000         184.000
 121325593.90448  94539413.49448  23087500.2334   23087502.6304   23087500.0644
       227.000         187.000
  97087646.50648  93444912.24048  20378107.0144   20378108.8424   20378106.8174
       252.000         238.000
 111161156.21348  86619074.79548  21153270.0014   21153272.7554   21153269.7094
       247.000         216.000
 09  1  1  1 47  0.0000000  0  9G 5G 9G10G28G18G17G12G15G26
 137754976.00848  89549316.66848  24310973.6894   24310978.4414   24310973.3144
       214.000         159.000
 109181513.22348  85076497.04748  20776556.2034   20776558.7484   20776556.2814
       250.000         220.000
 132740290.89148 103433974.26148  25259650.6434   25259654.7934   25259652.1424
       207.000         143.000
 125349077.61848  97674598.37848  23853143.0314   23853143.7094   23853144.1334
       226.000         169.000
 128126961.19048  82046978.89448  22478815.5254   22478817.0474   22478815.9924
       237.000         194.000
 132958709.07848  85811973.47048  23398268.8874   23398271.1954   23398268.4174
       229.000         184.000
 121223422.44148  94459799.40248  23068057.8324   23068060.3124   23068057.8934
       227.000         187.000
  97104158.29848  93457778.56648  20381249.1054   20381250.9174   20381248.8074
       252.000         238.000
 111227193.35348  86670532.28548  21165836.5224   21165839.4074   21165836.5394
       247.000         216.000
 09  1  1  1 47 30.0000000  0  9G 5G 9G10G28G18G17G12G15G26
 137642536.54248  89461701.50148  24289576.9444   24289581.2514   24289577.6574
       215.000         161.000
 109128511.65548  85035197.13948  20766470.0114   20766473.2144   20766470.4494
       249.000         219.000
 132850102.51548 103519541.74548  25280547.1984   25280550.8384   25280547.6944
       208.000         147.000
 125437415.13348  97743432.81348  23869952.7884   23869954.1854   23869953.9094
       222.000         169.000
 128091034.71348  82018984.23048  22471979.2104   22471980.4064   22471979.5384
       237.000         194.000
 132926805.72948  85787113.71748  23392198.0484   23392200.1574   23392198.2724
       228.000         184.000
 121121494.87648  94380375.33548  23048661.8474   23048663.8214   23048661.8444
       227.000         188.000
  97121122.28348  93470997.25148  20384477.2854   20384478.9124   20384476.9484
       252.000         238.000
 111293595.47048  86722274.19548  21178472.3734   21178475.1224   21178472.1914
       247.000         215.000
 09  1  1  1 48  0.0000000  0  9G 5G 9G10G28G18G17G12G15G26
 137530226.09148  89374186.87248  24268205.9654   24268209.8714   24268206.2184
       219.000         166.000
 109075812.03148  84994132.49748  20756441.7934   20756444.5314   20756441.9124
       249.000         220.000
 132959830.37348 103605043.93248  25301427.9554   25301431.3654   25301427.3164
       208.000         144.000
 125525939.07948  97812412.49748  23886797.6654   23886799.6724   23886798.3644
       223.000         169.000
 128055658.02748  81991417.99548  22465246.5644   22465248.8024   22465247.2454
       236.000         193.000
 132895382.67348  85762628.20448  23386218.1794   23386220.4794   23386217.8834
       228.000         184.000
 121019813.61448  94301143.19948  23029312.5594   23029314.4664   23029311.7534
       228.000         188.000
  97138539.38248  93484569.01148  20387791.4834   20387793.1514   20387791.1604
       252.000         237.000
 111360362.35748  86774300.33248  21191177.7374   21191180.4144   21191177.5014
       247.000         215.000
 09  1  1  1 48 30.0000000  0  9G 5G 9G10G28G18G17G12G15G26
 137418046.42148  89286774.18348  24246858.8404   24246862.8004   24246859.3944
       217.000         166.000
 109023414.09148  84953302.93648  20746470.5254   20746473.4874   20746470.8044
       250.000         219.000
 133069471.79548 103690478.80548  25322292.9404   25322294.4184   25322292.8114
       211.000         144.000
 125614647.11248  97881535.62048  23903678.5434   23903679.9384   23903679.1534
       221.000         165.000
 128020832.13648  81964280.93248  22458619.7044   22458621.2404   22458619.8334
       237.000         194.000
 132864441.53448  85738518.22948  23380330.2474   23380331.8254   23380330.3234
       229.000         182.000
 120918380.26548  94222104.23248  23010010.6434   23010012.1784   23010010.6864
       230.000         188.000
  97156409.99948  93498494.15548  20391192.2594   20391193.8954   20391192.0154
       252.000         237.000
 111427492.99448  86826609.90148  21203952.1624   21203955.0844   21203952.1814
       247.000         216.000
 09  1  1  1 49  0.0000000  0  9G 5G 9G10G28G18G17G12G15G26
 137305998.83948  89199464.39148  24225537.0884   24225540.9574   24225538.3024
       217.000         164.000
 108971317.76448  84912708.40448  20736557.1454   20736559.6804   20736557.3804
       249.000         219.000
 133179023.67948 103775843.85948  25343140.5824   25343143.1014   25343140.5314
       207.000         142.000
 125703536.31648  97950799.93648  23920593.6504   23920594.8824   23920594.6854
       220.000         161.000
 127986557.81048  81937573.66548  22452097.8224   22452099.4714   22452098.4794
       237.000         194.000
 132833983.60548  85714784.78548  23374534.0994   23374536.5854   23374534.0444
       228.000         183.000
 120817196.61348  94143259.83648  22990756.4124   22990757.1854   22990756.8104
       231.000         189.000
  97174734.17148  93512772.72848  20394679.3044   20394680.9304   20394679.1244
       252.000         237.000
 111494986.01048  86879201.85448  21216795.8164   21216798.6184   21216795.6934
       247.000         215.000
 09  1  1  1 49 30.0000000  0  9G 5G 9G10G28G18G17G12G15G26
 137194085.43648  89112259.14748  24204240.3974   24204244.3424   24204240.9084
       214.000         164.000
 108919523.82548  84872349.50048  20726700.9184   20726703.7664   20726700.8964
       248.000         219.000
 133288484.16148 103861137.72848  25363969.9554   25363971.7034   25363969.8334
       207.000         140.000
 125792604.75948  98020203.93348  23937542.8434   23937543.9584   23937543.4274
       221.000         162.000
 127952836.18548  81911297.08148  22445680.6174   22445682.3194   22445681.2474
       237.000         193.000
 132804010.44948  85691429.07948  23368830.9164   23368832.8824   23368830.3844
       229.000         184.000
 120716264.60948  94064611.53748  22971549.4844   22971550.7904   22971549.9964
       229.000         190.000
  97193512.22248  93527404.97348  20398252.5434   20398254.2124   20398252.3174
       252.000         237.000
 111562840.89048  86932075.77848  21229708.2824   21229710.9174   21229708.4824
       247.000         215.000
 09  1  1  1 50  0.0000000  0  9G 5G 9G10G28G18G17G12G15G26
 137082309.13048  89025160.71448  24182969.4624   24182973.6464   24182968.4864
       214.000         162.000
 108868033.36548  84832227.06748  20716902.4294   20716905.4604   20716902.0234
       250.000         220.000
 133397851.79048 103946359.25248  25384782.0284   25384783.6744   25384782.2564
       207.000         138.000
 125881851.35148  98089746.72248  23954525.8534   23954527.1544   23954526.5984
       220.000         163.000
 127919669.29748  81885452.75648  22439369.2534   22439370.6494   22439370.1224
       234.000         191.000
 132774524.94648  85668453.37348  23363220.1234   23363221.5904   23363219.9424
       228.000         184.000
 120615587.40948  93986161.77848  22952391.0824   22952393.1134   22952390.3064
       229.000         190.000
  97212745.49348  93542391.92948  20401912.6724   20401914.2294   20401912.4974
       251.000         237.000
 111631057.41048  86985231.50148  21242689.3834   21242692.0624   21242689.3174
       247.000         215.000
 09  1  1  1 50 30.0000000  0  9G 5G 9G10G28G18G17G12G15G26
 136970671.13948  88938170.08348  24161725.9024   24161729.2734   24161726.5354
       217.000         163.000
 108816846.36048  84792341.09648  20707162.2224   20707164.8934   20707162.4044
       249.000         220.000
 133507123.80848 104031506.25948  25405574.9824   25405578.3444   25405577.0994
       203.000         140.000
 125971273.15648  98159426.05848  23971542.0414   23971543.5184   23971543.4734
       219.000         162.000
 127887057.76048  81860041.17448  22433162.8494   22433165.0194   22433163.0214
       235.000         192.000
 132745528.29248  85645858.57248  23357701.8684   23357704.0314   23357701.4624
       229.000         185.000
 120515166.46148  93907911.69448  22933281.2494   22933283.4104   22933281.0154
       230.000         189.000
  97232434.01348  93557733.62748  20405659.0804   20405660.8824   20405658.6144
       252.000         237.000
 111699634.39048  87038668.09448  21255739.2104   21255741.8234   21255739.2004
       246.000         214.000
 09  1  1  1 51  0.0000000  0  9G 5G 9G10G28G18G17G12G15G26
 136859172.94648  88851288.38448  24140508.9844   24140512.3364   24140510.1044
       220.000         167.000
 108765962.76748  84752691.54448  20697479.2294   20697481.9384   20697479.6734
       249.000         220.000
 133616297.39048 104116576.55348  25426350.4574   25426353.1994   25426351.4614
       205.000         142.000
 126060867.13448  98229239.52348  23988591.5514   23988593.2914   23988591.7334
       216.000         162.000
 127855001.97248  81835062.62648  22427063.1654   22427065.1804   22427064.0094
       236.000         193.000
 132717021.51848  85623645.50648  23352277.2254   23352278.9194   23352276.9564
       228.000         184.000
 120415003.27948  93829862.46048  22914220.9764   22914223.3774   22914221.4104
       229.000         190.000
  97252577.61848  93573429.93448  20409492.3434   20409494.1704   20409492.1094
       252.000         237.000
 111768570.60848  87092384.61948  21268857.1544   21268859.8844   21268856.8714
       246.000         214.000
 09  1  1  1 51 30.0000000  0  9G 5G 9G10G28G18G17G12G15G26
 136747817.06348  88764517.59048  24119319.0854   24119322.1924   24119320.4244
       219.000         167.000
 108715383.78548  84713279.36448  20687854.2314   20687857.2354   20687854.3144
       249.000         220.000
 133725370.63148 104201568.66148  25447104.6534   25447109.7364   25447106.4554
       208.000         142.000
 126150632.24848  98299186.35848  24005673.2304   24005675.0074   24005673.5304
       217.000         161.000
 127823503.38748  81810518.27548  22421069.2114   22421071.1594   22421069.6244
       234.000         192.000
 132689006.88448  85601815.92248  23346946.0534   23346947.7214   23346945.9744
       230.000         184.000
 120315100.34548  93752016.01748  22895209.7314   22895212.2714   22895209.8924
       228.000         191.000
  97273177.09448  93589481.46348  20413412.4784   20413414.1094   20413412.3664
       252.000         237.000
 111837865.50448  87146380.62948  21282043.9444   21282046.2804   21282043.8734
       246.000         215.000
 09  1  1  1 52  0.0000000  0  9G 5G 9G10G28G18G17G12G15G26
 136636605.13548  88677858.95248  24098155.7344   24098159.3514   24098155.7184
       217.000         168.000
 108665109.19648  84674104.36248  20678287.3414   20678290.0984   20678287.2754
       250.000         220.000
 133834340.85648 104286480.50448  25467841.7414   25467845.7274   25467843.4774
       206.000         143.000
 126240565.96148  98369264.55248  24022786.5744   24022788.9254   24022788.3694
       216.000         161.000
 127792562.77248  81786408.71048  22415181.2184   22415182.9464   22415182.2634
       234.000         191.000
 132661485.74048  85580370.88348  23341709.3464   23341711.0494   23341709.2734
       230.000         185.000
 120215459.29148  93674373.66048  22876248.1474   22876251.1504   22876248.2334
       228.000         191.000
  97294232.35448  93605888.15948  20417419.0064   20417420.6984   20417418.8574
       252.000         237.000
 111907518.06748  87200655.34948  21295298.1164   21295300.7824   21295297.9304
       246.000         214.000
 09  1  1  1 52 30.0000000  0  9G 5G 9G10G28G18G17G12G15G26
 136525539.35148  88591314.19548  24077020.5664   24077023.8694   24077020.1264
       219.000         169.000
 108615139.99848  84635167.33148  20668778.3704   20668781.5184   20668778.5294
       250.000         221.000
 133943206.59648 104371310.91548  25488559.6014   25488562.6894   25488560.6394
       202.000         137.000
 126330666.30548  98439472.60148  24039932.1664   24039934.7044   24039932.8044
       217.000         160.000
 127762181.27748  81762734.80948  22409399.7964   22409401.8854   22409400.0484
       235.000         191.000
 132634460.16348  85559311.98448  23336566.1644   23336568.1634   23336566.5764
       230.000         185.000
 120116082.80148  93596937.42848  22857337.8824   22857340.3944   22857337.3814
       229.000         191.000
  97315744.26748  93622650.67748  20421512.5614   20421514.2424   20421512.3654
       251.000         236.000
 111977527.94448  87255208.48248  21308620.6384   21308623.4834   21308620.4874
       246.000         215.000
 09  1  1  1 53  0.0000000  0  9G 5G 9G10G28G18G17G12G15G26
 136414621.32848  88504884.58248  24055913.1324   24055917.5584   24055914.7654
       219.000         170.000
 108565476.17348  84596468.25048  20659328.0074   20659330.6004   20659328.2604
       250.000         220.000
 134051964.52548 104456057.27748  25509256.5284   25509257.3274   25509255.8324
       206.000         136.000
 126420930.84448  98509808.61248  24057109.2664   24057111.2114   24057110.8414
       214.000         159.000
 127732359.92948  81739497.39648  22403724.8784   22403726.8984   22403726.0474
       236.000         192.000
 132607931.48148  85538640.29548  23331517.9044   23331519.8554   23331517.9694
       229.000         185.000
 120016972.20348  93519708.41048  22838477.7514   22838480.1364   22838477.9064
       230.000         193.000
  97337713.04548  93639769.20248  20425693.1414   20425694.8034   20425692.8724
       251.000         236.000
 112047893.54348  87310038.81248  21322010.8294   21322013.6654   21322010.8504
       245.000         214.000
 09  1  1  1 53 30.0000000  0  9G 5G 9G10G28G18G17G12G15G26
 136303852.57648  88418571.26748  24034834.5444   24034839.0814   24034835.6374
       219.000         169.000
 108516118.06448  84558007.39948  20649935.2224   20649937.9974   20649935.5884
       251.000         221.000
 134160612.56548 104540718.07248  25529930.6554   25529932.1834   25529933.3294
       206.000         138.000
 126511356.86148  98580270.45548  24074316.8294   24074319.3684   24074317.6614
       215.000         159.000
 127703099.05148  81716696.70848  22398157.0714   22398159.0614   22398157.1504
       237.000         193.000
 132581900.83648  85518356.67048  23326564.4164   23326566.6444   23326564.4964
       230.000         186.000
 119918129.01248  93442687.75048  22819668.6144   22819671.2314   22819668.4784
       232.000         193.000
  97360138.68548  93657243.72548  20429960.5024   20429962.2284   20429960.0894
       251.000         236.000
 112118613.83448  87365145.52548  21335468.2604   21335471.1294   21335468.0894
       246.000         213.000
 09  1  1  1 54  0.0000000  0  9G 5G 9G10G28G18G17G12G15G26
 136193235.61648  88332376.23648  24013785.1014   24013789.3124   24013785.6134
       221.000         171.000
 108467066.63348  84519785.50648  20640601.2454   20640603.7954   20640601.8044
       250.000         221.000
 134269148.74848 104625291.70748  25550583.6114   25550586.4614   25550585.4974
       205.000         138.000
 126601943.16248  98650857.14748  24091554.2204   24091557.3054   24091554.4474
       210.000         155.000
 127674400.12548  81694333.91048  22392695.4234   22392697.7784   22392696.7264
       235.000         193.000
 132556370.31048  85498462.76248  23321706.4914   23321708.1224   23321706.4684
       231.000         188.000
 119819556.12848  93365877.71048  22800911.0364   22800912.9794   22800911.2434
       229.000         192.000
  97383021.90448  93675074.79448  20434315.2104   20434316.8184   20434314.9284
       251.000         236.000
 112189688.64948  87420528.48848  21348993.5654   21348996.1054   21348993.3624
       245.000         213.000
 09  1  1  1 54 30.0000000  0  9G 5G 9G10G28G18G17G12G15G26
 136082770.94648  88246299.89048  23992764.1704   23992768.3834   23992764.9244
       219.000         170.000
 108418321.17648  84481802.04048  20631325.1954   20631328.0124   20631325.3304
       249.000         221.000
 134377569.49748 104709775.37448  25571215.2794   25571219.4514   25571217.5924
       205.000         139.000
 126692685.91348  98721565.76648  24108822.4704   24108824.6764   24108823.5064
       214.000         156.000
 127646262.70348  81672408.64148  22387341.3474   22387343.4394   22387341.4894
       238.000         194.000
 132531340.01448  85478958.64148  23316943.1014   23316945.2414   23316943.5124
       231.000         187.000
 119721254.01548  93289278.66148  22782204.7414   22782206.6294   22782203.6844
       231.000         193.000
  97406361.57548  93693261.55048  20438756.4954   20438758.2624   20438756.2644
       252.000         236.000
 112261115.51848  87476185.78448  21362585.4534   21362588.2454   21362585.3324
       245.000         213.000
 09  1  1  1 55  0.0000000  0  9G 5G 9G28G18G22G17G12G15G26
 135972460.93948  88160344.06948  23971772.7234   23971776.7024   23971774.1084
       218.000         170.000
 108369882.23748  84444057.41848  20622107.5704   20622110.5284   20622107.6034
       250.000         222.000
 126783583.57448  98792395.09648  24126119.7644   24126121.8454   24126122.1684
       213.000         156.000
 127618688.02048  81650921.87048  22382094.3154   22382096.1624   22382095.2894
       238.000         195.000
 138128234.18858  89840184.72258  24381991.1115   24381991.3265   24381991.4315
       219.000         168.000
 132506812.14448  85459846.02848  23312275.4474   23312277.5594   23312275.1194
       232.000         188.000
 119623225.05148  93212892.47848  22763550.2984   22763552.5214   22763550.9404
       230.000         193.000
  97430158.57748  93711804.65948  20443285.1054   20443286.6044   20443284.9304
       251.000         236.000
 112332894.05948  87532117.10548  21376244.4754   21376247.3984   21376244.4214
       245.000         213.000
 09  1  1  1 55 30.0000000  0  9G 5G 9G28G18G22G17G12G15G26
 135862309.02948  88074511.41148  23950811.8414   23950815.3604   23950811.7444
       222.000         171.000
 108321752.02948  84406553.37048  20612948.6524   20612951.6554   20612949.1274
       249.000         222.000
 126874635.35348  98863344.53948  24143446.1754   24143448.5114   24143446.3264
       214.000         155.000
 127591678.45848  81629875.45248  22376954.6964   22376956.5174   22376955.1044
       238.000         195.000
 138055514.10548  89783519.78948  24368152.2654   24368153.3054   24368151.1864
       213.000         164.000
 132482789.67248  85441127.21348  23307704.2064   23307706.2064   23307703.8514
       229.000         186.000
 119525472.85548  93136721.95548  22744948.2644   22744951.0584   22744948.2814
       229.000         193.000
  97454414.43048  93730705.31948  20447900.7154   20447902.3024   20447900.3474
       251.000         236.000
 112405024.86348  87588322.91648  21389970.2714   21389973.2794   21389970.0184
       244.000         212.000
 09  1  1  1 56  0.0000000  0  9G 5G 9G28G18G22G17G12G15G26
 135752318.04048  87988804.15948  23929881.1234   23929884.8604   23929882.1594
       220.000         171.000
 108273931.91248  84369290.94048  20603849.0804   20603851.7804   20603849.0754
       249.000         222.000
 126965840.54448  98934413.51548  24160801.6244   24160804.3464   24160801.8544
       215.000         156.000
 127565235.61048  81609270.63448  22371922.8634   22371924.7374   22371923.3374
       238.000         195.000
 137983179.78848  89727155.37848  24354387.7364   24354390.0674   24354387.2874
       222.000         166.000
 132459275.06148  85422804.14648  23303229.6594   23303231.4174   23303228.7404
       230.000         188.000
 119428000.22348  93060769.28048  22726399.8874   22726402.4934   22726399.3234
       232.000         193.000
  97479130.60848  93749964.67448  20452604.0514   20452605.7584   20452603.9154
       251.000         235.000
 112477507.95348  87644803.24048  21403763.5064   21403766.3244   21403763.3704
       243.000         212.000
 09  1  1  1 56 30.0000000  0  9G 5G 9G28G18G22G17G12G15G26
 135642488.99048  87903223.10848  23908981.0184   23908985.2634   23908981.0184
       221.000         171.000
 108226421.00648  84332269.46648  20594807.9284   20594810.8254   20594808.1814
       248.000         222.000
 127057195.66848  99005599.32848  24178186.6804   24178188.8984   24178188.2884
       214.000         157.000
 127539359.80648  81589107.66448  22366998.5464   22367000.3994   22366998.7414
       237.000         194.000
 137911232.46448  89671092.48548  24340696.7844   24340697.7744   24340696.6154
       217.000         164.000
 132436268.72348  85404877.14348  23298851.7254   23298853.7034   23298851.2034
       229.000         187.000
 119330807.91448  92985035.02348  22707905.0224   22707907.2594   22707905.2834
       232.000         194.000
  97504306.55148  93769582.28848  20457394.7664   20457396.6854   20457394.5414
       251.000         235.000
 112550341.51348  87701556.65548  21417623.3094   21417626.2914   21417622.8234
       245.000         212.000
 09  1  1  1 57  0.0000000  0  9G 5G 9G28G18G22G17G12G15G26
 135532823.15248  87817769.23748  23888112.5934   23888116.7064   23888113.1534
       222.000         172.000
 108179219.30248  84295488.92448  20585825.5564   20585828.3764   20585825.7414
       249.000         222.000
 127148698.00348  99076899.85348  24195598.3424   24195600.8374   24195599.1044
       215.000         155.000
 127514051.13948  81569386.61448  22362182.2504   22362184.5614   22362183.0624
       236.000         194.000
 137839674.24048  89615332.88548  24327079.8634   24327080.3604   24327080.2074
       217.000         167.000
 132413771.65948  85387346.96048  23294570.0444   23294572.5184   23294569.1914
       229.000         187.000
 119233897.86948  92909520.70548  22689463.9034   22689465.9754   22689463.4834
       234.000         195.000
  97529941.69348  93789557.72048  20462272.9794   20462274.8214   20462272.5654
       250.000         235.000
 112623523.90048  87758581.88548  21431549.5764   21431552.4014   21431549.4704
       244.000         212.000
 09  1  1  1 57 30.0000000  0  9G 5G 9G28G18G22G17G12G15G26
 135423322.13448  87732443.78648  23867275.3404   23867279.3664   23867276.3724
       224.000         174.000
 108132326.98148  84258949.45848  20576902.0104   20576905.1334   20576902.3374
       248.000         222.000
 127240345.30148  99148313.30648  24213038.5624   24213040.8974   24213040.8954
       216.000         156.000
 127489309.84848  81550107.66848  22357474.3904   22357476.0424   22357474.2754
       237.000         195.000
 137768506.34548  89559877.43548  24313537.0624   24313538.1454   24313536.7804
       220.000         171.000
 132391785.17948  85370214.64548  23290386.5864   23290388.5964   23290385.7624
       230.000         189.000
 119137271.62748  92834227.52748  22671076.7664   22671078.5904   22671077.2154
       234.000         195.000
  97556036.06548  93809890.99148  20467238.6394   20467240.4214   20467238.3394
       250.000         235.000
 112697054.00848  87815878.06748  21445541.8134   21445544.6374   21445541.8744
       244.000         211.000
 09  1  1  1 58  0.0000000  0  9G 5G 9G28G18G22G17G12G15G26
 135313987.92948  87647248.31148  23846469.6474   23846473.6184   23846469.5404
       222.000         174.000
 108085744.55448  84222651.47048  20568037.7824   20568040.7464   20568037.8834
       248.000         222.000
 127332135.38048  99219838.04148  24230505.9764   24230507.6694   24230506.8354
       214.000         154.000
 127465136.71648  81531271.45248  22352874.5554   22352876.2994   22352874.8774
       238.000         195.000
 137697731.14248  89504727.94648  24300069.6074   24300070.2764   24300069.0554
       218.000         168.000
 132370310.42648  85353481.06548  23286300.1024   23286302.0754   23286299.9314
       230.000         188.000
 119040930.70648  92759156.68148  22652743.4374   22652745.4234   22652743.5764
       234.000         196.000
  97582589.77748  93830582.18948  20472291.5714   20472293.3994   20472291.3874
       250.000         235.000
 112770930.95648  87873444.51548  21459600.0514   21459603.0374   21459599.9724
       244.000         212.000
 09  1  1  1 58 30.0000000  0  9G 5G 9G28G18G22G17G12G15G26
 135204822.62648  87562184.44348  23825695.8944   23825700.0564   23825695.5574
       221.000         173.000
 108039473.09448  84186595.79248  20559232.6294   20559235.4354   20559232.7174
       248.000         222.000
 127424066.71848  99291472.85548  24247999.3734   24248001.3004   24247998.9194
       212.000         152.000
 127441532.92348  81512878.88148  22348382.8204   22348384.7104   22348383.2464
       237.000         194.000
 137627351.12648  89449886.35448  24286676.6114   24286676.3954   24286677.8714
       223.000         169.000
 132349349.41848  85337147.82348  23282311.8834   23282313.2934   23282311.7194
       233.000         191.000
 118944877.74148  92684310.22048  22634465.0704   22634466.8894   22634464.7494
       233.000         195.000
  97609603.36348  93851631.73348  20477432.0374   20477433.9204   20477431.6184
       251.000         235.000
 112845154.08348  87931280.71548  21473724.3424   21473727.2114   21473724.3684
       243.000         211.000
 09  1  1  1 59  0.0000000  0  9G 5G 9G28G18G22G17G12G15G26
 135095828.27748  87477253.81048  23804954.9074   23804959.2794   23804955.6344
       221.000         174.000
 107993513.07648  84150782.80248  20550486.8114   20550489.5644   20550487.0484
       248.000         222.000
 127516137.28248  99363216.16548  24265520.8494   24265521.2244   24265520.6434
       214.000         154.000
 127418499.27048  81494930.57948  22343999.5484   22344001.7214   22344000.4324
       237.000         195.000
 137557368.42748  89395354.38148  24273359.3654   24273358.9364   24273357.6564
       221.000         165.000
 132328903.32448  85321215.81848  23278420.3864   23278422.8164   23278420.7854
       232.000         189.000
 118849114.57548  92609689.57648  22616241.7654   22616243.6704   22616241.9524
       235.000         196.000
  97637077.16548  93873039.89148  20482660.2754   20482661.9824   20482660.0704
       250.000         234.000
 112919722.29348  87989385.81448  21487914.1024   21487917.2524   21487913.9334
       244.000         212.000
 09  1  1  1 59 30.0000000  0  9G 5G 9G28G18G22G17G12G15G26
 134987006.60548  87392457.72948  23784247.2054   23784250.9954   23784246.7654
       224.000         174.000
 107947864.40248  84115212.40748  20541800.1574   20541802.9684   20541800.3244
       249.000         222.000
 127608344.71648  99435066.10648  24283066.2704   24283068.3064   24283066.9014
       214.000         154.000
 127396035.95448  81477426.67948  22339725.0394   22339726.7374   22339725.2384
       237.000         195.000
 137487785.26148  89341133.72248  24260117.4874   24260118.0804   24260117.9264
       221.000         165.000
 132308973.60348  85305686.17948  23274627.9554   23274630.2364   23274627.8184
       232.000         191.000
 118753642.90448  92535296.08348  22598074.3364   22598076.2764   22598074.6394
       234.000         197.000
  97665011.05048  93894806.54148  20487975.7944   20487977.7014   20487975.5804
       251.000         235.000
 112994634.69048  88047759.09148  21502169.4474   21502172.6774   21502169.4674
       244.000         211.000
 09  1  1  2  0  0.0000000  0  9G 5G 9G28G18G22G17G12G15G26
 134878358.80848  87307797.11148  23763572.4784   23763575.9484   23763574.6684
       224.000         174.000
 107902527.00048  84079884.56248  20533172.6474   20533175.5014   20533172.8854
       248.000         222.000
 127700686.31748  99507020.56848  24300638.3244   24300639.8884   24300640.8154
       215.000         152.000
 127374143.02648  81460367.24948  22335558.8964   22335560.8594   22335559.9224
       236.000         195.000
 137418602.86148  89287225.35248  24246952.4784   24246953.6534   24246953.7854
       217.000         168.000
 132289560.59948  85290559.16348  23270934.0664   23270936.0624   23270933.7914
       231.000         191.000
 118658464.16948  92461130.83548  22579962.6314   22579964.3164   22579962.1214
       233.000         196.000
  97693404.73348  93916931.47948  20493379.3454   20493380.7664   20493379.1064
       251.000         235.000
 113069889.55948  88106399.24548  21516489.8464   21516493.0074   21516489.7424
       243.000         211.000
 09  1  1  2  0 30.0000000  0  9G 5G 9G28G18G22G17G12G15G26
 134769887.34448  87223273.93848  23742930.5644   23742934.3154   23742930.7354
       224.000         176.000
 107857501.96748  84044800.13648  20524604.7114   20524607.3824   20524605.0104
       248.000         222.000
 127793160.28348  99579078.20248  24318235.9214   24318237.0534   24318236.5964
       209.000         153.000
 127352821.97548  81443753.43748  22331501.3514   22331503.6634   22331501.6074
       236.000         194.000
 137349823.96748  89233631.39948  24233864.5704   24233865.2354   24233863.4944
       217.000         163.000
 132270666.56248  85275836.53848  23267338.5804   23267340.5434   23267338.0504
       232.000         191.000
 118563580.68948  92387195.67148  22561906.3974   22561908.5404   22561906.2814
       234.000         196.000
  97722258.89548  93939415.24048  20498869.9624   20498871.4554   20498869.6844
       251.000         234.000
 113145486.36548  88165305.83748  21530875.6514   21530878.4654   21530875.7014
       244.000         210.000
 09  1  1  2  1  0.0000000  0  9G 5G 9G28G18G22G17G12G15G26
 134661595.23348  87138890.49048  23722323.4774   23722326.8154   23722323.6254
       225.000         176.000
 107812791.11348  84009960.50948  20516096.6014   20516099.3124   20516096.7334
       249.000         223.000
 127885765.94448  99651238.43648  24335857.3094   24335859.9224   24335855.7914
       211.000         151.000
 127332074.29548  81427586.40648  22327553.4224   22327555.3444   22327554.4334
       236.000         194.000
 137281451.67948  89180354.32648  24220853.7034   24220854.4274   24220855.9884
       215.000         165.000
 132252293.72048  85261520.04848  23263842.3434   23263844.4684   23263841.9224
       232.000         191.000
 118468995.35948  92313492.81048  22543907.4494   22543909.7124   22543907.3244
       234.000         198.000
  97751574.85948  93962258.83848  20504448.4964   20504450.2464   20504448.2574
       251.000         234.000
 113221425.59548  88224479.25948  21545326.4404   21545329.1344   21545326.4034
       243.000         210.000
 09  1  1  2  1 30.0000000  0  9G 5G 9G28G18G22G17G12G15G26
 134553483.04448  87054647.26348  23701750.0894   23701753.8194   23701751.0944
       225.000         177.000
 107768393.22048  83975364.75848  20507647.9904   20507650.7284   20507648.5304
       248.000         223.000
 127978500.06148  99723498.80948  24353504.0744   24353506.4024   24353505.7184
       209.000         151.000
 127311899.40848  81411865.70848  22323714.1484   22323716.4544   22323714.6684
       236.000         194.000
 137213486.97148  89127394.83748  24207919.4394   24207921.7484   24207919.3404
       217.000         170.000
 132234442.29548  85247609.85348  23260444.7874   23260447.4134   23260444.2454
       230.000         190.000
 118374708.97448  92240022.91548  22525965.2524   22525967.6734   22525964.9194
       235.000         199.000
  97781350.92348  93985460.96348  20510114.5854   20510116.4714   20510114.4244
       250.000         234.000
 113297704.68348  88283917.50348  21559841.9824   21559844.7424   21559841.9334
       244.000         211.000
 09  1  1  2  2  0.0000000  0  9G 5G 9G28G18G22G17G12G15G26
 134445552.51048  86970545.55948  23681211.9064   23681215.1014   23681212.5974
       225.000         175.000
 107724308.61748  83941013.11548  20499258.9014   20499261.7154   20499258.9144
       249.000         223.000
 128071360.25048  99795857.38048  24371174.4674   24371177.9264   24371174.0664
       210.000         151.000
 127292297.73848  81396591.65348  22319984.0464   22319986.2404   22319984.5204
       237.000         193.000
 137145931.89248  89074754.51848  24195064.7734   24195066.9174   24195063.9124
       216.000         168.000
 132217113.27348  85234106.71848  23257147.6294   23257149.7594   23257146.8034
       234.000         191.000
 118280723.35048  92166787.36348  22508080.6744   22508082.5544   22508080.2424
       236.000         200.000
  97811587.71248  94009022.08248  20515868.4264   20515870.3014   20515868.0704
       250.000         234.000
 113374322.37248  88343619.58948  21574421.8774   21574424.6584   21574421.9784
       243.000         210.000
 09  1  1  2  2 30.0000000  0  9G 5G 9G28G18G22G17G12G15G26
 134337805.61448  86886586.96248  23660707.8184   23660711.6244   23660708.5484
       221.000         173.000
 107680538.14748  83906906.26948  20490929.4194   20490932.4494   20490929.8504
       248.000         223.000
 128164344.63948  99868312.74248  24388868.6514   24388871.6624   24388869.5844
       212.000         151.000
 127273269.93948  81381764.79148  22316363.0384   22316364.9884   22316364.0784
       236.000         193.000
 137078788.31448  89022434.89248  24182287.9844   24182289.2944   24182288.3544
       220.000         170.000
 132200307.77248  85221011.52748  23253949.7264   23253951.7324   23253949.6694
       232.000         191.000
 118187040.38948  92093787.67248  22490253.2904   22490255.1774   22490253.2294
       238.000         200.000
  97842285.38248  94032942.34348  20521710.1354   20521711.8664   20521709.8484
       251.000         234.000
 113451277.94648  88403584.96348  21589065.9684   21589068.7234   21589065.7074
       242.000         210.000
 09  1  1  2  3  0.0000000  0  9G 5G 9G28G18G22G17G12G15G26
 134230244.28648  86802772.93748  23640239.9744   23640243.4314   23640239.7634
       223.000         176.000
 107637081.90448  83873044.26148  20482660.1844   20482663.1024   20482660.3174
       248.000         223.000
 128257451.29148  99940863.37248  24406587.6594   24406589.5374   24406587.4854
       215.000         155.000
 127254816.33848  81367385.35448  22312851.7074   22312853.4564   22312851.9184
       236.000         194.000
 137012058.35648  88970437.51648  24169589.9754   24169590.4164   24169589.7644
       222.000         170.000
 132184027.20148  85208325.36648  23250851.5544   23250853.7394   23250851.4284
       234.000         191.000
 118093661.69548  92021025.05448  22472484.0854   22472485.7374   22472484.2704
       237.000         198.000
  97873443.56248  94057221.43948  20527639.4184   20527641.0354   20527639.3264
       250.000         234.000
 113528570.25848  88463812.72948  21603774.0304   21603777.0174   21603773.7954
       243.000         210.000
 09  1  1  2  3 30.0000000  0  9G 5G 9G28G18G22G17G12G15G26
 134122870.05148  86719104.73948  23619807.3084   23619811.1414   23619807.6224
       226.000         177.000
 107593940.28248  83839427.41448  20474450.5054   20474453.5234   20474450.6464
       249.000         224.000
 128350677.79148 100013507.39948  24424328.3684   24424330.3854   24424328.6114
       215.000         157.000
 127236937.28048  81353453.62348  22309449.2274   22309451.2204   22309449.7964
       237.000         194.000
 136945743.63048  88918763.66448  24156971.0614   24156971.6584   24156972.0284
       221.000         170.000
 132168272.52248  85196049.01348  23247853.5334   23247855.6154   23247854.0464
       233.000         191.000
 118000589.09048  91948500.95348  22454772.8544   22454774.4534   22454772.9514
       238.000         200.000
  97905062.18848  94081859.32848  20533656.1924   20533657.9174   20533655.9964
       250.000         233.000
 113606198.10448  88524301.95248  21618546.1774   21618549.1304   21618545.9734
       242.000         209.000
 09  1  1  2  4  0.0000000  0  9G 5G 9G28G18G22G17G12G15G26
 134015684.56248  86635583.57948  23599410.8054   23599414.5124   23599412.0404
       223.000         178.000
 107551113.45248  83806055.85748  20466300.8694   20466303.9514   20466300.9764
       249.000         224.000
 128444021.77948 100086242.95648  24442091.6264   24442092.8344   24442092.8934
       215.000         158.000
 127219632.86948  81339969.66148  22306156.2744   22306158.6264   22306156.7524
       236.000         194.000
 136879845.87948  88867414.79548  24144430.4084   24144431.0404   24144431.0524
       217.000         164.000
 132153044.56148  85184183.07548  23244955.5714   23244957.8974   23244955.3874
       233.000         192.000
 117907824.23248  91876216.63748  22437120.4054   22437122.1304   22437120.2254
       239.000         202.000
  97937141.38348  94106856.09448  20539760.6114   20539762.4714   20539760.3324
       251.000         234.000
 113684160.04148  88585051.50948  21633381.7584   21633384.7834   21633381.6904
       243.000         209.000
 09  1  1  2  4 30.0000000  0  9G 5G 9G28G18G22G17G12G15G26
 133908690.51848  86552211.61848  23579050.2934   23579054.0044   23579049.9544
       224.000         179.000
 107508602.81748  83772930.68948  20458211.4234   20458214.5274   20458211.6214
       249.000         224.000
 128537482.07948 100159069.16248  24459875.8344   24459878.0374   24459876.0744
       211.000         155.000
 127202904.41748  81326934.48848  22302973.1284   22302975.2424   22302973.6794
       236.000         195.000
 136814368.37648  88816393.36048  24131970.8364   24131970.8704   24131971.1644
       217.000         165.000
 132138345.52648  85172729.28448  23242158.7054   23242160.5314   23242158.3644
       234.000         192.000
 117815369.91948  91804174.31748  22419526.9674   22419529.1804   22419526.5684
       240.000         204.000
  97969681.64748  94132212.13648  20545952.9804   20545954.5904   20545952.8564
       251.000         233.000
 113762456.18948  88646061.48948  21648281.3544   21648283.9874   21648281.4504
       242.000         209.000
 09  1  1  2  5  0.0000000  0  9G 5G 9G28G18G22G17G12G15G26
 133801890.35248  86468990.73748  23558727.0434   23558730.4474   23558727.3344
       224.000         179.000
 107466409.36448  83740052.67848  20450182.2644   20450185.2824   20450182.4594
       248.000         225.000
 128631057.75348 100231985.24148  24477682.9944   24477684.5284   24477682.8544
       215.000         154.000
 127186753.08348  81314349.03148  22299899.7864   22299901.9814   22299900.0714
       237.000         195.000
 136749313.28848  88765701.09048  24119590.4934   24119591.6374   24119591.6594
       220.000         167.000
 132124177.25748  85161689.08448  23239462.5464   23239464.1874   23239462.6224
       233.000         192.000
 117723228.25448  91732375.62348  22401992.8504   22401995.3854   22401992.6884
       239.000         204.000
  98002683.48248  94157927.84248  20552232.9934   20552234.5024   20552232.9504
       250.000         233.000
 113841085.75248  88707331.27448  21663243.8954   21663246.9914   21663243.6984
       243.000         209.000
 09  1  1  2  5 30.0000000  0  9G 5G 9G28G18G22G17G12G15G26
 133695284.40348  86385921.19748  23538440.4724   23538444.1484   23538440.6754
       224.000         180.000
 107424532.16348  83707421.08848  20442213.4454   20442216.3034   20442213.2844
       249.000         225.000
 128724744.87548 100304988.20448  24495510.7744   24495512.5394   24495512.2614
       211.000         152.000
 127171177.55848  81302212.25948  22296935.6134   22296937.9534   22296936.4064
       236.000         194.000
 136684681.28948  88715338.48848  24107291.6784   24107292.5934   24107291.8654
       218.000         166.000
 132110538.79348  85151061.71348  23236866.9554   23236869.3244   23236866.9374
       233.000         193.000
 117631399.62248  91660820.85448  22384518.5274   22384520.7574   22384518.6674
       239.000         203.000
  98036145.93248  94184002.46848  20558600.5344   20558602.2384   20558600.2454
       250.000         233.000
 113920046.33648  88768858.99548  21678269.6544   21678272.4964   21678269.4234
       242.000         208.000
 09  1  1  2  6  0.0000000  0  9G 5G 9G28G18G22G17G12G15G26
 133588875.41448  86303005.12148  23518191.3884   23518194.9954   23518191.7994
       225.000         179.000
 107382972.06948  83675036.59748  20434304.6694   20434307.5264   20434304.7334
       249.000         224.000
 128818542.34148 100378077.11348  24513359.7954   24513361.2004   24513360.7134
       209.000         151.000
 127156179.22048  81290525.23148  22294081.4574   22294083.7674   22294081.8914
       236.000         195.000
 136620475.26448  88665307.80648  24095073.2854   24095075.2684   24095074.3414
       216.000         166.000
 132097432.34048  85140848.90748  23234373.1364   23234375.2344   23234373.0124
       233.000         193.000
 117539886.85248  91589512.21648  22367103.9974   22367106.6144   22367103.5494
       239.000         203.000
  98070069.80748  94210436.64948  20565056.1324   20565057.6404   20565055.7804
       250.000         233.000
 113999337.67348  88830644.44848  21693358.1694   21693361.0894   21693357.8174
       242.000         209.000
 09  1  1  2  6 30.0000000  0  9G 5G 9G28G18G22G17G12G15G26
 133482664.79748  86220243.62648  23497980.0244   23497984.0484   23497980.7534
       223.000         180.000
 107341729.54048  83642899.56348  20426456.4884   20426459.3724   20426456.7384
       249.000         224.000
 128912447.63948 100451250.08848  24531229.7694   24531230.5544   24531230.8424
       213.000         149.000
 127141757.71448  81279287.69348  22291337.2834   22291339.9244   22291338.0154
       237.000         196.000
 136556696.88748  88615610.38848  24082936.7294   24082938.4894   24082938.2294
       219.000         171.000
 132084858.75248  85131051.31748  23231980.4594   23231982.4204   23231980.4134
       232.000         192.000
 117448691.20448  91518450.68748  22349750.3164   22349752.7224   22349750.2184
       241.000         205.000
  98104454.38148  94237229.82648  20571599.3074   20571600.8384   20571599.1424
       250.000         232.000
 114078958.14648  88892686.37848  21708509.5704   21708512.3944   21708509.2844
       241.000         207.000
 09  1  1  2  7  0.0000000  0  9G 5G 9G28G18G22G17G12G15G26
 133376654.47948  86137638.21148  23477807.0994   23477811.0254   23477807.9984
       226.000         180.000
 107300805.03848  83611010.34148  20418668.7724   20418671.6034   20418669.0184
       249.000         224.000
 129006459.00448 100524505.69748  24549119.4224   24549120.2484   24549120.8344
       217.000         151.000
 127127913.70048  81268500.14048  22288702.9914   22288705.3894   22288703.5744
       237.000         196.000
 136493347.89648  88566247.55648  24070883.1714   24070883.2124   24070882.2754
       216.000         167.000
 132072818.85848  85121669.58548  23229689.4544   23229691.1844   23229689.3884
       234.000         192.000
 117357814.53748  91447637.68748  22332457.6154   22332459.1494   22332457.5394
       243.000         206.000
  98139299.79548  94264382.08548  20578230.0974   20578231.8154   20578229.9564
       249.000         232.000
 114158906.90648  88954984.10348  21723723.1464   21723726.1704   21723723.2484
       241.000         207.000
 09  1  1  2  7 30.0000000  0  9G 5G 9G28G18G22G17G12G15G26
 133270845.92448  86055190.01348  23457672.4994   23457676.0754   23457673.4114
       224.000         180.000
 107260198.67348  83579369.02148  20410941.7364   20410944.4524   20410941.9674
       249.000         225.000
 129100574.22848 100597842.23648  24567028.9824   24567029.7214   24567031.8104
       214.000         151.000
 127114647.07048  81258162.49048  22286178.4444   22286180.5664   22286178.9264
       236.000         195.000
 136430430.03348  88517220.66648  24058908.7424   24058909.9144   24058908.2094
       217.000         165.000
 132061313.38648  85112704.28348  23227499.8684   23227501.5924   23227500.1604
       233.000         191.000
 117267258.44448  91377074.48748  22315225.3664   22315226.7174   22315225.1364
       242.000         205.000
  98174605.31748  94291892.87148  20584948.4794   20584950.3164   20584948.1754
       249.000         232.000
 114239182.44248  89017536.44948  21738998.9454   21739002.1204   21738998.8414
       241.000         206.000
 09  1  1  2  8  0.0000000  0  9G 5G 9G28G18G22G17G12G15G26
 133165241.59848  85972900.93648  23437576.5354   23437580.1434   23437576.8264
       224.000         178.000
 107219911.37748  83547976.32648  20403275.4744   20403278.1004   20403275.6214
       250.000         225.000
 129194791.71848 100671258.44448  24584957.8944   24584958.9754   24584960.1794
       212.000         149.000
 127101958.76448  81248275.50148  22283763.9134   22283766.0664   22283764.2534
       238.000         196.000
 136367945.77848  88468531.63848  24047018.7694   24047019.8664   24047018.9504
       222.000         170.000
 132050344.15648  85104156.83448  23225412.4354   23225414.2574   23225412.5124
       234.000         191.000
 117177025.21848  91306762.88848  22298054.3054   22298056.0104   22298054.7294
       240.000         205.000
  98210371.80148  94319762.85248  20591754.5294   20591756.5984   20591754.3004
       249.000         232.000
 114319784.23648  89080343.04348  21754337.2024   21754339.9164   21754337.0074
       241.000         207.000
 09  1  1  2  8 30.0000000  0  9G 5G 9G28G18G22G17G12G15G26
 133059842.86848  85890772.06848  23417519.5834   23417523.2524   23417520.5994
       224.000         178.000
 107179943.17848  83516832.28148  20395669.6024   20395672.2894   20395670.0374
       250.000         225.000
 129289109.03648 100744752.46348  24602905.9324   24602906.6364   24602908.3014
       211.000         150.000
 127089848.43548  81238838.87748  22281459.6564   22281461.6794   22281460.0404
       238.000         197.000
 136305896.66448  88420181.66948  24035212.6014   24035211.9054   24035213.1934
       222.000         170.000
 132039911.42548  85096027.43048  23223427.6094   23223429.1194   23223427.9254
       234.000         192.000
 117087115.99948  91236703.76748  22280944.8714   22280946.6104   22280944.6604
       239.000         205.000
  98246598.63148  94347991.53948  20598648.2264   20598650.2934   20598647.9844
       249.000         232.000
 114400710.68948  89143402.60748  21769737.0594   21769739.8464   21769737.0754
       241.000         207.000
 09  1  1  2  9  0.0000000  0  9G 5G 9G28G18G22G17G12G15G26
 132954651.81048  85808805.02048  23397502.6734   23397506.0684   23397502.7534
       225.000         181.000
 107140294.87148  83485937.50648  20388124.8304   20388127.5274   20388124.8934
       250.000         225.000
 129383524.70448 100818323.08648  24620872.6104   24620874.4204   24620875.0914
       206.000         148.000
 127078316.50348  81229852.94748  22279265.1714   22279267.3064   22279265.4984
       237.000         197.000
 136244285.21248  88372172.79748  24023487.2984   24023487.3044   24023487.2534
       218.000         163.000
 132030016.74348  85088317.31148  23221544.4834   23221546.2244   23221544.0714
       232.000         192.000
 116997532.92248  91166898.77948  22263897.8734   22263899.6494   22263897.6884
       239.000         205.000
  98283286.18848  94376579.24148  20605629.6774   20605631.5414   20605629.4204
       249.000         231.000
 114481960.93048  89206714.48248  21785198.3554   21785201.3954   21785198.1794
       241.000         206.000
 09  1  1  2  9 30.0000000  0  9G 5G 9G28G18G22G17G12G15G26
 132849670.38248  85727001.31548  23377525.0804   23377528.9044   23377525.9494
       223.000         180.000
 107100966.94248  83455292.36848  20380640.8944   20380643.6284   20380640.9614
       250.000         225.000
 129478036.79248 100891968.85248  24638857.7944   24638859.3294   24638859.3904
       209.000         150.000
 127067363.53348  81221318.16148  22277180.8474   22277182.6574   22277181.6384
       237.000         196.000
 136183113.14448  88324506.20948  24011846.8714   24011846.8554   24011846.5724
       223.000         167.000
 132020661.02748  85081027.15848  23219763.9394   23219766.0084   23219763.8404
       233.000         192.000
 116908278.03948  91097349.52748  22246912.9154   22246914.8334   22246912.9244
       239.000         205.000
  98320434.22948  94405525.75848  20612698.8084   20612700.4744   20612698.4254
       248.000         231.000
 114563534.10948  89270277.98648  21800721.1044   21800724.2204   21800720.7664
       241.000         206.000
 09  1  1  2 10  0.0000000  0  9G 5G 9G28G18G22G17G12G15G26
 132744900.26348  85645362.27448  23357588.1104   23357592.0214   23357587.8094
       225.000         181.000
 107061959.60948  83424897.04248  20373218.1284   20373220.9064   20373218.3194
       250.000         225.000
 129572643.12448 100965688.05248  24656860.3514   24656862.5594   24656861.8204
       207.000         149.000
 127056989.52948  81213234.51248  22275206.7514   22275208.4604   22275207.5114
       235.000         195.000
 136122382.00148  88277183.25348  24000290.2604   24000290.2114   24000291.7074
       220.000         163.000
 132011844.90148  85074157.45748  23218086.5914   23218088.1604   23218086.9014
       233.000         192.000
 116819352.61548  91028056.98548  22229990.8284   22229993.0734   22229990.3534
       240.000         205.000
  98358042.47048  94434830.87848  20619855.4684   20619857.2144   20619855.1894
       249.000         231.000
 114645428.94148  89334092.12748  21816305.3774   21816308.3304   21816305.1814
       241.000         206.000
 09  1  1  2 10 30.0000000  0  9G 5G 9G28G18G22G17G12G15G26
 132640343.26948  85563889.31848  23337691.7214   23337695.4324   23337692.7254
       224.000         181.000
 107023273.31948  83394751.88948  20365856.4064   20365858.9614   20365856.7224
       250.000         225.000
 129667342.02548 101039479.36848  24674881.6074   24674883.0624   24674882.2244
       206.000         151.000
 127047194.40048  81205601.94448  22273342.5584   22273344.6094   22273343.0774
       236.000         195.000
 136062094.04348  88230205.58648  23988817.2474   23988817.7674   23988818.4244
       219.000         162.000
 132003569.37648  85067709.00548  23216511.7054   23216513.6054   23216511.9914
       231.000         191.000
 116730758.76948  90959022.82548  22213131.9454   22213134.0084   22213131.9014
       240.000         205.000
  98396110.96448  94464494.64048  20627099.7134   20627101.4514   20627099.6084
       249.000         231.000
 114727644.19648  89398155.96748  21831950.4624   21831953.2424   21831950.1094
       242.000         205.000
 09  1  1  2 11  0.0000000  0  9G 5G 9G28G18G22G17G12G15G26
 132536001.23948  85482583.86048  23317835.9644   23317839.9974   23317835.8574
       227.000         181.000
 106984908.69848  83364857.38548  20358555.7904   20358558.4584   20358555.7474
       251.000         225.000
 129762131.29448 101113341.10148  24692918.9644   24692921.5734   24692919.4884
       206.000         152.000
 127037978.33348  81198420.58748  22271588.7404   22271591.0304   22271589.3294
       235.000         196.000
 136002251.02348  88183574.64748  23977429.5904   23977430.0034   23977428.6434
       223.000         170.000
 131995835.13148  85061682.32148  23215039.8684   23215041.8164   23215039.4134
       231.000         193.000
 116642498.07648  90890248.27048  22196336.3214   22196338.5584   22196336.2734
       240.000         205.000
  98434639.21048  94494516.64248  20634431.2054   20634433.1344   20634430.9124
       248.000         231.000
 114810178.51848  89462468.41948  21847656.1674   21847659.0154   21847656.1424
       241.000         206.000
 09  1  1  2 11 30.0000000  0  9G 5G 9G28G18G22G17G12G15G26
 132431876.30648  85401447.56548  23298021.7794   23298025.8374   23298023.1314
       225.000         181.000
 106946866.44648  83335214.07048  20351316.6884   20351319.2334   20351317.0174
       251.000         226.000
 129857009.50148 101187272.16748  24710973.3944   24710976.4404   24710973.2544
       208.000         154.000
 127029341.51848  81191690.59748  22269945.1804   22269947.6124   22269945.9554
       236.000         196.000
 135942854.78348  88137291.88348  23966127.0194   23966128.2624   23966126.7184
       221.000         168.000
 131988643.57848  85056078.51748  23213671.3284   23213673.6064   23213670.5784
       232.000         192.000
 116554572.66848  90821734.97948  22179604.8654   22179607.1384   22179604.8104
       240.000         206.000
  98473627.58948  94524897.18348  20641850.4674   20641852.4344   20641850.2644
       249.000         230.000
 114893031.42848  89527029.11548  21863422.4064   21863425.5224   21863422.1774
       241.000         205.000
 09  1  1  2 12  0.0000000  0  9G 5G 9G28G18G22G17G12G15G26
 132327968.80448  85320480.67348  23278248.9084   23278252.4414   23278248.9424
       225.000         180.000
 106909145.72948  83305821.31848  20344138.4684   20344141.5154   20344138.5934
       249.000         226.000
 129951973.07348 101261269.72848  24729044.7574   24729047.1974   24729046.3104
       208.000         153.000
 127021283.17748  81185411.35748  22268412.1944   22268413.9414   22268412.4424
       238.000         196.000
 135883906.47448  88091358.12148  23954909.6744   23954910.3834   23954910.9484
       223.000         167.000
 131981994.13848  85050897.14348  23212406.0394   23212408.0224   23212406.4124
       233.000         193.000
 116466982.52148  90753482.93548  22162937.4234   22162939.1784   22162937.2824
       241.000         206.000
  98513074.71448  94555635.19648  20649356.7814   20649358.9304   20649356.6014
       248.000         230.000
 114976200.11848  89591835.88648  21879249.0204   21879252.0784   21879249.0274
       241.000         205.000
 09  1  1  2 12 30.0000000  0  9G 5G 9G28G18G22G17G12G15G26
 132224280.36048  85239684.49848  23258517.3294   23258521.5724   23258518.1364
       226.000         182.000
 106871746.52448  83276679.08048  20337021.7364   20337024.6394   20337021.6604
       250.000         226.000
 130047019.88848 101335332.14448  24747132.2604   24747134.0194   24747133.2054
       204.000         151.000
 127013802.94648  81179582.61648  22266988.7774   22266990.4884   22266989.9664
       237.000         196.000
 135825407.23848  88045774.31848  23943777.5434   23943778.2374   23943779.0544
       219.000         166.000
 131975887.26348  85046138.55048  23211244.1544   23211245.8464   23211244.5444
       232.000         193.000
 116379729.19248  90685493.34048  22146333.6864   22146335.1384   22146334.0474
       241.000         207.000
  98552980.10248  94586730.29248  20656950.6194   20656952.7294   20656950.2394
       249.000         230.000
 115059683.44048  89656887.82048  21895135.3324   21895138.3154   21895135.2414
       240.000         204.000
 09  1  1  2 13  0.0000000  0  9G 5G 9G28G18G22G17G12G15G26
 132120814.12748  85159061.47748  23238828.2074   23238832.5784   23238829.2724
       224.000         180.000
 106834670.90448  83247788.99048  20329966.2994   20329969.2554   20329966.6164
       250.000         226.000
 130142149.77348 101409459.28948  24765234.2544   24765236.7604   24765234.1434
       203.000         150.000
 127006902.12248  81174205.34648  22265675.2324   22265677.3874   22265675.6514
       237.000         196.000
 135767359.65248  88000542.46848  23932731.9514   23932732.1724   23932731.5814
       223.000         174.000
 131970325.07948  85041804.37348  23210185.7484   23210187.4774   23210185.8634
       232.000         192.000
 116292816.01748  90617768.78848  22129794.7524   22129796.1964   22129794.2484
       242.000         207.000
  98593344.69548  94618183.20648  20664631.9934   20664633.9414   20664631.8064
       249.000         231.000
 115143481.40248  89722184.92148  21911081.4664   21911084.3224   21911081.1094
       241.000         203.000
 09  1  1  2 13 30.0000000  0  9G 5G 9G28G18G22G17G12G15G26
 132017572.04348  85078613.09948  23219182.0404   23219186.2584   23219182.9984
       225.000         182.000
 106797919.59148  83219151.60548  20322972.7604   20322975.7424   20322972.8454
       250.000         226.000
 130237360.79548 101483649.65548  24783351.6484   24783354.6824   24783352.9734
       203.000         150.000
 127000581.15248  81169279.90248  22264472.4254   22264474.6494   22264472.6834
       237.000         195.000
 135709766.23948  87955664.45948  23921771.5884   23921773.0234   23921770.1514
       221.000         169.000
 131965308.73648  85037895.55248  23209230.8634   23209232.5314   23209230.5264
       232.000         191.000
 116206244.82848  90550310.72848  22113320.3914   22113322.2494   22113320.7104
       240.000         207.000
  98634168.70848  94649994.11948  20672400.5824   20672402.6224   20672400.3484
       249.000         231.000
 115227593.02148  89787726.44848  21927087.7644   21927090.2624   21927087.7684
       241.000         204.000
 09  1  1  2 14  0.0000000  0  9G 5G 9G28G18G22G17G12G15G26
 131914555.69248  84998340.63248  23199578.6284   23199582.9564   23199579.4444
       223.000         183.000
 106761492.66148  83190766.98348  20316041.0924   20316043.9294   20316041.2774
       250.000         226.000
 130332650.70548 101557901.49648  24801485.4074   24801488.3894   24801486.1944
       203.000         152.000
 126994839.27548  81164805.70448  22263380.1184   22263381.8494   22263380.7154
       235.000         195.000
 135652628.40648  87911141.50348  23910898.6494   23910899.1404   23910900.4004
       222.000         167.000
 131960838.48448  85034412.23648  23208380.2004   23208382.1444   23208379.3944
       230.000         192.000
 116120016.70948  90483119.98548  22096911.7074   22096913.4974   22096911.2764
       240.000         207.000
  98675451.22648  94682162.30248  20680256.5344   20680258.4184   20680256.2424
       249.000         231.000
 115312016.93348  89853511.29748  21943152.9614   21943155.8714   21943152.5984
       240.000         204.000
 09  1  1  2 14 30.0000000  0  9G 5G 9G28G18G22G17G12G15G26
 131811766.54948  84918245.21548  23180018.3974   23180022.6354   23180017.9464
       223.000         182.000
 106725390.13448  83162635.15248  20309170.8784   20309173.7904   20309171.2524
       250.000         226.000
 130428017.50848 101632213.27148  24819633.0224   24819636.2994   24819633.3584
       206.000         153.000
 126989676.51948  81160782.78648  22262397.3524   22262399.3784   22262397.8724
       236.000         194.000
 135595947.93248  87866974.90548  23900113.0574   23900113.3134   23900114.8814
       223.000         170.000
 131956914.61548  85031354.68748  23207633.6754   23207635.5824   23207633.2744
       230.000         192.000
 116034133.23748  90416197.81848  22080568.3134   22080570.5184   22080568.1244
       240.000         207.000
  98717192.22348  94714687.75348  20688199.6674   20688201.2924   20688199.5354
       249.000         231.000
 115396751.39848  89919538.15148  21959277.6334   21959280.3674   21959277.1514
       241.000         204.000
 09  1  1  2 15  0.0000000  0  9G 5G 9G28G18G22G17G12G15G26
 131709206.36748  84838328.20248  23160501.8514   23160506.0554   23160502.5914
       226.000         182.000
 106689612.35348  83134756.35848  20302362.7714   20302365.5474   20302362.7354
       251.000         226.000
 130523459.41748 101706583.55748  24837794.8754   24837797.7334   24837796.3224
       210.000         156.000
 126985092.56748  81157210.86648  22261524.9774   22261526.9694   22261525.6174
       236.000         194.000
 135539726.40648  87823165.90848  23889413.5454   23889415.0534   23889414.0614
       222.000         170.000
 131953538.02848  85028723.58848  23206991.0184   23206992.7084   23206991.2734
       230.000         190.000
 115948596.16148  90349545.54048  22064291.4944   22064293.6044   22064291.1784
       241.000         209.000
  98759390.94648  94747569.86748  20696229.5634   20696231.5364   20696229.3284
       249.000         230.000
 115481795.47748  89985806.26148  21975460.7284   21975463.6554   21975460.4484
       240.000         203.000
 09  1  1  2 15 30.0000000  0  9G 5G 9G28G18G22G17G12G15G26
 131606876.18348  84758590.41948  23141029.1104   23141033.1494   23141030.5134
       225.000         182.000
 106654159.14548  83107130.48748  20295616.1594   20295619.0634   20295616.5294
       250.000         227.000
 130618973.51748 101781010.09048  24855971.2544   24855973.1674   24855973.2774
       211.000         157.000
 126981086.76248  81154089.44948  22260762.7704   22260764.6104   22260762.9204
       236.000         195.000
 135483964.86048  87779715.35248  23878803.3524   23878804.3004   23878802.7204
       225.000         169.000
 131950708.69248  85026518.92748  23206452.7604   23206454.0714   23206452.7404
       231.000         191.000
 115863406.29648  90283163.83548  22048080.6094   22048082.5474   22048080.6114
       241.000         209.000
  98802046.69248  94780808.10048  20704346.4674   20704348.5794   20704346.1054
       248.000         229.000
 115567146.93048  90052313.88148  21991702.5744   21991705.5724   21991702.5934
       240.000         203.000
 09  1  1  2 16  0.0000000  0  9G 5G 9G28G18G22G17G12G15G26
 131504777.82348  84679033.25148  23121600.4344   23121604.3234   23121600.0174
       225.000         181.000
 106619030.92148  83079757.84548  20288931.4994   20288934.3094   20288931.8224
       251.000         227.000
 130714558.13848 101855491.59848  24874160.2564   24874161.8274   24874162.0764
       210.000         156.000
 126977658.66848  81151418.20548  22260110.3694   22260112.3464   22260111.2704
       236.000         195.000
 135428665.24448  87736624.71848  23868280.2344   23868279.8614   23868281.9434
       224.000         168.000
 131948427.42748  85024741.31748  23206018.5104   23206020.4804   23206018.2304
       230.000         192.000
 115778565.21548  90217053.90548  22031935.7054   22031937.6924   22031935.7314
       240.000         209.000
  98845159.01848  94814402.11148  20712550.4924   20712552.6154   20712550.1094
       248.000         230.000
 115652804.79048  90119060.26048  22008002.6354   22008005.5814   22008002.4594
       240.000         202.000
 09  1  1  2 16 30.0000000  0  9G 5G 9G28G18G22G17G12G15G26
 131402913.68848  84599658.63748  23102216.3174   23102219.9394   23102217.1044
       225.000         181.000
 106584229.08148  83052639.53148  20282308.9804   20282311.6664   20282308.9664
       252.000         227.000
 130810212.19948 101930027.22748  24892362.2924   24892364.1184   24892363.3124
       213.000         157.000
 126974809.24948  81149197.88148  22259568.4354   22259570.2024   22259569.0704
       236.000         195.000
 135373829.56148  87693895.62248  23857845.5014   23857845.7404   23857846.5984
       223.000         171.000
 131946695.35048  85023391.66048  23205688.5994   23205690.6464   23205688.0264
       229.000         191.000
 115694075.26548  90151217.58448  22015857.8454   22015859.7654   22015857.7044
       241.000         209.000
  98888728.21448  94848352.12948  20720841.5594   20720843.6584   20720841.3464
       248.000         230.000
 115738768.30348  90186044.83048  22024360.9144   22024363.7634   22024361.0864
       240.000         202.000
 09  1  1  2 17  0.0000000  0  9G 5G 9G28G18G22G17G12G15G26
 131301285.66948  84520467.98548  23082877.0604   23082880.7214   23082877.6784
       225.000         180.000
 106549753.59648  83025775.52048  20275748.5144   20275751.1844   20275748.7724
       251.000         227.000
 130905933.92148 102004615.56748  24910577.5134   24910579.4324   24910577.7284
       214.000         159.000
 126972538.10748  81147428.15448  22259135.9904   22259138.3204   22259136.3694
       236.000         195.000
 135319459.63648  87651529.44548  23847499.2494   23847500.0004   23847498.9774
       222.000         172.000
 131945513.00548  85022470.37048  23205463.9614   23205465.6914   23205463.2184
       232.000         192.000
 115609937.90048  90085655.99948  21999846.8814   21999849.0584   21999846.6804
       240.000         209.000
  98932754.29248  94882658.14748  20729219.5874   20729221.4884   20729219.2504
       249.000         229.000
 115825036.61348  90253266.87348  22040777.2124   22040780.4274   22040777.1004
       240.000         203.000
 09  1  1  2 17 30.0000000  0  9G 5G 9G28G18G22G17G12G15G26
 131199895.12348  84441462.37348  23063583.0864   23063586.6314   23063583.9884
       226.000         181.000
 106515604.98848  82999166.22348  20269250.1624   20269253.0814   20269250.2414
       251.000         227.000
 131001721.07548 102079254.87748  24928805.5684   24928806.6994   24928807.5224
       215.000         158.000
 126970844.94248  81146108.79548  22258813.6564   22258815.9294   22258814.4164
       235.000         194.000
 135265556.89848  87609527.32848  23837241.2094   23837242.0824   23837241.6304
       222.000         169.000
 131944880.53548  85021977.53748  23205343.2474   23205345.6564   23205343.6244
       231.000         192.000
 115526154.58148  90020370.30848  21983903.3974   21983905.6604   21983903.2524
       241.000         210.000
  98977236.42148  94917319.54148  20737684.1734   20737686.0834   20737683.9214
       249.000         229.000
 115911607.97548  90320725.07148  22057251.2894   22057254.4164   22057251.2364
       240.000         202.000
 09  1  1  2 18  0.0000000  0  9G 5G 9G28G18G22G17G12G15G26
 131098743.28448  84362642.78148  23044334.8094   23044338.2604   23044335.1054
       227.000         182.000
 106481783.41848  82972811.77048  20262814.1134   20262816.8354   20262814.5904
       251.000         227.000
 131097571.39148 102153943.41348  24947045.7994   24947046.2224   24947046.9574
       214.000         157.000
 126969728.99648  81145239.22348  22258601.5734   22258603.2814   22258601.9904
       235.000         193.000
 135212123.01248  87567890.53248  23827074.0444   23827073.9344   23827074.5554
       225.000         172.000
 131944798.25348  85021913.43548  23205327.7804   23205329.7494   23205328.0144
       232.000         192.000
 115442726.70248  89955361.57848  21968027.9204   21968030.0514   21968027.7524
       242.000         211.000
  99022173.80348  94952335.67948  20746235.5904   20746237.3594   20746235.1304
       248.000         229.000
 115998480.58148  90388418.01248  22073782.7264   22073785.3084   22073782.7524
       239.000         201.000
 09  1  1  2 18 30.0000000  0  9G 5G 9G28G18G22G17G12G15G26
 130997832.34248  84284010.89048  23025132.1704   23025135.2924   23025132.2844
       227.000         182.000
 106448289.49948  82946712.62048  20256440.5014   20256443.3134   20256440.7114
       251.000         227.000
 131193483.24848 102228679.92248  24965297.0594   24965297.9254   24965297.5174
       211.000         157.000
 126969190.41748  81144819.54348  22258498.9744   22258501.0274   22258499.5974
       235.000         195.000
 135159159.20048  87526620.02048  23816995.3424   23816995.3924   23816996.2614
       222.000         170.000
 131945266.88348  85022278.61248  23205417.1554   23205418.7084   23205417.1454
       231.000         192.000
 115359655.94948  89890631.12148  21952219.8944   21952222.0394   21952219.4254
       241.000         210.000
  99067566.35448  94987706.49148  20754873.4504   20754875.3624   20754873.1724
       249.000         229.000
 116085653.79348  90456345.18548  22090371.2394   22090373.9084   22090371.0304
       239.000         201.000
 09  1  1  2 19  0.0000000  0  9G 5G 9G28G18G22G17G12G15G26
 130897164.43148  84205568.37948  23005975.5464   23005978.9404   23005976.2254
       229.000         182.000
 106415124.19948  82920869.53248  20250129.3404   20250131.9454   20250129.6384
       251.000         227.000
 131289455.35548 102303463.36948  24983559.0574   24983561.3274   24983558.2254
       211.000         157.000
 126969229.16648  81144849.71748  22258506.0604   22258508.6544   22258506.3374
       235.000         194.000
 135106667.51948  87485717.43048  23807005.7994   23807006.7684   23807006.6424
       222.000         175.000
 131946287.47648  85023073.89048  23205611.1214   23205612.8794   23205610.9454
       230.000         191.000
 115276944.23148  89826180.44448  21936480.5184   21936482.3794   21936480.3534
       242.000         211.000
  99113414.24748  95023432.11448  20763598.1064   20763599.9324   20763597.9104
       248.000         229.000
 116173126.47948  90524505.70548  22107016.7684   22107019.4194   22107016.5744
       240.000         201.000
 09  1  1  2 19 30.0000000  0  9G 5G 9G28G18G22G17G12G15G26
 130796740.97948  84127316.36948  22986865.4584   22986869.2464   22986866.6084
       225.000         182.000
 106382287.62048  82895282.59248  20243880.7744   20243883.4904   20243880.7214
       252.000         227.000
 131385485.76648 102378292.23748  25001833.1854   25001835.0774   25001832.3114
       214.000         159.000
 126969844.83148  81145329.45148  22258623.4184   22258625.5354   22258623.9604
       236.000         195.000
 135054649.92548  87445184.23048  23797107.0864   23797108.0744   23797106.8914
       222.000         175.000
 131947860.35048  85024299.51348  23205910.2814   23205912.3574   23205910.6774
       232.000         191.000
 115194592.82148  89762010.51948  21920809.8174   21920811.3814   21920809.9584
       242.000         211.000
  99159716.71448  95059511.95148  20772408.9334   20772411.0034   20772408.5544
       248.000         229.000
 116260897.20548  90592898.47948  22123719.0804   22123721.5504   22123719.0064
       240.000         200.000
 09  1  1  2 20  0.0000000  0  9G 5G 9G28G18G22G17G12G15G26
 130696563.71648  84049256.18448  22967802.1814   22967806.0144   22967802.6024
       226.000         182.000
 106349780.03948  82869952.01148  20237694.7184   20237697.3834   20237695.1174
       251.000         227.000
 131481572.34048 102453164.88548  25020117.7684   25020120.4914   25020117.9894
       213.000         157.000
 126971036.93648  81146258.36648  22258850.6244   22258852.1754   22258851.3814
       237.000         195.000
 135003108.27348  87405021.90848  23787299.4054   23787300.4264   23787298.5954
       221.000         176.000
 131949985.58548  85025955.53348  23206314.5904   23206316.6074   23206314.7524
       231.000         190.000
 115112603.34248  89698122.63048  21905207.4924   21905209.2914   21905207.4424
       240.000         211.000
  99206473.31048  95095945.65448  20781306.5074   20781308.6184   20781306.3494
       249.000         229.000
 116348964.55748  90661522.38648  22140477.5684   22140480.2484   22140477.3694
       238.000         200.000
 09  1  1  2 20 30.0000000  0  9G 5G 9G28G18G22G17G12G15G26
 130596634.88048  83971389.55448  22948786.7064   22948790.1074   22948786.6434
       227.000         183.000
 106317602.31348  82844878.45648  20231571.5404   20231574.3104   20231571.4624
       252.000         228.000
 131577713.99948 102528080.41048  25038413.1574   25038415.5654   25038413.1354
       214.000         160.000
 126972805.89348  81147636.76748  22259187.1834   22259188.7934   22259187.7834
       235.000         194.000
 134952043.46048  87365231.14548  23777582.0914   23777582.9844   23777581.2994
       229.000         179.000
 131952664.23548  85028042.79748  23206824.4614   23206826.6394   23206823.7644
       230.000         191.000
 115030977.75948  89634518.29548  21889674.2694   21889676.4124   21889674.4854
       241.000         210.000
  99253684.00048  95132733.18948  20790290.5004   20790292.7424   20790290.1734
       248.000         229.000
 116437327.96148  90730376.98248  22157292.5664   22157295.3724   22157292.3364
       239.000         200.000
 09  1  1  2 21  0.0000000  0  9G 5G 9G28G18G22G17G12G15G26
 130496954.89748  83893716.85448  22929818.0534   22929821.7174   22929818.8174
       228.000         183.000
 106285753.97948  82820061.57948  20225511.0214   20225513.8094   20225511.5044
       252.000         228.000
 131673907.85448 102603036.65748  25056718.0264   25056720.6544   25056718.1354
       213.000         156.000
 126975149.88848  81149463.25348  22259633.0254   22259635.0074   22259633.5664
       234.000         195.000
 134901456.45548  87325812.67748  23767956.3944   23767956.2824   23767956.8434
       225.000         177.000
 131955895.88148  85030560.96748  23207439.5214   23207441.5064   23207439.3504
       230.000         191.000
 114949716.33248  89571197.70648  21874210.9884   21874212.7634   21874210.6624
       242.000         211.000
  99301347.48648  95169873.56048  20799360.5714   20799362.6284   20799360.3784
       249.000         228.000
 116525984.66748  90799460.11748  22174163.3094   22174166.2574   22174163.1574
       238.000         198.000
 09  1  1  2 21 30.0000000  0  9G 5G 9G28G18G22G17G12G15G26
 130397526.12648  83816239.90348  22910896.7114   22910900.9454   22910897.3334
       224.000         182.000
 106254236.10448  82795502.20248  20219513.3614   20219516.1884   20219513.3154
       252.000         228.000
 131770152.67148 102678032.57048  25075032.6894   25075035.4574   25075032.6044
       209.000         157.000
 126978069.19948  81151738.03948  22260188.5704   22260190.4354   22260188.8444
       236.000         195.000
 134851349.66148  87286768.45248  23758420.4784   23758421.7234   23758419.1804
       225.000         176.000
 131959681.22148  85033510.59048  23208159.6154   23208161.8654   23208159.3984
       230.000         191.000
 114868821.37648  89508162.67948  21858817.2544   21858818.9054   21858817.3304
       241.000         211.000
  99349463.36048  95207366.44248  20808516.6584   20808518.6744   20808516.5294
       248.000         228.000
 116614934.15148  90868771.40948  22191089.5184   22191092.6224   22191089.4304
       238.000         198.000
 09  1  1  2 22  0.0000000  0  9G 5G 9G28G18G22G17G12G15G26
 130298350.38148  83738960.13748  22892023.8914   22892028.5254   22892024.3234
       226.000         183.000
 106223049.05948  82771200.61448  20213578.6774   20213581.3804   20213578.9184
       252.000         228.000
 131866446.65248 102753066.80048  25093357.0704   25093359.5484   25093355.3444
       211.000         157.000
 126981563.37948  81154460.78148  22260853.7334   22260855.4554   22260854.0284
       236.000         195.000
 134801724.17048  87248099.22348  23748977.7334   23748977.4884   23748977.2434
       225.000         176.000
 131964020.25948  85036891.66348  23208985.3954   23208987.6814   23208984.8534
       231.000         190.000
 114788294.50448  89445414.48048  21843493.2204   21843495.3014   21843493.1344
       241.000         211.000
  99398031.56848  95245211.79048  20817758.8944   20817760.8604   20817758.3964
       249.000         229.000
 116704175.11148  90938309.81748  22208071.7364   22208074.5784   22208071.5184
       238.000         199.000
 09  1  1  2 22 30.0000000  0  9G 5G 9G28G18G22G17G12G15G26
 130199428.52648  83661878.17548  22873200.0394   22873204.1434   22873199.8994
       226.000         184.000
 106192192.27648  82747156.36348  20207706.8844   20207709.7264   20207707.1984
       252.000         228.000
 131962787.13848 102828137.28648  25111689.5324   25111692.4064   25111689.5484
       210.000         154.000
 126985631.44048  81157630.68548  22261627.5524   22261629.6284   22261628.2014
       237.000         194.000
 134752581.15648  87209805.95648  23739625.8524   23739625.6574   23739626.0664
       223.000         174.000
 131968913.35848  85040704.47648  23209916.2804   23209918.5164   23209916.2244
       230.000         191.000
 114708136.20548  89382953.46848  21828239.5304   21828241.6064   21828239.1434
       239.000         210.000
  99447050.71448  95283408.51748  20827087.0044   20827089.0354   20827086.7874
       249.000         229.000
 116793705.53548  91008073.78248  22225108.9344   22225111.7524   22225109.3284
       238.000         199.000
 09  1  1  2 23  0.0000000  0  9G 5G 9G28G18G22G17G12G15G26
 130100762.85248  83584995.85548  22854424.4364   22854429.0504   22854425.0014
       229.000         185.000
 106161667.16248  82723370.56648  20201898.1914   20201900.8604   20201898.4504
       252.000         229.000
 132059173.14848 102903243.25548  25130031.2124   25130033.7394   25130031.3724
       211.000         151.000
 126990273.25548  81161247.66448  22262510.9944   22262512.9204   22262511.6924
       236.000         194.000
 134703922.47348  87171890.10148  23730366.1034   23730366.3174   23730366.5894
       226.000         176.000
 131974361.05148  85044949.43848  23210953.1014   23210955.3614   23210952.3544
       231.000         189.000
 114628348.47348  89320781.22748  21813056.3224   21813058.4794   21813056.1424
       241.000         211.000
  99496520.59448  95321956.47248  20836500.8084   20836503.0114   20836500.7444
       248.000         228.000
 116883524.54648  91078062.61648  22242200.8704   22242203.6624   22242200.3194
       237.000         198.000
 09  1  1  2 23 30.0000000  0  9G 5G 9G28G18G22G17G12G15G26
 130002354.17448  83508313.77948  22835698.4394   22835702.3594   22835699.0134
       230.000         186.000
 106131473.19748  82699842.80448  20196152.4794   20196155.1934   20196152.7384
       252.000         228.000
 132155602.18048 102978382.72648  25148381.0784   25148383.5984   25148382.1204
       211.000         154.000
 126995487.28348  81165310.53148  22263503.0134   22263505.3414   22263503.4504
       236.000         194.000
 134655748.91448  87134352.25348  23721198.6984   23721199.9744   23721199.7794
       220.000         175.000
 131980362.53448  85049625.90648  23212095.3224   23212097.2704   23212095.7234
       232.000         191.000
 114548931.93448  89258898.22248  21797944.0374   21797946.1934   21797943.8754
       241.000         211.000
  99546440.55748  95360855.13448  20846000.1464   20846002.3014   20845999.8364
       248.000         228.000
 116973630.02948  91148274.67548  22259347.7154   22259350.2894   22259347.8124
       239.000         198.000
 09  1  1  2 24  0.0000000  0  9G 5G 9G28G18G22G17G12G15G26
 129904203.88948  83431833.04748  22817021.6094   22817024.8404   22817022.7104
       230.000         185.000
 106101610.41948  82676573.10948  20190469.8454   20190472.3344   20190469.9054
       253.000         228.000
 132252072.06348 103053554.02248  25166738.2734   25166741.6404   25166740.7274
       210.000         151.000
 127001273.13848  81169818.97648  22264604.2774   22264606.3324   22264604.6884
       237.000         194.000
 134608061.55648  87097193.30148  23712123.5294   23712125.2514   23712124.1914
       224.000         175.000
 131986917.87348  85054733.97748  23213343.0204   23213344.6254   23213343.6794
       232.000         189.000
 114469888.08348  89197305.62348  21782902.4364   21782904.3684   21782902.2884
       242.000         212.000
  99596809.43848  95400103.60748  20855585.0924   20855587.1034   20855584.7454
       249.000         227.000
 117064020.37348  91218708.71148  22276548.2834   22276550.9764   22276548.2414
       237.000         198.000
 09  1  1  2 24 30.0000000  0  9G 5G 9G28G18G22G17G12G15G26
 129806314.47148  83355555.59048  22798393.9764   22798397.0624   22798394.8834
       229.000         186.000
 106072080.52048  82653562.80148  20184850.4054   20184852.9874   20184850.6404
       252.000         228.000
 132348581.91748 103128756.47548  25185104.2084   25185106.4724   25185105.0124
       210.000         148.000
 127007630.71948  81174772.93248  22265814.1984   22265816.2594   22265814.6824
       237.000         194.000
 134560862.76248  87060415.01448  23703142.9404   23703143.2694   23703143.0944
       226.000         178.000
 131994028.18448  85060274.49548  23214695.5504   23214697.6044   23214695.9404
       230.000         189.000
 114391218.90348  89136004.96148  21767932.5734   21767934.2304   21767932.5584
       243.000         213.000
  99647627.16148  95439701.82548  20865255.3434   20865257.4854   20865255.1544
       249.000         227.000
 117154695.05648  91289364.29648  22293802.9554   22293805.7444   22293802.5734
       237.000         197.000
 09  1  1  2 25  0.0000000  0  9G 5G 9G28G18G22G17G12G15G26
 129708688.04948  83279483.06548  22779815.9694   22779819.3704   22779816.4584
       232.000         186.000
 106042884.01748  82630812.27248  20179294.5534   20179297.0714   20179294.5264
       253.000         228.000
 132445130.30948 103203988.94548  25203476.8174   25203478.4504   25203476.8554
       208.000         148.000
 127014560.13148  81180172.46448  22267132.5734   22267134.9044   22267133.2154
       235.000         194.000
 134514154.28948  87024018.80348  23694253.9594   23694255.3614   23694254.0604
       225.000         179.000
 132001694.19748  85066248.02148  23216154.5224   23216156.3034   23216153.8414
       230.000         189.000
 114312926.24248  89074997.70848  21753033.8954   21753035.7134   21753033.7004
       242.000         213.000
  99698893.75848  95479649.80948  20875011.1164   20875013.0694   20875010.8034
       249.000         227.000
 117245653.09048  91360240.67948  22311111.8914   22311114.6064   22311112.0564
       237.000         196.000
 09  1  1  2 25 30.0000000  0  9G 5G 9G28G18G22G17G12G15G26
 129611326.08048  83203616.62648  22761288.8944   22761292.2784   22761289.6104
       232.000         188.000
 106014021.20248  82608321.76848  20173802.0494   20173804.6364   20173802.2314
       252.000         229.000
 132541715.28448 103279249.98648  25221856.3094   25221857.9324   25221857.5434
       210.000         145.000
 127022060.47248  81186016.87248  22268560.1414   22268562.0584   22268560.4944
       237.000         195.000
 134467937.46148  86988005.68748  23685459.4554   23685460.2194   23685460.9574
       228.000         180.000
 132009915.74748  85072654.42848  23217718.9984   23217720.9984   23217718.9274
       229.000         189.000
 114235011.52348  89014284.94848  21738207.3164   21738209.0764   21738207.1614
       242.000         213.000
  99750608.78748  95519947.22748  20884852.3304   20884854.1614   20884852.2264
       248.000         227.000
 117336892.90848  91431336.65348  22328474.0244   22328476.8624   22328473.6684
       236.000         196.000
 09  1  1  2 26  0.0000000  0  9G 5G 9G28G18G22G17G12G15G26
 129514229.45048  83127956.93048  22742811.7594   22742815.2264   22742812.9324
       232.000         188.000
 105985491.85048  82586091.10948  20168373.0504   20168375.8924   20168373.3444
       252.000         229.000
 132638334.89148 103354538.00148  25240242.2394   25240243.2984   25240245.0194
       209.000         145.000
 127030130.42248  81192305.14048  22270095.6614   22270097.9124   22270096.4634
       236.000         195.000
 134422212.87148  86952376.13548  23676758.7584   23676759.5654   23676758.1744
       228.000         181.000
 132018692.59348  85079493.54748  23219389.3434   23219391.0404   23219388.5654
       230.000         189.000
 114157475.31348  88953867.13148  21723452.4944   21723454.2664   21723452.3144
       241.000         213.000
  99802770.49548  95560592.70648  20894778.2234   20894780.2424   20894777.9094
       248.000         227.000
 117428412.63448  91502650.71148  22345889.8084   22345892.7814   22345889.5434
       237.000         196.000
 09  1  1  2 26 30.0000000  0 10G 5G 9G28G30G18G22G17G12G15G26
 129417400.46748  83052505.77048  22724385.9674   22724388.7514   22724385.9654
       232.000         187.000
 105957296.77348  82564120.92148  20163007.6574   20163010.4444   20163007.8054
       252.000         229.000
 132734987.62648 103429851.78448  25258635.1694   25258636.1804   25258636.8484
       209.000         146.000
 131434617.84758 102416570.99958  25011186.6085   25011190.2315   25011187.2945
       209.000         151.000
 127038769.90848  81199037.18548  22271739.6874   22271741.9344   22271740.2694
       236.000         195.000
 134376982.59948  86917131.75348  23668151.9404   23668152.3504   23668152.2424
       227.000         181.000
 132028025.25048  85086765.73348  23221165.1474   23221167.0414   23221164.9244
       232.000         190.000
 114080319.61948  88893745.83248  21708770.1824   21708771.9574   21708769.9854
       243.000         214.000
  99855379.04548  95601586.37148  20904789.3374   20904791.4704   20904789.0764
       248.000         227.000
 117520211.28348  91574182.11648  22363358.4874   22363361.0804   22363358.6404
       236.000         195.000
 09  1  1  2 27  0.0000000  0 10G 5G 9G28G30G18G22G17G12G15G26
 129320840.16648  82977263.98548  22706011.2124   22706014.2644   22706011.3024
       232.000         188.000
 105929436.21448  82542411.39648  20157706.0414   20157708.6124   20157706.2754
       252.000         229.000
 132831670.93348 103505189.39248  25277034.2794   25277034.5244   25277034.8804
       212.000         149.000
 131322428.84448 102329151.03948  24989837.3944   24989841.0474   24989836.4084
       209.000         149.000
 127047977.98748  81206212.29948  22273491.9804   22273494.1214   22273492.8954
       235.000         194.000
 134332247.59048  86882273.31148  23659638.4924   23659639.1554   23659639.1634
       228.000         177.000
 132037913.40648  85094470.80548  23223047.2324   23223048.7844   23223047.3874
       231.000         189.000
 114003545.22748  88833921.64348  21694160.5124   21694162.1584   21694160.4274
       242.000         214.000
  99908433.39548  95642927.41048  20914885.0354   20914887.4994   20914884.6104
       248.000         227.000
 117612286.92348  91645929.36948  22380879.8444   22380882.5154   22380879.8524
       237.000         195.000
 09  1  1  2 27 30.0000000  0 10G 5G 9G28G30G18G22G17G12G15G26
 129224550.33448  82902232.96448  22687687.4904   22687690.9654   22687688.3454
       233.000         188.000
 105901910.41848  82520962.72748  20152468.0554   20152470.6924   20152468.1064
       253.000         229.000
 132928384.03248 103580550.22448  25295437.8714   25295438.3044   25295439.1234
       204.000         144.000
 131210318.65448 102241792.49548  24968503.8924   24968507.0044   24968503.2254
       210.000         149.000
 127057753.89248  81213829.88048  22275352.1364   22275354.2074   22275352.9674
       235.000         194.000
 134288009.04648  86847801.69748  23651220.6444   23651220.0074   23651221.2144
       227.000         179.000
 132048357.26148  85102608.87548  23225034.4134   23225036.2334   23225034.3914
       230.000         190.000
 113927153.56848  88774395.68848  21679623.6604   21679625.1674   21679623.5124
       242.000         214.000
  99961932.67348  95684615.15648  20925065.8334   20925067.8804   20925065.6264
       248.000         227.000
 117704638.42248  91717891.58048  22398453.8394   22398456.2484   22398454.0094
       235.000         193.000
 09  1  1  2 28  0.0000000  0 10G 5G 9G28G30G18G22G17G12G15G26
 129128533.06048  82827414.31848  22669415.7684   22669419.2004   22669415.9784
       232.000         187.000
 105874720.09148  82499775.45448  20147294.0734   20147296.6294   20147294.2094
       253.000         229.000
 133025125.18148 103655932.94948  25313846.0134   25313847.9014   25313848.1664
       207.000         142.000
 131098289.32648 102154496.97248  24947184.7414   24947188.3714   24947185.8644
       211.000         152.000
 127068097.38248  81221889.72948  22277320.6154   22277322.7884   22277321.3224
       236.000         195.000
 134244268.44048  86813718.15448  23642896.8404   23642897.8844   23642896.8564
       226.000         180.000
 132059357.18448  85111180.25148  23227127.5714   23227129.2604   23227127.2664
       230.000         189.000
 113851146.18348  88715169.16748  21665159.7254   21665161.8434   21665159.4104
       242.000         215.000
 100015876.95548  95726649.65248  20935331.1044   20935333.1624   20935330.7774
       248.000         226.000
 117797264.68848  91790067.87048  22416080.1764   22416082.6894   22416080.2604
       235.000         194.000
 09  1  1  2 28 30.0000000  0 10G 5G 9G28G30G18G22G17G12G15G26
 129032789.63848  82752809.06948  22651196.7264   22651199.7844   22651197.1824
       235.000         190.000
 105847865.79448  82478850.03148  20142183.6144   20142186.5194   20142183.8104
       252.000         229.000
 133121892.50748 103731336.01148  25332260.2504   25332262.1944   25332261.0964
       205.000         142.000
 130986342.35048 102067265.58148  24925881.6794   24925886.1534   24925881.0984
       209.000         153.000
 127079007.47048  81230391.08848  22279396.9654   22279399.0064   22279397.8564
       236.000         195.000
 134201027.36248  86780023.77148  23634668.3394   23634669.3494   23634668.5494
       224.000         174.000
 132070912.99848  85120184.79648  23229326.2944   23229328.3254   23229326.3634
       231.000         190.000
 113775524.66648  88656243.32848  21650769.3284   21650771.7954   21650769.1184
       241.000         215.000
 100070265.37748  95769030.23248  20945680.9674   20945682.9504   20945680.7584
       248.000         226.000
 117890164.15448  91862457.06548  22433758.3324   22433761.0494   22433758.0804
       237.000         196.000
 09  1  1  2 29  0.0000000  0 10G 5G 9G28G30G18G22G17G12G15G26
 128937321.79748  82678418.54548  22633030.1534   22633033.1704   22633031.4184
       233.000         188.000
 105821348.14748  82458186.92448  20137137.6454   20137140.2744   20137137.7824
       253.000         229.000
 133218684.39848 103806758.26448  25350679.5084   25350681.6904   25350680.0934
       202.000         141.000
 130874479.12448 101980099.44848  24904594.9934   24904599.2674   24904594.7944
       208.000         152.000
 127090482.92648  81239332.99848  22281580.7834   22281582.6924   22281581.2524
       237.000         195.000
 134158286.75748  86746719.37548  23626534.4774   23626535.0994   23626533.7094
       223.000         176.000
 132083024.57348  85129622.39048  23231631.3584   23231633.0734   23231631.4734
       230.000         191.000
 113700290.01148  88597618.92748  21636452.8764   21636455.0754   21636452.6784
       243.000         216.000
 100125096.84348  95811756.04248  20956114.9454   20956116.9184   20956114.6804
       248.000         226.000
 117983335.41448  91935058.03148  22451488.3124   22451491.1104   22451488.6184
       235.000         194.000
 09  1  1  2 29 30.0000000  0 10G 5G 9G28G30G18G22G17G12G15G26
 128842131.31648  82604244.16348  22614915.2834   22614918.7384   22614915.6404
       232.000         189.000
 105795167.47548  82437786.40148  20132155.4454   20132158.2044   20132155.5404
       253.000         228.000
 133315499.83848 103882198.82748  25369103.2504   25369105.3184   25369105.1754
       204.000         138.000
 130762701.94348 101893000.37548  24883324.3914   24883328.8234   24883324.1174
       211.000         154.000
 127102523.70648  81248715.41348  22283871.6964   22283873.7114   22283872.2374
       236.000         193.000
 134116047.96248  86713806.06948  23618497.3334   23618497.9134   23618496.3064
       226.000         177.000
 132095692.56248  85139493.55848  23234042.4044   23234044.1624   23234041.7734
       232.000         193.000
 113625443.99848  88539297.36748  21622210.3914   21622212.2634   21622210.2344
       243.000         216.000
 100180371.13748  95854826.90848  20966633.3004   20966635.3094   20966633.0334
       248.000         226.000
 118076777.26248  92007869.85448  22469269.6184   22469272.1674   22469269.3604
       234.000         193.000
 09  1  1  2 30  0.0000000  0 10G 5G 9G28G30G18G22G17G12G15G26
 128747219.27848  82530286.74248  22596854.2184   22596857.6434   22596854.5744
       234.000         190.000
 105769323.70248  82417648.39648  20127237.6744   20127240.1694   20127238.0144
       253.000         228.000
 133412336.39548 103957655.84748  25387530.3754   25387532.9704   25387532.8354
       206.000         142.000
 130651011.93948 101805969.24148  24862071.8264   24862074.7154   24862070.6914
       212.000         155.000
 127115128.35248  81258537.20348  22286270.4484   22286272.4054   22286271.5794
       235.000         193.000
 134074312.40048  86681284.82148  23610555.3514   23610555.4664   23610554.5994
       226.000         176.000
 132108916.47148  85149797.90348  23236558.8214   23236560.4684   23236558.7634
       231.000         192.000
 113550987.35248  88481279.21248  21608041.5964   21608043.5684   21608041.4294
       243.000         216.000
 100236087.13248  95898241.96348  20977235.6894   20977237.6934   20977235.3984
       248.000         226.000
 118170487.87248  92080891.11048  22487102.2344   22487104.8634   22487102.3194
       235.000         193.000
 09  1  1  2 30 30.0000000  0 10G 5G 9G28G30G18G22G17G12G15G26
 128652587.05848  82456547.34548  22578846.3534   22578849.6944   22578846.9314
       232.000         190.000
 105743817.02148  82397773.05748  20122383.9254   20122386.5024   20122384.0384
       253.000         229.000
 133509191.78848 104033127.57548  25405961.3744   25405964.3934   25405961.2494
       204.000         141.000
 130539410.30348 101719007.00148  24840834.6404   24840837.0774   24840835.6734
       213.000         156.000
 127128295.70648  81268797.47148  22288776.1204   22288777.9204   22288776.8884
       236.000         193.000
 134033080.84148  86649156.33848  23602708.7094   23602709.4414   23602708.2234
       224.000         178.000
 132122695.54448  85160534.84348  23239180.2174   23239182.4404   23239180.0094
       232.000         191.000
 113476921.18648  88423565.31448  21593947.4334   21593949.1554   21593947.1824
       244.000         216.000
 100292243.70348  95942000.32348  20987922.0384   20987924.0574   20987921.7834
       248.000         225.000
 118264465.50248  92154120.43748  22504985.2334   22504988.1414   22504985.5194
       235.000         194.000
 09  1  1  2 31  0.0000000  0 10G 5G 9G28G30G18G22G17G12G15G26
 128558236.49148  82383027.42448  22560892.1314   22560895.3374   22560892.4454
       234.000         190.000
 105718648.39948  82378161.14348  20117594.5454   20117597.1184   20117594.7794
       253.000         229.000
 133606065.04048 104108613.20248  25424396.0284   25424398.4364   25424395.6244
       206.000         140.000
 130427899.17848 101632115.25748  24819613.9154   24819617.7004   24819613.9444
       211.000         156.000
 127142025.19848  81279495.76248  22291388.6174   22291390.4364   22291389.2174
       235.000         192.000
 133992354.79048  86617421.76248  23594959.0894   23594959.9604   23594959.1614
       225.000         176.000
 132137030.45548  85171704.89948  23241908.3664   23241910.0154   23241908.1024
       232.000         191.000
 113403247.26748  88366157.07148  21579927.6744   21579929.5774   21579927.6514
       244.000         216.000
 100348840.53248  95986101.73748  20998692.0574   20998694.0534   20998691.8934
       247.000         225.000
 118358708.88148  92227556.82148  22522918.9794   22522922.2484   22522918.7784
       233.000         193.000
 09  1  1  2 31 30.0000000  0 10G 5G 9G28G30G18G22G17G12G15G26
 128464169.08348  82309728.14748  22542991.5384   22542995.0354   22542991.7044
       232.000         190.000
 105693818.06848  82358812.84348  20112869.3504   20112872.2224   20112869.7074
       252.000         229.000
 133702954.50648 104184111.46248  25442832.6964   25442835.4894   25442832.4594
       204.000         142.000
 130316479.99848 101545295.15348  24798411.5394   24798415.1784   24798410.9224
       212.000         156.000
 127156315.93748  81290631.38848  22294107.9874   22294110.2634   22294108.3154
       235.000         193.000
 133952134.99648  86586081.67148  23587304.9334   23587305.4384   23587304.4454
       227.000         175.000
 132151920.70348  85183307.68448  23244742.1524   23244743.5624   23244742.0964
       232.000         191.000
 113329966.45648  88309055.15348  21565982.6674   21565984.8074   21565982.5074
       244.000         217.000
 100405876.48748  96030545.33548  21009545.3534   21009547.5754   21009544.9384
       247.000         225.000
 118453216.64448  92301199.22348  22540903.6004   22540906.3524   22540903.0104
       233.000         191.000
 09  1  1  2 32  0.0000000  0 10G 5G 9G28G30G18G22G17G12G15G26
 128370385.77848  82236650.24948  22525145.0464   22525148.6024   22525145.7764
       234.000         191.000
 105669325.54048  82339727.75948  20108208.6524   20108211.6234   20108208.7314
       253.000         229.000
 133799858.35448 104259620.92048  25461273.8164   25461275.6224   25461273.0884
       204.000         139.000
 130205154.10248 101458547.75848  24777227.4774   24777230.4924   24777226.8494
       214.000         157.000
 127171166.46248  81302203.22248  22296934.0544   22296935.9984   22296934.5314
       235.000         193.000
 133912422.73448  86555137.01648  23579749.6204   23579749.5304   23579749.7574
       229.000         183.000
 132167365.98548  85195342.97648  23247681.1994   23247682.6334   23247680.9214
       231.000         191.000
 113257079.48548  88252260.11348  21552112.7904   21552114.6644   21552112.5714
       244.000         216.000
 100463350.75248  96075330.46348  21020482.5984   21020484.5994   21020482.2594
       247.000         225.000
 118547986.70248  92375046.02648  22558937.6464   22558940.4834   22558937.8194
       234.000         190.000
 09  1  1  2 32 30.0000000  0 10G 5G 9G28G30G18G22G17G12G15G26
 128276887.91148  82163794.77748  22507353.2534   22507356.7104   22507354.0564
       234.000         191.000
 105645171.43648  82320906.36848  20103612.2764   20103615.0214   20103612.3664
       253.000         229.000
 133896773.92148 104335139.54148  25479716.1424   25479717.9234   25479717.7294
       206.000         139.000
 130093922.92048 101371874.13548  24756061.4344   24756064.0234   24756061.0184
       212.000         157.000
 127186575.18148  81314210.00148  22299866.2004   22299868.2894   22299866.6814
       236.000         192.000
 133873218.28648  86524588.11848  23572287.5994   23572289.3994   23572288.3474
       225.000         178.000
 132183365.29548  85207809.98148  23250725.3744   23250727.3684   23250724.9814
       232.000         191.000
 113184587.31348  88195772.70748  21538317.9704   21538319.9074   21538317.7744
       244.000         217.000
 100521261.69048  96120455.86148  21031502.5914   21031504.6654   21031502.0924
       248.000         225.000
 118643017.47648  92449095.97748  22577021.1144   22577024.0124   22577020.9254
       232.000         191.000
 09  1  1  2 33  0.0000000  0 10G 5G 9G28G30G18G22G17G12G15G26
 128183678.13148  82091163.79248  22489615.9814   22489619.3894   22489617.1424
       234.000         191.000
 105621357.16048  82302349.79748  20099080.6244   20099083.2104   20099080.8384
       252.000         229.000
 133993701.00848 104410667.13648  25498159.8634   25498163.0314   25498161.9284
       209.000         140.000
 129982789.06848 101285276.36748  24734913.0054   24734915.7074   24734912.2674
       213.000         155.000
 127202542.50848  81326652.06148  22302904.4734   22302906.7044   22302905.4274
       235.000         192.000
 133834523.95248  86494436.67248  23564925.0794   23564925.6914   23564925.2054
       227.000         180.000
 132199919.84648  85220709.63648  23253875.8264   23253877.7374   23253875.5444
       234.000         193.000
 113112492.26748  88139594.76648  21524598.8634   21524600.6034   21524598.6114
       244.000         217.000
 100579609.53448  96165921.70648  21042606.0064   21042607.8454   21042605.9194
       248.000         225.000
 118738308.28848  92523348.55448  22595154.7674   22595157.4574   22595154.1574
       233.000         191.000
 09  1  1  2 33 30.0000000  0 10G 5G 9G28G30G18G22G17G12G15G26
 128090757.93648  82018758.43948  22471933.8394   22471937.0194   22471934.7144
       235.000         192.000
 105597883.01248  82284058.24848  20094613.5724   20094616.1734   20094613.7074
       253.000         229.000
 134090637.65848 104486202.19848  25516607.8374   25516608.8664   25516607.7054
       208.000         142.000
 129871754.54348 101198755.99048  24713783.8164   24713786.2334   24713783.3644
       217.000         156.000
 127219067.40948  81339528.59048  22306049.4024   22306051.4704   22306050.1044
       236.000         192.000
 133796340.54548  86464683.38248  23557658.9524   23557659.9404   23557657.6824
       224.000         181.000
 132217029.43648  85234041.77648  23257132.1194   23257133.5724   23257131.6594
       234.000         192.000
 113040795.46248  88083727.13848  21510955.3994   21510957.0624   21510955.4784
       244.000         216.000
 100638393.78948  96211727.60848  21053792.1054   21053794.0774   21053791.8844
       247.000         224.000
 118833857.79848  92597802.70448  22613337.2614   22613339.8734   22613336.9114
       233.000         191.000
 09  1  1  2 34  0.0000000  0 10G 5G 9G28G30G18G22G17G12G15G26
 127998126.22248  81946577.88548  22454306.6444   22454309.7624   22454307.4974
       234.000         192.000
 105574746.77448  82266030.01448  20090210.8834   20090213.5254   20090211.1424
       253.000         228.000
 134187580.20748 104561741.91648  25535055.3204   25535056.3074   25535055.5624
       206.000         140.000
 129760818.02248 101112311.98948  24692673.0474   24692675.9134   24692673.6914
       215.000         158.000
 127236146.15148  81352836.69448  22309299.2004   22309301.4904   22309300.1064
       235.000         193.000
 133758667.09448  86435327.46748  23550490.0104   23550491.2284   23550491.0854
       226.000         179.000
 132234691.11548  85247804.13748  23260492.7734   23260493.9984   23260492.7534
       233.000         192.000
 112969495.35948  88028168.61448  21497387.2334   21497388.9824   21497386.8224
       245.000         216.000
 100697610.83748  96257870.75548  21065060.8864   21065062.8054   21065060.4854
       247.000         224.000
 118929662.00748  92672455.31748  22631568.2164   22631570.8244   22631568.4984
       234.000         190.000
 09  1  1  2 34 30.0000000  0  9G 5G 9G30G18G22G17G12G15G26
 127905786.45948  81874624.81648  22436735.0964   22436738.1844   22436736.2074
       236.000         194.000
 105551950.83048  82248266.94748  20085872.9254   20085875.5564   20085873.0704
       253.000         228.000
 129649983.10248 101025947.14948  24671581.8804   24671584.9084   24671581.1914
       216.000         158.000
 127253779.75448  81366577.15848  22312654.8644   22312657.0604   22312655.5664
       234.000         193.000
 133721506.59148  86406371.21848  23543417.6244   23543418.9534   23543417.7844
       222.000         176.000
 132252906.60448  85261998.02948  23263958.9914   23263960.4804   23263958.8744
       233.000         192.000
 112898594.79148  87972921.41648  21483895.5034   21483896.9464   21483895.6214
       245.000         217.000
 100757261.57648  96304351.84548  21076412.0204   21076413.9394   21076411.8884
       247.000         224.000
 119025721.22948  92747306.66948  22649847.6464   22649850.1374   22649847.4624
       236.000         190.000
 09  1  1  2 35  0.0000000  0  9G 5G 9G30G18G22G17G12G15G26
 127813741.23648  81802901.26748  22419219.5104   22419222.8394   22419220.1534
       237.000         195.000
 105529496.79448  82230770.29948  20081600.0114   20081602.6804   20081600.2534
       252.000         228.000
 129539252.88048 100939663.87248  24650510.7284   24650513.7174   24650510.8564
       216.000         158.000
 127271968.39348  81380750.10448  22316115.9754   22316118.3484   22316116.3774
       234.000         192.000
 133684860.82548  86377816.10348  23536445.0084   23536446.0674   23536444.8684
       228.000         178.000
 132271677.08148  85276624.38348  23267530.8034   23267532.3064   23267530.8784
       233.000         192.000
 112828096.92248  87917988.02448  21470479.8924   21470481.8194   21470479.8294
       244.000         217.000
 100817346.47848  96351171.24548  21087845.7414   21087847.7714   21087845.3534
       247.000         224.000
 119122035.19648  92822356.51448  22668175.6014   22668178.1794   22668175.7434
       233.000         190.000
 09  1  1  2 35 30.0000000  0  9G 5G 9G30G18G22G17G12G15G26
 127721991.52548  81731407.98348  22401760.1854   22401763.3464   22401761.0994
       236.000         195.000
 105507384.23248  82213539.73448  20077391.9944   20077394.7454   20077392.0244
       252.000         228.000
 129428628.14848 100853462.81348  24629458.7804   24629462.4244   24629458.7864
       216.000         157.000
 127290709.98748  81395353.92448  22319682.3454   22319684.1574   22319682.4844
       235.000         192.000
 133648730.45748  86349662.55548  23529569.2574   23529569.3124   23529569.3104
       222.000         172.000
 132291001.18048  85291682.12948  23271207.8734   23271209.7094   23271208.0004
       232.000         191.000
 112758002.03648  87863368.64448  21457141.2804   21457143.2664   21457141.0004
       244.000         218.000
 100877864.05848  96398327.79248  21099361.8804   21099363.9844   21099361.6714
       247.000         223.000
 119218601.63648  92897603.08748  22686551.5894   22686554.3404   22686551.4904
       231.000         189.000
 09  1  1  2 36  0.0000000  0  9G 5G 9G30G18G22G17G12G15G26
 127630539.42848  81660146.61248  22384357.2374   22384360.5814   22384357.6604
       235.000         196.000
 105485614.23248  82196576.10548  20073249.3264   20073252.0074   20073249.5914
       252.000         228.000
 129318111.38348 100767345.87148  24608428.5754   24608431.5774   24608428.0974
       214.000         157.000
 127310004.10648  81410388.28548  22323354.4074   22323355.9224   22323354.6654
       236.000         192.000
 133613116.90048  86321911.75548  23522792.3354   23522793.1864   23522791.2154
       224.000         177.000
 132310879.35748  85307171.62348  23274990.6544   23274992.4564   23274990.4404
       233.000         191.000
 112688311.42648  87809064.27548  21443879.8494   21443881.5594   21443879.8674
       245.000         218.000
 100938813.97048  96445821.22648  21110960.1104   21110962.2524   21110960.0214
       246.000         223.000
 119315419.95948  92973045.92348  22704975.0454   22704978.1074   22704974.9794
       232.000         189.000
 09  1  1  2 36 30.0000000  0  9G 5G 9G30G18G22G17G12G15G26
 127539385.51048  81589117.59148  22367011.1344   22367014.7294   22367011.5424
       237.000         197.000
 105464186.66248  82179879.29548  20069171.9544   20069174.5074   20069172.1434
       252.000         228.000
 129207703.35848 100681313.68148  24587418.2064   24587421.3594   24587416.7024
       216.000         157.000
 127329848.96248  81425851.79248  22327130.4144   22327132.5054   22327131.0404
       234.000         192.000
 133578020.53648  86294563.94648  23516113.3374   23516115.3564   23516113.1104
       222.000         177.000
 132331310.54848  85323092.01448  23278878.9244   23278880.4614   23278878.5394
       233.000         191.000
 112619025.82448  87755075.50348  21430695.1654   21430697.0284   21430695.1874
       245.000         218.000
 101000194.47848  96493650.18448  21122640.3544   21122642.7844   21122639.9694
       247.000         223.000
 119412487.57548  93048683.02048  22723446.6994   22723449.5714   22723447.1954
       232.000         190.000
 09  1  1  2 37  0.0000000  0  9G 5G 9G30G18G22G17G12G15G26
 127448531.43348  81518322.20448  22349722.3744   22349725.6794   22349722.8534
       237.000         197.000
 105443101.83848  82163449.57048  20065159.6854   20065162.1944   20065159.9444
       253.000         229.000
 129097405.48948 100595367.32848  24566429.2834   24566432.2284   24566429.6264
       218.000         159.000
 127350243.09148  81441743.29648  22331011.4524   22331013.2144   22331011.6614
       235.000         191.000
 133543442.30048  86267619.85548  23509534.4794   23509535.3354   23509534.1434
       226.000         179.000
 132352294.28448  85339442.98348  23282871.6674   23282873.2684   23282871.4444
       232.000         190.000
 112550146.15648  87701403.03848  21417587.7874   21417589.8174   21417587.5974
       245.000         218.000
 101062004.53648  96541813.86048  21134402.6304   21134404.7824   21134402.4454
       246.000         223.000
 119509803.01448  93124513.22448  22741964.8244   22741968.1954   22741964.4514
       235.000         189.000
 09  1  1  2 37 30.0000000  0  9G 5G 9G30G18G22G17G12G15G26
 127357977.62148  81447760.78648  22332490.2764   22332493.7534   22332490.3984
       235.000         195.000
 105422359.25548  82147286.51948  20061212.5144   20061215.1684   20061212.5574
       252.000         229.000
 128987218.71748 100509507.56348  24545461.2394   24545464.7494   24545460.5454
       214.000         160.000
 127371184.78448  81458061.50348  22334996.6944   22334998.6144   22334997.5554
       235.000         192.000
 133509382.32948  86241079.65148  23503052.8274   23503053.5484   23503052.7424
       225.000         178.000
 132373829.25948  85356223.48648  23286969.2474   23286971.5394   23286969.0714
       231.000         190.000
 112481672.52848  87648046.97948  21404557.4474   21404559.6664   21404557.1864
       246.000         218.000
 101124242.41948  96590310.89748  21146246.0614   21146248.2064   21146245.6724
       247.000         223.000
 119607363.90348  93200534.69848  22760530.6284   22760533.4154   22760530.9804
       231.000         188.000
 09  1  1  2 38  0.0000000  0  9G 5G 9G30G18G22G17G12G15G26
 127267726.51948  81377435.26648  22315315.8534   22315319.4864   22315316.3344
       237.000         198.000
 105401960.14048  82131391.10848  20057330.7404   20057333.2994   20057331.0104
       252.000         229.000
 128877145.71648 100423736.44248  24524514.7114   24524518.7914   24524514.7534
       208.000         158.000
 127392673.26548  81474805.75548  22339085.5334   22339087.6704   22339086.6084
       235.000         191.000
 133475842.80548  86214944.94948  23496670.3844   23496670.7634   23496670.0984
       226.000         178.000
 132395915.95448  85373433.91048  23291172.1094   23291174.3684   23291171.6064
       234.000         190.000
 112413607.25848  87595009.12448  21391605.0424   21391607.3474   21391604.7034
       245.000         219.000
 101186907.85348  96639141.10548  21158170.9724   21158172.8564   21158170.5814
       247.000         222.000
 119705169.50948  93276746.85048  22779142.3054   22779145.2104   22779141.7054
       232.000         187.000
 09  1  1  2 38 30.0000000  0  9G 5G 9G30G18G22G17G12G15G26
 127177778.94048  81307346.24448  22298199.8134   22298203.3694   22298200.1294
       238.000         199.000
 105381904.37848  82115763.24448  20053514.1214   20053516.7764   20053514.2654
       252.000         229.000
 128767187.41648 100338054.68248  24503589.9134   24503594.3334   24503588.3604
       212.000         157.000
 127414706.98748  81491974.87048  22343278.3074   22343280.4634   22343278.9224
       236.000         193.000
 133442823.35948  86189215.49748  23490386.7544   23490387.8164   23490387.7744
       225.000         177.000
 132418553.55248  85391073.58648  23295480.7124   23295482.0554   23295480.7764
       232.000         189.000
 112345950.54548  87542289.62248  21378730.4664   21378732.6634   21378730.3854
       246.000         219.000
 101249999.32248  96688303.27648  21170176.8284   21170178.7604   21170176.6264
       247.000         222.000
 119803217.92448  93353148.21648  22797800.4714   22797803.1804   22797800.8224
       231.000         187.000
 09  1  1  2 39  0.0000000  0  9G 5G 9G30G18G22G17G12G15G26
 127088136.26848  81237494.81548  22281141.4214   22281144.9634   22281141.9054
       237.000         198.000
 105362192.03348  82100402.97548  20049763.0574   20049765.5934   20049763.3094
       252.000         229.000
 128657344.80748 100252463.04348  24482688.1514   24482692.2974   24482688.9414
       213.000         157.000
 127437284.66548  81509567.84448  22347574.8604   22347577.2434   22347575.7224
       236.000         193.000
 133410324.68248  86163891.85948  23484202.7684   23484203.3054   23484203.8824
       229.000         179.000
 132441741.25048  85409141.94748  23299892.4964   23299894.1234   23299892.7484
       231.000         187.000
 112278702.98248  87489888.92548  21365933.8024   21365935.6654   21365933.5734
       246.000         218.000
 101313515.66548  96737796.52948  21182263.7704   21182265.6274   21182263.4224
       248.000         222.000
 119901507.19848  93429737.26148  22816504.0804   22816506.9744   22816503.9414
       233.000         189.000
 09  1  1  2 39 30.0000000  0  9G 5G 9G30G18G22G17G12G15G26
 126998799.51548  81167881.76548  22264141.2824   22264144.7444   22264142.0624
       239.000         199.000
 105342823.29548  82085310.45448  20046077.2304   20046079.7924   20046077.4654
       252.000         229.000
 128547619.72748 100166963.02648  24461808.2034   24461812.0744   24461807.9644
       216.000         158.000
 127460404.56148  81527583.33048  22351974.3764   22351976.5034   22351974.8504
       236.000         193.000
 133378347.65248  86138974.73248  23478117.8454   23478117.9334   23478119.3144
       228.000         179.000
 132465478.22248  85427638.28448  23304410.0624   23304411.6034   23304409.8264
       235.000         190.000
 112211865.73848  87437807.96548  21353214.9584   21353216.9424   21353214.8524
       247.000         218.000
 101377455.85648  96787620.04148  21194431.0794   21194433.1624   21194430.9814
       247.000         222.000
 120000035.60148  93506512.63148  22835253.4244   22835256.3094   22835253.7844
       233.000         189.000
 09  1  1  2 40  0.0000000  0  9G 5G 9G30G18G22G17G12G15G26
 126909770.95948  81098508.86148  22247199.7514   22247203.0974   22247200.4134
       238.000         199.000
 105323799.64748  82070486.83148  20042457.2244   20042459.8254   20042457.3664
       252.000         229.000
 128438014.41648 100081556.32048  24440951.2194   24440954.9684   24440950.2984
       215.000         160.000
 127484066.07548  81546020.87148  22356477.3464   22356479.0464   22356477.7814
       235.000         192.000
 133346893.64748  86114465.08548  23472132.5694   23472132.5414   23472131.9784
       228.000         179.000
 132489764.90948  85446562.96348  23309031.9484   23309032.8884   23309031.9034
       232.000         187.000
 112145440.65548  87386048.15848  21340574.8444   21340576.5374   21340574.7354
       246.000         219.000
 101441819.49648  96837773.52448  21206679.0734   21206681.0064   21206678.8054
       246.000         221.000
 120098802.36048  93583473.73448  22854048.2934   22854050.8134   22854048.8734
       232.000         188.000
 09  1  1  2 40 30.0000000  0  9G 5G 9G30G18G22G17G12G15G26
 126821052.50248  81029377.58848  22230316.9904   22230320.4014   22230317.2714
       239.000         200.000
 105305122.08248  82055932.88848  20038902.9394   20038905.6464   20038903.2194
       252.000         229.000
 128328531.28148  99996244.82548  24420117.1384   24420120.6014   24420116.6474
       219.000         161.000
 127508268.25248  81564879.69548  22361082.8194   22361084.6154   22361083.4984
       235.000         191.000
 133315964.64648  86090364.57748  23466246.6924   23466247.0014   23466246.2614
       227.000         177.000
 132514601.33448  85465916.06748  23313756.7494   23313759.1294   23313756.4384
       230.000         186.000
 112079429.10948  87334610.59348  21328013.1834   21328014.9144   21328012.9384
       247.000         219.000
 101506606.02548  96888256.52248  21219007.2834   21219009.5474   21219006.7814
       247.000         221.000
 120197806.50948  93660619.81248  22872887.7644   22872890.9224   22872887.4594
       231.000         187.000
 09  1  1  2 41  0.0000000  0  9G 5G 9G30G18G22G17G12G15G26
 126732645.23048  80960488.80648  22213493.9054   22213497.0434   22213494.5674
       239.000         201.000
 105286790.44548  82041648.49748  20035414.4384   20035417.2274   20035414.5514
       252.000         229.000
 128219171.46748  99911029.43048  24399306.9474   24399309.9764   24399307.5824
       221.000         163.000
 127533009.55148  81584158.61648  22365790.8514   22365792.6974   22365791.4314
       235.000         190.000
 133285560.59648  86066673.08748  23460461.0984   23460460.5814   23460460.1474
       228.000         178.000
 132539986.45548  85485696.67148  23318588.4734   23318589.8664   23318588.5414
       234.000         189.000
 112013831.77148  87283495.78848  21315530.5444   21315532.2794   21315530.4844
       247.000         219.000
 101571813.85248  96939067.81048  21231416.1534   21231418.1584   21231416.0204
       246.000         221.000
 120297046.03848  93737949.30048  22891772.8474   22891775.6814   22891773.1234
       231.000         185.000
 09  1  1  2 41 30.0000000  0  9G 5G 9G30G18G22G17G12G15G26
 126644549.72348  80891842.94748  22196729.5724   22196733.0104   22196729.9174
       240.000         200.000
 105268804.09248  82027633.16148  20031991.8084   20031994.4164   20031992.0824
       252.000         229.000
 128109935.71748  99825910.68348  24378520.1674   24378523.7394   24378519.3714
       220.000         165.000
 127558287.56748  81603855.76248  22370600.5524   22370602.9754   22370601.4184
       232.000         189.000
 133255681.18648  86043390.43848  23454775.0904   23454775.2124   23454774.9514
       225.000         178.000
 132565918.83448  85505903.71648  23323523.6214   23323524.7764   23323524.3444
       231.000         187.000
 111948648.68148  87232703.78648  21303126.5614   21303128.3884   21303126.2944
       247.000         219.000
 101637441.38048  96990206.13748  21243904.6164   21243906.8214   21243904.1294
       246.000         221.000
 120396518.48448  93815460.29448  22910701.4204   22910704.5184   22910701.4164
       229.000         185.000
 09  1  1  2 42  0.0000000  0  9G 5G 9G30G18G22G17G12G15G26
 126556768.17948  80823441.73748  22180025.3374   22180028.8074   22180026.0564
       238.000         201.000
 105251164.14348  82013887.74748  20028635.1234   20028637.8414   20028635.2284
       251.000         229.000
 128000826.43648  99740890.49148  24357757.6204   24357760.9424   24357757.1374
       224.000         167.000
 127584102.18748  81623971.01648  22375513.3464   22375515.5444   22375513.3884
       234.000         191.000
 133226328.68548  86020518.35248  23449189.4234   23449190.3954   23449189.1314
       229.000         183.000
 132592398.65948  85526537.38448  23328561.3024   23328563.6544   23328561.0534
       230.000         184.000
 111883881.72148  87182236.04148  21290801.7684   21290803.6364   21290801.8104
       247.000         219.000
 101703488.01848  97041671.04548  21256472.9924   21256474.9714   21256472.6414
       247.000         221.000
 120496223.09648  93893152.20048  22929674.9704   22929677.6484   22929674.5454
       232.000         186.000
 09  1  1  2 42 30.0000000  0  9G 5G 9G30G18G22G17G12G15G26
 126469301.53448  80755285.90548  22163380.9684   22163384.4074   22163381.1264
       239.000         201.000
 105233870.72148  82000412.35448  20025344.2174   20025346.9504   20025344.2834
       251.000         229.000
 127891844.78348  99655969.75148  24337018.8144   24337022.0104   24337018.5994
       223.000         163.000
 127610451.05348  81644502.57548  22380527.3534   22380529.5344   22380527.6844
       234.000         190.000
 133197502.62848  85998056.49048  23443704.2704   23443705.2934   23443705.1284
       228.000         183.000
 132619425.05948  85547596.91048  23333704.9074   23333706.2554   23333704.3774
       234.000         186.000
 111819531.57048  87132093.07048  21278556.4224   21278558.0704   21278556.1304
       248.000         220.000
 101769952.41448  97093461.47448  21269120.6014   21269122.7524   21269120.5104
       246.000         221.000
 120596157.88048  93971023.46648  22948691.6364   22948694.4024   22948692.6014
       230.000         186.000
 09  1  1  2 43  0.0000000  0  9G 5G 9G30G18G22G17G12G15G26
 126382150.85848  80687376.28848  22146796.8434   22146800.2014   22146797.6704
       239.000         202.000
 105216923.97048  81987207.09648  20022119.3304   20022121.8914   20022119.5634
       251.000         228.000
 127782992.12648  99571149.52648  24316304.6534   24316307.0884   24316304.6964
       216.000         158.000
 127637332.77148  81665449.35148  22385642.6414   22385644.7274   22385643.1784
       233.000         189.000
 133169203.77048  85976005.42648  23438318.5504   23438320.0564   23438319.3554
       228.000         184.000
 132646996.87048  85569081.44248  23338951.9234   23338953.1874   23338951.9664
       233.000         186.000
 111755598.81548  87082275.34648  21266390.4734   21266392.1774   21266390.5154
       248.000         220.000
 101836833.08348  97145576.27848  21281847.5684   21281849.5804   21281847.1854
       246.000         220.000
 120696320.80448  94049072.50148  22967751.6964   22967754.6564   22967751.3194
       229.000         185.000
 09  1  1  2 43 30.0000000  0  9G 5G 9G30G18G22G17G12G15G26
 126295316.48048  80619713.14248  22130272.9854   22130276.3044   22130273.2404
       241.000         203.000
 105200323.00748  81974271.28748  20018960.1704   20018962.9944   20018960.2794
       251.000         229.000
 127674268.64248  99486429.93448  24295614.5414   24295616.9444   24295614.7274
       219.000         156.000
 127664744.55548  81686809.16448  22390858.9384   22390861.2424   22390859.4624
       234.000         190.000
 133141431.31148  85954364.57348  23433033.7964   23433034.8464   23433033.9134
       228.000         181.000
 132675112.30648  85590989.58148  23344301.6054   23344303.5134   23344302.3524
       229.000         183.000
 111692083.19848  87032782.66848  21254303.7304   21254305.7324   21254303.6434
       248.000         221.000
 101904127.86648  97198013.76448  21294653.4514   21294655.4024   21294653.2034
       246.000         220.000
 120796709.46648  94127297.41248  22986855.2644   22986858.4494   22986854.9154
       229.000         186.000
 09  1  1  2 44  0.0000000  0  9G 5G 9G30G18G22G17G12G15G26
 126208801.61048  80552298.96548  22113809.8754   22113813.0964   22113810.5184
       239.000         203.000
 105184070.14148  81961606.71648  20015867.5204   20015870.0974   20015867.6374
       253.000         229.000
 127565678.14148  99401813.96448  24274950.9454   24274953.4824   24274952.1104
       215.000         157.000
 127692686.84148  81708582.36448  22396176.6894   22396178.5344   22396177.6384
       235.000         191.000
 133114188.22048  85933136.19948  23427849.6464   23427850.7144   23427850.8394
       229.000         184.000
 132703772.76348  85613322.40548  23349755.6414   23349757.2604   23349755.2224
       229.000         183.000
 111628987.52348  86983617.20348  21242297.1104   21242298.9634   21242296.9894
       248.000         221.000
 101971837.40148  97250774.43748  21307538.0954   21307540.1204   21307537.8284
       246.000         220.000
 120897323.89648  94205698.26148  23006001.8894   23006004.7674   23006001.7054
       230.000         186.000
 09  1  1  2 44 30.0000000  0  9G 5G 9G30G18G22G17G12G15G26
 126122607.78148  80485134.94548  22097407.6704   22097410.6624   22097408.0534
       241.000         203.000
 105168166.34048  81949214.14348  20012841.3234   20012843.6014   20012841.5554
       253.000         229.000
 127457222.52848  99317303.12248  24254311.6414   24254315.6174   24254310.6424
       214.000         159.000
 127721157.98848  81730767.65148  22401594.6044   22401596.6514   22401595.3774
       235.000         191.000
 133087476.05048  85912321.51148  23422766.2824   23422767.6914   23422766.8334
       228.000         181.000
 132732977.50448  85636079.39048  23355312.2384   23355314.9154   23355312.4764
       227.000         183.000
 111566312.64548  86934779.62948  21230370.3524   21230372.2664   21230370.1884
       248.000         221.000
 102039960.72448  97303857.52848  21320501.5624   21320503.5904   21320501.3964
       246.000         220.000
 120998162.92448  94284274.10548  23025191.1104   23025193.7254   23025191.0654
       230.000         185.000
 09  1  1  2 45  0.0000000  0  9G 5G 9G30G18G22G17G12G15G26
 126036736.60548  80418222.33848  22081066.8414   22081070.0964   22081067.4544
       240.000         204.000
 105152612.11348  81937093.97148  20009881.3054   20009883.7444   20009881.5764
       253.000         229.000
 127348903.34748  99232898.65148  24233699.3734   24233703.1874   24233699.7894
       217.000         164.000
 127750156.84248  81753364.13748  22407112.6994   22407115.0104   22407113.2364
       235.000         191.000
 133061294.35648  85891920.17948  23417784.1434   23417784.6414   23417783.9294
       228.000         181.000
 132762726.45548  85659260.39848  23360973.7994   23360976.1214   23360973.2394
       231.000         187.000
 111504059.86048  86886270.97848  21218524.0074   21218526.0034   21218523.8814
       247.000         221.000
 102108496.97548  97357262.39548  21333543.5624   21333545.6214   21333543.2854
       246.000         219.000
 121099224.96248  94363023.74548  23044422.2394   23044425.1514   23044421.8844
       230.000         184.000
 09  1  1  2 45 30.0000000  0  9G 5G 9G30G18G22G17G12G15G26
 125951188.12348  80351561.17648  22064787.3474   22064790.5914   22064787.9984
       242.000         204.000
 105137406.33148  81925245.30948  20006987.7404   20006990.3354   20006987.9754
       253.000         229.000
 127240721.07048  99148600.82848  24213113.1284   24213117.0514   24213113.3594
       217.000         166.000
 127779680.66648  81776369.70448  22412730.6524   22412733.5464   22412731.2484
       232.000         190.000
 133035643.50948  85871932.47148  23412903.4124   23412903.3914   23412903.8254
       227.000         179.000
 132793017.67348  85682863.93048  23366739.0224   23366740.2714   23366738.5024
       232.000         187.000
 111442228.80848  86838090.94348  21206757.9474   21206759.7704   21206757.9704
       247.000         221.000
 102177443.84748  97410987.22448  21346663.7684   21346665.7074   21346663.5104
       245.000         219.000
 121200507.25748  94441945.02048  23063695.6834   23063698.2574   23063696.0784
       230.000         184.000
 09  1  1  2 46  0.0000000  0  9G 5G 9G30G18G22G17G12G15G26
 125865963.85848  80285152.66948  22048569.6454   22048573.3024   22048570.3584
       240.000         205.000
 105122549.59748  81913668.63948  20004160.4424   20004163.1944   20004160.6604
       252.000         229.000
 127132677.56848  99064411.08148  24192553.3834   24192556.6354   24192552.3294
       219.000         164.000
 127809728.27048  81799783.39948  22418448.6454   22418451.2844   22418449.3314
       235.000         191.000
 133010523.48648  85852358.43148  23408122.1524   23408124.0874   23408122.2354
       223.000         180.000
 132823849.83148  85706888.98748  23372605.5444   23372607.4564   23372605.4124
       231.000         185.000
 111380820.09448  86790239.99948  21195072.4874   21195073.9734   21195072.3594
       248.000         221.000
 102246800.05048  97465031.01448  21359861.6494   21359863.8344   21359861.3044
       245.000         219.000
 121302008.42548  94521036.83448  23083010.5974   23083013.6404   23083010.3834
       231.000         184.000
 09  1  1  2 46 30.0000000  0  9G 5G 9G30G18G22G17G12G15G26
 125781065.30948  80218997.96448  22032414.0834   22032417.6054   22032414.5964
       240.000         204.000
 105108042.37048  81902364.30648  20001399.8894   20001402.5554   20001400.0624
       252.000         229.000
 127024774.64748  98980330.90148  24172019.9284   24172022.8394   24172019.7494
       218.000         163.000
 127840298.05248  81823603.98648  22424266.1794   22424268.2744   22424266.8954
       234.000         191.000
 132985935.36748  85833198.86348  23403443.1004   23403445.0134   23403442.9154
       225.000         181.000
 132855222.65848  85731335.35848  23378575.1814   23378577.6454   23378575.0944
       226.000         182.000
 111319835.78248  86742719.75648  21183467.5454   21183469.0934   21183467.3544
       248.000         221.000
 102316564.76748  97519393.12048  21373137.3934   21373139.7694   21373137.0354
       245.000         219.000
 121403726.72648  94600297.86548  23102367.2244   23102369.7294   23102367.3884
       230.000         184.000
 09  1  1  2 47  0.0000000  0  9G 5G 9G30G18G22G17G12G15G26
 125696493.86348  80153098.13348  22016320.4864   22016324.0894   22016321.0914
       240.000         204.000
 105093885.36748  81891332.87248  19998705.8834   19998708.5904   19998706.0764
       252.000         229.000
 126917013.80248  98896361.40348  24151513.6294   24151516.7084   24151513.9844
       219.000         162.000
 127871388.60048  81847830.36548  22430182.3444   22430184.4744   22430182.7074
       233.000         190.000
 132961880.16148  85814454.55548  23398866.4024   23398868.0524   23398866.2684
       229.000         185.000
 132887135.51148  85756202.53248  23384647.8024   23384649.9224   23384647.1324
       228.000         180.000
 111259276.13548  86695530.41748  21171943.4684   21171945.0054   21171943.5304
       247.000         221.000
 102386736.61448  97574072.46848  21386490.5104   21386492.9334   21386490.0714
       245.000         218.000
 121505660.95048  94679727.12548  23121764.6234   23121767.2154   23121764.7114
       230.000         185.000
 09  1  1  2 47 30.0000000  0  9G 5G 9G30G18G22G17G12G15G26
 125612250.05348  80087453.61648  22000289.5084   22000293.0984   22000289.9814
       241.000         204.000
 105080078.15948  81880574.01348  19996078.3874   19996081.1894   19996078.6164
       252.000         228.000
 126809395.92648  98812503.31748  24131034.7584   24131037.9034   24131034.3224
       220.000         164.000
 127902997.11248  81872460.35848  22436197.1544   22436199.1894   22436197.6824
       234.000         190.000
 132938357.04948  85796124.86248  23394390.7754   23394390.5444   23394390.9784
       231.000         183.000
 132919586.66548  85781489.13748  23390823.1164   23390825.1904   23390823.1744
       232.000         185.000
 111199141.28448  86648672.10148  21160499.9634   21160501.8334   21160499.9274
       248.000         221.000
 102457313.99448  97629067.82748  21399920.9804   21399923.4224   21399920.5494
       245.000         218.000
 121607808.30448  94759322.46248  23141202.6594   23141205.3344   23141202.5304
       229.000         184.000
 09  1  1  2 48  0.0000000  0  9G 5G 9G30G18G22G17G12G15G26
 125528335.07048  80022065.32448  21984321.0264   21984324.4654   21984321.4954
       241.000         205.000
 105066621.08248  81870087.97748  19993517.5244   19993520.4004   19993517.6054
       252.000         228.000
 126701922.48048  98728757.81548  24110583.7954   24110586.6554   24110583.2354
       219.000         165.000
 127935122.06348  81897492.76648  22442310.2604   22442312.4954   22442311.1274
       233.000         189.000
 132915366.40848  85778210.06148  23390015.6504   23390015.7964   23390016.2234
       231.000         182.000
 132952575.15248  85807194.43848  23397101.6604   23397103.3204   23397101.7344
       230.000         186.000
 111139431.72448  86602145.17948  21149137.5244   21149139.5184   21149137.1744
       248.000         222.000
 102528295.28948  97684377.92248  21413428.6794   21413430.8304   21413428.4114
       246.000         218.000
 121710167.58748  94839082.92048  23160680.6664   23160683.6644   23160680.9504
       225.000         183.000
 09  1  1  2 48 30.0000000  0  9G 5G 9G30G18G22G17G12G15G26
 125444750.73048  79956934.65748  21968415.6434   21968418.6824   21968416.1434
       242.000         205.000
 105053514.91948  81859875.38148  19991023.5514   19991026.3614   19991023.7954
       252.000         229.000
 126594595.59748  98645126.47848  24090160.4244   24090162.6934   24090160.4864
       221.000         163.000
 127967762.32448  81922926.71548  22448521.6664   22448523.8424   22448522.2054
       233.000         188.000
 132892909.48448  85760711.13548  23385741.7704   23385742.5484   23385741.7864
       228.000         180.000
 132986100.68748  85833318.22448  23403481.0314   23403482.8564   23403480.4134
       229.000         184.000
 111080148.88048  86555950.75848  21137856.5704   21137858.2844   21137856.5654
       248.000         222.000
 102599679.68548  97740002.11648  21427012.6304   21427014.6664   21427012.5264
       245.000         218.000
 121812737.05248  94919007.15648  23180198.8744   23180202.0514   23180198.2214
       227.000         184.000
 09  1  1  2 49  0.0000000  0  9G 5G 9G30G18G22G17G12G15G26
 125361498.63648  79892062.89248  21952573.0244   21952576.2364   21952573.4844
       240.000         206.000
 105040760.79748  81849937.10348  19988596.5244   19988599.4694   19988596.6704
       252.000         228.000
 126487417.18848  98561610.86848  24069764.5354   24069767.1724   24069765.2934
       217.000         162.000
 128000916.51548  81948761.12848  22454830.5784   22454833.0074   22454830.8464
       234.000         189.000
 132870987.28548  85743628.87048  23381570.5784   23381570.5174   23381571.0564
       229.000         180.000
 133020162.72048  85859860.07248  23409962.1134   23409964.3844   23409961.8104
       229.000         182.000
 111021293.73148  86510089.61048  21126656.7924   21126658.6054   21126656.4944
       248.000         222.000
 102671466.47848  97795939.87048  21440673.1914   21440675.3104   21440672.8934
       245.000         218.000
 121915515.99348  94999094.61848  23199757.2724   23199760.2964   23199757.0694
       229.000         184.000
 09  1  1  2 49 30.0000000  0  9G 5G 9G30G18G22G17G12G15G26
 125278579.69948  79827450.74248  21936794.0274   21936797.6184   21936794.6474
       242.000         207.000
 105028358.52548  81840273.00048  19986236.5064   19986239.1464   19986236.6154
       252.000         228.000
 126380388.54748  98478211.96648  24049397.6464   24049400.3214   24049397.1834
       217.000         164.000
 128034582.16948  81974994.08848  22461237.1904   22461239.3734   22461238.0034
       233.000         188.000
 132849599.48048  85726963.08648  23377499.9704   23377500.8874   23377500.3154
       229.000         182.000
 133054760.11648  85886819.09348  23416545.6414   23416548.3064   23416545.2484
       227.000         183.000
 110962866.87848  86464562.19248  21115538.4804   21115540.3304   21115538.3764
       248.000         222.000
 102743653.86448  97852189.76948  21454409.9714   21454412.0674   21454409.7574
       245.000         217.000
 122018502.04048  95079343.49348  23219354.6314   23219357.5854   23219354.2914
       229.000         183.000
 09  1  1  2 50  0.0000000  0  9G 5G 9G30G18G22G17G12G15G26
 125195995.54548  79763099.46648  21921078.9954   21921082.4644   21921079.7734
       242.000         208.000
 105016308.33648  81830883.24648  19983943.4774   19983946.0674   19983943.7244
       252.000         228.000
 126273511.34948  98394931.02748  24029059.7004   24029062.7244   24029058.8794
       218.000         165.000
 128068758.17948  82001624.73248  22467740.4954   22467742.9744   22467741.3064
       233.000         188.000
 132828746.71448  85710714.16048  23373533.0334   23373532.1234   23373532.7114
       230.000         182.000
 133089891.81348  85914194.44748  23423230.9724   23423234.1504   23423230.9874
       228.000         183.000
 110904869.38248  86419369.35348  21104501.7584   21104503.8004   21104501.3994
       248.000         222.000
 102816240.92248  97908751.10648  21468222.8524   21468224.8064   21468222.5974
       245.000         217.000
 122121693.87048  95159752.69748  23238991.4634   23238994.5124   23238991.0244
       228.000         184.000
 09  1  1  2 50 30.0000000  0  9G 5G 9G30G18G22G17G12G15G26
 125113746.57748  79699009.35748  21905427.6754   21905431.0214   21905428.1694
       242.000         208.000
 105004610.09548  81821767.73548  19981717.3634   19981720.0584   19981717.6284
       252.000         228.000
 126166786.33448  98311768.70748  24008750.2574   24008753.5204   24008749.2534
       222.000         166.000
 128103442.31648  82028651.32248  22474340.7974   22474342.8104   22474341.2524
       233.000         187.000
 132808428.86648  85694882.07648  23369666.6574   23369666.5384   23369666.5334
       229.000         181.000
 133125556.40748  85941985.02248  23430018.2234   23430019.9214   23430018.0914
       229.000         182.000
 110847300.95948  86374510.84148  21093547.0434   21093548.7774   21093546.9374
       248.000         222.000
 102889225.46748  97965622.16748  21482111.4044   21482113.2454   21482111.1324
       245.000         216.000
 122225089.19748  95240320.47948  23258667.1374   23258670.0944   23258666.7824
       231.000         183.000
 09  1  1  2 51  0.0000000  0  9G 5G 9G30G18G22G17G12G15G26
 125031834.20748  79635181.54248  21889840.1654   21889843.7704   21889840.7984
       241.000         209.000
 104993264.33248  81812926.88248  19979558.3244   19979560.9754   19979558.5974
       252.000         229.000
 126060215.42948  98228726.45748  23988470.4884   23988473.7624   23988471.1784
       219.000         166.000
 128138632.49748  82056072.22248  22481037.4244   22481039.3684   22481037.8134
       233.000         188.000
 132788646.39948  85679467.14348  23365901.1684   23365901.5874   23365902.2184
       229.000         178.000
 133161752.92448  85970190.10048  23436906.7714   23436907.6274   23436906.7244
       229.000         181.000
 110790162.83548  86329987.63248  21082673.9844   21082675.7214   21082673.9664
       248.000         222.000
 102962605.78148  98022801.63348  21496075.1084   21496076.9454   21496074.8214
       243.000         215.000
 122328686.52448  95321045.67248  23278381.0664   23278383.6644   23278381.1944
       230.000         181.000
 09  1  1  2 51 30.0000000  0  9G 5G 9G30G18G22G17G12G15G26
 124950259.98948  79571617.22048  21874317.0724   21874320.6834   21874317.4164
       243.000         209.000
 104982271.62048  81804361.13648  19977466.4264   19977469.2364   19977466.4584
       252.000         229.000
 125953800.35648  98145805.63948  23968219.9184   23968223.6424   23968219.4564
       218.000         166.000
 128174327.25548  82083886.29848  22487829.9814   22487831.9584   22487830.6044
       232.000         187.000
 132769399.90948  85664469.87348  23362238.6804   23362238.7614   23362238.5364
       225.000         178.000
 133198480.64948  85998809.11648  23443895.2514   23443896.9124   23443895.4134
       228.000         180.000
 110733455.92948  86285800.43948  21071883.0164   21071884.7124   21071882.8164
       249.000         223.000
 103036382.00748  98080289.58748  21510114.0624   21510116.3574   21510113.4904
       244.000         216.000
 122432484.24548  95401927.03148  23298133.1894   23298135.6594   23298133.0934
       228.000         178.000
 09  1  1  2 52  0.0000000  0  9G 5G 9G30G18G22G17G12G15G26
 124869025.43148  79508317.56448  21858858.6534   21858862.0764   21858859.3704
       241.000         209.000
 104971633.00348  81796071.30548  19975441.9584   19975444.7914   19975442.2294
       252.000         229.000
 125847542.86348  98063007.60748  23947999.7444   23948003.2864   23947999.7804
       217.000         165.000
 128210525.26148  82112092.52748  22494718.0484   22494719.7654   22494718.4944
       232.000         186.000
 132750690.12848  85649890.82548  23358678.2374   23358678.9764   23358677.5414
       230.000         182.000
 133235738.99348  86027841.58548  23450984.5934   23450987.2374   23450984.1694
       228.000         179.000
 110677181.15848  86241949.97148  21061174.4834   21061175.9284   21061174.3924
       249.000         223.000
 103110552.82748  98138085.02348  21524228.3464   21524230.5674   21524227.9274
       244.000         215.000
 122536481.24448  95482963.62848  23317923.0584   23317925.8484   23317923.1244
       227.000         178.000
 09  1  1  2 52 30.0000000  0  9G 5G 9G30G18G22G17G12G15G26
 124788131.28548  79445283.16948  21843464.6504   21843468.7274   21843465.0424
       242.000         209.000
 104961348.35448  81788057.29048  19973484.8744   19973487.8494   19973485.0974
       252.000         229.000
 125741444.24348  97980333.35748  23927810.0364   23927813.1324   23927809.5894
       218.000         165.000
 128247224.02948  82140688.93248  22501701.5434   22501703.3554   22501702.0674
       233.000         188.000
 132732516.75148  85635729.75048  23355220.6874   23355220.8414   23355221.0614
       230.000         183.000
 133273526.51748  86057286.41248  23458175.7854   23458177.5714   23458175.9274
       229.000         182.000
 110621338.31748  86198436.08548  21050547.8934   21050549.3894   21050548.0484
       249.000         223.000
 103185115.90848  98196186.11048  21538417.3864   21538419.4044   21538417.2454
       244.000         215.000
 122640675.26448  95564153.76748  23337750.8894   23337753.4504   23337750.9714
       226.000         178.000
 09  1  1  2 53  0.0000000  0  9G 5G 9G30G18G22G17G12G15G26
 124707578.54848  79382514.80948  21828136.3404   21828140.0604   21828136.5594
       242.000         209.000
 104951417.64948  81780319.07748  19971595.1134   19971598.0354   19971595.2664
       252.000         229.000
 125635505.76648  97897783.92948  23907650.6514   23907654.2274   23907651.0484
       220.000         168.000
 128284421.28148  82169673.78148  22508780.0874   22508782.0504   22508780.6944
       232.000         187.000
 132714879.86648  85621986.69848  23351864.7224   23351864.9584   23351864.9424
       230.000         183.000
 133311841.67148  86087142.39248  23465467.1504   23465468.9974   23465467.2164
       230.000         184.000
 110565928.45048  86155259.58048  21040003.8034   21040005.2774   21040003.4834
       249.000         223.000
 103260069.68148  98254591.65248  21552680.5644   21552682.6084   21552680.3924
       243.000         214.000
 122745064.42948  95645495.96848  23357615.3934   23357617.8874   23357615.6084
       225.000         178.000
 09  1  1  2 53 30.0000000  0  9G 5G 9G30G18G22G17G12G15G26
 124627368.24648  79320013.27948  21812872.7844   21812876.4194   21812873.3724
       242.000         209.000
 104941841.27848  81772856.96548  19969772.7824   19969775.6904   19969772.8964
       252.000         229.000
 125529728.75748  97815360.30648  23887522.1564   23887525.4484   23887521.7994
       219.000         168.000
 128322115.09848  82199045.54848  22515952.8484   22515954.7834   22515953.4324
       232.000         186.000
 132697779.63148  85608661.85448  23348610.2844   23348610.5584   23348611.4774
       229.000         183.000
 133350683.39248  86117408.67648  23472858.5214   23472860.7024   23472858.0854
       229.000         183.000
 110510951.87348  86112420.69348  21029542.0014   21029543.4744   21029542.0114
       248.000         223.000
 103335412.89248  98313300.63048  21567018.0564   21567019.9854   21567017.9314
       245.000         215.000
 122849646.84348  95726988.75748  23377516.5794   23377519.6484   23377516.5354
       227.000         178.000
 09  1  1  2 54  0.0000000  0  9G 5G 9G30G18G22G17G12G15G26
 124547502.20048  79257780.00348  21797674.8004   21797678.3724   21797675.3404
       243.000         210.000
 104932620.11048  81765671.63848  19968018.1404   19968020.7934   19968018.3634
       252.000         229.000
 125424115.29948  97733064.11048  23867425.1614   23867427.5954   23867424.4794
       220.000         167.000
 128360304.38648  82228803.41048  22523219.9464   22523222.3204   22523220.5944
       232.000         188.000
 132681216.90348  85595755.83348  23345457.9224   23345458.3984   23345457.5794
       227.000         180.000
 133390051.05348  86148084.77948  23480350.1974   23480351.6614   23480349.9084
       229.000         182.000
 110456409.55048  86069920.18348  21019162.8694   21019164.2584   21019162.6124
       248.000         222.000
 103411144.67048  98372312.39448  21581429.1804   21581431.2384   21581429.1054
       243.000         214.000
 122954421.59048  95808631.38948  23397454.4524   23397457.8384   23397454.9804
       226.000         181.000
 09  1  1  2 54 30.0000000  0  9G 5G 9G30G18G22G17G12G15G26
 124467981.15048  79195815.55148  21782542.5074   21782546.0234   21782543.1164
       242.000         209.000
 104923753.84848  81758762.86648  19966330.9274   19966333.6824   19966331.1734
       252.000         229.000
 125318666.64548  97650896.34948  23847358.5804   23847361.2194   23847358.9954
       216.000         164.000
 128398986.71248  82258945.46648  22530581.0644   22530583.3024   22530581.8284
       233.000         187.000
 132665191.29548  85583268.35448  23342408.6164   23342409.0014   23342409.6224
       228.000         181.000
 133429943.00248  86179169.43048  23487941.0244   23487942.7154   23487941.2474
       229.000         182.000
 110402302.23048  86027758.65048  21008866.3924   21008868.1084   21008866.3124
       248.000         223.000
 103487263.16548  98431625.50348  21595914.1404   21595916.3204   21595913.7344
       243.000         215.000
 123059386.26748  95890422.03448  23417428.6084   23417431.6924   23417428.6154
       227.000         181.000
 09  1  1  2 55  0.0000000  0  9G 5G 9G30G18G22G17G12G15G26
 124388806.37548  79134120.92548  21767475.8614   21767479.3254   21767476.5294
       244.000         209.000
 104915243.31648  81752131.28348  19964711.2794   19964714.2774   19964711.4804
       252.000         229.000
 125213384.45248  97568858.27348  23827323.3234   23827326.6994   23827322.6884
       217.000         164.000
 128438160.17848  82289470.22948  22538035.6984   22538037.7314   22538036.0754
       233.000         188.000
 132649703.22748  85571199.72548  23339461.1794   23339461.9474   23339462.1774
       228.000         180.000
 133470358.51848  86210662.02648  23495631.8844   23495633.2894   23495631.1164
       230.000         180.000
 110348630.31348  85985936.38948  20998652.9954   20998654.8104   20998652.8224
       248.000         224.000
 103563766.95648  98491238.83848  21610472.3674   21610474.7984   21610472.1604
       243.000         215.000
 123164539.56848  95972359.66148  23437438.6314   23437441.7374   23437438.4384
       228.000         182.000
 09  1  1  2 55 30.0000000  0  9G 5G 9G30G18G22G17G12G15G26
 124309979.07348  79072697.03948  21752475.9464   21752478.8214   21752476.5804
       243.000         210.000
 104907088.79248  81745777.10648  19963159.5924   19963162.4564   19963159.6914
       252.000         229.000
 125108270.32448  97486951.16148  23807321.4134   23807324.1624   23807321.7604
       218.000         167.000
 128477822.72448  82320376.09748  22545583.4974   22545585.5014   22545583.9984
       233.000         188.000
 132634753.13448  85559550.28148  23336616.1634   23336617.0804   23336616.4944
       227.000         178.000
 133511296.29648  86242561.60848  23503422.2444   23503423.3644   23503422.3844
       231.000         181.000
 110295394.01048  85944453.56348  20988522.4644   20988524.3034   20988522.3674
       248.000         223.000
 103640654.84248  98551151.46148  21625103.5374   21625106.0884   21625103.1954
       243.000         214.000
 123269879.64848  96054442.84448  23457484.2664   23457486.9924   23457484.2284
       230.000         183.000
 09  1  1  2 56  0.0000000  0  9G 5G 9G30G18G22G17G12G15G26
 124231500.10448  79011544.58948  21737541.6144   21737544.8354   21737541.9564
       243.000         210.000
 104899290.23148  81739700.30748  19961675.4224   19961678.3894   19961675.5774
       251.000         229.000
 125003325.42048  97405175.94048  23787351.1724   23787353.9854   23787350.6974
       218.000         168.000
 128517972.37348  82351661.51148  22553223.4804   22553225.8184   22553223.8344
       232.000         188.000
 132620340.80448  85548319.87548  23333873.7854   23333874.4574   23333873.1344
       228.000         181.000
 133552754.87448  86274867.01348  23511311.5754   23511312.9694   23511311.9024
       230.000         181.000
 110242594.31448  85903310.94248  20978475.0994   20978476.7604   20978474.9994
       248.000         224.000
 103717924.75848  98611361.78148  21639807.4784   21639809.6974   21639807.3264
       243.000         213.000
 123375404.70848  96136670.15348  23477564.8794   23477567.8054   23477565.1934
       228.000         184.000
 09  1  1  2 56 30.0000000  0  9G 5G 9G30G18G22G17G12G15G26
 124153370.82748  78950664.62548  21722673.9594   21722677.2584   21722674.4044
       243.000         210.000
 104891848.35948  81733901.45148  19960259.2974   19960262.1754   19960259.3834
       252.000         228.000
 124898551.46048  97323533.90048  23767413.3454   23767416.3394   23767412.9564
       223.000         171.000
 128558607.32248  82383325.10348  22560956.2134   22560957.9764   22560957.3184
       232.000         188.000
 132606465.80348  85537508.19048  23331233.5994   23331234.0824   23331233.7594
       229.000         182.000
 133594733.30848  86307577.47448  23519299.7454   23519301.1494   23519299.6944
       230.000         181.000
 110190231.53948  85862508.77748  20968510.8924   20968512.3774   20968510.8494
       248.000         223.000
 103795575.89348  98671869.15248  21654584.1594   21654586.2364   21654584.0704
       244.000         213.000
 123481113.09548  96219040.31048  23497680.5264   23497683.4834   23497679.9674
       230.000         186.000
 09  1  1  2 57  0.0000000  0  9G 5G 9G30G18G22G17G12G15G26
 124075592.26748  78890057.95248  21707873.4114   21707876.6954   21707873.7854
       243.000         211.000
 104884763.43848  81728380.73048  19958911.1284   19958914.0734   19958911.3244
       251.000         228.000
 124793949.80948  97242026.14848  23747507.8574   23747511.6044   23747507.8524
       221.000         168.000
 128599725.09548  82415364.90748  22568780.6074   22568782.3854   22568780.8964
       233.000         187.000
 132593129.13048  85527115.97448  23328696.0534   23328696.1504   23328695.8874
       228.000         180.000
 133637230.04648  86340691.83848  23527386.3444   23527388.3644   23527386.7904
       232.000         182.000
 110138306.29748  85822047.55448  20958629.8004   20958631.2614   20958629.6624
       249.000         224.000
 103873606.60048  98732672.30048  21669432.9824   21669434.8924   21669432.8614
       243.000         213.000
 123587002.98548  96301551.88848  23517830.7674   23517833.6634   23517831.1104
       230.000         185.000
 09  1  1  2 57 30.0000000  0  9G 5G 9G30G18G22G17G12G15G26
 123998165.44548  78829725.36648  21693139.5134   21693142.9634   21693140.3454
       242.000         210.000
 104878035.83548  81723138.44048  19957630.9434   19957633.8264   19957631.0104
       252.000         228.000
 124689521.84048  97160653.67848  23727636.2094   23727639.1284   23727635.8324
       221.000         168.000
 128641323.28248  82447779.06048  22576696.3724   22576698.6304   22576696.7394
       234.000         188.000
 132580330.52248  85517143.03048  23326259.8284   23326260.0454   23326260.5544
       227.000         180.000
 133680243.94648  86374209.16248  23535571.7864   23535573.9994   23535571.3944
       231.000         183.000
 110086818.87948  85781927.49548  20948832.2324   20948833.9114   20948832.1584
       249.000         224.000
 103952015.05548  98793769.78948  21684353.6014   21684355.6544   21684353.3434
       243.000         213.000
 123693072.68748  96384203.60448  23538015.2454   23538017.8854   23538014.8494
       232.000         184.000
 09  1  1  2 58  0.0000000  0  9G 5G 9G30G18G22G17G12G15G26
 123921091.85948  78769668.02348  21678472.9444   21678476.1944   21678473.1034
       244.000         210.000
 104871666.17048  81718175.06748  19956418.8304   19956421.6404   19956418.9944
       252.000         228.000
 124585269.55948  97079418.14648  23707797.6714   23707800.0824   23707797.9424
       221.000         167.000
 128683400.90748  82480566.80248  22584703.5484   22584705.7294   22584704.5454
       232.000         188.000
 132568070.06548  85507589.41848  23323927.0894   23323928.0754   23323927.2944
       228.000         183.000
 133723774.27148  86408128.91248  23543855.3404   23543857.2284   23543855.3154
       230.000         181.000
 110035770.18948  85742149.30248  20939117.9254   20939119.6664   20939117.8304
       248.000         224.000
 104030800.31948  98855160.89948  21699345.9524   21699348.0364   21699345.8624
       241.000         213.000
 123799320.77048  96466994.31348  23558233.8864   23558236.1014   23558234.0254
       230.000         183.000
 09  1  1  2 58 30.0000000  0  9G 5G 9G30G18G22G17G12G15G26
 123844371.74848  78709886.12548  21663873.4514   21663876.7824   21663874.5214
       242.000         209.000
 104865653.96748  81713490.23248  19955274.8344   19955277.7044   19955275.1324
       252.000         229.000
 124481193.63748  96998320.06148  23687991.8864   23687995.3234   23687992.0894
       219.000         166.000
 128725955.01348  82513725.82048  22592801.2264   22592803.4044   22592801.5394
       232.000         188.000
 132556347.36948  85498454.84048  23321696.0244   23321697.3904   23321695.6234
       228.000         181.000
 133767818.81448  86442449.34848  23552236.7034   23552238.5444   23552236.7704
       230.000         183.000
 109985160.08548  85702712.86348  20929487.0234   20929488.6944   20929486.9354
       248.000         224.000
 104109959.74948  98916843.56648  21714409.3984   21714411.6134   21714409.0554
       241.000         212.000
 123905744.72848  96549922.06548  23578485.3094   23578487.9944   23578484.8104
       229.000         181.000
 09  1  1  2 59  0.0000000  0  9G 5G 9G30G18G22G17G12G15G26
 123768007.06048  78650381.17748  21649341.3624   21649345.2854   21649341.6204
       243.000         210.000
 104860000.50348  81709084.93648  19954199.0234   19954201.8154   19954199.1474
       253.000         229.000
 124377296.19648  96917361.01248  23668221.0224   23668223.8864   23668221.3454
       220.000         166.000
 128768984.13048  82547254.97448  22600989.7084   22600991.8184   22600990.0694
       232.000         189.000
 132545163.09848  85489739.79048  23319567.4924   23319568.9424   23319567.9854
       224.000         181.000
 133812376.79548  86477169.84548  23560715.8184   23560717.4404   23560715.0984
       228.000         183.000
 109934989.81648  85663619.15548  20919939.6074   20919941.5104   20919939.3054
       248.000         224.000
 104189493.05948  98978817.56648  21729543.8034   21729546.3664   21729543.3254
       239.000         212.000
 124012343.69348  96632986.18148  23598771.0514   23598773.0804   23598771.6474
       229.000         179.000
 09  1  1  2 59 30.0000000  0  9G 5G 9G30G18G22G17G12G15G26
 123691998.23948  78591153.52448  21634877.5974   21634881.2204   21634878.3354
       244.000         211.000
 104854705.41948  81704958.89748  19953191.4074   19953194.1784   19953191.6314
       252.000         229.000
 124273577.92748  96836541.59448  23648484.5834   23648487.3384   23648484.6914
       222.000         172.000
 128812485.36648  82581152.03348  22609267.4744   22609270.0434   22609268.0424
       232.000         189.000
 132534516.42648  85481443.67748  23317542.1014   23317542.9144   23317541.7764
       230.000         183.000
 133857446.37448  86512288.99548  23569292.1294   23569294.0674   23569291.9984
       228.000         181.000
 109885259.23348  85624868.05748  20910476.3704   20910478.1894   20910476.1804
       248.000         224.000
 104269398.13748  99041081.24348  21744749.3674   21744751.6654   21744748.7384
       240.000         211.000
 124119115.09548  96716184.68248  23619088.3524   23619091.2784   23619088.6084
       226.000         178.000
 09  1  1  3  0  0.0000000  0  9G 5G 9G30G18G22G17G12G15G26
 123616346.64248  78532204.22348  21620481.6804   21620485.2494   21620482.1734
       244.000         211.000
 104849769.46848  81701112.69748  19952252.1524   19952254.9594   19952252.3554
       252.000         229.000
 124170040.92248  96755863.41948  23628782.1264   23628785.2944   23628781.5944
       224.000         173.000
 128856456.85048  82615415.49948  22617634.8754   22617637.8684   22617635.4774
       230.000         188.000
 132524407.52948  85473566.61848  23315618.2264   23315618.8074   23315618.1124
       229.000         183.000
 133903026.63648  86547806.08948  23577965.3554   23577967.3504   23577965.2524
       229.000         180.000
 109835968.79748  85586459.93148  20901096.6904   20901098.5154   20901096.6004
       248.000         224.000
 104349673.60948  99103633.55948  21760025.4894   21760027.3874   21760025.1174
       241.000         211.000
 124226057.71048  96799516.57848  23639438.6334   23639441.8864   23639438.6254
       226.000         175.000
 09  1  1  3  0 30.0000000  0  9G 5G 9G30G18G22G17G12G15G26
 123541053.36148  78473534.13048  21606154.1844   21606157.2104   21606154.7294
       244.000         211.000
 104845192.99948  81697546.61748  19951381.1984   19951383.9824   19951381.1934
       252.000         229.000
 124066686.83348  96675327.77648  23609114.3814   23609117.9834   23609114.2964
       222.000         173.000
 128900896.69048  82650043.92648  22626091.3934   22626094.1724   22626092.1174
       229.000         185.000
 132514836.74548  85466108.85148  23313797.5904   23313797.8384   23313797.3124
       230.000         184.000
 133949115.92148  86583719.81648  23586736.2644   23586737.4604   23586736.3474
       229.000         180.000
 109787118.90448  85548395.08948  20891800.9524   20891802.6474   20891800.7914
       248.000         224.000
 104430317.61848  99166473.03748  21775371.4484   21775373.6354   21775371.1884
       240.000         211.000
 124333169.81748  96882980.54948  23659821.7044   23659824.9464   23659822.0134
       226.000         174.000
 09  1  1  3  1  0.0000000  0  9G 5G 9G30G18G22G17G12G15G26
 123466118.80048  78415143.56848  21591894.5304   21591897.4754   21591894.9794
       244.000         211.000
 104840975.62848  81694260.35448  19950578.7794   19950581.3194   19950578.9504
       252.000         229.000
 123963516.67548  96594935.45048  23589481.7854   23589485.1514   23589480.9604
       221.000         172.000
 128945802.16548  82685035.18148  22634636.5044   22634639.3304   22634636.6844
       228.000         185.000
 132505803.04548  85459069.60948  23312078.0354   23312078.8594   23312078.6404
       228.000         183.000
 133995712.73948  86620029.03148  23595603.6934   23595605.2924   23595603.6574
       229.000         184.000
 109738710.04548  85510673.90648  20882589.0654   20882590.6664   20882589.1344
       248.000         224.000
 104511328.11648  99229598.09748  21790787.2104   21790789.4104   21790786.8764
       241.000         211.000
 124440448.88248  96966574.62248  23680236.0524   23680239.6774   23680236.4914
       223.000         170.000
 09  1  1  3  1 30.0000000  0  9G 5G 9G30G18G22G17G12G15G26
 123391544.37448  78357033.62148  21577703.6724   21577706.5424   21577704.3744
       244.000         211.000
 104837117.97848  81691254.39148  19949844.6304   19949847.2544   19949844.7374
       252.000         228.000
 123860531.93048  96514687.58848  23569884.4094   23569887.6504   23569883.9474
       222.000         172.000
 128991171.22648  82720387.68048  22643270.1554   22643272.5784   22643270.7844
       230.000         185.000
 132497306.46048  85452448.87848  23310461.0444   23310462.1824   23310461.2804
       229.000         185.000
 134042815.81048  86656732.70748  23604566.8954   23604569.5834   23604567.1174
       228.000         184.000
 109690742.74748  85473296.79948  20873461.1264   20873462.5434   20873460.8694
       248.000         224.000
 104592704.30148  99293008.09248  21806272.6224   21806274.8164   21806272.4224
       240.000         211.000
 124547893.64848  97050297.81748  23700682.0874   23700685.4734   23700682.5234
       221.000         169.000
 09  1  1  3  2  0.0000000  0  9G 5G 9G30G18G22G17G12G15G26
 123317331.28148  78299205.24048  21563581.2094   21563584.2924   21563581.8334
       243.000         211.000
 104833620.58948  81688529.15548  19949179.0794   19949181.8044   19949179.1594
       251.000         229.000
 123757734.35748  96434585.61348  23550322.7084   23550325.7244   23550322.7114
       223.000         171.000
 129037001.85648  82756099.85048  22651991.7674   22651994.0834   22651992.0924
       231.000         185.000
 132489347.19048  85446246.85048  23308946.5704   23308947.7334   23308946.4324
       230.000         184.000
 134090423.86948  86693829.90848  23613626.4684   23613628.9324   23613626.5434
       230.000         184.000
 109643217.40448  85436264.06948  20864417.4714   20864418.9064   20864417.4794
       249.000         224.000
 104674444.59348  99356701.81748  21821827.4334   21821829.4794   21821827.1644
       241.000         211.000
 124655502.52948  97134148.89148  23721159.5414   23721162.9414   23721158.9014
       220.000         167.000
 09  1  1  3  2 30.0000000  0  9G 5G 9G30G18G22G17G12G15G26
 123243480.43348  78241659.13448  21549527.6754   21549531.0924   21549528.0754
       244.000         211.000
 104830483.73348  81686084.85248  19948582.2064   19948584.9524   19948582.5194
       251.000         228.000
 123655124.99048  96354630.25048  23530797.5404   23530799.4994   23530797.6434
       224.000         172.000
 129083291.63648  82792169.80248  22660800.1944   22660802.4584   22660800.7714
       230.000         183.000
 132481925.24348  85440463.49148  23307534.8154   23307535.2514   23307534.3934
       230.000         184.000
 134138535.20548  86731319.26048  23622781.6454   23622784.0114   23622782.3294
       227.000         183.000
 109596133.79948  85399575.54548  20855457.7634   20855459.4194   20855457.4904
       248.000         225.000
 104756546.89648  99420677.63248  21837451.2634   21837452.9434   21837451.1094
       240.000         210.000
 124763273.53448  97218126.30248  23741667.9824   23741670.8494   23741667.9264
       219.000         163.000
 09  1  1  3  3  0.0000000  0  9G 5G 9G30G18G22G17G12G15G26
 123169992.13348  78184395.52148  21535543.2834   21535546.9344   21535543.9084
       242.000         210.000
 104827707.21848  81683921.33048  19948053.8114   19948056.5444   19948054.0194
       251.000         229.000
 123552704.80148  96274822.30648  23511307.2714   23511309.7194   23511307.3994
       222.000         171.000
 129130037.66748  82828595.26348  22669695.8224   22669698.0924   22669696.4024
       229.000         184.000
 132475039.69048  85435098.11748  23306224.2734   23306224.9044   23306225.0794
       230.000         183.000
 134187147.85748  86769199.25448  23632032.3474   23632033.9724   23632031.6814
       227.000         181.000
 109549492.46248  85363231.65248  20846582.1674   20846583.7794   20846582.1554
       248.000         224.000
 104839009.23348  99484933.99448  21853143.2304   21853145.0504   21853143.0624
       241.000         211.000
 124871204.44748  97302228.29948  23762206.2864   23762209.0754   23762206.3554
       214.000         160.000
 09  1  1  3  3 30.0000000  0  9G 5G 9G30G18G22G17G12G15G26
 123096868.33448  78127415.94548  21521628.0414   21521631.9154   21521628.5844
       243.000         210.000
 104825292.05448  81682039.37848  19947594.2264   19947597.0174   19947594.2424
       251.000         229.000
 123450476.33048  96195163.76848  23491852.9164   23491855.9304   23491852.7864
       223.000         172.000
 129177238.79348  82865375.34248  22678677.7654   22678680.2604   22678678.1064
       230.000         183.000
 132468691.48848  85430151.45348  23305016.3324   23305016.6284   23305016.7644
       231.000         184.000
 134236261.41848  86807469.57048  23641378.0604   23641380.2544   23641378.1684
       228.000         181.000
 109503294.27348  85327233.06248  20837790.7804   20837792.4194   20837790.5094
       247.000         224.000
 104921830.74848  99549470.22648  21868903.7214   21868905.6834   21868903.4004
       240.000         211.000
 124979294.27548  97386454.13748  23782774.7484   23782778.2654   23782773.8164
       215.000         157.000
 09  1  1  3  4  0.0000000  0  9G 5G 9G30G18G22G17G12G15G26
 123024109.86148  78070721.03748  21507782.4884   21507786.2474   21507782.7974
       243.000         209.000
 104823238.75248  81680439.40248  19947203.5054   19947206.2504   19947203.6294
       251.000         229.000
 123348440.69548  96115655.49448  23472436.5754   23472439.5144   23472436.8514
       222.000         173.000
 129224892.50548  82902508.11048  22687745.7584   22687747.9094   22687746.3904
       229.000         182.000
 132462879.92148  85425622.94848  23303910.1584   23303910.7864   23303910.4244
       228.000         181.000
 134285874.17048  86846128.86748  23650819.1504   23650821.0934   23650818.8724
       227.000         179.000
 109457539.29548  85291579.83648  20829083.9334   20829085.6344   20829083.7564
       249.000         225.000
 105005009.83348  99614285.08448  21884731.8954   21884734.1494   21884731.5944
       239.000         209.000
 125087541.15248  97470802.34048  23803373.4044   23803376.9254   23803373.4464
       213.000         154.000
 09  1  1  3  4 30.0000000  0  9G 5G 9G30G18G22G17G12G15G26
 122951717.41448  78014311.33048  21494006.6634   21494010.2434   21494006.8544
       243.000         210.000
 104821547.15548  81679121.27148  19946881.5644   19946884.2134   19946881.8044
       251.000         228.000
 123246599.10648  96036298.44548  23453056.9014   23453060.0764   23453056.6914
       224.000         175.000
 129272996.44348  82939991.70348  22696899.3334   22696902.0684   22696899.6794
       228.000         182.000
 132457604.41748  85421512.14048  23302906.1174   23302906.9334   23302906.0234
       228.000         180.000
 134335984.03648  86885175.49548  23660355.0364   23660355.2774   23660354.5374
       225.000         177.000
 109412227.80248  85256272.17848  20820461.4714   20820463.3444   20820461.3874
       248.000         226.000
 105088544.36548  99679376.92448  21900627.8684   21900630.0234   21900627.5874
       241.000         210.000
 125195943.12848  97555271.38648  23824002.0634   23824005.9214   23824002.7714
       210.000         151.000
 09  1  1  3  5  0.0000000  0  9G 5G 9G30G18G22G17G12G15G26
 122879692.15848  77958187.76148  21480300.7854   21480304.5324   21480301.4944
       243.000         211.000
 104820217.81648  81678085.42248  19946628.6124   19946631.3834   19946628.7724
       251.000         229.000
 123144953.08848  95957093.78248  23433714.4394   23433717.3444   23433714.8484
       222.000         173.000
 129321548.03248  82977824.09748  22706138.3104   22706141.2364   22706138.9554
       228.000         182.000
 132452864.98148  85417819.06248  23302003.6914   23302005.3564   23302004.1744
       228.000         181.000
 134386589.87448  86924608.60848  23669984.4814   23669986.2684   23669983.8324
       225.000         179.000
 109367360.22048  85221310.42648  20811923.5024   20811925.4234   20811923.1564
       249.000         226.000
 105172433.27848  99744744.89448  21916591.5184   21916593.4684   21916591.5064
       239.000         209.000
 125304498.50748  97639860.00148  23844659.8584   23844661.8394   23844658.9684
       212.000         149.000
 09  1  1  3  5 30.0000000  0  9G 5G 9G30G18G22G17G12G15G26
 122808035.28948  77902351.24848  21466665.2144   21466668.6274   21466665.6784
       243.000         211.000
 104819251.29048  81677332.28248  19946444.7954   19946447.4424   19946445.0354
       251.000         229.000
 123043504.30548  95878042.79348  23414409.3494   23414411.8074   23414408.5154
       226.000         173.000
 129370545.27448  83016003.74548  22715462.4804   22715464.8864   22715462.9864
       230.000         183.000
 132448661.40948  85414543.55248  23301204.1054   23301205.1734   23301203.3924
       229.000         183.000
 134437690.33448  86964427.17148  23679709.2904   23679712.0404   23679708.5084
       227.000         181.000
 109322937.11748  85186695.02448  20803470.0974   20803471.7864   20803469.9784
       248.000         226.000
 105256674.71148  99810387.57048  21932622.1294   21932624.3324   21932622.0094
       239.000         209.000
 125413205.58748  97724566.80648  23865345.0714   23865348.7454   23865344.5624
       206.000         146.000
 09  1  1  3  6  0.0000000  0  9G 5G 9G30G18G22G17G12G15G26
 122736746.81648  77846801.79148  21453099.3284   21453103.0304   21453099.8674
       243.000         211.000
 104818646.82948  81676861.26448  19946329.7734   19946332.4464   19946329.8434
       251.000         229.000
 122942253.32848  95799145.90748  23395142.2224   23395144.2584   23395142.1824
       224.000         174.000
 129419985.26748  83054528.42248  22724871.2864   22724873.1644   22724871.6264
       233.000         186.000
 132444992.74748  85411684.84348  23300505.9424   23300507.3044   23300507.2464
       226.000         182.000
 134489282.89348  87004629.19848  23689527.0264   23689529.1114   23689527.2854
       229.000         179.000
 109278957.43848  85152425.14648  20795101.0544   20795102.5874   20795101.0154
       248.000         226.000
 105341266.19648  99876303.01648  21948719.2784   21948721.4794   21948719.2194
       239.000         208.000
 125522062.01648  97809389.94548  23886059.5184   23886063.4734   23886059.6854
       204.000         143.000
 09  1  1  3  6 30.0000000  0  9G 5G 9G30G18G22G17G12G15G26
 122665826.88848  77791539.51248  21439603.9604   21439607.3874   21439604.5874
       244.000         211.000
 104818404.33748  81676672.31248  19946283.6474   19946286.3514   19946283.8204
       251.000         229.000
 122841200.82748  95720403.68148  23375912.1514   23375914.6984   23375911.9084
       224.000         172.000
 129469864.83948  83093395.62648  22734363.0034   22734365.2364   22734364.0214
       230.000         186.000
 132441857.97948  85409242.14548  23299909.6304   23299910.7864   23299909.1054
       229.000         184.000
 134541365.44148  87045212.97748  23699437.8734   23699437.6064   23699438.5454
       225.000         176.000
 109235420.92848  85118500.60448  20786816.3734   20786818.0434   20786816.1904
       248.000         226.000
 105426205.48548  99942489.46548  21964882.3354   21964885.0184   21964881.9824
       237.000         208.000
 125631064.99148  97894327.36348  23906803.4174   23906805.0954   23906804.9224
       204.000         139.000
 09  1  1  3  7  0.0000000  0  9G 5G 9G30G18G22G17G12G15G26
 122595277.62648  77736566.07148  21426178.8284   21426182.3694   21426179.3934
       243.000         211.000
 104818525.01048  81676766.34548  19946306.5464   19946309.3424   19946306.6584
       251.000         229.000
 122740349.55148  95641818.27448  23356720.8884   23356723.4874   23356721.3434
       223.000         174.000
 129520182.51048  83132604.20148  22743937.8334   22743940.7644   22743938.3424
       230.000         187.000
 132439257.69148  85407215.94248  23299415.2264   23299416.0694   23299415.7944
       229.000         184.000
 134593937.40248  87086178.11848  23709441.6664   23709443.8124   23709442.0394
       225.000         179.000
 109192329.18048  85084922.62248  20778616.2564   20778617.8604   20778616.0084
       249.000         226.000
 105511491.81548 100008946.33648  21981111.9274   21981114.8644   21981111.5014
       238.000         209.000
 125740213.91448  97979378.51948  23927573.4164   23927575.1804   23927573.4284
       197.000         137.000
 09  1  1  3  7 30.0000000  0  9G 5G 9G30G18G22G17G12G15G26
 122525100.36848  77681882.47948  21412824.8274   21412828.2674   21412825.2734
       244.000         212.000
 104819009.64648  81677143.98748  19946398.7824   19946401.5344   19946398.9944
       251.000         229.000
 122639701.14848  95563390.92948  23337568.2184   23337570.8814   23337567.6244
       221.000         174.000
 129570936.33248  83172152.62748  22753596.2164   22753598.9864   22753596.5574
       233.000         187.000
 132437191.92448  85405606.24948  23299021.7244   23299022.8794   23299021.4414
       228.000         181.000
 134646997.49248  87127523.70548  23719538.5994   23719542.8924   23719538.8444
       223.000         179.000
 109149683.02948  85051691.85148  20770501.1504   20770502.4154   20770501.2784
       248.000         226.000
 105597123.98448 100075672.69248  21997407.4454   21997409.8784   21997407.2574
       239.000         208.000
 125849507.77148  98064542.53348  23948369.6964   23948373.3494   23948368.5554
       199.000         133.000
 09  1  1  3  8  0.0000000  0  9G 5G 9G30G18G22G17G12G15G26
 122455296.14748  77627489.58148  21399541.2154   21399544.8504   21399541.9154
       244.000         211.000
 104819858.65148  81677805.54348  19946560.4704   19946562.9744   19946560.6814
       252.000         229.000
 122539256.82548  95485122.63348  23318454.2844   23318457.3294   23318453.7394
       227.000         177.000
 129622124.11848  83212039.21748  22763336.7264   22763339.2574   22763337.5494
       231.000         185.000
 132435660.33848  85404412.79848  23298730.0814   23298731.1584   23298730.9134
       229.000         182.000
 134700544.16348  87169248.39848  23729727.8814   23729731.3444   23729727.9634
       222.000         173.000
 109107482.16148  85018808.06348  20762470.2864   20762471.9274   20762470.0304
       248.000         226.000
 105683100.34648 100142667.24848  22013768.2624   22013770.5534   22013768.1154
       239.000         208.000
 135958868.48958  88149743.84758  23969193.4775   23969199.2315   23969195.4715
       204.000         133.000
 09  1  1  3  8 30.0000000  0  9G 5G 9G30G18G22G17G12G15G26
 122385865.05248  77573387.42248  21386328.8854   21386332.4664   21386329.5404
       243.000         211.000
 104821071.69648  81678750.76848  19946791.1944   19946793.9204   19946791.2924
       251.000         229.000
 122439017.41548  95407014.01248  23299379.1344   23299382.5854   23299379.2244
       225.000         176.000
 129673742.92048  83252261.65748  22773159.1474   22773161.7864   22773159.8994
       229.000         183.000
 132434661.72048  85403634.64148  23298539.8854   23298541.1094   23298539.9184
       229.000         182.000
 134754575.34248  87211350.59648  23740009.7964   23740010.1394   23740008.9414
       224.000         170.000
 109065726.27148  84986271.00648  20754524.2264   20754526.1604   20754523.8324
       248.000         227.000
 105769418.35748 100209928.02748  22030194.0804   22030196.4594   22030193.4944
       239.000         208.000
 136068445.49148  88235128.48048  23990049.5044   23990050.2154   23990049.1654
       203.000         132.000
 09  1  1  3  9  0.0000000  0  9G 5G 9G30G18G22G17G12G15G26
 122316807.62048  77519576.44048  21373187.5664   21373190.9394   21373187.9904
       243.000         210.000
 104822648.88248  81679979.74248  19947091.4044   19947093.9614   19947091.5604
       251.000         229.000
 122338984.32648  95329066.14348  23280343.1674   23280346.8584   23280342.6994
       227.000         176.000
 129725789.36448  83292817.31548  22783063.2544   22783065.9264   22783063.7324
       229.000         183.000
 132434195.34248  85403271.20648  23298451.4324   23298452.3444   23298451.5934
       230.000         182.000
 134809088.86548  87253828.64248  23750383.5764   23750383.7594   23750383.2754
       225.000         173.000
 109024415.70648  84954080.95348  20746663.2774   20746665.1474   20746663.2654
       247.000         227.000
 105856075.95648 100277453.42248  22046684.5964   22046686.6654   22046684.3744
       239.000         207.000
 136178160.81448  88320621.00448  24010927.6694   24010928.2844   24010926.8744
       202.000         133.000
 09  1  1  3  9 30.0000000  0  9G 5G 9G30G18G22G17G12G15G26
 122248125.26048  77466057.72448  21360117.9204   21360121.0024   21360118.2884
       244.000         211.000
 104824590.61948  81681492.79148  19947460.9144   19947463.3294   19947461.1114
       251.000         229.000
 122239159.28648  95251280.39848  23261347.2894   23261350.4144   23261347.5484
       226.000         176.000
 129778261.85848  83333704.96848  22793048.9264   22793050.9554   22793049.2914
       231.000         183.000
 132434260.81348  85403322.21348  23298464.0904   23298464.9264   23298464.6514
       231.000         182.000
 134864083.44948  87296681.55748  23760849.0634   23760850.3134   23760848.7444
       223.000         173.000
 108983550.68948  84922238.08748  20738887.1784   20738888.7694   20738887.0094
       249.000         227.000
 105943072.04848 100345242.58348  22063239.3344   22063241.6234   22063239.3284
       239.000         207.000
 136288013.33248  88406220.42048  24031828.7184   24031833.8354   24031829.4304
       191.000         126.000
 09  1  1  3 10  0.0000000  0  9G 5G 9G30G18G22G17G12G15G26
 122179819.01348  77412832.08248  21347119.8134   21347122.9124   21347120.6184
       244.000         212.000
 104826897.40948  81683290.28848  19947899.8734   19947902.4254   19947900.0664
       251.000         229.000
 122139543.76248  95173657.90648  23242390.7574   23242393.8784   23242390.3724
       226.000         175.000
 129831158.28148  83374922.95948  22803114.7504   22803116.7824   22803115.5714
       231.000         183.000
 132434858.10748  85403787.63148  23298577.9184   23298578.8424   23298578.1364
       229.000         181.000
 134919557.28248  87339907.94648  23771404.9334   23771407.0994   23771405.4364
       222.000         174.000
 108943131.60348  84890742.69248  20731195.5084   20731197.1904   20731195.4054
       249.000         227.000
 106030405.03048 100413294.25148  22079858.2944   22079860.5284   22079858.1394
       237.000         207.000
 116398119.07258 108492041.07158  24052762.3355   24052762.3465   24052757.9235
       190.000         124.000
 09  1  1  3 10 30.0000000  0  8G 5G 9G30G18G22G17G12G15
 122111889.63648  77359900.12248  21334192.8754   21334196.4844   21334193.3134
       244.000         212.000
 104829569.87248  81685372.72548  19948408.3314   19948410.9614   19948408.5934
       251.000         229.000
 122040139.12848  95096199.73648  23223474.3574   23223477.3424   23223473.6824
       223.000         173.000
 129884475.84548  83416469.10848  22813260.8784   22813262.9324   22813261.0834
       230.000         183.000
 132435986.75948  85404667.10448  23298792.6104   23298793.7734   23298793.0994
       230.000         183.000
 134975509.14048  87383506.82048  23782051.9804   23782055.7474   23782052.1324
       220.000         173.000
 108903158.26448  84859594.64448  20723588.9054   20723590.4774   20723588.8194
       248.000         227.000
 106118073.19848 100481607.09548  22096540.6294   22096543.0264   22096539.9774
       238.000         207.000
 09  1  1  3 11  0.0000000  0  8G 5G 9G30G18G22G17G12G15
 122044337.83748  77307262.37848  21321338.3404   21321341.7084   21321339.1644
       245.000         211.000
 104832608.08148  81687740.16348  19948986.6024   19948989.1404   19948986.6654
       251.000         229.000
 121940946.83948  95018907.03748  23204599.1894   23204601.7974   23204599.0174
       225.000         175.000
 129938211.54748  83458341.09548  22823486.4164   22823488.4444   22823487.3664
       229.000         183.000
 132437645.95648  85405959.97348  23299108.3854   23299109.7954   23299108.6534
       231.000         184.000
 135031936.91248  87427476.52748  23792789.8304   23792793.9184   23792789.1344
       220.000         173.000
 108863630.64148  84828793.90948  20716066.9484   20716068.6134   20716066.7704
       248.000         227.000
 106206074.19548 100550179.29148  22113286.8544   22113289.2204   22113286.8684
       237.000         206.000
