     2.11           OBSERVATION DATA    G (GPS)             RINEX VERSION / TYPE
teqc  2008Oct2      gpsops              20090201 00:06:00UTCPGM / RUN BY / DATE
    30.0000                                                 INTERVAL
     1     1                                                WAVELENGTH FACT L1/2
     7    L1    L2    P1    P2    C1    S1    S2            # / TYPES OF OBSERV
Linux 2.4.20-8|Pentium IV|gcc -static|Linux|486/DX+         COMMENT
     2.10           OBSERVATION DATA    GPS                 COMMENT
soc2rnx ver 1.20    gpsops               1-Feb-2009 00:05:56COMMENT
S1, if present, is the SNR for the C/A data stream on L1.   COMMENT
 SNR is mapped to RINEX snr flag value [1,4-9]              COMMENT
    SNR:   >316  >100  >31.6  >10  >3.2    >0 bad=0         COMMENT
L1 & L2:      9     8     7     6     5     4     1         COMMENT
                                                            COMMENT
This data is provided as a public service by NASA/JPL.      COMMENT
No warranty is expressed or implied regarding suitability   COMMENT
for use.  For further information, contact:                 COMMENT
Dave Stowers, NASA/JPL m/s 238-600                          COMMENT
4800 Oak Grove Drive, Pasadena CA 91109 USA                 COMMENT
                                                            COMMENT
Forced Modulo Decimation to 30 seconds                      COMMENT
  2009     1    31     0     0    0.0000000     GPS         TIME OF FIRST OBS
DSN                 JPL                                     OBSERVER / AGENCY
451-U               AOAD/M_T        NONE                    ANT # / TYPE
  4849202.3940  -360328.9929  4114913.1862                  APPROX POSITION XYZ
        0.0254        0.0000        0.0000                  ANTENNA: DELTA H/E/N
LP03574             ASHTECH Z-XII3      CC00                REC # / TYPE / VERS
MADR                                                        MARKER NAME
13407S012                                                   MARKER NUMBER
                                                            END OF HEADER
 09  1 31  0  0  0.0000000  0 10G26G 5G 9G15G18G27G28G17G22G12
 113603151.19348  88521938.41748  21617957.2754   21617960.0304   21617957.2474
       242.000         209.000
 124248550.31748  96817034.51848  23643726.7454   23643730.3734   23643727.3734
       225.000         177.000
 107597839.64548  83842458.32348  20475200.1324   20475202.8844   20475200.0144
       248.000         222.000
 107999971.76748  84155816.08748  20551715.2964   20551716.7694   20551714.9234
       250.000         233.000
 117505551.69848  91562762.87948  22360566.3374   22360567.6004   22360565.8904
       235.000         194.000
 128366575.12448 100025892.27448  24427352.1014   24427355.4534   24427352.2454
       211.000         160.000
 128450099.95148 100090978.76548  24443248.3524   24443250.7154   24443248.6964
       212.000         155.000
 122281168.31048  95284022.01948  23269336.7394   23269338.5194   23269337.0364
       231.000         190.000
 127015784.84848  98973340.15448  24170298.9364   24170299.4294   24170299.1684
       220.000         170.000
 118515203.51148  92349497.81148  22552702.0754   22552704.3224   22552701.5304
       236.000         197.000
 09  1 31  0  0 30.0000000  0 10G26G 5G 9G15G18G27G28G17G22G12
 113681108.84848  88582684.63248  21632792.2954   21632794.9964   21632792.2674
       242.000         209.000
 124141396.78548  96733538.27248  23623336.2604   23623339.6834   23623336.3474
       226.000         177.000
 107554894.15448  83808994.29648  20467027.9604   20467030.5304   20467028.0674
       248.000         222.000
 108032863.65048  84181446.12648  20557974.2484   20557975.8374   20557973.9904
       250.000         233.000
 117485352.60848  91547023.32948  22356722.5934   22356723.9504   22356723.2114
       238.000         195.000
 128434842.02648 100079087.24648  24440344.6744   24440347.5684   24440344.4654
       214.000         162.000
 128543449.02048 100163718.26748  24461012.6444   24461014.1304   24461013.6374
       214.000         155.000
 122266161.19448  95272328.16248  23266480.8924   23266482.6604   23266480.4214
       230.000         190.000
 126949400.33248  98921611.92948  24157666.6104   24157666.8514   24157667.5814
       224.000         171.000
 118420937.83148  92276044.03048  22534764.0754   22534765.8154   22534764.3124
       235.000         197.000
 09  1 31  0  1  0.0000000  0 10G26G 5G 9G15G18G27G28G17G22G12
 113759398.78748  88643689.79048  21647690.3154   21647692.9324   21647690.2554
       242.000         209.000
 124034435.27948  96650191.64048  23602982.3454   23602985.3134   23602983.2654
       227.000         178.000
 107512264.04848  83775776.02948  20458915.6444   20458918.5384   20458915.6614
       249.000         222.000
 108066213.76048  84207433.22348  20564320.5804   20564322.1114   20564320.4154
       250.000         232.000
 117465725.17748  91531729.22048  22352987.5564   22352988.7714   22352988.3944
       237.000         195.000
 128503144.16748 100132309.65448  24453342.2574   24453345.1334   24453342.9674
       212.000         161.000
 128636913.27048 100236547.55748  24478798.6024   24478799.5994   24478799.3334
       212.000         154.000
 122251681.85248  95261045.56548  23263725.7274   23263727.4804   23263725.4364
       231.000         191.000
 126883432.92748  98870208.76348  24145112.7464   24145112.9704   24145114.6794
       218.000         164.000
 118326971.76548  92202823.72548  22516882.8424   22516884.5624   22516882.1184
       236.000         198.000
 09  1 31  0  1 30.0000000  0 10G26G 5G 9G15G18G27G28G17G22G12
 113838020.80748  88704953.69548  21662651.8574   21662654.4634   21662651.7744
       243.000         209.000
 123927668.46848  96566996.74148  23582664.8304   23582668.4054   23582665.7034
       226.000         177.000
 107469950.32148  83742804.29648  20450863.7264   20450866.2874   20450864.2254
       248.000         222.000
 108100022.65348  84233777.81148  20570754.2044   20570755.7074   20570754.1144
       250.000         232.000
 117446670.54748  91516881.44248  22349361.3984   22349363.3074   22349361.7704
       235.000         195.000
 128571482.24448 100185560.08948  24466346.0184   24466349.4544   24466346.4874
       214.000         161.000
 128730491.33648 100309465.56848  24496605.6034   24496606.6684   24496605.8834
       212.000         154.000
 122237731.84748  95250175.43848  23261071.0364   23261073.3114   23261070.9654
       231.000         192.000
 126817885.16448  98819132.57248  24132639.1574   24132639.1834   24132639.4354
       215.000         162.000
 118233308.06348  92129839.03748  22499059.5964   22499061.2184   22499059.7154
       236.000         199.000
 09  1 31  0  2  0.0000000  0 10G26G 5G 9G15G18G27G28G17G22G12
 113916974.21748  88766475.83648  21677676.0524   21677678.8564   21677676.2304
       242.000         208.000
 123821098.32248  96483955.09248  23562385.3904   23562388.7574   23562385.7794
       224.000         177.000
 107427953.97648  83710079.86648  20442872.2164   20442874.6484   20442872.1064
       249.000         223.000
 108134290.77448  84260480.24148  20577275.1214   20577276.7394   20577274.8714
       251.000         232.000
 117428189.23748  91502480.41448  22345844.4704   22345846.4804   22345845.0004
       237.000         196.000
 128639856.46148 100238838.70548  24479356.6884   24479361.0704   24479357.1894
       210.000         159.000
 128824181.27848 100382470.73948  24514434.1284   24514435.3734   24514434.9184
       213.000         152.000
 122224312.50248  95239718.82248  23258517.6844   23258519.6034   23258517.5044
       232.000         191.000
 126752759.17348  98768385.06548  24120246.0984   24120246.0234   24120247.4474
       221.000         164.000
 118139948.58848  92057091.39648  22481293.8304   22481295.3094   22481293.2634
       236.000         198.000
 09  1 31  0  2 30.0000000  0 10G26G 5G 9G15G18G27G28G17G22G12
 113996257.35748  88828254.89948  21692763.0774   21692765.9044   21692762.9994
       242.000         208.000
 123714726.39048  96401067.89248  23542143.3894   23542147.2244   23542144.0784
       223.000         179.000
 107386274.80548  83677602.58948  20434940.7344   20434943.2004   20434940.9374
       249.000         222.000
 108169017.69348  84287540.17448  20583883.3364   20583884.9974   20583883.2174
       251.000         232.000
 117410281.53448  91488526.36148  22342436.8484   22342438.8294   22342437.8084
       237.000         196.000
 128708266.91148 100292145.51548  24492374.9074   24492379.1684   24492374.6144
       217.000         162.000
 128917980.58548 100455561.14448  24532283.0184   24532284.2054   24532283.7404
       210.000         147.000
 122211424.56348  95229676.27448  23256065.2464   23256066.9684   23256065.2724
       233.000         192.000
 126688056.79348  98717967.61048  24107933.9314   24107934.0974   24107934.3954
       216.000         164.000
 118046894.96448  91984582.09648  22463585.6724   22463587.7054   22463585.9674
       235.000         197.000
 09  1 31  0  3  0.0000000  0 10G26G 5G 9G15G18G27G28G17G22G12
 114075869.54248  88890290.36748  21707912.7454   21707915.2594   21707912.7064
       242.000         207.000
 123608554.79448  96318336.78448  23521939.6444   23521943.2514   23521939.9694
       224.000         179.000
 107344913.70248  83645373.15848  20427070.0044   20427072.5984   20427070.1124
       249.000         222.000
 108204203.50148  84314957.68348  20590579.0454   20590580.6334   20590578.6274
       251.000         232.000
 117392948.59048  91475020.16248  22339138.5434   22339140.3374   22339138.5414
       237.000         195.000
 128776713.85648 100345480.79148  24505401.1244   24505403.5154   24505401.8334
       216.000         162.000
 129011888.03448 100528735.77148  24550153.2454   24550153.7544   24550153.5334
       210.000         149.000
 122199069.47448  95220048.94348  23253714.0714   23253715.7604   23253714.0894
       232.000         191.000
 126623780.19648  98667881.90448  24095701.6604   24095702.5954   24095701.0724
       218.000         164.000
 117954149.13748  91912312.62148  22445936.7904   22445938.3314   22445936.5784
       237.000         197.000
 09  1 31  0  3 30.0000000  0 10G26G 5G 9G15G18G27G28G17G22G12
 114155809.08848  88952580.91548  21723124.9544   21723127.3714   21723125.0334
       242.000         207.000
 123502584.93448  96235762.89148  23501774.3364   23501777.4594   23501774.3524
       224.000         179.000
 107303870.59748  83613391.51348  20419259.6204   20419262.3014   20419259.9144
       248.000         223.000
 108239847.72848  84342732.40448  20597361.9994   20597363.5494   20597361.6794
       252.000         232.000
 117376189.74048  91461961.30848  22335949.3334   22335951.1764   22335949.8024
       237.000         195.000
 128845196.76848 100398844.10748  24518432.4974   24518436.3724   24518433.4074
       214.000         162.000
 129105900.75548 100601992.46548  24568042.6754   24568043.8634   24568042.8934
       208.000         145.000
 122187247.54348  95210837.05548  23251464.0884   23251466.0024   23251463.5024
       232.000         191.000
 126559930.76448  98618129.12248  24083552.4064   24083552.9344   24083553.7284
       220.000         170.000
 117861712.56548  91840284.12148  22428346.4274   22428348.2374   22428346.0874
       237.000         199.000
 09  1 31  0  4  0.0000000  0 10G26G 5G 9G15G18G27G28G17G22G12
 114236075.05148  89015125.82148  21738399.0254   21738401.5314   21738399.0504
       242.000         206.000
 123396818.75148  96153347.68948  23481647.8944   23481651.0084   23481648.5754
       226.000         178.000
 107263146.14648  83581658.17748  20411510.1024   20411512.7434   20411510.1544
       249.000         223.000
 108275950.65948  84370864.55048  20604232.3564   20604233.7314   20604232.3434
       251.000         232.000
 117360005.83648  91449350.47248  22332869.5334   22332871.4324   22332869.9114
       236.000         195.000
 128913715.90948 100452235.60548  24531471.3684   24531475.1054   24531471.6284
       215.000         162.000
 129200016.98648 100675329.76748  24585952.5964   24585953.2554   24585953.3744
       208.000         147.000
 122175959.95748  95202041.53448  23249316.6904   23249317.8674   23249316.2604
       234.000         190.000
 126496510.73648  98568710.94648  24071484.6934   24071484.3454   24071484.9664
       220.000         168.000
 117769587.01848  91768497.97348  22410815.8244   22410817.5144   22410815.7624
       237.000         200.000
 09  1 31  0  4 30.0000000  0 10G26G 5G 9G15G18G27G28G17G22G12
 114316666.70448  89077924.50748  21753735.0384   21753737.4454   21753734.9234
       241.000         206.000
 123291258.28348  96071092.80248  23461560.2974   23461563.7484   23461560.8124
       225.000         179.000
 107222740.77948  83550173.47948  20403821.3064   20403823.8534   20403821.5484
       249.000         223.000
 108312512.05748  84399353.95048  20611189.6374   20611191.2274   20611189.4354
       252.000         232.000
 117344397.53148  91437188.14648  22329899.4684   22329901.3734   22329900.1194
       237.000         195.000
 128982271.20148 100505655.33248  24544515.9614   24544520.5254   24544515.9814
       216.000         163.000
 129294234.79648 100748746.23448  24603881.6774   24603882.0804   24603881.5724
       207.000         147.000
 122165208.08348  95193663.44948  23247270.5784   23247272.2454   23247270.2814
       230.000         191.000
 126433522.37548  98519629.11348  24059497.7364   24059497.4694   24059496.3694
       219.000         168.000
 117677774.58948  91696955.82048  22393344.5274   22393346.2494   22393343.9254
       238.000         200.000
 09  1 31  0  5  0.0000000  0 10G26G 5G 9G15G18G27G28G17G22G12
 114397582.91148  89140976.08948  21769132.8104   21769135.4884   21769132.5664
       241.000         206.000
 123185905.58948  95988999.79148  23441512.6434   23441515.4234   23441513.0944
       226.000         179.000
 107182655.20548  83518937.97048  20396193.2914   20396195.7864   20396193.6754
       248.000         223.000
 108349532.25148  84428200.85248  20618234.3694   20618235.8734   20618234.1624
       252.000         231.000
 117329365.05548  91425474.52148  22327038.8544   22327040.8224   22327039.3384
       238.000         196.000
 129050863.51848 100559103.88448  24557569.7784   24557573.2824   24557569.5264
       212.000         163.000
 129388552.79748 100822240.79148  24621829.4814   24621830.8664   24621829.5004
       205.000         146.000
 122154992.94548  95185703.60448  23245326.6464   23245328.4134   23245325.9854
       231.000         192.000
 126370967.80148  98470885.26248  24047593.7244   24047594.8004   24047593.9644
       221.000         171.000
 117586277.42848  91625659.34648  22375932.8594   22375934.9534   22375932.8914
       237.000         200.000
 09  1 31  0  5 30.0000000  0 10G26G 5G 9G15G18G27G28G17G22G12
 114478821.43948  89204278.83848  21784592.0714   21784594.5004   21784592.0024
       242.000         206.000
 123080761.20348  95907069.12548  23421504.2774   23421507.2474   23421504.7434
       227.000         181.000
 107142888.74448  83487951.12148  20388625.9234   20388628.4804   20388625.9944
       248.000         223.000
 108387009.70448  84457404.06248  20625365.8454   20625367.5804   20625365.6794
       250.000         230.000
 117314907.75548  91414209.08148  22324287.8464   22324289.5264   22324288.2464
       237.000         195.000
 129119491.54948 100612580.27748  24570628.5364   24570632.4004   24570628.1344
       213.000         162.000
 129482967.88648 100895810.97548  24639795.2274   24639797.1864   24639796.6264
       202.000         146.000
 122145314.36948  95178161.86548  23243485.0244   23243486.4434   23243484.9084
       232.000         192.000
 126308847.38648  98422479.73748  24035773.0884   24035773.2024   24035774.0854
       221.000         173.000
 117495096.24148  91554609.07348  22358582.0804   22358583.7824   22358581.9134
       240.000         200.000
 09  1 31  0  6  0.0000000  0 10G26G 5G 9G15G18G27G28G17G22G12
 114560381.46148  89267832.09748  21800112.3424   21800114.9174   21800112.3464
       240.000         205.000
 122975827.38348  95825302.51748  23401536.1714   23401539.4094   23401537.5714
       227.000         181.000
 107103442.23248  83457213.58448  20381119.3304   20381122.0864   20381119.2814
       249.000         223.000
 108424944.74348  84486963.83048  20632584.3974   20632586.3254   20632583.9784
       250.000         230.000
 117301026.19548  91403392.26948  22321646.1184   22321647.8664   22321646.8934
       236.000         195.000
 129188155.76248 100666084.83548  24583694.7254   24583699.0494   24583695.4674
       213.000         160.000
 129577477.91948 100969455.15448  24657781.0924   24657782.7914   24657781.5474
       202.000         148.000
 122136173.57248  95171039.17348  23241745.7994   23241747.1054   23241745.4694
       230.000         191.000
 126247163.42648  98374414.34748  24024034.5644   24024034.6284   24024033.9554
       220.000         168.000
 117404232.81248  91483806.39748  22341291.4854   22341293.0274   22341291.5684
       241.000         202.000
 09  1 31  0  6 30.0000000  0 10G26G 5G 9G15G18G27G28G17G22G12
 114642261.97048  89331635.08048  21815693.6844   21815696.4484   21815693.4664
       242.000         206.000
 122871106.10748  95743701.52848  23381607.9894   23381611.3064   23381608.7444
       225.000         179.000
 107064316.20448  83426725.77748  20373674.1274   20373676.6914   20373674.3374
       249.000         224.000
 108463337.09948  84516879.94848  20639890.3964   20639892.1734   20639890.1044
       250.000         230.000
 117287720.74748  91393024.37248  22319113.9494   22319116.0564   22319115.0864
       236.000         194.000
 129256856.38048 100719617.76448  24596768.2804   24596771.7424   24596767.9724
       215.000         162.000
 129672081.25448 101043172.07448  24675782.9354   24675785.5604   24675782.5644
       204.000         149.000
 122127571.27148  95164336.09748  23240108.5104   23240110.1474   23240108.4024
       231.000         192.000
 126185918.09048  98326690.68148  24012380.4114   24012379.9324   24012381.1264
       220.000         170.000
 117313689.07648  91413252.82348  22324061.8364   22324063.0954   22324061.8754
       242.000         202.000
 09  1 31  0  7  0.0000000  0 10G26G 5G 9G15G18G27G28G17G22G12
 114724462.43548  89395687.39148  21831336.0154   21831338.6124   21831336.3384
       241.000         205.000
 122766599.52248  95662267.84248  23361720.4654   23361724.4854   23361720.3554
       225.000         179.000
 107025511.51948  83396488.36548  20366289.8664   20366292.3794   20366290.3434
       249.000         223.000
 108502187.84448  84547153.25948  20647283.4904   20647285.2954   20647283.2634
       250.000         230.000
 117274992.14948  91383105.97448  22316692.0704   22316693.8594   22316692.3364
       237.000         194.000
 129325594.22548 100773179.69948  24609848.8114   24609852.4904   24609849.2344
       215.000         161.000
 129766776.82948 101116960.77448  24693803.2484   24693805.4344   24693803.2944
       205.000         149.000
 122119509.47148  95158054.19148  23238574.2244   23238576.0734   23238574.0094
       229.000         191.000
 126125113.54848  98279310.52348  24000809.4704   24000810.2784   24000810.1514
       219.000         165.000
 117223467.55148  91342950.32648  22306893.3074   22306894.4884   22306893.3354
       240.000         202.000
 09  1 31  0  7 30.0000000  0 10G26G 5G 9G15G18G27G28G17G22G12
 114806981.21148  89459987.72748  21847038.6394   21847041.5164   21847038.4164
       240.000         206.000
 122662309.31048  95581002.74648  23341875.1394   23341878.4404   23341875.4104
       226.000         180.000
 106987028.26848  83366501.41448  20358966.7434   20358969.2074   20358966.7304
       249.000         224.000
 108541495.97348  84577782.96548  20654763.7804   20654765.3074   20654763.3544
       251.000         231.000
 117262840.48148  91373637.13548  22314379.8284   22314381.2694   22314380.3304
       237.000         194.000
 129394368.79348 100826770.28348  24622936.0634   24622939.6444   24622935.9984
       217.000         160.000
 129861562.14648 101190819.44548  24711840.6974   24711842.6264   24711843.4544
       202.000         149.000
 122111988.11448  95152193.39248  23237142.9494   23237144.8224   23237142.1114
       229.000         192.000
 126064751.67048  98232275.29048  23989322.1164   23989322.9814   23989323.7024
       217.000         164.000
 117133569.52548  91272899.92348  22289785.8364   22289787.5744   22289785.6974
       238.000         201.000
 09  1 31  0  8  0.0000000  0 10G26G 5G 9G15G18G27G28G17G22G12
 114889817.82948  89524535.73048  21862802.1914   21862804.8914   21862802.0604
       241.000         205.000
 122558237.70648  95499907.99848  23322071.0064   23322074.2834   23322072.0234
       227.000         180.000
 106948867.47148  83336765.73948  20351704.9134   20351707.3254   20351705.3504
       250.000         223.000
 108581261.68048  84608769.23148  20662331.0514   20662332.5724   20662330.8004
       251.000         231.000
 117251266.43348  91364618.38348  22312177.2364   22312178.8134   22312177.8154
       237.000         194.000
 129463180.77948 100880390.00948  24636030.5484   24636034.1084   24636031.2334
       214.000         162.000
 129956435.45148 101264746.67648  24729894.6264   24729896.2054   24729893.9044
       206.000         152.000
 122105009.16148  95146755.26148  23235815.2814   23235816.8294   23235814.9444
       233.000         193.000
 126004834.66748  98185586.67848  23977920.1774   23977921.0074   23977918.8654
       221.000         170.000
 117043997.21248  91203103.33648  22272740.5544   22272742.7794   22272740.5204
       240.000         202.000
 09  1 31  0  8 30.0000000  0 10G26G 5G 9G15G18G27G28G17G22G12
 114972970.40448  89589329.93748  21878625.4504   21878628.3104   21878625.0264
       241.000         205.000
 122454385.83748  95418984.47648  23302308.4724   23302312.1844   23302309.0944
       226.000         181.000
 106911028.96548  83307281.18848  20344504.4874   20344506.9714   20344504.6734
       249.000         224.000
 108621484.27048  84640111.51048  20669985.1464   20669986.8094   20669984.9174
       251.000         231.000
 117240269.38348  91356049.23948  22310084.3274   22310086.1154   22310085.3534
       236.000         193.000
 129532029.72448 100934038.50448  24649132.2274   24649136.6344   24649132.4994
       212.000         163.000
 130051394.48148 101338740.74548  24747964.4014   24747966.3624   24747964.2144
       204.000         152.000
 122098572.42448  95141739.61348  23234590.5394   23234592.1494   23234590.3444
       230.000         192.000
 125945363.86848  98139245.80648  23966604.1614   23966604.9874   23966603.9604
       219.000         169.000
 116954751.64548  91133561.33348  22255758.1904   22255759.9524   22255758.1624
       241.000         204.000
 09  1 31  0  9  0.0000000  0 10G26G 5G 9G15G18G27G28G17G22G12
 115056437.67148  89654369.36148  21894508.9204   21894511.4644   21894508.9134
       241.000         204.000
 122350755.54348  95338233.61248  23282587.9384   23282591.8364   23282588.0664
       223.000         179.000
 106873513.19648  83278048.12448  20337365.3934   20337368.1734   20337365.4134
       249.000         224.000
 108662163.35748  84671809.50048  20677726.0354   20677727.7054   20677725.7944
       250.000         230.000
 117229849.69748  91347929.98648  22308101.7394   22308103.3314   22308102.3994
       237.000         194.000
 129600915.99748 100987716.13948  24662240.8604   24662244.2684   24662240.0814
       214.000         162.000
 130146437.26148 101412800.01248  24766050.1014   24766053.3804   24766051.2414
       204.000         150.000
 122092678.55048  95137146.98948  23233468.6084   23233470.3184   23233468.2374
       230.000         192.000
 125886341.29048  98093254.19048  23955372.6104   23955373.0234   23955373.6424
       218.000         167.000
 116865834.61848  91064275.34148  22238838.0344   22238839.4314   22238837.8214
       241.000         204.000
 09  1 31  0  9 30.0000000  0 10G26G 5G 9G15G18G27G28G17G22G12
 115140218.77648  89719653.32648  21910451.8104   21910454.2574   21910451.9824
       241.000         203.000
 122247348.82748  95257656.93948  23262910.6134   23262914.2184   23262910.1774
       226.000         180.000
 106836320.64648  83249066.92448  20330287.8784   20330290.5244   20330288.1744
       249.000         224.000
 108703298.85248  84703863.12948  20685553.6274   20685555.4334   20685553.3594
       251.000         230.000
 117220007.51748  91340260.74548  22306229.1404   22306230.6034   22306229.4184
       238.000         195.000
 129669839.80548 101041422.98148  24675355.8594   24675360.8254   24675355.8604
       216.000         163.000
 130241562.16048 101486923.29648  24784151.1094   24784154.3184   24784151.7684
       203.000         152.000
 122087328.70648  95132978.28448  23232450.5224   23232452.3904   23232450.4154
       231.000         192.000
 125827768.43448  98047613.00748  23944226.9254   23944226.3014   23944227.4694
       222.000         168.000
 116777248.17748  90995246.95248  22221980.4864   22221981.7624   22221980.6024
       241.000         204.000
 09  1 31  0 10  0.0000000  0 10G26G 5G 9G15G18G27G28G17G22G12
 115224311.34348  89785180.00348  21926454.0604   21926456.3344   21926454.1514
       240.000         203.000
 122144166.26248  95177254.96848  23243275.6994   23243279.4064   23243277.8814
       226.000         181.000
 106799450.65048  83220337.06148  20323271.7454   20323274.3084   20323271.9424
       249.000         224.000
 108744889.86148  84736271.70448  20693468.1354   20693470.0114   20693467.9004
       250.000         230.000
 117210741.70748  91333040.63148  22304465.8474   22304467.3324   22304466.7964
       238.000         195.000
 129738800.08148 101095158.24448  24688479.4244   24688483.0734   24688479.8824
       216.000         163.000
 130336765.99448 101561108.09948  24802268.6734   24802271.1564   24802268.9614
       196.000         149.000
 122082522.31748  95129233.05548  23231536.1524   23231537.8894   23231536.3994
       229.000         191.000
 125769646.24648  98002323.02248  23933166.3914   23933166.5874   23933167.2914
       222.000         174.000
 116688992.72748  90926476.48048  22205185.7204   22205187.4544   22205185.3024
       239.000         204.000
 09  1 31  0 10 30.0000000  0 10G26G 5G 9G15G18G27G28G17G22G12
 115308715.69348  89850949.61148  21942515.8094   21942518.2874   21942515.8064
       240.000         203.000
 122041211.25248  95097030.28548  23223684.3024   23223687.5584   23223684.1904
       225.000         181.000
 106762905.45748  83191860.29048  20316317.4414   20316320.0924   20316317.6804
       250.000         224.000
 108786937.49548  84769036.08648  20701469.4844   20701471.5264   20701469.1464
       251.000         230.000
 117202054.06748  91326271.02148  22302812.5714   22302814.2264   22302813.0284
       237.000         194.000
 129807798.66048 101148923.36848  24701609.4924   24701613.2304   24701609.5644
       217.000         164.000
 130432048.63948 101635354.26048  24820399.8654   24820403.2824   24820398.7304
       198.000         150.000
 122078261.71848  95125913.10448  23230724.9234   23230726.6704   23230724.4224
       229.000         189.000
 125711978.03748  97957386.75748  23922192.2614   23922192.8724   23922190.5274
       221.000         172.000
 116601071.51748  90857966.46248  22188454.6014   22188456.5124   22188454.1174
       239.000         203.000
 09  1 31  0 11  0.0000000  0 10G26G 5G 9G15G18G27G28G17G22G12
 115393430.30848  89916961.00148  21958636.4584   21958638.9014   21958636.5014
       240.000         203.000
 121938485.32448  95016984.12348  23204135.7324   23204139.6274   23204136.3174
       225.000         182.000
 106726684.92848  83163636.50948  20309424.9464   20309427.4254   20309425.3124
       249.000         224.000
 108829441.17348  84802155.82948  20709557.8304   20709559.6644   20709557.5324
       251.000         230.000
 117193944.60148  91319951.94248  22301269.1314   22301271.0824   22301269.6254
       237.000         195.000
 129876835.28248 101202718.13848  24714747.2054   24714750.0264   24714747.0864
       219.000         166.000
 130527407.60448 101709659.92748  24838546.6404   24838549.5304   24838546.0394
       206.000         156.000
 122074547.54048  95123018.96348  23230018.3714   23230019.7844   23230018.4614
       230.000         189.000
 125654765.35148  97912805.43448  23911305.2414   23911305.1124   23911305.4734
       224.000         170.000
 116513486.07648  90789718.07448  22171787.6524   22171789.4424   22171787.5664
       240.000         204.000
 09  1 31  0 11 30.0000000  0 10G26G 5G 9G15G18G27G28G17G22G12
 115478453.37748  89983212.74248  21974815.9574   21974818.3654   21974816.0244
       240.000         203.000
 121835989.30948  94937117.11548  23184631.5574   23184635.4494   23184631.9664
       228.000         183.000
 106690788.57448  83135665.32348  20302594.0094   20302596.6724   20302594.0224
       249.000         224.000
 108872399.44148  84835629.80448  20717732.5964   20717734.2774   20717732.3534
       251.000         229.000
 117186412.20948  91314082.53348  22299836.1194   22299838.0374   22299836.5974
       236.000         196.000
 129945909.00848 101256541.82348  24727890.6394   24727894.5314   24727890.9674
       216.000         164.000
 130622840.44548 101784023.16348  24856706.2684   24856709.7824   24856705.4814
       205.000         156.000
 122071379.40548  95120550.28748  23229415.4204   23229416.9734   23229415.4604
       229.000         189.000
 125598008.95548  97868579.68048  23900505.0724   23900504.6764   23900507.2274
       226.000         173.000
 116426236.99848  90721731.78948  22155185.1144   22155186.4334   22155184.7154
       240.000         204.000
 09  1 31  0 12  0.0000000  0 10G26G 5G 9G15G18G27G28G17G22G12
 115563783.01248  90049703.35848  21991053.5204   21991056.2224   21991053.5614
       241.000         203.000
 121733724.82848  94857430.51248  23165171.2934   23165175.0784   23165172.4394
       225.000         183.000
 106655216.87148  83107947.11748  20295825.0214   20295827.6094   20295825.3594
       249.000         225.000
 108915811.87648  84869457.67448  20725993.7804   20725995.2904   20725993.5614
       250.000         229.000
 117179456.68248  91308662.63248  22298512.4444   22298514.1604   22298512.5744
       236.000         195.000
 130015019.92548 101310394.44648  24741042.1014   24741046.0984   24741043.1624
       213.000         163.000
 130718344.89648 101858442.17448  24874880.6104   24874883.7544   24874880.5354
       208.000         157.000
 122068757.72748  95118507.42248  23228916.1934   23228918.0764   23228916.2404
       229.000         189.000
 125541710.65648  97824710.85748  23889791.4214   23889791.7334   23889791.9974
       224.000         172.000
 116339325.73948  90654008.74248  22138646.4864   22138647.9664   22138646.7414
       240.000         206.000
 09  1 31  0 12 30.0000000  0 10G26G 5G 9G15G18G27G28G17G22G12
 115649419.41148  90116433.02048  22007349.5864   22007352.2064   22007349.7064
       240.000         202.000
 121631694.59148  94777926.44248  23145755.5444   23145759.0704   23145756.0544
       226.000         182.000
 106619971.14548  83080482.91948  20289117.9634   20289120.5684   20289118.1524
       250.000         225.000
 108959679.38248  84903640.14548  20734341.4424   20734343.1214   20734341.1464
       250.000         229.000
 117173079.21648  91303693.17748  22297298.8754   22297300.4994   22297299.7374
       236.000         194.000
 130084169.11948 101364276.95548  24754200.9744   24754203.8854   24754201.6074
       215.000         163.000
 130813920.38148 101932916.56148  24893068.3714   24893070.3274   24893068.8114
       207.000         156.000
 122066684.11948  95116891.64248  23228522.0904   23228523.4694   23228521.9174
       230.000         190.000
 125485873.02748  97781201.01248  23879166.2814   23879167.0194   23879165.5114
       226.000         173.000
 116252755.24848  90586551.22948  22122172.7434   22122174.1024   22122172.3874
       240.000         206.000
 09  1 31  0 13  0.0000000  0 10G26G 5G 9G15G18G27G28G17G22G12
 115735360.72348  90183400.27948  22023703.5254   22023706.0754   22023703.2444
       240.000         202.000
 121529899.97748  94698605.98348  23126384.5634   23126388.2734   23126385.0554
       225.000         182.000
 106585051.57148  83053272.86048  20282473.0874   20282475.5124   20282473.1044
       250.000         225.000
 109004000.96048  84938176.43348  20742775.5184   20742777.3044   20742775.2374
       249.000         229.000
 117167279.16248  91299173.63448  22296194.8774   22296196.8534   22296194.8674
       236.000         194.000
 130153356.43848 101418189.15248  24767366.6084   24767370.5054   24767366.3174
       215.000         164.000
 130909564.41148 102007444.35848  24911268.6144   24911270.4494   24911268.6854
       208.000         159.000
 122065158.67948  95115703.00248  23228231.6454   23228233.5704   23228231.2974
       227.000         190.000
 125430497.17648  97738050.97048  23868628.1964   23868628.3964   23868629.2524
       226.000         171.000
 116166526.65848  90519360.13248  22105763.8554   22105765.3184   22105764.0994
       240.000         205.000
 09  1 31  0 13 30.0000000  0 10G26G 5G 9G15G18G27G28G17G22G12
 115821606.16548  90250604.51948  22040115.6434   22040118.1304   22040115.5804
       240.000         203.000
 121428343.08048  94619470.73948  23107059.2674   23107062.7604   23107059.4624
       226.000         184.000
 106550458.75048  83026317.41548  20275890.3834   20275892.7784   20275890.6894
       249.000         225.000
 109048776.77148  84973066.67448  20751295.9754   20751297.7484   20751295.6644
       249.000         229.000
 117162056.84348  91295104.28548  22295201.1274   22295203.1784   22295202.1044
       237.000         194.000
 130222582.29248 101472131.34548  24780540.1804   24780543.9594   24780540.7454
       217.000         164.000
 131005275.39348 102082024.34848  24929482.0684   24929483.4804   24929482.1764
       210.000         158.000
 122064182.56448  95114942.38548  23228045.9854   23228047.9594   23228044.9814
       229.000         190.000
 125375585.30248  97695262.49248  23858179.2324   23858179.0374   23858180.5714
       225.000         172.000
 116080641.90648  90452436.96548  22089420.3134   22089421.8254   22089420.1814
       239.000         204.000
 09  1 31  0 14  0.0000000  0 10G26G 5G 9G15G18G27G28G17G22G12
 115908154.00748  90318044.38548  22056585.2554   22056587.8154   22056585.1154
       239.000         201.000
 121327025.34748  94540521.86848  23087778.9934   23087782.8644   23087779.4124
       226.000         183.000
 106516192.87848  82999616.73448  20269369.6334   20269372.2584   20269369.7394
       251.000         225.000
 109094006.08848  85008310.28948  20759902.8084   20759904.5454   20759902.3684
       250.000         229.000
 117157411.99848  91291484.92048  22294317.5344   22294319.2364   22294318.2214
       237.000         194.000
 130291846.62648 101526103.55648  24793720.3414   24793724.3314   24793720.4174
       213.000         161.000
 131101051.22248 102156654.87348  24947707.2304   24947708.7624   24947708.0874
       213.000         159.000
 122063755.79948  95114609.85448  23227964.7944   23227966.6454   23227964.1614
       227.000         189.000
 125321138.77948  97652836.60748  23847818.1734   23847818.6764   23847817.0904
       225.000         176.000
 115995102.23148  90385782.67348  22073142.6664   22073144.0564   22073142.6504
       240.000         204.000
 09  1 31  0 14 30.0000000  0 10G26G 5G 9G15G18G27G28G17G22G12
 115995003.17148  90385719.05348  22073111.9294   22073114.5944   22073111.6754
       240.000         201.000
 121225948.55848  94461760.74548  23068544.5784   23068548.5114   23068545.7294
       228.000         184.000
 106482254.69348  82973171.38948  20262911.5554   20262914.0794   20262911.8524
       250.000         225.000
 109139688.27348  85043906.79048  20768595.9454   20768597.6444   20768595.6944
       250.000         228.000
 117153344.23148  91288315.21148  22293543.1994   22293544.8424   22293543.4914
       236.000         194.000
 130361149.61448 101580105.89348  24806909.3614   24806912.2504   24806909.4154
       217.000         160.000
 131196889.99948 102231334.45848  24965945.0624   24965945.7984   24965945.3664
       214.000         161.000
 122063879.22248  95114706.03148  23227987.4334   23227989.9904   23227986.9924
       228.000         189.000
 125267159.32348  97610774.71248  23837546.1374   23837546.7034   23837546.5954
       223.000         171.000
 115909909.51348  90319398.73748  22056931.0514   22056932.3574   22056930.6874
       240.000         205.000
 09  1 31  0 15  0.0000000  0 10G26G 5G 9G15G18G27G28G17G22G12
 116082152.23948  90453627.41548  22089695.8394   22089698.4804   22089695.8684
       240.000         201.000
 121125114.27748  94383188.59948  23049356.5564   23049360.5214   23049357.0744
       226.000         184.000
 106448644.03148  82946981.26948  20256515.5104   20256518.1064   20256515.8964
       250.000         225.000
 109185823.14048  85079856.04548  20777374.9304   20777376.8574   20777374.7024
       249.000         228.000
 117149853.42748  91285595.10748  22292878.9644   22292880.6344   22292879.5934
       236.000         194.000
 130430491.27348 101634138.33348  24820103.3514   24820107.0994   24820103.8314
       214.000         160.000
 131292789.96448 102306061.70748  24984194.5004   24984195.0604   24984195.3414
       212.000         159.000
 122064553.00548  95115231.06148  23228115.9644   23228117.8304   23228115.8384
       227.000         189.000
 125213648.40348  97569077.91848  23827363.5314   23827363.0934   23827363.7774
       228.000         173.000
 115825065.13548  90253286.25248  22040785.5564   22040787.3084   22040785.6664
       239.000         206.000
 09  1 31  0 15 30.0000000  0 10G26G 5G 9G15G18G27G28G17G22G12
 116169599.84048  90521768.38348  22106336.6224   22106339.2224   22106336.2514
       239.000         200.000
 121024524.29448  94304806.81148  23030214.8174   23030218.9414   23030214.8474
       226.000         183.000
 106415361.48648  82921046.81948  20250182.0094   20250184.6024   20250182.1364
       250.000         225.000
 109232410.51448  85116157.88548  20786240.3274   20786242.1764   20786239.9734
       250.000         228.000
 117146939.43748  91283324.46348  22292324.6944   22292326.0774   22292325.2484
       238.000         194.000
 130499871.65848 101688200.96548  24833305.8124   24833309.2764   24833306.3694
       212.000         160.000
 131388749.18548 102380835.07748  25002454.1544   25002456.0984   25002454.7284
       210.000         159.000
 122065777.56948  95116185.26848  23228349.2284   23228350.9144   23228349.2164
       227.000         187.000
 125160607.64248  97527747.43848  23817270.8874   23817270.0834   23817271.8314
       223.000         174.000
 115740570.47448  90187446.27848  22024706.7964   22024708.7984   22024706.3784
       240.000         206.000
 09  1 31  0 16  0.0000000  0 10G26G 5G 9G15G18G27G28G17G22G12
 116257344.87948  90590141.15148  22123033.8644   22123036.2404   22123033.8394
       240.000         199.000
 120924180.43748  94226616.82448  23011119.6254   23011123.9494   23011120.8624
       226.000         183.000
 106382407.57348  82895368.44348  20243911.1224   20243913.6224   20243911.2554
       250.000         225.000
 109279449.64548  85152811.74648  20795191.7734   20795193.4484   20795191.6374
       249.000         229.000
 117144602.33648  91281503.32748  22291879.9744   22291881.4614   22291880.3114
       238.000         195.000
 130569291.15848 101742294.08948  24846516.9734   24846520.0994   24846517.0584
       214.000         161.000
 131484765.92448 102455653.29448  25020725.7054   25020727.0964   25020725.4964
       212.000         158.000
 122067553.66648  95117569.23848  23228686.8984   23228688.7414   23228686.8504
       229.000         188.000
 125108038.79148  97486784.72748  23807265.8644   23807267.0844   23807265.9674
       224.000         176.000
 115656427.19748  90121880.09848  22008694.7464   22008696.7284   22008694.5304
       238.000         206.000
 09  1 31  0 16 30.0000000  0 10G26G 5G 9G15G18G27G28G17G22G12
 116345386.15048  90658744.73148  22139787.7504   22139790.1824   22139787.5114
       239.000         199.000
 120824084.30148  94148619.84148  22992072.2924   22992075.9174   22992072.8814
       227.000         183.000
 106349782.53748  82869946.34248  20237702.8834   20237705.2474   20237703.2954
       250.000         225.000
 109326940.09648  85189817.29248  20804228.9264   20804230.4954   20804228.5994
       250.000         229.000
 117142841.77348  91280131.45648  22291544.6794   22291546.5404   22291545.4114
       237.000         194.000
 130638749.92648 101796417.81648  24859734.1314   24859737.1464   24859734.8534
       211.000         159.000
 131580838.56848 102530515.07348  25039008.0944   25039009.9154   25039007.5174
       212.000         160.000
 122069881.64048  95119383.25148  23229130.2184   23229131.8714   23229130.2724
       229.000         189.000
 125055943.26348  97446190.79148  23797353.0774   23797353.4714   23797353.3154
       226.000         176.000
 115572637.02448  90056589.07648  21992749.7564   21992751.8494   21992749.4134
       239.000         206.000
 09  1 31  0 17  0.0000000  0 10G26G 5G 9G15G18G27G28G17G22G12
 116433721.94348  90727577.80048  22156597.2594   22156600.0944   22156597.1724
       238.000         200.000
 120724237.47748  94070817.11948  22973072.4144   22973075.5884   22973072.7484
       229.000         184.000
 106317487.03548  82844781.01348  20231557.0684   20231559.5684   20231557.0514
       251.000         225.000
 109374881.16948  85227173.96648  20813351.7564   20813353.5504   20813351.5884
       250.000         228.000
 117141657.36148  91279208.52548  22291319.4184   22291320.9204   22291319.4294
       236.000         193.000
 130708248.07248 101850572.18748  24872958.3644   24872963.0974   24872958.1994
       215.000         162.000
 131676964.94948 102605418.75848  25057300.0764   25057302.3734   25057301.5274
       213.000         159.000
 122072761.60248  95121627.38148  23229678.1064   23229680.4194   23229677.5964
       227.000         190.000
 125004322.83248  97405967.10548  23787530.2854   23787530.5734   23787529.9774
       222.000         176.000
 115489201.34248  89991574.27748  21976872.5814   21976874.7124   21976872.2284
       239.000         207.000
 09  1 31  0 17 30.0000000  0 10G26G 5G 9G15G18G27G28G17G22G12
 116522351.49648  90796639.78848  22173462.9674   22173465.8394   22173462.7894
       239.000         199.000
 120624642.23148  93993210.44448  22954120.1564   22954123.1664   22954121.0004
       228.000         185.000
 106285521.61348  82819872.89648  20225474.3204   20225476.8974   20225474.5774
       250.000         225.000
 109423273.14448  85264881.99748  20822560.3834   20822562.1904   20822559.9634
       250.000         228.000
 117141049.16948  91278734.61848  22291203.6374   22291205.1994   22291204.4304
       237.000         194.000
 130777785.98948 101904757.56648  24886192.2794   24886194.7514   24886192.7194
       216.000         161.000
 131773143.67448 102680363.19648  25075601.9484   25075604.8184   25075603.5564
       212.000         159.000
 122076194.54048  95124302.39048  23230331.2094   23230333.7284   23230330.6144
       229.000         189.000
 124953179.36248  97366115.04948  23777797.7774   23777798.0694   23777796.5444
       230.000         180.000
 115406122.13848  89926837.24148  21961063.3704   21961065.4944   21961063.2744
       239.000         207.000
 09  1 31  0 18  0.0000000  0 10G26G 5G 9G15G18G27G28G17G22G12
 116611273.36948  90865929.55848  22190384.4934   22190387.0024   22190384.3164
       238.000         198.000
 120525299.94048  93915800.89848  22935215.2194   22935219.0244   22935216.0744
       227.000         184.000
 106253886.62748  82795222.25848  20219454.3474   20219457.0014   20219454.3424
       250.000         226.000
 109472115.11848  85302940.67948  20831854.7264   20831856.3884   20831854.6674
       250.000         228.000
 117141016.63748  91278709.26648  22291197.7014   22291199.2654   22291198.3974
       237.000         194.000
 130847363.74048 101958973.99948  24899431.7494   24899435.7044   24899431.7594
       217.000         163.000
 131869372.86348 102755346.97048  25093913.8564   25093916.9894   25093914.5334
       214.000         159.000
 122080180.40148  95127408.26248  23231089.6004   23231092.0394   23231089.5164
       226.000         187.000
 124902514.32048  97326635.77248  23768157.2204   23768156.9234   23768157.6194
       228.000         180.000
 115323400.93848  89862379.18748  21945321.9854   21945324.0534   21945321.8964
       240.000         208.000
 09  1 31  0 18 30.0000000  0 10G26G 5G 9G15G18G27G28G17G22G12
 116700486.66148  90935446.41248  22207360.7084   22207363.7824   22207360.6274
       238.000         199.000
 120426212.72348  93838590.10248  22916359.4854   22916363.2874   22916359.7574
       228.000         184.000
 106222583.12948  82770829.92748  20213497.4874   20213500.0614   20213497.6494
       250.000         226.000
 109521406.89548  85341349.85248  20841234.5574   20841236.4044   20841234.3584
       249.000         227.000
 117141560.04648  91279132.69248  22291300.7574   22291302.8854   22291301.5404
       236.000         195.000
 130916981.67148 102013221.75448  24912679.6854   24912683.0804   24912679.6054
       214.000         162.000
 131965651.03048 102830368.90148  25112234.8854   25112237.8004   25112236.9254
       211.000         158.000
 122084720.08948  95130945.70548  23231953.2844   23231955.8994   23231952.8134
       228.000         188.000
 124852329.52248  97287530.78048  23758606.7054   23758607.3634   23758605.3084
       224.000         178.000
 115241039.59148  89798201.51548  21929649.5724   21929651.2094   21929649.4584
       240.000         209.000
 09  1 31  0 19  0.0000000  0 10G26G 5G 9G15G18G27G28G17G22G12
 116789989.49248  91005188.87048  22224392.6264   22224395.6634   22224392.7004
       236.000         198.000
 120327381.75748  93761578.97648  22897552.5994   22897556.2154   22897553.4914
       228.000         185.000
 106191610.78848  82746695.63648  20207603.7664   20207606.3834   20207603.9634
       251.000         226.000
 109571147.38948  85380108.67548  20850699.9324   20850701.6334   20850699.7644
       249.000         227.000
 117142678.50348  91280004.20348  22291513.7184   22291515.6104   22291513.9034
       238.000         195.000
 130986639.34448 102067500.48448  24925934.1374   24925938.7064   24925934.2024
       214.000         160.000
 132061975.96948 102905427.33148  25130564.9514   25130567.7994   25130566.5374
       211.000         157.000
 122089813.63348  95134914.68848  23232922.6294   23232924.9244   23232922.2944
       227.000         187.000
 124802625.91748  97248800.68548  23749148.8864   23749148.4384   23749147.6774
       228.000         178.000
 115159038.96748  89734304.93948  21914045.2654   21914046.8664   21914045.5404
       239.000         208.000
 09  1 31  0 19 30.0000000  0 10G26G 5G 9G15G18G27G28G17G22G12
 116879779.24648  91075154.90048  22241479.1714   22241481.7744   22241478.6634
       238.000         197.000
 120228807.52248  93684767.90348  22878794.7344   22878798.3414   22878795.1104
       229.000         187.000
 106160969.01148  82722818.92948  20201772.8874   20201775.4104   20201772.9484
       252.000         226.000
 109621335.34548  85419216.17248  20860250.3684   20860252.0714   20860250.0184
       249.000         227.000
 117144370.41948  91281322.57048  22291836.0974   22291837.5004   22291836.6404
       238.000         196.000
 131056335.80748 102121809.37548  24939198.7864   24939201.1624   24939198.3964
       215.000         160.000
 132158344.68048 102980519.85048  25148903.2354   25148905.9024   25148902.7744
       209.000         156.000
 122095460.02348  95139314.47648  23233997.7254   23233999.3994   23233997.2414
       228.000         188.000
 124753403.86648  97210445.82248  23739781.7504   23739781.6404   23739781.9314
       224.000         174.000
 115077399.25948  89670689.59048  21898509.3974   21898511.2654   21898509.1454
       238.000         208.000
 09  1 31  0 20  0.0000000  0 10G26G 5G 9G15G18G27G28G17G22G12
 116969855.27648  91145344.01548  22258620.2934   22258622.6224   22258620.4594
       239.000         198.000
 120130492.34448  93608158.67948  22860086.1414   22860089.6624   22860087.0494
       230.000         186.000
 106130658.58548  82699200.41648  20196004.9604   20196007.6654   20196005.3474
       251.000         227.000
 109671970.57548  85458672.18748  20869885.8584   20869887.6974   20869885.5114
       249.000         227.000
 117146635.87448  91283087.85148  22292267.0774   22292268.6554   22292268.0334
       236.000         195.000
 131126071.92948 102176149.21948  24952467.8244   24952472.3464   24952469.0364
       211.000         161.000
 132254756.05848 103055645.59548  25167249.7184   25167252.2424   25167248.7564
       210.000         157.000
 122101659.84348  95144145.48948  23235177.5034   23235178.9904   23235177.2034
       229.000         187.000
 124704665.56648  97172467.91948  23730506.8544   23730506.7274   23730506.7464
       227.000         175.000
 114996122.61948  89607357.16348  21883043.0034   21883045.0484   21883043.1404
       239.000         209.000
 09  1 31  0 20 30.0000000  0 10G26G 5G 9G15G18G27G28G17G22G12
 117060215.74348  91215754.76448  22275815.4084   22275817.6824   22275815.3324
       236.000         198.000
 120032437.24548  93531752.11948  22841426.8104   22841430.5764   22841427.0624
       228.000         185.000
 106100679.32048  82675839.94548  20190300.2574   20190302.6784   20190300.3874
       251.000         227.000
 109723051.57848  85498475.56548  20879606.1284   20879608.0004   20879605.9144
       249.000         227.000
 117149474.05948  91285299.41648  22292807.1384   22292808.6384   22292807.7494
       235.000         195.000
 131195847.29048 102230519.65348  24965746.2044   24965749.4944   24965746.0114
       214.000         160.000
 132351207.82248 103130802.81848  25185604.0524   25185606.5044   25185604.2894
       212.000         155.000
 122108412.90948  95149407.61048  23236462.3074   23236463.9814   23236462.3924
       228.000         188.000
 124656411.89948  97134867.64848  23721324.7304   23721325.4374   23721325.5234
       223.000         176.000
 114915210.06448  89544308.42548  21867645.9004   21867647.7134   21867645.6344
       240.000         209.000
 09  1 31  0 21  0.0000000  0 10G26G 5G 9G15G18G27G28G17G22G12
 117150860.31748  91286386.88548  22293064.2664   22293066.6924   22293063.8894
       238.000         196.000
 119934645.06648  93455550.43548  22822817.3544   22822821.1644   22822817.9104
       228.000         186.000
 106071032.95448  82652738.88348  20184658.6594   20184661.1844   20184658.9104
       251.000         227.000
 109774579.23048  85538626.97948  20889411.7304   20889413.6254   20889411.5304
       249.000         227.000
 117152885.34048  91287957.55448  22293456.4004   22293457.7014   22293456.9704
       237.000         195.000
 131265663.30248 102284921.72948  24979032.0074   24979035.2044   24979031.3004
       214.000         160.000
 132447699.27348 103205990.94648  25203966.1684   25203968.2634   25203967.5384
       212.000         157.000
 122115720.46548  95155101.81448  23237852.8694   23237854.8644   23237852.2634
       227.000         188.000
 124608645.22348  97097646.88048  23712234.8784   23712235.2924   23712235.1594
       224.000         175.000
 114834664.23748  89481545.44648  21852318.6024   21852320.1174   21852318.1204
       240.000         209.000
 09  1 31  0 21 30.0000000  0 10G26G 5G 9G15G18G27G28G17G22G12
 117241787.48848  91357239.22348  22310367.2774   22310369.4474   22310367.1464
       239.000         196.000
 119837117.28748  93379554.77848  22804258.3384   22804262.3144   22804258.5354
       229.000         187.000
 106041719.95448  82629897.58248  20179080.4754   20179083.0754   20179080.3544
       252.000         227.000
 109826552.72348  85579125.79848  20899302.0004   20899303.7374   20899301.6324
       249.000         227.000
 117156869.37048  91291061.96648  22294214.2954   22294215.9024   22294214.9444
       235.000         194.000
 131335520.22648 102339355.68048  24992324.4284   24992328.3344   24992323.2024
       214.000         159.000
 132544228.46848 103281208.52648  25222334.7044   25222337.0674   25222335.8254
       211.000         154.000
 122123582.78048  95161228.30448  23239348.9984   23239350.9054   23239349.3414
       229.000         188.000
 124561366.86748  97060806.59648  23703237.8834   23703238.4594   23703238.2434
       224.000         176.000
 114754486.22648  89419069.08748  21837061.2254   21837062.7934   21837061.4514
       240.000         209.000
 09  1 31  0 22  0.0000000  0 10G26G 5G 9G15G18G27G28G17G22G12
 117332995.93148  91428310.74148  22327723.5594   22327726.0894   22327723.8274
       237.000         196.000
 119739855.53848  93303766.41048  22785750.2004   22785754.1504   22785750.6554
       230.000         188.000
 106012740.43948  82607316.15248  20173565.9454   20173568.3154   20173566.2314
       251.000         227.000
 109878971.52348  85619971.61948  20909277.1204   20909278.6644   20909276.8714
       249.000         227.000
 117161425.86748  91294612.47448  22295081.4544   22295082.8954   22295081.8944
       236.000         194.000
 131405417.83648 102393821.34248  25005625.8744   25005630.2124   25005625.5214
       214.000         161.000
 132640793.71948 103356454.21748  25240710.3084   25240711.7184   25240709.2394
       207.000         151.000
 122131999.83448  95167787.05048  23240951.0024   23240952.6394   23240950.6504
       229.000         190.000
 124514578.56648  97024348.18548  23694334.0084   23694335.0944   23694333.7044
       224.000         178.000
 114674677.73648  89356880.67448  21821873.9984   21821875.8174   21821873.8844
       239.000         209.000
 09  1 31  0 22 30.0000000  0 10G26G 5G 9G15G18G27G28G17G22G12
 117424483.78548  91499599.96148  22345133.1174   22345135.7474   22345132.8764
       237.000         195.000
 119642861.08448  93228186.32648  22767292.9024   22767296.3444   22767293.3834
       232.000         187.000
 105984094.46048  82584994.61048  20168114.6584   20168117.2614   20168114.8544
       251.000         227.000
 109931834.30248  85661163.39248  20919336.1894   20919338.3494   20919335.5894
       249.000         226.000
 117166553.49548  91298608.01148  22296057.2804   22296058.8984   22296057.6894
       236.000         194.000
 131475355.72148 102448318.36648  25018935.2774   25018938.1804   25018934.7504
       217.000         162.000
 132737392.77248 103431726.19248  25259092.2104   25259093.8874   25259090.2854
       208.000         150.000
 122140971.50448  95174777.96648  23242658.4424   23242660.2264   23242658.2424
       230.000         190.000
 124468281.07648  96988272.23248  23685524.5914   23685524.7904   23685525.9414
       228.000         181.000
 114595239.46148  89294980.73448  21806757.4274   21806759.1584   21806757.1274
       239.000         210.000
 09  1 31  0 23  0.0000000  0 11G26G 5G 9G15G18G27G28G17G22G12G30
 117516249.07248  91571105.37348  22362595.2234   22362597.9574   22362594.9754
       237.000         195.000
 119546135.01048  93152815.37648  22748886.4774   22748889.9724   22748886.9254
       229.000         188.000
 105955781.78948  82562932.78848  20162726.8694   20162729.5444   20162727.0014
       251.000         227.000
 109985140.24548  85702700.48748  20929480.1194   20929482.0824   20929480.0084
       249.000         226.000
 117172251.05248  91303047.66448  22297140.9484   22297142.9514   22297141.5884
       236.000         194.000
 131545333.43948 102502846.42648  25032250.9224   25032255.1014   25032252.0094
       211.000         156.000
 132834023.53248 103507022.91048  25277481.1524   25277481.9004   25277481.4714
       212.000         152.000
 122150497.17348  95182200.55748  23244471.1414   23244472.6944   23244471.2824
       231.000         190.000
 124422475.22548  96952579.36248  23676808.4454   23676808.9894   23676808.6094
       229.000         183.000
 114516172.66248  89233370.25448  21791711.5114   21791713.3034   21791711.3894
       240.000         209.000
 141436243.83958  92417836.04858  25011498.2335   25011501.6805   25011498.9335
       211.000         152.000
 09  1 31  0 23 30.0000000  0 11G26G 5G 9G15G18G27G28G17G22G12G30
 117608291.94548  91642827.09948  22380110.6594   22380112.9754   22380110.2194
       236.000         194.000
 119449680.20948  93077655.81248  22730531.8744   22730535.4434   22730531.9944
       231.000         189.000
 105927804.24948  82541132.10848  20157402.9784   20157405.4204   20157403.1594
       252.000         227.000
 110038889.91848  85744583.34248  20939708.3604   20939710.1544   20939707.9824
       249.000         226.000
 117178519.56248  91307932.21048  22298334.1964   22298336.2914   22298334.3304
       235.000         195.000
 131615352.66648 102557406.84348  25045575.5664   25045578.1324   25045575.4514
       210.000         154.000
 132930685.44048 103582343.90648  25295875.3884   25295876.3014   25295878.8064
       212.000         147.000
 122160578.21248  95190055.91348  23246389.4354   23246391.0724   23246389.3374
       229.000         189.000
 124377164.08048  96917271.97948  23668185.9184   23668186.2054   23668186.4394
       228.000         182.000
 114437479.97248  89172051.27848  21776736.8064   21776738.5994   21776736.8124
       240.000         209.000
 141323960.81548  92330342.80948  24990131.0544   24990134.1214   24990130.5854
       210.000         151.000
 09  1 31  0 24  0.0000000  0 11G26G 5G 9G15G18G27G28G17G22G12G30
 117700610.19948  91714763.40348  22397678.0274   22397680.7214   22397677.8814
       236.000         194.000
 119353497.51548  93002708.28048  22712229.0134   22712232.5314   22712230.1744
       231.000         189.000
 105900161.44748  82519592.25248  20152142.8504   20152145.1394   20152142.7904
       252.000         227.000
 110093081.51448  85786810.55348  20950020.7264   20950022.5124   20950020.4884
       249.000         226.000
 117185357.82548  91313260.70348  22299635.3104   22299637.6274   22299635.8434
       235.000         194.000
 131685412.97248 102611999.27348  25058907.3764   25058910.9214   25058907.2924
       210.000         157.000
 133027376.13448 103657687.35848  25314274.8134   25314275.3954   25314277.7814
       212.000         151.000
 122171214.16848  95198343.67948  23248413.1884   23248414.7464   23248413.2674
       230.000         190.000
 124332347.59048  96882350.04348  23659657.2974   23659657.5284   23659657.2634
       227.000         177.000
 114359161.86148  89111024.18648  21761833.4404   21761835.1324   21761833.0584
       239.000         209.000
 141211755.84548  92242910.41148  24968778.3904   24968782.4064   24968776.9014
       210.000         152.000
 09  1 31  0 24 30.0000000  0 11G26G 5G 9G15G18G27G28G17G22G12G30
 117793202.29448  91786913.07848  22415297.7984   22415300.4474   22415297.7444
       236.000         194.000
 119257588.76148  92927974.20248  22693977.8834   22693981.4304   22693978.6294
       232.000         190.000
 105872854.06348  82498313.77248  20146946.4784   20146948.8314   20146946.8734
       252.000         227.000
 110147714.78448  85829381.93548  20960417.0914   20960418.7784   20960416.8514
       249.000         225.000
 117192765.22848  91319032.70548  22301044.8874   22301046.8504   22301045.6684
       235.000         194.000
 131755514.67948 102666623.96148  25072247.6384   25072250.9104   25072248.2684
       208.000         157.000
 133124093.98948 103733051.99848  25332679.5884   25332680.1874   25332680.0614
       207.000         147.000
 122182405.16148  95207063.94248  23250542.9764   23250544.4064   23250543.0294
       232.000         190.000
 124288027.60248  96847814.97148  23651223.8184   23651222.6564   23651224.9074
       227.000         179.000
 114281219.98448  89050290.27448  21747001.3454   21747003.1134   21747001.2934
       239.000         209.000
 141099631.07148  92155540.50248  24947442.0184   24947445.4174   24947441.4704
       213.000         152.000
 09  1 31  0 25  0.0000000  0 11G26G 5G 9G15G18G27G28G17G22G12G30
 117886066.69248  91859274.93548  22432969.3744   22432972.2864   22432969.7484
       237.000         196.000
 119161955.34848  92853454.68348  22675779.5114   22675783.3404   22675780.6114
       232.000         189.000
 105845882.24648  82477296.77448  20141813.8654   20141816.4784   20141814.1224
       251.000         227.000
 110202788.87248  85872296.80048  20970897.1574   20970899.0974   20970896.7974
       249.000         225.000
 117200740.98448  91325247.56048  22302562.9134   22302564.5704   22302563.6174
       235.000         193.000
 131825657.61948 102721280.80148  25085594.9824   25085598.0224   25085594.4734
       209.000         151.000
 133220837.40448 103808436.49548  25351088.8804   25351090.6874   25351088.8224
       212.000         148.000
 122194151.02748  95216216.54748  23252778.2344   23252779.7134   23252778.4654
       230.000         190.000
 124244205.27248  96813667.72348  23642884.0964   23642885.2724   23642883.6754
       225.000         181.000
 114203655.36348  88989850.31148  21732241.2844   21732242.9874   21732241.1084
       240.000         210.000
 140987587.67548  92068233.99048  24926121.2734   24926124.1124   24926121.3744
       214.000         155.000
 09  1 31  0 25 30.0000000  0 11G26G 5G 9G15G18G27G28G17G22G12G30
 117979202.55048  91931848.31948  22450692.8564   22450695.4464   22450692.2784
       236.000         195.000
 119066598.95948  92779151.02248  22657633.5404   22657637.3314   22657634.4114
       233.000         190.000
 105819246.76048  82456541.84848  20136745.2414   20136747.8104   20136745.1994
       251.000         227.000
 110258303.14748  85915554.66648  20981461.1524   20981463.0574   20981460.8154
       248.000         225.000
 117209284.41948  91331904.77448  22304188.4904   22304190.1574   22304188.7354
       235.000         193.000
 131895842.30048 102775970.12148  25098950.2294   25098953.7384   25098949.1354
       217.000         156.000
 133317604.75848 103883839.66048  25369503.4094   25369505.0054   25369504.2804
       210.000         146.000
 122206451.90648  95225801.66248  23255118.8574   23255120.4954   23255118.5764
       229.000         191.000
 124200882.09348  96779909.38648  23634640.3674   23634641.3564   23634640.2594
       224.000         176.000
 114126469.60148  88929705.58048  21717553.5244   21717555.1704   21717553.5534
       240.000         211.000
 140875627.74748  91980992.50948  24904815.6434   24904819.1394   24904814.9884
       212.000         155.000
 09  1 31  0 26  0.0000000  0 11G26G 5G 9G15G18G27G28G17G22G12G30
 118072608.86748  92004632.45248  22468467.3324   22468470.1514   22468467.2444
       235.000         193.000
 118971522.10548  92705065.18048  22639541.2584   22639544.7704   22639541.9414
       234.000         191.000
 105792948.48748  82436049.68948  20131740.8634   20131743.3554   20131741.2224
       251.000         227.000
 110314257.61048  85959155.54848  20992109.0834   20992110.7074   20992108.7944
       248.000         225.000
 117218395.46548  91339004.28048  22305922.5124   22305924.0994   22305922.6414
       235.000         193.000
 131966069.49548 102830692.59648  25112314.0404   25112318.7194   25112314.3404
       213.000         155.000
 133414394.77948 103959260.51448  25387921.3124   25387924.0164   25387922.8194
       209.000         146.000
 122219308.41448  95235819.72648  23257565.4384   23257567.1724   23257564.6894
       231.000         191.000
 124158059.90948  96746541.41248  23626491.2644   23626491.1494   23626490.6894
       223.000         176.000
 114049664.86648  88869857.75148  21702938.0614   21702940.0054   21702937.8804
       240.000         212.000
 140763753.60248  91893817.85748  24883526.5984   24883529.9074   24883525.9364
       212.000         155.000
 09  1 31  0 26 30.0000000  0 11G26G 5G 9G15G18G27G28G17G22G12G30
 118166283.47548  92077625.66348  22486293.0694   22486295.6044   22486293.0304
       235.000         193.000
 118876725.48948  92631197.69848  22621501.6224   22621505.3514   22621502.3814
       232.000         190.000
 105766987.14248  82415820.07348  20126800.5724   20126802.9484   20126800.6294
       252.000         227.000
 110370650.88748  86003098.35948  21002840.3734   21002842.1154   21002840.0674
       248.000         225.000
 117228072.86648  91346545.09548  22307763.8854   22307765.6504   22307764.4414
       235.000         193.000
 132036338.48648 102885447.64148  25125687.2214   25125689.5984   25125686.9704
       211.000         154.000
 133511205.39348 104034697.39448  25406343.8704   25406346.0934   25406344.0624
       209.000         142.000
 122232719.85048  95246270.20948  23260117.7014   23260119.2384   23260117.5294
       232.000         191.000
 124115739.29448  96713564.35248  23618438.5154   23618438.7854   23618437.3524
       226.000         178.000
 113973241.87148  88810307.38548  21688395.2904   21688397.1684   21688395.3954
       240.000         212.000
 140651966.25748  91806710.87348  24862253.8684   24862257.9194   24862253.6834
       212.000         156.000
 09  1 31  0 27  0.0000000  0 11G26G 5G 9G15G18G27G28G17G22G12G30
 118260224.56548  92150826.51848  22504169.3364   22504171.9404   22504169.6054
       235.000         194.000
 118782210.39048  92557549.59148  22603515.9584   22603520.0954   22603516.4264
       235.000         191.000
 105741362.75048  82395853.01948  20121924.4374   20121926.7544   20121924.6844
       252.000         227.000
 110427481.71548  86047382.11748  21013654.7944   21013656.7044   21013654.6594
       248.000         225.000
 117238315.45748  91354526.32648  22309712.9344   22309714.6274   22309713.3804
       235.000         193.000
 132106649.36148 102940235.28348  25139066.0694   25139070.1324   25139066.7234
       213.000         158.000
 133608034.61048 104110148.74748  25424769.6254   25424772.5154   25424770.4504
       206.000         142.000
 122246685.86248  95257152.80148  23262775.5144   23262776.6624   23262775.4174
       232.000         191.000
 124073921.12548  96680978.75948  23610480.2474   23610480.2214   23610479.3824
       223.000         174.000
 113897201.30048  88751054.99948  21673924.9994   21673927.0594   21673924.6944
       241.000         212.000
 140540266.88248  91719672.41048  24840999.4854   24841002.0474   24841000.3204
       213.000         158.000
 09  1 31  0 27 30.0000000  0 11G26G 5G 9G15G18G27G28G17G22G12G30
 118354431.11448  92224234.19548  22522095.9994   22522098.9724   22522095.4844
       233.000         192.000
 118687978.79648  92484122.37448  22585584.7194   22585588.0964   22585585.4734
       234.000         191.000
 105716076.37648  82376149.34848  20117112.6764   20117114.9784   20117112.9264
       251.000         227.000
 110484749.83948  86092006.62248  21024552.5624   21024554.4714   21024552.2874
       248.000         224.000
 117249123.32948  91362948.02148  22311769.6634   22311771.4974   22311770.3104
       235.000         192.000
 132177002.35548 102995055.81248  25152453.9994   25152458.1494   25152454.9884
       213.000         157.000
 133704880.99048 104185613.52248  25443199.0674   25443201.0714   25443199.0404
       203.000         144.000
 122261206.82948  95268467.84348  23265538.7924   23265539.9034   23265538.8714
       231.000         191.000
 124032606.96048  96648785.88948  23602617.7414   23602617.9504   23602616.5564
       222.000         173.000
 113821544.98948  88692102.04248  21659528.1394   21659530.2154   21659528.1264
       241.000         213.000
 140428657.57748  91632704.17148  24819760.7974   24819762.8864   24819761.5494
       216.000         159.000
 09  1 31  0 28  0.0000000  0 11G26G 5G 9G15G18G27G28G17G22G12G30
 118448901.56948  92297847.53648  22540073.2174   22540076.0124   22540073.1564
       233.000         190.000
 118594031.99348  92410917.08848  22567707.4474   22567710.6234   22567708.0924
       235.000         192.000
 105691128.11348  82356709.14748  20112365.0474   20112367.6494   20112365.2534
       251.000         227.000
 110542453.88448  86136970.81148  21035533.4324   21035535.0844   21035533.0614
       248.000         224.000
 117260494.86648  91371808.95848  22313933.5734   22313935.3544   22313934.1344
       235.000         192.000
 132247397.50448 103049909.18448  25165850.0054   25165852.8494   25165850.7534
       214.000         156.000
 133801742.54748 104261090.07648  25461631.3894   25461634.5214   25461631.6364
       208.000         144.000
 122276282.41148  95280215.05848  23268407.2634   23268408.7034   23268407.4744
       230.000         189.000
 123991797.64248  96616986.45648  23594852.5574   23594853.0634   23594852.4874
       224.000         176.000
 113746274.02048  88633449.34748  21645204.6684   21645206.4284   21645204.6534
       242.000         213.000
 140317139.80548  91545807.26548  24798539.5894   24798541.8764   24798539.1684
       212.000         157.000
 09  1 31  0 28 30.0000000  0 11G26G 5G 9G15G18G27G28G17G22G12G30
 118543634.03048  92371665.02948  22558100.3514   22558103.0354   22558100.2934
       234.000         191.000
 118500371.18748  92337934.65448  22549884.1544   22549887.6074   22549885.2554
       235.000         192.000
 105666518.04148  82337532.46748  20107681.8694   20107684.7154   20107681.9814
       252.000         228.000
 110600592.96048  86182273.98448  21046596.9164   21046598.6544   21046596.7694
       248.000         224.000
 117272428.82248  91381108.13148  22316204.4594   22316206.4644   22316205.2654
       234.000         192.000
 132317834.93948 103104795.43548  25179253.4034   25179257.4694   25179254.3594
       211.000         158.000
 133898617.74648 104336577.22648  25480066.3534   25480069.4174   25480066.8694
       209.000         147.000
 122291911.84648  95292393.85148  23271381.0224   23271382.9274   23271380.6994
       231.000         191.000
 123951493.91348  96585580.95048  23587182.5814   23587182.9494   23587181.9654
       224.000         173.000
 113671389.31448  88575097.62648  21630954.6454   21630956.0974   21630954.4824
       242.000         213.000
 140205715.08548  91458982.86648  24777335.7104   24777338.3324   24777335.1374
       212.000         156.000
 09  1 31  0 29  0.0000000  0 11G26G 5G 9G15G18G27G28G17G22G12G30
 118638627.74448  92445686.11348  22576176.9234   22576179.4234   22576177.0794
       234.000         191.000
 118406998.71448  92265176.90048  22532116.0424   22532119.6274   22532116.7924
       235.000         192.000
 105642247.44748  82318620.31848  20103063.3834   20103066.1424   20103063.6234
       251.000         228.000
 110659166.71048  86227915.86148  21057742.9844   21057744.7684   21057742.5554
       248.000         224.000
 117284925.23148  91390845.58148  22318582.7184   22318584.5114   22318583.0734
       236.000         193.000
 132388315.42348 103159715.32348  25192665.7814   25192670.2584   25192665.9824
       209.000         157.000
 133995505.38748 104412074.07248  25498503.8954   25498506.4864   25498504.5364
       213.000         146.000
 122308095.58948  95305004.55648  23274461.2204   23274462.8984   23274460.8474
       233.000         193.000
 123911697.96348  96554571.07648  23579610.9484   23579610.3444   23579610.5014
       227.000         181.000
 113596892.60948  88517048.25848  21616778.3644   21616779.7824   21616778.3494
       241.000         213.000
 140094385.73948  91372232.76548  24756150.2754   24756153.5494   24756149.4854
       212.000         157.000
 09  1 31  0 29 30.0000000  0 11G26G 5G 9G15G18G27G28G17G22G12G30
 118733880.08648  92519908.71548  22594302.7194   22594305.6704   22594302.6134
       232.000         191.000
 118313914.73148  92192643.93648  22514402.5834   22514405.8274   22514403.9554
       236.000         192.000
 105618315.46448  82299972.01648  20098509.3644   20098511.9414   20098509.4044
       252.000         228.000
 110718173.43948  86273895.12348  21068971.7974   21068973.3344   21068971.3824
       248.000         223.000
 117297981.92948  91401019.61548  22321067.4604   22321069.1104   22321068.3084
       236.000         193.000
 132458837.53548 103214667.59648  25206085.5064   25206089.8464   25206085.6494
       214.000         155.000
 134092402.71648 104487578.55248  25516942.5794   25516944.6374   25516942.9234
       208.000         143.000
 122324832.45448  95318046.27248  23277646.1874   23277647.6414   23277646.1544
       230.000         191.000
 123872409.61648  96523956.79448  23572133.7944   23572134.7154   23572134.1164
       226.000         178.000
 113522784.57148  88459301.75048  21602675.8534   21602677.5464   21602675.8144
       241.000         214.000
 139983152.11548  91285557.21548  24734984.2164   24734986.0584   24734983.5354
       216.000         157.000
 09  1 31  0 30  0.0000000  0 11G26G 5G 9G15G18G27G28G17G22G12G30
 118829390.57148  92594332.44648  22612478.1204   22612480.7594   22612477.8414
       232.000         191.000
 118221121.98748  92120337.90848  22496744.9394   22496748.0134   22496745.8884
       236.000         194.000
 105594723.34348  82281588.54248  20094019.7384   20094022.3664   20094019.8944
       251.000         227.000
 110777613.18248  86320211.80048  21080282.8314   21080284.3784   21080282.7214
       248.000         223.000
 117311599.39848  91411630.61248  22323658.4444   22323660.1464   22323659.3504
       234.000         192.000
 132529402.75748 103269653.51648  25219513.7844   25219517.1874   25219514.3434
       209.000         150.000
 134189309.12148 104563090.02948  25535382.6004   25535384.9244   25535382.1734
       206.000         141.000
 122342123.37348  95331519.72348  23280936.5194   23280937.8574   23280936.1254
       232.000         191.000
 123833631.13948  96493739.77248  23564755.1404   23564755.3654   23564755.4994
       227.000         182.000
 113449066.92548  88401859.43648  21588648.0424   21588649.7094   21588647.8394
       243.000         214.000
 139872016.56248  91198958.12548  24713835.8364   24713837.4734   24713836.3444
       219.000         157.000
 09  1 31  0 30 30.0000000  0 11G26G 5G 9G15G18G27G28G17G22G12G30
 118925154.01848  92668953.31148  22630701.0964   22630703.8354   22630701.4604
       233.000         190.000
 118128618.17248  92048257.02348  22479142.0724   22479145.2824   22479142.9024
       236.000         194.000
 105571467.73948  82263467.28348  20089594.6154   20089597.0964   20089594.8984
       251.000         228.000
 110837481.45848  86366862.40248  21091675.1494   21091676.9084   21091674.8154
       248.000         223.000
 117325773.08348  91422675.02848  22326355.6074   22326357.4824   22326355.7294
       235.000         192.000
 132600007.56648 103324670.25548  25232948.8914   25232952.5344   25232948.9314
       210.000         154.000
 134286219.53048 104638604.68148  25553824.1564   25553826.8044   25553824.3434
       206.000         138.000
 122359964.48948  95345421.89648  23284331.1904   23284332.7554   23284331.1894
       232.000         189.000
 123795359.99148  96463918.09948  23557472.1784   23557472.7924   23557471.3114
       225.000         181.000
 113375737.42248  88344719.57748  21574693.8314   21574695.4784   21574693.6674
       242.000         214.000
 139760977.25448  91112434.01448  24692706.2474   24692706.5984   24692706.5864
       217.000         158.000
 09  1 31  0 31  0.0000000  0 10G26G 5G 9G15G18G27G17G22G12G30
 119021171.97848  92743772.50848  22648972.8984   22648975.4234   22648972.8104
       233.000         190.000
 118036407.93648  91976404.90848  22461594.9354   22461598.1894   22461595.7684
       237.000         194.000
 105548552.11148  82245610.95248  20085233.8154   20085236.2784   20085233.9624
       251.000         228.000
 110897780.24548  86413848.46048  21103149.8244   21103151.7404   21103149.6564
       247.000         223.000
 117340504.70248  91434154.18848  22329159.1654   22329160.6044   22329159.2024
       235.000         192.000
 132670655.14148 103379720.28048  25246392.8264   25246395.8494   25246393.0024
       209.000         153.000
 122378358.18348  95359754.63548  23287831.6144   23287833.0314   23287831.2194
       233.000         190.000
 123757599.96648  96434494.70648  23550286.6214   23550287.4014   23550287.0924
       226.000         179.000
 113302800.33948  88287885.49848  21560814.4034   21560816.1954   21560814.1494
       243.000         215.000
 139650039.03948  91025988.70848  24671594.3734   24671596.7414   24671593.9874
       217.000         160.000
 09  1 31  0 31 30.0000000  0 10G26G 5G 9G15G18G27G17G22G12G30
 119117445.04948  92818790.49348  22667292.8944   22667295.6234   22667292.9794
       233.000         190.000
 117944494.87048  91904784.34348  22444104.7604   22444107.3894   22444105.7574
       237.000         194.000
 105525979.02648  82228021.53748  20080938.2824   20080940.8494   20080938.5184
       252.000         228.000
 110958511.29148  86461171.35348  21114706.4264   21114708.4604   21114706.1564
       248.000         223.000
 117355795.18848  91446068.84248  22332068.9374   22332070.3394   22332069.5984
       235.000         192.000
 132741347.77648 103434805.41048  25259845.5464   25259849.3444   25259846.0214
       209.000         153.000
 122397306.59148  95374519.64348  23291437.3894   23291438.5824   23291437.4804
       231.000         189.000
 123720354.39748  96405472.16148  23543198.5654   23543199.0064   23543198.8394
       220.000         174.000
 113230258.97248  88231359.76648  21547010.1624   21547012.3054   21547010.1214
       242.000         215.000
 139539205.56848  90939625.00048  24650503.4414   24650505.9754   24650503.7634
       217.000         159.000
 09  1 31  0 32  0.0000000  0 10G26G 5G 9G15G18G27G17G22G12G30
 119213971.19648  92894005.65448  22685661.2604   22685664.1424   22685660.8004
       231.000         189.000
 117852880.02548  91833396.17148  22426670.8554   22426673.8714   22426671.5104
       236.000         195.000
 105503748.47348  82210699.03648  20076707.8874   20076710.4374   20076708.0054
       251.000         227.000
 111019672.76348  86508829.63948  21126345.0854   21126347.0274   21126344.9704
       248.000         223.000
 117371643.53248  91458418.18848  22335084.5284   22335086.4984   22335084.6804
       236.000         192.000
 132812085.33948 103489925.57548  25273307.0664   25273309.7174   25273307.6644
       210.000         151.000
 122416809.18348  95389716.47548  23295148.1834   23295149.9054   23295148.0514
       232.000         190.000
 123683624.26348  96376851.30248  23536209.4334   23536209.8504   23536208.8294
       227.000         180.000
 113158114.11748  88175143.00548  21533281.5074   21533283.4434   21533281.3244
       243.000         215.000
 139428478.23748  90853343.97748  24629432.8504   24629435.0664   24629433.7574
       217.000         158.000
 09  1 31  0 32 30.0000000  0 10G26G 5G 9G15G18G27G17G22G12G30
 119310748.40248  92969416.44648  22704077.4294   22704080.2444   22704077.5144
       232.000         190.000
 117761564.21048  91762240.99648  22409293.9394   22409296.8944   22409294.8314
       236.000         196.000
 105481860.32248  82193643.33448  20072542.6614   20072545.2344   20072542.7634
       251.000         227.000
 111081262.87248  86556821.93448  21138065.2274   21138067.2674   21138064.9054
       248.000         223.000
 117388047.99148  91471200.84848  22338206.3614   22338208.2414   22338206.9614
       234.000         192.000
 132882867.17348 103545080.21048  25286775.9784   25286778.5684   25286776.4914
       212.000         150.000
 122436864.57348  95405344.04048  23298965.3504   23298966.4914   23298965.1944
       233.000         191.000
 123647409.49448  96348631.97748  23529317.5354   23529317.7884   23529317.1904
       221.000         172.000
 113086366.05248  88119235.44148  21519628.3764   21519629.9424   21519628.1604
       243.000         215.000
 139317858.00548  90767146.39148  24608381.7864   24608384.6324   24608381.9564
       217.000         158.000
 09  1 31  0 33  0.0000000  0 10G26G 5G 9G15G18G27G17G22G12G30
 119407775.05148  93045021.63248  22722540.8894   22722543.3894   22722540.7224
       233.000         189.000
 117670548.90448  91691319.98448  22391974.1054   22391977.3764   22391974.4094
       235.000         196.000
 105460314.62748  82176854.48248  20068442.5474   20068445.2224   20068442.7644
       251.000         227.000
 111143280.67648  86605147.47848  21149866.7614   21149868.9274   21149866.6424
       247.000         222.000
 117405007.36148  91484415.92948  22341433.7144   22341435.4364   22341434.5304
       234.000         192.000
 132953693.35748 103600269.47148  25300254.5654   25300256.1724   25300255.2544
       212.000         152.000
 122457472.19948  95421401.92948  23302886.5594   23302887.9134   23302886.3894
       231.000         190.000
 123611711.05248  96320815.02848  23522524.2404   23522524.8024   23522523.9174
       223.000         177.000
 113015016.03848  88063638.03148  21506051.0164   21506052.5544   21506050.8314
       243.000         216.000
 139207346.32048  90681033.40048  24587352.1784   24587354.7794   24587352.1024
       218.000         157.000
 09  1 31  0 33 30.0000000  0 10G26G 5G 9G15G18G27G17G22G12G30
 119505049.24148  93120819.70348  22741051.7244   22741054.1214   22741051.8164
       231.000         189.000
 117579835.16648  91620633.97148  22374711.7894   22374715.3164   22374712.6054
       234.000         195.000
 105439111.44948  82160332.52448  20064407.9974   20064410.3944   20064408.2274
       251.000         227.000
 111205724.84848  86653805.27048  21161749.6544   21161751.7704   21161749.5054
       247.000         223.000
 117422520.23548  91498062.32048  22344766.1804   22344768.1174   22344766.7794
       234.000         193.000
 133024563.67248 103655493.06348  25313740.1904   25313743.5734   25313740.9774
       210.000         154.000
 122478631.36948  95437889.60548  23306912.4854   23306914.4574   23306912.1774
       230.000         191.000
 123576529.65248  96293400.93748  23515829.5924   23515831.1834   23515829.8474
       221.000         176.000
 112944064.91448  88008351.45248  21492549.4174   21492550.9264   21492549.3334
       244.000         216.000
 139096944.67448  90595006.16648  24566343.5754   24566345.7394   24566344.1544
       216.000         157.000
 09  1 31  0 34  0.0000000  0 10G26G 5G 9G15G18G27G17G22G12G30
 119602569.47648  93196809.49748  22759608.8514   22759611.8374   22759608.9294
       231.000         187.000
 117489424.47048  91550184.08348  22357506.8924   22357510.6584   22357507.3174
       236.000         196.000
 105418251.07548  82144077.68948  20060438.4704   20060440.8064   20060438.6094
       251.000         227.000
 111268594.82548  86702794.85248  21173713.4574   21173715.5154   21173713.1244
       247.000         222.000
 117440585.71648  91512139.30448  22348203.8064   22348206.0114   22348204.1914
       235.000         192.000
 133095478.24448 103710751.14648  25327234.4294   25327237.6864   25327235.2224
       212.000         155.000
 122500342.17348  95454807.13348  23311044.1034   23311046.0324   23311043.5444
       233.000         192.000
 123541866.12348  96266390.38648  23509233.8654   23509234.6124   23509233.6714
       225.000         179.000
 112873513.77248  87953376.54748  21479124.0364   21479125.5074   21479123.8584
       244.000         216.000
 138986654.69148  90509065.95348  24545355.9794   24545358.3954   24545355.7354
       217.000         160.000
 09  1 31  0 34 30.0000000  0 10G26G 5G 9G15G18G27G17G22G12G30
 119700333.46248  93272989.22448  22778213.0884   22778215.5984   22778213.1464
       229.000         186.000
 117399317.56348  91479970.90148  22340360.5064   22340364.1134   22340361.1194
       236.000         198.000
 105397733.59848  82128090.04848  20056534.1354   20056536.4614   20056534.3204
       252.000         227.000
 111331888.70648  86752114.75948  21185757.8974   21185759.7064   21185757.6664
       247.000         222.000
 117459201.61648  91526645.18648  22351746.3634   22351748.3794   22351747.0234
       235.000         191.000
 133166436.53048 103766043.32848  25340737.9564   25340740.6314   25340739.1614
       212.000         153.000
 122522603.05748  95472153.26948  23315280.8044   23315281.9324   23315280.6574
       232.000         190.000
 123507720.64548  96239783.53448  23502736.3394   23502736.6064   23502735.5024
       225.000         179.000
 112803362.81348  87898713.47748  21465774.4844   21465776.2334   21465774.2824
       243.000         216.000
 138876477.11148  90423213.31348  24524390.7074   24524392.6184   24524391.5154
       216.000         160.000
 09  1 31  0 35  0.0000000  0 10G26G 5G 9G15G18G27G17G22G12G30
 119798339.98648  93349357.93048  22796862.9844   22796865.7064   22796862.5184
       230.000         188.000
 117309516.17648  91409995.82248  22323271.8554   22323275.6964   22323272.8504
       237.000         198.000
 105377559.60148  82112370.04748  20052695.0424   20052697.4384   20052695.2264
       251.000         227.000
 111395605.52448  86801764.21548  21197882.5864   21197884.5774   21197882.2584
       247.000         221.000
 117478367.24848  91541579.43348  22355393.4934   22355394.9834   22355394.1284
       235.000         191.000
 133237438.97348 103821369.90648  25354249.7764   25354252.3164   25354250.7264
       203.000         147.000
 122545413.80948  95489927.88948  23319620.8864   23319622.6344   23319621.0524
       232.000         189.000
 123474094.76448  96213581.53948  23496337.4844   23496337.6664   23496337.2404
       227.000         179.000
 112733613.88148  87844363.67448  21452501.5484   21452503.4954   21452501.4144
       244.000         216.000
 138766413.79648  90337449.72748  24503445.1164   24503448.0614   24503443.8384
       215.000         160.000
 09  1 31  0 35 30.0000000  0 10G26G 5G 9G15G18G27G17G22G12G30
 119896587.51748  93425914.45048  22815558.8774   22815561.4084   22815559.5254
       230.000         188.000
 127220043.95458  81340282.07358  22306241.7885   22306245.0415   22306242.5635
       236.000         198.000
 115357753.58058  72096941.08558  20048921.5435   20048923.8515   20048921.6245
       252.000         227.000
 121459732.56058  76851731.68558  21210088.0065   21210089.9675   21210087.7405
       247.000         221.000
 117498081.56348  91556941.23448  22359145.1214   22359146.7804   22359145.9404
       234.000         191.000
 133308486.09748 103876731.31048  25367767.8784   25367771.2554   25367768.7344
       208.000         152.000
 122568774.41148  95508130.95548  23324066.1224   23324067.8134   23324065.9474
       233.000         192.000
 123440989.27348  96187785.01948  23490037.5494   23490037.9854   23490038.3584
       226.000         178.000
 112664268.03948  87790327.95848  21439305.7124   21439307.2204   21439305.6154
       245.000         216.000
 138656466.60448  90251776.58448  24482523.1194   24482526.2534   24482523.4534
       216.000         157.000
 09  1 31  0 36  0.0000000  0 10G26G 5G 9G15G18G27G17G22G12G30
 119995074.33648  93502657.42948  22834300.2354   22834302.8494   22834300.1874
       230.000         188.000
 127130857.94448  81270786.49848  22289270.2874   22289273.7424   22289270.6784
       238.000         198.000
 115338267.54448  72081757.16148  20045213.4084   20045215.7224   20045213.8104
       250.000         227.000
 121524292.45048  76902038.09148  21222373.2774   21222375.2734   21222373.0564
       246.000         221.000
 117518342.96448  91572729.31948  22363000.5174   22363002.6314   22363000.9744
       234.000         191.000
 133379577.64348 103932127.29948  25381296.3444   25381300.2724   25381296.9004
       210.000         152.000
 122592683.87248  95526761.69448  23328616.8344   23328617.7474   23328616.5604
       232.000         191.000
 123408404.75548  96162394.49048  23483837.2844   23483837.4664   23483838.8594
       228.000         178.000
 112595325.89048  87736606.81648  21426186.4294   21426187.9974   21426186.1824
       244.000         217.000
 138546636.86648  90166194.98348  24461623.0234   24461625.9694   24461623.4084
       212.000         157.000
 09  1 31  0 36 30.0000000  0 10G26G 5G 9G15G18G27G17G22G12G30
 120093798.86048  93579585.61748  22853086.9004   22853089.6954   22853087.2154
       229.000         186.000
 127041981.68448  81201532.27548  22272357.6504   22272360.8544   22272358.8174
       238.000         198.000
 115319125.84948  72066841.55048  20041570.8574   20041573.2014   20041570.9674
       251.000         227.000
 121589272.26148  76952671.71148  21234738.5184   21234740.5234   21234738.1514
       247.000         221.000
 117539150.47648  91588942.94148  22366960.3044   22366962.0894   22366960.8434
       235.000         192.000
 133450713.64148 103987557.97048  25394833.3964   25394836.7294   25394833.6814
       206.000         147.000
 122617141.33448  95545819.47448  23333269.5344   23333272.0434   23333269.4294
       229.000         188.000
 123376342.00548  96137410.55848  23477735.8624   23477735.9404   23477737.4264
       229.000         179.000
 112526788.57548  87683201.13848  21413144.1494   21413145.7524   21413144.1214
       244.000         217.000
 138436926.49548  90080706.37748  24440745.7364   24440749.2804   24440745.1754
       212.000         159.000
 09  1 31  0 37  0.0000000  0 10G26G 5G 9G15G18G27G17G22G12G30
 120192759.91048  93656698.12148  22871918.5004   22871921.1344   22871918.6544
       226.000         185.000
 126953416.83348  81132520.71648  22255504.2894   22255507.6934   22255504.7874
       238.000         199.000
 115300329.06148  72052194.70048  20037994.0514   20037996.3794   20037994.3674
       250.000         227.000
 121654671.23048  77003631.93948  21247183.4224   21247185.6094   21247183.1824
       246.000         221.000
 117560503.11048  91605581.33848  22371023.6754   22371025.6914   22371023.7824
       236.000         193.000
 133521894.69948 104043023.75648  25408378.8414   25408381.4314   25408378.9084
       197.000         137.000
 122642147.00548  95565304.40248  23338028.4964   23338030.3964   23338027.5494
       234.000         191.000
 123344802.34348  96112834.17348  23471734.1134   23471733.9084   23471734.5014
       227.000         178.000
 112458657.58248  87630112.06848  21400179.1554   21400180.7344   21400178.9524
       245.000         217.000
 138327337.25348  89995312.19048  24419891.8534   24419895.4294   24419891.5934
       212.000         159.000
 09  1 31  0 37 30.0000000  0 10G26G 5G 9G15G18G27G17G22G12G30
 120291956.10348  93733993.84548  22890794.6134   22890797.7714   22890793.8354
       227.000         184.000
 126865164.93048  81063753.00448  22238710.5664   22238713.9704   22238711.1134
       238.000         200.000
 115281878.02748  72037817.26948  20034482.7144   20034485.2474   20034482.8984
       250.000         227.000
 121720488.33048  77054917.99248  21259708.0664   21259710.1724   21259707.6834
       247.000         221.000
 117582399.70548  91622643.59648  22375190.3784   22375192.3064   22375190.8054
       235.000         192.000
 133593121.09348 104098524.80848  25421932.3684   25421935.1294   25421932.4884
       193.000         130.000
 122667700.59648  95585216.28048  23342892.5414   23342893.0224   23342892.8454
       232.000         190.000
 123313786.61448  96088666.07148  23465831.6194   23465831.8504   23465831.1144
       224.000         177.000
 112390933.93648  87577340.40748  21387292.0514   21387293.4524   21387292.1654
       245.000         218.000
 138217870.89048  89910013.74948  24399060.8004   24399064.5084   24399060.8694
       216.000         162.000
 09  1 31  0 38  0.0000000  0  9G26G 5G 9G15G18G17G22G12G30
 120391385.62548  93811471.39748  22909715.7104   22909718.7024   22909715.7114
       228.000         186.000
 126777227.43548  80995230.29748  22221976.4824   22221979.9184   22221977.1174
       237.000         201.000
 115263773.30748  72023709.69448  20031037.5724   20031039.9624   20031037.6854
       250.000         227.000
 121786722.65048  77106529.14148  21272312.1524   21272314.1934   21272311.9264
       247.000         221.000
 117604839.07348  91640128.81348  22379460.2804   22379462.3034   22379460.6864
       234.000         191.000
 122693801.45448  95605554.63948  23347857.3174   23347859.9174   23347857.1954
       228.000         185.000
 123283295.66348  96064906.85148  23460029.7544   23460029.0414   23460028.3714
       228.000         177.000
 112323618.89948  87524887.13848  21374482.3444   21374483.9504   21374482.1454
       245.000         218.000
 138108529.41948  89824812.62448  24378254.4134   24378257.6644   24378255.0244
       220.000         166.000
 09  1 31  0 38 30.0000000  0  9G26G 5G 9G15G18G17G22G12G30
 120491047.33248  93889129.86548  22928680.6864   22928683.9234   22928680.4204
       229.000         187.000
 126689605.81248  80926953.72048  22205302.5954   22205305.8884   22205303.2704
       238.000         201.000
 115246014.81948  72009871.91048  20027658.3204   20027660.7624   20027658.5934
       251.000         227.000
 121853372.88948  77158464.39848  21284995.4154   21284997.3064   21284995.1534
       246.000         220.000
 117627819.73848  91658035.81948  22383833.3904   22383835.3714   22383833.9994
       232.000         189.000
 122720448.88048  95626318.85648  23352928.7664   23352930.6834   23352928.1604
       233.000         188.000
 123253330.34448  96041557.26848  23454327.2534   23454327.2324   23454327.4254
       226.000         177.000
 112256713.56948  87472753.12548  21361750.5404   21361752.2064   21361750.6484
       245.000         218.000
 137999313.90148  89739709.64148  24357471.9914   24357474.5634   24357470.8404
       222.000         167.000
 09  1 31  0 39  0.0000000  0  9G26G 5G 9G15G18G17G22G12G30
 120590938.55448  93966967.18148  22947689.4034   22947692.5224   22947688.9824
       230.000         187.000
 126602300.60148  80858923.71048  22188688.8884   22188691.9524   22188689.3794
       237.000         200.000
 115228602.47948  71996303.84748  20024344.7734   20024347.4314   20024344.9504
       250.000         227.000
 121920437.53548  77210722.56148  21297757.2524   21297759.1944   21297756.9224
       247.000         220.000
 117651339.80548  91676363.13548  22388309.2194   22388311.0884   22388309.6684
       234.000         191.000
 122747641.40448  95647507.83948  23358104.2504   23358105.0984   23358104.5584
       233.000         187.000
 123223890.51848  96018617.14848  23448725.0974   23448725.7584   23448724.8834
       228.000         182.000
 112190217.82148  87420938.27048  21349096.7374   21349098.6944   21349096.5174
       245.000         219.000
 137890225.32948  89654705.55048  24336713.2784   24336715.7804   24336712.6984
       223.000         165.000
 09  1 31  0 39 30.0000000  0  9G26G 5G 9G15G18G17G22G12G30
 120691057.06848  94044981.61448  22966741.3954   22966744.0924   22966741.7984
       229.000         186.000
 126515312.66748  80791140.91848  22172135.5194   22172138.6594   22172136.0804
       239.000         201.000
 115211536.00748  71983005.29748  20021097.0664   20021099.6044   20021097.1444
       250.000         227.000
 121987914.69248  77263302.15848  21310597.6874   21310599.5914   21310597.3494
       247.000         220.000
 117675397.41448  91695109.31348  22392887.1594   22392889.5094   22392887.3874
       235.000         191.000
 122775377.90548  95669120.70048  23363381.6854   23363383.3164   23363382.4894
       231.000         185.000
 123194976.42148  95996086.67748  23443223.0994   23443223.7264   23443223.8174
       228.000         183.000
 112124132.36048  87369443.11548  21336521.2244   21336523.0154   21336521.3084
       245.000         219.000
 137781264.84748  89569801.27248  24315978.3604   24315980.8744   24315978.0064
       221.000         163.000
 09  1 31  0 40  0.0000000  0  9G26G 5G 9G15G18G17G22G12G30
 120791402.42648  94123172.78248  22985836.2494   22985839.3184   22985835.6024
       227.000         185.000
 126428644.25048  80723607.11148  22155643.2474   22155646.3824   22155644.1404
       238.000         202.000
 115194816.99948  71969977.50248  20017915.5004   20017918.1344   20017915.5894
       250.000         227.000
 122055804.02648  77316202.94148  21323516.6974   21323518.5564   21323516.6724
       246.000         219.000
 117699991.75648  91714273.72948  22397567.5164   22397569.5824   22397568.0234
       237.000         191.000
 122803658.43048  95691157.46148  23368763.4564   23368764.7934   23368763.4794
       230.000         184.000
 123166589.65848  95973967.12148  23437820.6884   23437821.9394   23437821.8874
       228.000         183.000
 112058458.99948  87318269.07148  21324023.7344   21324025.7044   21324023.5074
       246.000         218.000
 137672434.79248  89484998.63848  24295268.4944   24295270.9864   24295268.5844
       222.000         161.000
 09  1 31  0 40 30.0000000  0  9G26G 5G 9G15G18G17G22G12G30
 120891973.29448  94201539.69548  23004974.3754   23004977.2244   23004973.7044
       227.000         184.000
 126342297.10848  80656323.63848  22139211.9364   22139215.0184   22139212.3084
       240.000         203.000
 115178445.95748  71957220.84248  20014800.2094   20014802.9134   20014800.3464
       250.000         227.000
 122124105.00748  77369424.48248  21336513.7614   21336515.7414   21336513.3414
       246.000         219.000
 117725122.29848  91733855.96048  22402349.7564   22402351.6964   22402350.3504
       234.000         191.000
 122832482.90448  95713618.12148  23374247.6234   23374249.8954   23374247.8214
       229.000         184.000
 123138731.60048  95952259.56248  23432519.5194   23432520.7494   23432519.3144
       227.000         183.000
 111993199.06648  87267417.18648  21311605.4264   21311606.9874   21311605.2844
       247.000         219.000
 137563737.24648  89400299.24548  24274583.5654   24274586.4974   24274584.2304
       216.000         160.000
 09  1 31  0 41  0.0000000  0  9G26G 5G 9G15G18G17G22G12G30
 120992768.58448  94280081.46348  23024155.3474   23024158.2204   23024155.3954
       229.000         186.000
 126256272.95548  80589291.85248  22122842.4134   22122845.5214   22122843.0544
       240.000         204.000
 115162423.31548  71944735.66948  20011751.4894   20011753.7274   20011751.7544
       251.000         227.000
 122192816.25848  77422965.71548  21349589.3144   21349591.0004   21349588.9994
       245.000         219.000
 117750787.61248  91753854.89748  22407233.3954   22407235.5524   22407233.8194
       234.000         190.000
 122861850.93148  95736502.29948  23379836.2894   23379838.6864   23379836.1194
       230.000         187.000
 123111403.21248  95930964.71448  23427319.5664   23427320.1694   23427320.8974
       230.000         184.000
 111928353.92348  87216888.50148  21299265.7874   21299267.4034   21299265.6344
       247.000         219.000
 137455174.15048  89315704.66848  24253924.3824   24253927.9064   24253922.9844
       214.000         158.000
 09  1 31  0 41 30.0000000  0  9G26G 5G 9G15G18G17G22G12G30
 121093785.48048  94358795.92148  23043378.5424   23043381.2554   23043378.5794
       230.000         185.000
 126170572.22348  80522512.07648  22106534.0454   22106537.2174   22106534.6604
       239.000         203.000
 115146748.95748  71932521.88248  20008768.6904   20008770.9544   20008768.9154
       251.000         227.000
 122261936.22348  77476825.42748  21362742.3224   21362744.0604   21362741.8974
       245.000         219.000
 117776985.55648  91774268.86948  22412218.7514   22412220.5334   22412219.1914
       234.000         189.000
 122891760.67848  95759808.60048  23385529.2254   23385530.0894   23385528.8354
       232.000         187.000
 123084603.29048  95910081.66248  23422219.4484   23422220.4074   23422220.0634
       228.000         182.000
 111863923.55148  87166683.01148  21287005.3614   21287006.6784   21287005.0584
       247.000         219.000
 137346746.30848  89231215.45548  24233290.8574   24233294.4164   24233291.1884
       217.000         161.000
 09  1 31  0 42  0.0000000  0  9G26G 5G 9G15G18G17G22G12G30
 121195022.37148  94437681.80548  23062643.1554   23062645.6894   23062642.9874
       230.000         185.000
 126085195.86948  80455985.06548  22090287.3374   22090290.6464   22090288.0264
       240.000         205.000
 115131423.06348  71920579.62448  20005852.2634   20005854.6134   20005852.4814
       250.000         227.000
 122331463.47348  77531002.49348  21375972.9424   21375974.8254   21375972.7634
       245.000         219.000
 117803714.35448  91795096.51148  22417305.1004   22417306.4864   22417305.5874
       234.000         188.000
 122922211.18048  95783536.26048  23391323.5544   23391324.6664   23391323.7904
       232.000         185.000
 123058332.89548  95889611.20848  23417220.4564   23417220.6244   23417220.1434
       230.000         182.000
 111799908.74048  87116801.34848  21274823.5734   21274825.0134   21274823.6904
       246.000         219.000
 137238454.85248  89146832.53948  24212684.4504   24212687.4984   24212685.3294
       221.000         163.000
 09  1 31  0 42 30.0000000  0  9G26G 5G 9G15G18G17G22G12G30
 121296478.05648  94516738.19748  23081949.2894   23081952.0474   23081949.3514
       231.000         184.000
 126000145.88348  80389712.35548  22074103.0964   22074106.3704   22074103.6614
       239.000         205.000
 115116446.53348  71908909.60548  20003002.2344   20003004.6694   20003002.5154
       250.000         227.000
 122401396.76648  77585495.96648  21389280.8554   21389282.6374   21389280.6104
       245.000         218.000
 117830972.84548  91816336.87948  22422492.1714   22422494.0044   22422492.7434
       232.000         188.000
 122953202.03048  95807684.98448  23397220.2164   23397222.5214   23397220.5264
       229.000         183.000
 123032592.97748  95869554.09948  23412322.7494   23412322.1674   23412322.8744
       228.000         180.000
 111736310.51048  87067244.29348  21262721.2364   21262722.6414   21262720.7944
       248.000         220.000
 137130301.84148  89062557.46548  24192103.7084   24192106.0074   24192103.1484
       219.000         162.000
 09  1 31  0 43  0.0000000  0  9G26G 5G 9G15G18G17G22G12G30
 121398151.24848  94595964.06048  23101296.8964   23101299.7484   23101296.9084
       228.000         183.000
 125915423.93848  80323695.28348  22057980.5444   22057984.2594   22057981.1984
       240.000         205.000
 115101819.87748  71897512.21648  20000218.8154   20000221.3134   20000218.9964
       251.000         227.000
 122471735.85748  77640305.64148  21402665.7544   21402667.7474   21402665.4494
       244.000         218.000
 117858760.03448  91837989.22048  22427779.7874   22427781.7684   22427779.9154
       234.000         188.000
 122984733.23548  95832254.76348  23403220.0144   23403222.5254   23403219.4284
       227.000         183.000
 123007385.38048  95849911.80348  23407525.4414   23407525.9674   23407525.3794
       228.000         183.000
 111673130.56148  87018013.17848  21250698.3454   21250700.0974   21250698.5314
       248.000         220.000
 137022289.62848  88978392.10848  24171549.4644   24171551.7824   24171548.7764
       220.000         163.000
 09  1 31  0 43 30.0000000  0  9G26G 5G 9G15G18G17G22G12G30
 121500040.36248  94675358.16848  23120685.9964   23120688.4024   23120685.4544
       229.000         184.000
 125831031.21948  80257934.72348  22041921.4254   22041924.7134   22041921.7694
       241.000         205.000
 115087543.33848  71886387.63948  19997502.2084   19997504.5484   19997502.4264
       250.000         227.000
 122542479.34748  77695430.43548  21416127.8844   21416129.7604   21416127.3464
       245.000         218.000
 117887074.28248  91860052.24548  22433168.0394   22433170.0154   22433168.5934
       233.000         189.000
 123016803.77048  95857244.79248  23409323.0424   23409325.1714   23409322.7864
       230.000         184.000
 122982709.48348  95830683.83248  23402829.4914   23402830.2354   23402829.3624
       225.000         181.000
 111610369.46148  86969108.42848  21238755.3324   21238757.1334   21238755.0904
       248.000         220.000
 136914419.32048  88894337.33448  24151022.8194   24151024.9534   24151023.0574
       223.000         165.000
 09  1 31  0 44  0.0000000  0  9G26G 5G 9G15G18G17G22G12G30
 121602142.90548  94754918.57748  23140115.5394   23140117.7594   23140115.1254
       225.000         183.000
 125746968.28148  80192431.14848  22025924.6074   22025927.9034   22025925.4264
       240.000         204.000
 115073616.97848  71875535.92648  19994851.9404   19994854.5204   19994852.0994
       250.000         227.000
 122613625.11148  77750868.68648  21429666.6014   21429668.4764   21429666.3984
       245.000         218.000
 117915913.59748  91882524.44048  22438656.0964   22438658.1774   22438656.6064
       236.000         191.000
 123049411.78248  95882653.62248  23415528.6244   23415530.5724   23415528.1324
       231.000         184.000
 122958565.68548  95811870.49748  23398234.9894   23398236.0854   23398234.7914
       228.000         184.000
 111548027.49748  86920530.28048  21226892.0574   21226893.8414   21226891.9124
       248.000         220.000
 136806692.06148  88810393.97748  24130522.8374   24130525.5174   24130522.2824
       220.000         165.000
 09  1 31  0 44 30.0000000  0  9G26G 5G 9G15G18G17G22G12G30
 121704457.09448  94834643.90248  23159585.2074   23159587.7674   23159584.9484
       225.000         184.000
 125663236.34348  80127185.47948  22009991.0724   22009994.1254   22009991.4884
       240.000         205.000
 115060040.68048  71864956.99848  19992268.3944   19992270.9834   19992268.5764
       250.000         227.000
 122685171.84648  77806619.38448  21443281.6044   21443283.4884   21443281.2644
       245.000         218.000
 117945275.76348  91905404.04748  22444243.8494   22444245.6384   22444244.8374
       235.000         192.000
 123082556.53448  95908480.69448  23421836.1484   23421837.5254   23421835.7164
       229.000         183.000
 122934954.17148  95793471.91248  23393742.4634   23393742.6254   23393742.4604
       232.000         183.000
 111486105.45648  86872279.34548  21215108.6834   21215110.3794   21215108.7374
       247.000         220.000
 136699109.13748  88726563.12748  24110050.4044   24110053.4154   24110049.5624
       222.000         165.000
 09  1 31  0 45  0.0000000  0  9G26G 5G 9G15G18G17G22G12G30
 121806981.31248  94914532.89048  23179094.7324   23179097.4324   23179094.6654
       227.000         183.000
 125579836.49248  80062198.60748  21994120.2114   21994123.7404   21994120.9624
       239.000         205.000
 115046814.79748  71854651.11848  19989751.6494   19989754.2824   19989751.7554
       250.000         227.000
 122757117.99748  77862681.32348  21456972.4874   21456974.2434   21456972.3784
       244.000         218.000
 117975159.19848  91928689.82248  22449929.9984   22449932.3254   22449930.4974
       234.000         191.000
 123116236.84348  95934725.08848  23428244.8584   23428246.5824   23428244.7774
       230.000         183.000
 122911875.40448  95775488.43148  23389350.8974   23389350.6744   23389351.5534
       230.000         183.000
 111424603.72048  86824355.92048  21203405.2944   21203406.8204   21203405.0364
       248.000         220.000
 136591672.10048  88642845.94648  24089606.1244   24089608.9864   24089606.5784
       218.000         165.000
 09  1 31  0 45 30.0000000  0  9G26G 5G 9G15G18G17G22G12G30
 121909713.98048  94994584.32048  23198644.0384   23198646.8914   23198644.1264
       229.000         183.000
 125496770.28848  79997471.71048  21978313.3354   21978316.7204   21978313.8574
       240.000         206.000
 115033939.94648  71844618.77048  19987301.6214   19987304.3844   19987301.8764
       249.000         227.000
 122829462.42348  77919053.59548  21470739.1434   21470740.8614   21470738.8684
       245.000         217.000
 118005562.71048  91952380.85348  22455715.7334   22455717.8554   22455716.1264
       235.000         190.000
 123150452.09448  95961386.32248  23434755.3864   23434758.1434   23434755.4904
       225.000         183.000
 122889329.95548  95757920.52748  23385060.5514   23385060.7844   23385060.4214
       228.000         181.000
 111363523.77748  86776761.16648  21191782.2314   21191783.7464   21191782.0394
       249.000         221.000
 136484382.77648  88559243.89048  24069189.5044   24069192.3794   24069189.6864
       218.000         164.000
 09  1 31  0 46  0.0000000  0  9G26G 5G 9G15G18G17G22G12G30
 122012654.00948  95074797.32548  23218233.0384   23218235.7394   23218233.3944
       229.000         185.000
 125414039.45848  79933006.14248  21962570.0704   21962573.5774   21962570.4114
       241.000         207.000
 115021417.17148  71834860.76348  19984918.7004   19984921.2894   19984918.8484
       249.000         227.000
 122902204.37548  77975735.63448  21484581.2824   21484583.2274   21484580.7564
       244.000         216.000
 118036485.19848  91976476.30048  22461600.1404   22461601.9304   22461600.7994
       234.000         188.000
 123185201.77248  95988464.01848  23441368.3674   23441370.7414   23441368.0744
       228.000         183.000
 122867318.83548  95740768.96848  23380872.2764   23380871.7424   23380872.7634
       230.000         180.000
 111302866.39848  86729495.68848  21180239.5994   21180241.1784   21180239.3874
       249.000         222.000
 136377243.13748  88475758.48948  24048801.4244   24048804.0914   24048800.7814
       220.000         164.000
 09  1 31  0 46 30.0000000  0  9G26G 5G 9G15G18G17G22G12G30
 122115799.08848  95155170.11548  23237860.8874   23237863.6984   23237860.5714
       230.000         184.000
 125331644.51248  79868802.28948  21946891.4924   21946894.3304   21946892.2184
       242.000         207.000
 115009245.67548  71825376.48348  19982602.6554   19982604.9824   19982602.8124
       250.000         227.000
 122975342.04648  78032726.02548  21498499.0164   21498500.7404   21498498.7404
       244.000         216.000
 118067923.96148  92000974.01548  22467582.4754   22467584.1614   22467583.4894
       232.000         186.000
 123220484.14648  96015956.77448  23448082.7564   23448084.2064   23448082.9874
       229.000         183.000
 122845841.72048  95724033.57848  23376784.6194   23376785.1824   23376785.2904
       228.000         181.000
 111242632.03548  86682559.82548  21168777.3024   21168778.9524   21168777.1284
       249.000         222.000
 136270254.00148  88392390.33548  24028442.4434   24028444.9264   24028442.7864
       219.000         163.000
 09  1 31  0 47  0.0000000  0  9G26G 5G 9G15G18G17G22G12G30
 122219147.95548  95235701.70548  23257527.4364   23257530.3064   23257527.5804
       228.000         181.000
 125249587.33748  79804861.64548  21931276.3924   21931279.1914   21931277.0214
       241.000         207.000
 114997426.76348  71816166.94748  19980353.5314   19980356.0144   19980353.7944
       250.000         227.000
 123048874.71248  78090024.20748  21512491.8534   21512493.4444   21512491.4194
       244.000         216.000
 118099878.15548  92025873.38848  22473663.4724   22473665.0514   22473664.0294
       233.000         187.000
 123256298.90348  96043864.36648  23454898.0864   23454899.3674   23454897.7634
       230.000         181.000
 122824899.49048  95707714.95148  23372800.5044   23372799.6214   23372800.0644
       231.000         183.000
 111182822.06448  86635954.66248  21157395.7624   21157397.4734   21157395.8014
       249.000         222.000
 136163417.57848  88309141.17648  24008111.8294   24008114.5114   24008111.4074
       219.000         164.000
 09  1 31  0 47 30.0000000  0  9G26G 5G 9G15G18G17G22G12G30
 122322699.27248  95316391.05448  23277232.7404   23277235.3484   23277233.0094
       229.000         180.000
 125167869.21348  79741185.19148  21915725.6444   21915728.6884   21915726.3664
       241.000         207.000
 114985960.62948  71807232.29748  19978171.6434   19978174.0434   19978171.8814
       250.000         227.000
 123122800.92848  78147629.04648  21526559.4744   21526561.2494   21526559.4844
       243.000         216.000
 118132346.32648  92051173.25948  22479842.0384   22479843.3804   22479842.5744
       233.000         186.000
 123292645.24448  96072186.18948  23461814.1394   23461816.0784   23461814.2164
       225.000         180.000
 122804492.60048  95691813.47548  23368917.1664   23368916.8144   23368917.1994
       231.000         183.000
 111123437.24548  86589680.78548  21146095.3824   21146096.9034   21146095.1064
       249.000         222.000
 136056735.50748  88226012.27648  23987810.7474   23987813.4744   23987810.9174
       219.000         164.000
 09  1 31  0 48  0.0000000  0  9G26G 5G 9G15G18G17G22G12G30
 122426450.81648  95397236.40648  23296975.7244   23296978.6834   23296976.2114
       228.000         179.000
 125086490.93148  79677773.55048  21900239.8684   21900243.0284   21900240.5024
       242.000         207.000
 114974847.04448  71798572.36148  19976056.6704   19976059.2684   19976056.7454
       250.000         227.000
 123197118.62448  78205538.93448  21540701.7694   21540703.5554   21540701.5364
       244.000         216.000
 118165326.01248  92076871.70048  22486117.5774   22486119.4834   22486118.0974
       235.000         187.000
 123329521.38848  96100920.85148  23468831.4684   23468833.5424   23468831.0884
       225.000         181.000
 122784621.19048  95676329.24448  23365135.3354   23365135.2514   23365136.2274
       229.000         180.000
 111064477.99548  86543738.52448  21134875.6724   21134877.2694   21134875.7014
       247.000         222.000
 135950208.73648  88143004.42648  23967539.4384   23967542.2424   23967539.0854
       220.000         165.000
 09  1 31  0 48 30.0000000  0  9G26G 5G 9G15G18G17G22G12G30
 122530401.20648  95478236.73448  23316757.1834   23316759.3304   23316757.2754
       228.000         177.000
 125005454.13048  79614627.99748  21884818.9624   21884822.2244   21884819.5994
       241.000         208.000
 114964087.23748  71790188.09548  19974009.2164   19974011.7214   19974009.3464
       250.000         227.000
 123271827.14248  78263753.35848  21554918.2554   21554919.9004   21554918.1384
       244.000         215.000
 118198815.93848  92102967.75048  22492490.5814   22492492.6814   22492490.9984
       234.000         188.000
 123366927.00948  96130068.09048  23475949.4164   23475951.3954   23475948.9354
       228.000         183.000
 122765285.73548  95661262.64948  23361455.4534   23361454.9584   23361455.1614
       225.000         179.000
 111005945.09848  86498128.49148  21123737.1094   21123738.9024   21123736.9334
       248.000         222.000
 135843839.22248  88060119.08448  23947297.9144   23947300.7444   23947297.8424
       219.000         167.000
 09  1 31  0 49  0.0000000  0  9G26G 5G 9G15G18G17G22G12G30
 122634549.03148  95559390.87448  23336575.4794   23336578.1474   23336575.8824
       226.000         176.000
 124924760.11448  79551749.55748  21869463.1894   21869466.7624   21869463.6224
       240.000         208.000
 114953681.73248  71782079.91048  19972029.0584   19972031.7004   19972029.3974
       250.000         228.000
 123346925.31548  78322271.40848  21569209.0594   21569210.5614   21569208.7224
       244.000         215.000
 118232814.41048  92129460.05948  22498960.1294   22498962.4004   22498960.6974
       232.000         186.000
 123404861.25248  96159627.23548  23483168.3394   23483170.2044   23483168.7624
       229.000         181.000
 122746486.43648  95646613.84448  23357878.1454   23357878.3674   23357877.1624
       230.000         182.000
 110947839.61748  86452851.50048  21112680.1184   21112681.6894   21112680.0164
       248.000         222.000
 135737628.78548  87977357.71048  23927086.1624   23927089.6884   23927085.5404
       220.000         166.000
 09  1 31  0 49 30.0000000  0  9G26G 5G 9G15G18G17G22G12G30
 122738892.26848  95640697.28148  23356431.2744   23356433.9044   23356430.9714
       224.000         178.000
 124844409.70248  79489138.84948  21854173.0324   21854176.5854   21854173.3934
       242.000         208.000
 114943630.28448  71774247.61148  19970116.2964   19970119.0044   19970116.4574
       250.000         228.000
 123422411.49448  78381091.81148  21583573.4694   21583575.1734   21583573.2324
       243.000         215.000
 118267319.19948  92156346.89548  22505526.2474   22505528.6094   22505526.5144
       231.000         186.000
 123443322.42148  96189596.97848  23490487.4854   23490489.3074   23490487.9424
       229.000         182.000
 122728223.52048  95632382.99348  23354403.3604   23354403.2054   23354403.8574
       230.000         182.000
 110890161.96348  86407907.88848  21101704.3464   21101705.8964   21101704.2224
       248.000         223.000
 135631578.71748  87894721.30948  23906905.3864   23906909.1814   23906905.3854
       217.000         166.000
 09  1 31  0 50  0.0000000  0  9G26G 5G 9G15G18G17G22G12G30
 122843428.62248  95722154.17248  23376323.8594   23376326.6024   23376323.2054
       224.000         179.000
 124764403.57848  79426796.42948  21838948.4124   21838952.0914   21838949.1054
       241.000         209.000
 114933932.63848  71766691.00148  19968270.8654   19968273.6504   19968270.9664
       250.000         227.000
 123498283.61448  78440212.94348  21598011.4414   21598013.3504   21598011.1044
       243.000         215.000
 118302328.25948  92183626.65748  22512188.4634   22512190.3764   22512189.3284
       232.000         187.000
 123482309.01848  96219976.15848  23497906.4514   23497907.7754   23497906.0394
       229.000         181.000
 122710497.36748  95618570.36248  23351030.6604   23351030.1484   23351030.2934
       231.000         182.000
 110832912.28448  86363297.75748  21090810.2074   21090811.5824   21090810.0454
       248.000         223.000
 135525689.89648  87812210.54748  23886755.7584   23886758.9604   23886755.4284
       221.000         166.000
 09  1 31  0 50 30.0000000  0  9G26G 5G 9G15G18G17G22G12G30
 122948156.49448  95803760.29248  23396253.0554   23396255.8184   23396253.1514
       226.000         181.000
 124684742.96848  79364723.22148  21823789.8664   21823793.1164   21823790.2754
       242.000         209.000
 114924589.43048  71759410.57448  19966492.9194   19966495.5014   19966493.0924
       250.000         227.000
 123574540.21048  78499633.65348  21612522.5954   21612524.5954   21612522.1144
       243.000         215.000
 118337839.69348  92211297.90048  22518946.1424   22518947.6104   22518946.9944
       232.000         186.000
 123521819.39948  96250763.48448  23505424.6514   23505426.1554   23505424.8484
       228.000         180.000
 122693307.36848  95605175.57248  23347758.9824   23347758.6454   23347760.2594
       229.000         181.000
 110776091.26948  86319021.65048  21079997.5894   21079998.8994   21079997.4874
       248.000         223.000
 135419963.79148  87729826.57348  23866636.6544   23866639.6204   23866636.6994
       220.000         167.000
 09  1 31  0 51  0.0000000  0  9G26G 5G 9G15G18G17G22G12G30
 123053074.64948  95885514.68748  23416218.4424   23416221.5294   23416218.6574
       227.000         183.000
 124605429.65148  79302920.64348  21808696.9954   21808700.0374   21808697.7014
       242.000         209.000
 114915601.48648  71752406.98448  19964782.5964   19964785.1734   19964782.8544
       251.000         227.000
 123651180.38948  78559353.28148  21627106.9544   21627108.6804   21627106.9004
       243.000         215.000
 118373852.26748  92239359.62548  22525798.8764   22525800.4724   22525799.2664
       230.000         185.000
 123561854.01048  96281959.29448  23513043.1074   23513044.2014   23513043.0734
       229.000         180.000
 122676654.60148  95592199.37348  23344589.5274   23344589.6144   23344588.6444
       228.000         181.000
 110719700.27948  86275080.62948  21069266.6644   21069268.1644   21069266.7234
       248.000         224.000
 135314402.23648  87647570.81148  23846549.4954   23846551.8574   23846549.1724
       219.000         164.000
 09  1 31  0 51 30.0000000  0  9G26G 5G 9G15G18G17G22G12G30
 123158181.58548  95967416.19148  23436219.7694   23436222.5974   23436219.7664
       227.000         184.000
 124526464.83148  79241389.61948  21793670.4964   21793673.7224   21793670.6454
       242.000         209.000
 114906969.26048  71745680.56948  19963139.8944   19963142.5884   19963139.9594
       251.000         227.000
 123728203.18548  78619371.03848  21641763.7594   21641765.6074   21641763.5044
       243.000         214.000
 118410364.10748  92267810.38548  22532746.5534   22532748.4644   22532747.0824
       229.000         184.000
 123602411.15448  96313562.26348  23520761.0054   23520762.7144   23520761.0304
       232.000         182.000
 122660539.39448  95579642.07448  23341523.0024   23341523.1784   23341524.0404
       229.000         181.000
 110663740.05648  86231475.27348  21058617.7104   21058619.3704   21058617.6514
       248.000         223.000
 135209007.29648  87565444.89148  23826493.0154   23826495.0644   23826492.8774
       218.000         163.000
 09  1 31  0 52  0.0000000  0  9G26G 5G 9G15G18G17G22G12G30
 123263474.93548  96049462.95048  23456255.8374   23456259.1474   23456255.3084
       227.000         183.000
 124447849.06348  79180130.57648  21778710.5214   21778713.7294   21778711.3484
       242.000         209.000
 114898692.68248  71739231.28048  19961564.8154   19961567.7454   19961564.9674
       251.000         227.000
 123805606.13048  78679685.02048  21656493.0124   21656494.8884   21656492.7974
       242.000         214.000
 118447372.67648  92296648.21748  22539789.3614   22539791.0284   22539789.7784
       231.000         185.000
 123643489.12748  96345571.06748  23528578.1094   23528579.1514   23528578.4944
       231.000         181.000
 122644961.20348  95567503.22048  23338558.9664   23338558.8904   23338559.8344
       230.000         180.000
 110608210.42748  86188205.43448  21048050.7244   21048052.3944   21048050.4444
       248.000         223.000
 135103779.90748  87483449.52648  23806468.9044   23806471.3784   23806468.8224
       219.000         165.000
 09  1 31  0 52 30.0000000  0  9G26G 5G 9G15G18G17G22G12G30
 123368953.29448  96131653.87748  23476328.1664   23476331.0694   23476327.6504
       229.000         185.000
 124369583.65948  79119144.55448  21763817.0364   21763820.1624   21763817.5744
       241.000         209.000
 114890772.21548  71733059.48648  19960057.7224   19960060.4564   19960057.9224
       251.000         227.000
 123883388.18548  78740294.40948  21671294.4144   21671296.3584   21671293.9284
       242.000         214.000
 118484876.54448  92325872.01348  22546925.9154   22546927.9264   22546926.3014
       232.000         185.000
 123685086.87848  96377984.89648  23536493.8444   23536494.8034   23536493.7944
       231.000         181.000
 122629920.56148  95555783.22748  23335696.6154   23335696.6614   23335696.9194
       228.000         180.000
 110553112.23848  86145271.79248  21037565.8874   21037567.4024   21037565.8264
       248.000         223.000
 134998721.92548  87401586.18748  23786477.3934   23786479.4524   23786477.0824
       220.000         169.000
 09  1 31  0 53  0.0000000  0  9G26G 5G 9G15G18G17G22G12G30
 123474615.22948  96213987.85348  23496434.9924   23496437.8234   23496435.3394
       228.000         185.000
 124291670.11848  79058432.70948  21748990.4004   21748993.6044   21748991.1244
       242.000         209.000
 114883208.29948  71727165.52548  19958618.2374   19958620.9644   19958618.2824
       251.000         227.000
 123961547.99848  78801198.15648  21686167.9414   21686169.6154   21686167.6684
       242.000         214.000
 118522873.68848  92355480.17048  22554156.6694   22554158.7554   22554157.4554
       232.000         187.000
 123727203.57548  96410803.12448  23544508.0834   23544509.7344   23544507.7764
       230.000         182.000
 122615417.77848  95544482.32848  23332937.0914   23332936.8764   23332936.5494
       228.000         181.000
 110498446.71748  86102675.29048  21027163.3604   21027164.7544   21027163.0164
       249.000         223.000
 134893835.12148  87319856.22148  23766518.2944   23766520.7214   23766517.7964
       224.000         172.000
 09  1 31  0 53 30.0000000  0  9G26G 5G 9G15G18G17G22G12G30
 123580458.76948  96296463.33048  23516576.2364   23516579.0704   23516576.4894
       231.000         183.000
 124214109.21448  78997995.65348  21734230.9684   21734234.2564   21734231.3224
       241.000         209.000
 114876001.07448  71721549.49548  19957246.7724   19957249.6044   19957247.0484
       251.000         227.000
 124040083.82848  78862394.90248  21701112.6114   21701114.3564   21701112.5654
       242.000         213.000
 118561362.04948  92385471.09048  22561480.9754   22561482.8874   22561481.5744
       231.000         187.000
 123769837.51648  96444024.39948  23552621.0784   23552622.9024   23552620.6124
       229.000         181.000
 122601452.94748  95533600.64448  23330279.4674   23330279.8224   23330279.5394
       229.000         183.000
 110444213.75148  86060415.85048  21016843.2244   21016844.6814   21016843.0404
       249.000         224.000
 134789120.25248  87238260.22948  23746592.1484   23746594.1324   23746592.5904
       224.000         172.000
 09  1 31  0 54  0.0000000  0  9G26G 5G 9G15G18G17G22G12G30
 123686481.85948  96379078.71848  23536751.5734   23536754.4044   23536751.2974
       229.000         184.000
 124136901.99648  78937834.20048  21719538.8964   21719542.1554   21719539.6844
       241.000         210.000
 114869151.00048  71716211.77148  19955943.1704   19955946.0324   19955943.2444
       251.000         227.000
 124118994.27948  78923883.55948  21716128.8034   21716130.7494   21716128.1144
       241.000         214.000
 118600339.63848  92415843.21348  22568898.0314   22568900.2344   22568898.4244
       232.000         186.000
 123812987.39148  96477647.69748  23560832.4364   23560833.4744   23560832.5064
       230.000         180.000
 122588025.90948  95523138.01948  23327724.6364   23327724.3584   23327724.3414
       230.000         181.000
 110390413.81248  86018493.84448  21006605.3234   21006606.9834   21006605.1404
       249.000         224.000
 134684579.07048  87156799.57048  23726698.4234   23726700.7784   23726698.2594
       226.000         171.000
 09  1 31  0 54 30.0000000  0  9G26G 5G 9G15G18G17G22G12G30
 123792682.96848  96461832.83248  23556961.2454   23556964.0054   23556960.8894
       230.000         183.000
 124060049.41048  78877949.08448  21704914.5644   21704917.6734   21704914.8914
       242.000         210.000
 114862658.15548  71711152.41448  19954707.7114   19954710.3854   19954707.8624
       251.000         227.000
 124198277.62548  78985662.78748  21731215.9424   21731217.9134   21731215.7774
       241.000         212.000
 118639804.54948  92446595.08248  22576408.1584   22576410.0334   22576409.0464
       232.000         186.000
 123856652.08748  96511672.15048  23569141.2714   23569142.9294   23569141.3864
       227.000         180.000
 122575136.63848  95513094.43048  23325271.5394   23325271.2564   23325272.0774
       228.000         182.000
 110337047.85948  85976910.00648  20996450.2214   20996451.7204   20996450.0634
       249.000         224.000
 134580212.95948  87075475.32848  23706838.3374   23706840.2294   23706837.9174
       224.000         171.000
 09  1 31  0 55  0.0000000  0  9G26G 5G 9G15G18G17G22G12G30
 123899060.13648  96544724.12248  23577204.6524   23577206.9204   23577205.1504
       229.000         182.000
 123983552.54348  78818341.15348  21690357.6194   21690360.8644   21690358.6644
       242.000         210.000
 114856522.81548  71706371.63048  19953540.1754   19953542.9764   19953540.2734
       252.000         227.000
 124277932.37548  79047731.41748  21746373.6804   21746375.5694   21746373.3744
       242.000         213.000
 118679754.35948  92477724.80448  22584010.3454   22584012.3584   22584011.5294
       230.000         185.000
 123900830.17748  96546096.62148  23577547.8444   23577549.1334   23577547.1414
       225.000         177.000
 122562785.41348  95503470.09748  23322921.1714   23322922.1714   23322921.2884
       228.000         183.000
 110284115.86648  85935664.30548  20986377.6384   20986378.8724   20986377.3814
       249.000         224.000
 134476022.98648  86994288.31848  23687011.1724   23687013.1074   23687011.2564
       225.000         168.000
 09  1 31  0 55 30.0000000  0  9G26G 5G 9G15G18G17G22G12G30
 124005612.41148  96627751.86748  23597480.3604   23597483.3564   23597480.2904
       227.000         179.000
 123907413.20748  78759011.80848  21675868.9504   21675872.0354   21675869.4914
       243.000         211.000
 114850746.07248  71701870.27448  19952441.0014   19952443.7134   19952441.3294
       251.000         227.000
 124357957.44248  79110088.60848  21761602.0294   21761604.0034   21761601.5484
       241.000         213.000
 118720188.08548  92509231.59048  22591704.3804   22591706.6344   22591704.6674
       231.000         186.000
 123945520.82448  96580920.50948  23586052.0064   23586054.0524   23586051.5094
       225.000         177.000
 122550972.73848  95494265.39448  23320672.9214   23320673.8234   23320672.0684
       229.000         181.000
 110231619.52348  85894758.08048  20976387.8834   20976389.1814   20976387.9054
       249.000         224.000
 134372011.71748  86913240.57448  23667218.0934   23667221.0174   23667218.6384
       221.000         166.000
 09  1 31  0 56  0.0000000  0  9G26G 5G 9G15G18G17G22G12G30
 124112337.96348  96710914.63548  23617789.7904   23617792.2404   23617789.5324
       226.000         176.000
 123831632.39348  78699961.83648  21661448.1884   21661451.3814   21661448.8064
       242.000         211.000
 114845328.21648  71697648.57148  19951409.9244   19951412.7394   19951410.0834
       251.000         227.000
 124438351.54048  79172733.36248  21776900.4664   21776902.4754   21776899.9894
       242.000         213.000
 118761103.46848  92541113.69148  22599490.4744   22599492.5834   22599490.9524
       231.000         186.000
 123990722.70148  96616142.76048  23594653.6494   23594655.1144   23594653.2574
       227.000         176.000
 122539698.18548  95485480.00048  23318527.4704   23318528.3924   23318528.0374
       226.000         182.000
 110179559.24248  85854191.64948  20966480.9204   20966482.4824   20966480.7724
       249.000         225.000
 134268180.50248  86832333.13748  23647459.7774   23647462.5104   23647459.3434
       221.000         171.000
 09  1 31  0 56 30.0000000  0  9G26G 5G 9G15G18G17G22G12G30
 124219234.67648  96794210.78248  23638131.4224   23638133.7774   23638131.2854
       223.000         173.000
 123756210.68948  78641191.68948  21647096.0344   21647099.0774   21647096.6174
       243.000         211.000
 114840269.08148  71693706.38848  19950447.3094   19950450.0094   19950447.5024
       251.000         227.000
 124519112.58448  79235664.04348  21792268.7304   21792270.6794   21792268.3224
       241.000         211.000
 118802497.91748  92573369.09248  22607367.3264   22607369.6934   22607367.9574
       230.000         185.000
 124036434.13848  96651762.04748  23603352.5044   23603353.4314   23603352.1024
       225.000         177.000
 122528961.32348  95477113.61548  23316484.5574   23316485.3224   23316484.3674
       232.000         184.000
 110127934.78948  85813964.81448  20956657.2644   20956658.7064   20956657.0664
       249.000         225.000
 134164530.19548  86751566.66748  23627736.1314   23627739.0674   23627735.4134
       223.000         173.000
 09  1 31  0 57  0.0000000  0  9G26G 5G 9G15G18G17G22G12G30
 124326300.45748  96877638.65648  23658505.0184   23658508.2484   23658504.4174
       222.000         172.000
 123681148.87748  78582701.97748  21632812.1244   21632815.0534   21632813.0934
       243.000         211.000
 114835568.86448  71690043.89448  19949552.7274   19949555.5274   19949552.8474
       251.000         227.000
 124600238.49648  79298879.04648  21807706.6674   21807708.2034   21807706.3784
       241.000         212.000
 118844368.79448  92605995.74648  22615335.4724   22615337.4534   22615335.9894
       232.000         185.000
 124082653.40548  96687777.06448  23612148.0574   23612149.3184   23612147.9084
       228.000         181.000
 122518762.21848  95469166.25948  23314543.8164   23314544.1314   23314543.8544
       230.000         182.000
 110076746.49648  85774077.84448  20946916.5134   20946917.8754   20946916.5554
       249.000         225.000
 134061062.36848  86670942.40448  23608046.2074   23608049.6884   23608047.0364
       224.000         172.000
 09  1 31  0 57 30.0000000  0  9G26G 5G 9G15G18G17G22G12G30
 124433533.54748  96961196.89548  23678911.1094   23678914.3084   23678910.7234
       222.000         169.000
 123606447.91248  78524493.45448  21618597.0884   21618599.8934   21618597.5644
       243.000         211.000
 114831227.54148  71686661.04248  19948726.7804   19948729.3124   19948726.9494
       251.000         227.000
 124681727.74948  79362377.16248  21823213.4344   21823215.2254   21823213.3214
       241.000         211.000
 118886714.53748  92638992.42148  22623393.5074   22623395.4894   22623394.1104
       231.000         184.000
 124129379.03648  96724186.64648  23621039.5174   23621041.8184   23621039.2524
       228.000         183.000
 122509100.55948  95461637.67248  23312705.5994   23312705.8074   23312705.2324
       231.000         183.000
 110025994.62248  85734530.93148  20937258.6474   20937260.1284   20937258.2904
       249.000         225.000
 133957778.33848  86590461.34748  23588392.0544   23588395.4284   23588392.3544
       221.000         172.000
 09  1 31  0 58  0.0000000  0  9G26G 5G 9G15G18G17G22G12G30
 124540931.98348  97044884.00148  23699347.9554   23699351.1954   23699348.0694
       218.000         166.000
 123532108.73848  78466566.83748  21604450.5374   21604453.4224   21604451.1864
       243.000         210.000
 114827245.38948  71683558.07148  19947969.0224   19947971.4914   19947969.2694
       251.000         227.000
 124763578.84948  79426157.23248  21838789.0674   21838791.0574   21838788.7144
       241.000         211.000
 118929532.80548  92672357.29348  22631541.7694   22631543.5674   22631542.2844
       232.000         184.000
 124176609.36848  96760989.50948  23630027.1854   23630029.3474   23630027.4064
       229.000         183.000
 122499975.89848  95454527.54848  23310968.8284   23310969.4714   23310969.0934
       229.000         183.000
 109975679.64748  85695324.46248  20927683.9814   20927685.5194   20927683.9524
       249.000         225.000
 133854679.21848  86510124.36048  23568773.3914   23568776.3004   23568772.0514
       226.000         173.000
 09  1 31  0 58 30.0000000  0  9G26G 5G 9G15G18G17G22G12G30
 124648494.39148  97128698.86448  23719816.6814   23719819.5464   23719816.5154
       219.000         164.000
 123458132.66248  78408923.15748  21590373.3644   21590376.3294   21590373.8834
       243.000         211.000
 114823623.19048  71680735.57948  19947279.5304   19947282.3484   19947279.6434
       251.000         227.000
 124845790.22748  79490218.05048  21854433.6114   21854435.3264   21854433.2774
       241.000         211.000
 118972821.59148  92706088.81448  22639779.4714   22639780.9234   22639780.2324
       230.000         183.000
 124224343.51148  96798184.94848  23639110.6114   23639112.7994   23639110.9444
       229.000         183.000
 122491388.57948  95447836.11748  23309334.7704   23309335.4244   23309335.0104
       231.000         185.000
 109925802.46048  85656459.12648  20918192.7124   20918194.3674   20918192.6464
       249.000         226.000
 133751767.00648  86429933.02348  23549189.8814   23549192.2774   23549189.9484
       223.000         171.000
 09  1 31  0 59  0.0000000  0  9G26G 5G 9G15G18G17G22G12G30
 124756218.88448  97212640.02948  23740316.0934   23740318.7024   23740316.0964
       216.000         161.000
 123384520.57448  78351563.09748  21576365.4244   21576368.4684   21576365.8574
       243.000         211.000
 114820361.20848  71678193.77148  19946658.9914   19946661.6864   19946659.1484
       251.000         227.000
 124928360.31648  79554558.37348  21870146.0604   21870147.9304   21870145.9414
       240.000         211.000
 119016578.43948  92740185.03848  22648105.8484   22648108.0764   22648106.1294
       229.000         182.000
 124272579.53148  96835771.44748  23648289.6064   23648291.1974   23648289.0904
       228.000         181.000
 122483338.27948  95441563.15848  23307802.8164   23307803.6374   23307802.7004
       230.000         185.000
 109876363.45048  85617935.22248  20908784.8844   20908786.4204   20908784.7614
       249.000         226.000
 133649043.09048  86349888.43348  23529641.9404   23529644.4144   23529641.6304
       225.000         172.000
 09  1 31  0 59 30.0000000  0  9G26G 5G 9G15G18G17G22G12G30
 124864104.24648  97296706.55948  23760845.9834   23760848.6434   23760845.9104
       214.000         157.000
 123311274.11948  78294487.94948  21562427.0144   21562430.1624   21562427.5144
       243.000         211.000
 114817460.33248  71675933.35048  19946106.9744   19946109.6904   19946107.2064
       251.000         227.000
 125011288.10948  79619177.42948  21885926.6774   21885928.5664   21885926.4434
       241.000         211.000
 119060802.52948  92774645.37348  22656521.4504   22656523.2224   22656521.9854
       229.000         180.000
 124321316.97648  96873748.69448  23657563.9304   23657565.8834   23657563.7664
       228.000         180.000
 122475825.86548  95435709.30248  23306373.7524   23306374.0114   23306373.1294
       231.000         185.000
 109827363.48048  85579753.43048  20899460.5524   20899461.8994   20899460.4674
       249.000         226.000
 133546509.42648  86269992.05548  23510130.8054   23510133.3454   23510130.7404
       225.000         174.000
 09  1 31  1  0  0.0000000  0  9G26G 5G 9G15G18G17G22G12G30
 124972148.10248  97380896.57648  23781406.2144   23781408.5664   23781406.5314
       211.000         155.000
 123238393.32348  78237697.72448  21548558.5364   21548561.5454   21548559.1084
       244.000         212.000
 114814919.69448  71673953.63148  19945623.4824   19945626.1904   19945623.5524
       251.000         227.000
 125094571.03048  79684073.21148  21901775.2594   21901776.7714   21901775.3294
       240.000         211.000
 119105489.77248  92809466.60148  22665024.6734   22665026.7754   22665025.2324
       229.000         179.000
 124370553.14148  96912114.53948  23666933.5614   23666934.7084   23666933.3074
       228.000         178.000
 122468849.90548  95430273.49548  23305046.2454   23305046.4554   23305046.8624
       232.000         184.000
 109778801.85848  85541913.20848  20890219.4554   20890220.9394   20890219.2524
       249.000         226.000
 133444166.13548  86190244.05648  23490655.5194   23490658.1464   23490655.5534
       225.000         174.000
 09  1 31  1  0 30.0000000  0  9G26G 5G 9G15G18G17G22G12G30
 125080348.62348  97465208.66548  23801996.4784   23801998.6054   23801995.6274
       212.000         152.000
 123165879.35848  78181193.34748  21534759.5824   21534762.8874   21534760.2944
       243.000         213.000
 114812740.13548  71672255.27048  19945208.6844   19945211.4214   19945208.8154
       251.000         227.000
 125178207.39448  79749244.39948  21917690.5894   21917692.4064   21917690.4534
       241.000         210.000
 119150638.86148  92844647.69948  22673616.7614   22673618.4264   22673617.0164
       229.000         181.000
 124420287.14948  96950868.30248  23676397.2434   23676397.5784   23676397.2084
       227.000         176.000
 122462410.16348  95425255.49548  23303820.7864   23303820.8474   23303821.3214
       230.000         185.000
 109730678.81548  85504414.74048  20881061.8514   20881063.3434   20881061.6874
       249.000         226.000
 133342015.42248  86110646.09748  23471216.7224   23471219.5494   23471216.5734
       223.000         175.000
 09  1 31  1  1  0.0000000  0  9G26G 5G 9G15G18G17G22G12G30
 125188704.54548  97549641.83548  23822615.4444   23822617.9674   23822615.3204
       208.000         149.000
 123093733.64648  78124975.92048  21521030.7274   21521033.9754   21521031.0064
       243.000         213.000
 114810922.39248  71670838.84948  19944862.7054   19944865.3874   19944862.9504
       251.000         227.000
 125262196.37048  79814690.35148  21933673.1634   21933674.8154   21933672.9794
       240.000         209.000
 119196247.83048  92880187.13848  22682296.0334   22682297.6764   22682296.7804
       228.000         180.000
 124470517.51848  96990008.85048  23685955.4684   23685957.2174   23685955.2354
       228.000         180.000
 122456506.90048  95420655.55648  23302697.1034   23302697.5744   23302697.1574
       229.000         183.000
 109682995.96448  85467259.27748  20871988.1054   20871989.6784   20871987.9774
       249.000         226.000
 133240059.25248  86031199.74448  23451814.8014   23451817.8354   23451814.1004
       225.000         176.000
 09  1 31  1  1 30.0000000  0  9G26G 5G 9G15G18G17G22G12G30
 125297213.45948  97634194.23148  23843263.4714   23843266.9824   23843264.1624
       208.000         148.000
 123021956.74748  78069045.87948  21507371.6224   21507375.0754   21507372.1634
       244.000         212.000
 114809466.44248  71669704.33748  19944585.7404   19944588.3004   19944585.9774
       251.000         227.000
 125346535.86548  79880409.44448  21949722.1574   21949723.9414   21949721.7254
       238.000         208.000
 119242314.03148  92916082.86048  22691061.9084   22691063.7634   22691062.4674
       228.000         180.000
 124521242.52448  97029534.85848  23695608.8534   23695611.3654   23695608.3084
       229.000         182.000
 122451139.66448  95416473.27148  23301676.0174   23301676.3644   23301676.0744
       229.000         183.000
 109635753.15548  85430446.70348  20862998.2014   20862999.7284   20862998.0074
       249.000         227.000
 133138298.24948  85951905.46648  23432450.5614   23432453.3694   23432451.2074
       226.000         176.000
 09  1 31  1  2  0.0000000  0  9G26G 5G 9G15G18G17G22G12G30
 125405873.39548  97718864.29548  23863942.0914   23863944.5254   23863940.2144
       207.000         145.000
 122950549.23948  78013403.67748  21493783.1434   21493786.6504   21493783.5374
       244.000         212.000
 114808372.14148  71668851.64348  19944377.5494   19944380.1494   19944377.7214
       252.000         228.000
 125431223.69048  79946399.95948  21965837.5294   21965839.6954   21965837.1884
       238.000         209.000
 119288834.81848  92952332.81948  22699914.3714   22699916.6424   22699914.6934
       229.000         181.000
 124572459.89548  97069444.50848  23705355.4354   23705357.0054   23705355.3174
       227.000         178.000
 122446308.15248  95412708.45648  23300755.9764   23300757.0784   23300756.5664
       228.000         182.000
 109588950.20748  85393976.88348  20854091.7924   20854093.3424   20854091.6254
       249.000         226.000
 133036733.44448  85872764.07948  23413123.2044   23413125.7144   23413123.3104
       225.000         174.000
 09  1 31  1  2 30.0000000  0  9G26G 5G 9G15G18G17G22G12G30
 125514683.58948  97803651.45948  23884647.5854   23884649.1634   23884647.5554
       202.000         141.000
 122879512.92648  77958050.71048  21480265.6514   21480268.7714   21480266.1654
       244.000         213.000
 114807640.83548  71668281.78748  19944238.4634   19944241.0114   19944238.6624
       251.000         228.000
 125516259.01748  80012661.25048  21982019.5314   21982021.5684   21982019.1254
       239.000         209.000
 119335808.97948  92988936.04548  22708853.1124   22708855.2354   22708853.5134
       229.000         181.000
 124624169.22648  97109737.45748  23715194.9704   23715195.0794   23715195.5744
       225.000         177.000
 122442012.26448  95409360.99048  23299938.7474   23299939.4054   23299938.2714
       231.000         184.000
 109542588.19948  85357850.64248  20845269.3744   20845270.8594   20845269.1274
       249.000         227.000
 132935367.41348  85793777.54948  23393834.5464   23393836.8064   23393834.2394
       225.000         174.000
 09  1 31  1  3  0.0000000  0  9G26G 5G 9G15G18G17G22G12G30
 125623641.81848  97888553.99748  23905380.9574   23905383.8454   23905380.5504
       201.000         137.000
 122808848.39448  77902987.44048  21466818.7164   21466821.7194   21466819.1644
       244.000         213.000
 114807272.19248  71667994.53748  19944168.2504   19944170.8644   19944168.3364
       252.000         228.000
 125601639.68548  80079191.64448  21998266.7124   21998269.0254   21998266.6734
       238.000         208.000
 119383233.78748  93025890.43348  22717877.8564   22717879.8524   22717878.2574
       229.000         182.000
 124676368.44348  97150412.17148  23725127.9034   23725129.9744   23725128.0724
       226.000         180.000
 122438251.44848  95406430.47548  23299223.0674   23299223.8174   23299224.2644
       228.000         183.000
 109496667.25448  85322068.10148  20836531.0634   20836532.3774   20836530.8774
       249.000         227.000
 132834200.94648  85714946.53048  23374582.9144   23374585.0274   23374583.0184
       224.000         173.000
 09  1 31  1  3 30.0000000  0  9G26G 5G 9G15G18G17G22G12G30
 125732746.40848  97973570.53948  23926142.3404   23926145.8684   23926143.6484
       200.000         133.000
 122738556.77048  77848214.76748  21453442.5554   21453445.8724   21453443.2144
       244.000         213.000
 114807266.67148  71667990.23148  19944167.2114   19944169.7974   19944167.4794
       251.000         227.000
 125687364.34348  80145990.07348  22014579.6494   22014581.8014   22014579.2194
       239.000         209.000
 119431106.98548  93063194.21048  22726987.8424   22726990.1844   22726988.2354
       230.000         183.000
 124729056.35648  97191467.71748  23735154.2814   23735157.9874   23735154.2264
       226.000         180.000
 122435025.83648  95403917.00148  23298609.6584   23298610.1094   23298608.8544
       231.000         186.000
 109451187.69648  85286629.49648  20827876.4294   20827877.9314   20827876.0664
       249.000         227.000
 132733235.87948  85636272.46548  23355369.9194   23355372.0614   23355369.5664
       225.000         176.000
 09  1 31  1  4  0.0000000  0  9G26G 5G 9G15G18G17G22G12G30
 125841995.22948  98058699.48048  23946931.0964   23946935.5334   23946932.7254
       199.000         133.000
 122668638.60448  77793733.08848  21440137.6364   21440140.8514   21440138.1524
       245.000         213.000
 114807624.47048  71668269.04248  19944235.2484   19944237.8644   19944235.3904
       252.000         228.000
 125773430.71648  80213054.77448  22030957.7814   22030959.6114   22030957.2554
       239.000         208.000
 119479426.05648  93100845.41448  22736182.7704   22736185.1024   22736183.4104
       229.000         182.000
 124782230.80648  97232902.37348  23745272.6774   23745275.9064   23745272.8584
       224.000         177.000
 122432334.58748  95401819.92648  23298097.6074   23298098.1254   23298098.4304
       230.000         186.000
 109406149.71148  85251534.97248  20819305.9944   20819307.3874   20819305.8384
       249.000         227.000
 132632473.00248  85557755.95648  23336195.3554   23336197.5054   23336195.3754
       224.000         175.000
 09  1 31  1  4 30.0000000  0  9G26G 5G 9G15G18G17G22G12G30
 125951386.62248  98143939.51948  23967749.8454   23967752.0144   23967749.2594
       197.000         133.000
 122599094.79448  77739543.11948  21426904.0164   21426907.1304   21426904.7524
       245.000         214.000
 114808345.92948  71668831.21948  19944372.6964   19944375.0254   19944372.8104
       252.000         228.000
 125859837.58348  80280384.79548  22047400.5684   22047402.2274   22047400.4734
       239.000         207.000
 119528188.59648  93138842.17748  22745461.8544   22745464.1954   22745462.2234
       230.000         182.000
 124835890.07248  97274714.76748  23755483.7104   23755484.5324   23755483.0214
       222.000         174.000
 122430177.36448  95400138.94948  23297687.0774   23297687.8054   23297686.4584
       228.000         183.000
 109361553.46548  85216784.66548  20810819.5624   20810821.1174   20810819.3794
       249.000         228.000
 132531913.74648  85479398.10048  23317059.2774   23317061.9954   23317058.1794
       226.000         178.000
 09  1 31  1  5  0.0000000  0  9G26G 5G 9G15G18G17G22G12G30
 126060919.49748  98229289.78848  23988590.5474   23988596.4014   23988589.4284
       191.000         130.000
 122529927.00748  77685646.15648  21413741.7034   21413745.0444   21413741.8854
       245.000         214.000
 114809432.14048  71669677.61648  19944579.4014   19944581.8844   19944579.6234
       251.000         228.000
 125946583.62748  80347979.11748  22063907.7164   22063909.1874   22063907.4914
       238.000         207.000
 119577393.00848  93177183.25748  22754825.6934   22754827.4684   22754826.5234
       229.000         181.000
 124890033.44848  97316904.36948  23765787.1614   23765787.7494   23765787.0164
       226.000         177.000
 122428554.61048  95398874.45548  23297377.9664   23297378.8154   23297379.1804
       229.000         185.000
 109317399.70048  85182379.14948  20802417.6034   20802419.1064   20802417.6284
       249.000         228.000
 132431560.67848  85401200.92348  23297962.8584   23297965.7094   23297962.7804
       226.000         177.000
 09  1 31  1  5 30.0000000  0  9G26G 5G 9G15G18G17G22G12G30
 126170590.95248  98314748.04248  24009461.5934   24009462.6034   24009462.0144
       203.000         129.000
 122461135.00648  77632042.00948  21400650.9774   21400654.2824   21400651.6644
       245.000         214.000
 114810881.99448  71670807.37148  19944855.2264   19944857.8244   19944855.2754
       253.000         228.000
 126033666.12148  80415835.59448  22080478.8104   22080480.3294   22080478.2094
       239.000         206.000
 119627035.81248  93215865.93348  22764271.7794   22764274.0004   22764272.4224
       225.000         178.000
 124944658.26448  97359469.15648  23776181.5884   23776183.2714   23776181.0754
       224.000         177.000
 122427464.95548  95398025.35148  23297170.4464   23297171.4904   23297170.5654
       230.000         185.000
 109273687.75048  85148317.90148  20794099.3414   20794101.0064   20794099.0564
       249.000         228.000
 132331413.72248  85323164.36548  23278905.3644   23278908.5934   23278905.4944
       226.000         176.000
 09  1 31  1  6  0.0000000  0  9G26G 5G 9G15G18G17G22G12G30
 126280399.25248  98400312.99748  24030357.9854   24030361.1064   24030358.4884
       191.000         127.000
 122392719.72548  77578731.42148  21387631.9194   21387635.2974   21387632.4004
       245.000         215.000
 114812696.18548  71672221.02848  19945200.5424   19945202.9064   19945200.9084
       252.000         228.000
 126121083.39048  80483952.93948  22097113.8844   22097115.3594   22097113.5804
       239.000         206.000
 119677114.50748  93254888.29448  22773801.7314   22773803.7284   22773802.1714
       228.000         179.000
 124999762.48048  97402407.52248  23786667.5084   23786669.9694   23786667.5694
       224.000         179.000
 122426907.30848  95397590.80148  23297064.3874   23297065.3694   23297064.3724
       229.000         185.000
 109230418.44048  85114601.57048  20785865.3014   20785867.0674   20785865.2824
       249.000         228.000
 132231474.53948  85245289.68448  23259887.7614   23259890.5704   23259888.4454
       228.000         177.000
 09  1 31  1  6 30.0000000  0  9G26G 5G 9G15G18G17G22G12G30
 136390477.59758  88486116.20158  24051285.8905   24051278.6705   24051283.6835
       190.000         123.000
 122324681.97048  77525715.00048  21374685.0594   21374688.0534   21374685.7394
       246.000         215.000
 114814874.79448  71673918.64348  19945615.1904   19945617.4454   19945615.3354
       252.000         227.000
 126208833.56948  80552329.70748  22113812.2714   22113813.8754   22113812.0914
       237.000         206.000
 119727626.96348  93294248.63448  22783413.8844   22783416.0414   22783414.3374
       227.000         179.000
 125055344.45748  97445718.15848  23797244.2164   23797247.8224   23797244.0814
       222.000         179.000
 122426881.59248  95397570.74748  23297059.6614   23297060.4204   23297060.2124
       230.000         182.000
 109187591.40848  85081229.86848  20777715.7044   20777717.1344   20777715.5064
       250.000         228.000
 132131744.43148  85167577.93748  23240909.8464   23240912.6124   23240909.1684
       228.000         179.000
 09  1 31  1  7  0.0000000  0  8G 5G 9G15G18G17G22G12G30
 122257023.06248  77472993.78448  21361809.9134   21361812.7964   21361810.5184
       245.000         215.000
 114817418.53748  71675900.77948  19946099.1154   19946101.5804   19946099.4534
       251.000         227.000
 126296915.25048  80620964.77848  22130573.2474   22130575.1524   22130572.6634
       237.000         206.000
 119778571.32448  93333945.54748  22793107.9874   22793110.2844   22793108.1584
       229.000         179.000
 125111403.19648  97489400.31048  23807911.9404   23807915.6154   23807911.8524
       223.000         178.000
 122427387.72248  95397965.12348  23297155.9464   23297156.8424   23297156.2124
       230.000         182.000
 109145207.11348  85048203.15448  20769650.4874   20769651.6684   20769650.4284
       250.000         229.000
 132032225.45848  85090030.68848  23221972.0004   23221974.0734   23221971.7094
       227.000         177.000
 09  1 31  1  7 30.0000000  0  8G 5G 9G15G18G17G22G12G30
 122189743.30548  77420568.00848  21349006.8124   21349009.9174   21349007.0964
       244.000         215.000
 114820327.24648  71678167.30948  19946652.6324   19946655.0994   19946652.6924
       251.000         227.000
 126385326.25348  80689856.45848  22147397.3424   22147399.3954   22147397.3904
       237.000         206.000
 119829944.50848  93373976.57348  22802884.1254   22802886.4004   22802884.3474
       228.000         178.000
 125167936.55048  97533452.26848  23818670.0134   23818672.8714   23818670.0094
       223.000         174.000
 122428424.40048  95398772.91748  23297353.5804   23297354.3804   23297354.0734
       231.000         185.000
 109103265.46848  85015521.36948  20761669.1154   20761670.3884   20761669.0154
       249.000         228.000
 131932917.86648  85012648.16548  23203074.0174   23203076.2894   23203074.1084
       225.000         177.000
 09  1 31  1  8  0.0000000  0  9G26G 5G 9G15G18G17G22G12G30
 116721031.17558 108743677.86558  24114198.0695   24114196.2515   24114195.1905
       202.000         130.000
 122122843.88248  77368438.60248  21336276.1374   21336279.5974   21336276.8374
       244.000         215.000
 114823601.35348  71680718.56348  19947275.6124   19947278.1284   19947275.7724
       252.000         227.000
 126474065.17148  80759003.67348  22164283.9004   22164285.6194   22164283.5804
       237.000         205.000
 119881744.32748  93414340.05948  22812742.0114   22812743.2314   22812742.4884
       231.000         180.000
 125224942.62648  97577872.58048  23829518.4554   23829518.9834   23829518.9104
       221.000         172.000
 122429991.79448  95399994.25048  23297651.6034   23297652.4854   23297651.8534
       229.000         183.000
 109061767.35548  84983185.19048  20753772.3114   20753773.6324   20753772.1274
       250.000         229.000
 131833824.01848  84935432.19248  23184217.1044   23184219.3074   23184216.4664
       227.000         177.000
 09  1 31  1  8 30.0000000  0  9G26G 5G 9G15G18G17G22G12G30
 116831497.03348 108829755.20348  24135215.5074   24135218.2434   24135214.6224
       201.000         133.000
 122056325.18448  77316605.86948  21323617.8594   21323621.3344   21323618.3104
       245.000         215.000
 114827241.02848  71683554.67548  19947968.1774   19947970.6754   19947968.5544
       252.000         227.000
 126563129.91848  80828404.77048  22181232.1424   22181233.8854   22181231.7334
       237.000         204.000
 119933968.13448  93455033.93248  22822679.9064   22822681.1014   22822680.7134
       229.000         179.000
 125282419.75348  97622659.93848  23840455.8484   23840456.4784   23840455.7764
       223.000         171.000
 122432088.85848  95401628.33048  23298050.5434   23298051.2454   23298050.2694
       230.000         182.000
 109020712.36848  84951194.29748  20745959.6754   20745961.1734   20745959.3964
       250.000         229.000
 131734944.77348  84858383.44648  23165401.0024   23165403.3574   23165400.7964
       227.000         178.000
 09  1 31  1  9  0.0000000  0  9G26G 5G 9G15G18G17G22G12G30
 116942089.63348 108915931.20748  24156260.8904   24156265.1534   24156261.3604
       198.000         137.000
 121990188.72548  77265070.97548  21311032.8434   21311035.7914   21311033.4584
       246.000         215.000
 114831247.47848  71686676.58048  19948730.6714   19948733.0064   19948730.8544
       252.000         227.000
 126652519.03948  80898058.62648  22198242.5164   22198244.4574   22198242.1534
       237.000         205.000
 119986613.78148  93496056.50248  22832697.6144   22832699.4544   22832698.0004
       229.000         179.000
 125340366.51748  97667813.25048  23851482.7654   23851483.6824   23851482.3414
       222.000         171.000
 122434715.27648  95403674.86748  23298549.8274   23298550.6114   23298550.2174
       228.000         180.000
 108980100.97148  84919549.07448  20738231.4874   20738233.1144   20738231.3094
       249.000         229.000
 131636281.77148  84781503.18948  23146625.9404   23146628.6814   23146625.2524
       227.000         179.000
 09  1 31  1  9 30.0000000  0  9G26G 5G 9G15G18G17G22G12G30
 117052806.52048 109002204.05048  24177329.3694   24177332.7104   24177329.9644
       199.000         134.000
 121924435.08948  77213834.38248  21298520.5054   21298523.2954   21298521.0094
       246.000         215.000
 114835620.59248  71690084.20548  19949563.0204   19949565.1044   19949563.1884
       252.000         226.000
 126742230.71348  80967963.81948  22215314.3514   22215316.3264   22215314.1384
       237.000         205.000
 120039679.02848  93537406.03548  22842795.5914   22842797.1424   22842796.2844
       228.000         177.000
 125398780.98748  97713330.99448  23862598.7614   23862600.7784   23862597.9124
       219.000         172.000
 122437870.40248  95406133.41348  23299150.6754   23299151.0314   23299151.1414
       229.000         183.000
 108939933.04148  84888249.39948  20730587.9824   20730589.3634   20730587.7414
       250.000         230.000
 131537836.35848  84704792.48648  23127892.3274   23127895.1534   23127891.8184
       225.000         178.000
 09  1 31  1 10  0.0000000  0  9G26G 5G 9G15G18G17G22G12G30
 117163645.60148 109088572.14548  24198421.2774   24198424.8574   24198422.1374
       196.000         135.000
 121859064.58748  77162896.33348  21286080.8264   21286083.7154   21286081.1864
       245.000         216.000
 114840359.71048  71693777.03448  19950464.6474   19950466.9814   19950464.8524
       251.000         226.000
 126832262.42948  81038118.40148  22232446.6784   22232448.5784   22232446.2044
       237.000         204.000
 120093160.75748  93579080.09748  22852972.5194   22852974.3784   22852973.6814
       226.000         177.000
 125457660.82048  97759211.40548  23873803.1904   23873805.4174   23873803.6324
       221.000         172.000
 122441553.30948  95409003.19148  23299851.7864   23299852.0734   23299852.1454
       229.000         181.000
 108900208.61448  84857295.30848  20723028.6644   20723030.0484   20723028.5214
       250.000         230.000
 131439609.53348  84628252.12148  23109200.5474   23109203.0764   23109200.8554
       226.000         178.000
 09  1 31  1 10 30.0000000  0  9G26G 5G 9G15G18G17G22G12G30
 117274605.61448 109175034.53448  24219534.6014   24219539.4914   24219533.1244
       202.000         128.000
 121794078.20048  77112257.59848  21273714.3334   21273717.3614   21273714.9924
       246.000         216.000
 114845465.92448  71697755.90348  19951436.2914   19951438.7154   19951436.4284
       251.000         226.000
 126922613.11348  81108521.52948  22249639.9124   22249641.6144   22249639.7634
       237.000         204.000
 120147056.75848  93621076.96348  22863228.4844   22863230.7194   22863228.3754
       226.000         177.000
 125517004.35248  97805453.11548  23885095.8794   23885098.6584   23885095.7484
       218.000         172.000
 122445763.61948  95412283.95148  23300652.3804   23300653.1374   23300652.5174
       229.000         179.000
 108860927.74448  84826686.85148  20715553.8014   20715555.1324   20715553.7284
       250.000         230.000
 131341602.90248  84551883.33748  23090550.4464   23090553.4224   23090549.6634
       226.000         180.000
 09  1 31  1 11  0.0000000  0  9G26G 5G 9G15G18G17G22G12G30
 117385684.77648 109261589.73148  24240674.2634   24240674.4574   24240676.3974
       198.000         128.000
 121729477.09348  77061919.09048  21261421.1134   21261424.0924   21261421.4114
       246.000         216.000
 114850939.85348  71702021.30348  19952477.9724   19952480.3244   19952478.2204
       251.000         226.000
 127013280.91448  81179171.76348  22266893.3214   22266895.2084   22266892.9874
       237.000         204.000
 120201364.83148  93663394.93548  22873563.4204   22873565.2634   22873564.0154
       228.000         178.000
 125576810.40548  97852055.23348  23896476.4514   23896478.9064   23896476.9134
       218.000         171.000
 122450500.76348  95415975.20248  23301554.2214   23301553.8944   23301554.6334
       228.000         179.000
 108822091.33648  84796424.72548  20708163.4194   20708164.6734   20708163.1024
       250.000         230.000
 131243818.16648  84475687.43948  23071942.7454   23071945.6634   23071942.3244
       228.000         179.000
 09  1 31  1 11 30.0000000  0  9G26G 5G 9G15G18G17G22G12G30
 117496879.86848 109348235.21348  24261833.8314   24261834.4144   24261834.8424
       190.000         127.000
 121665260.51348  77011880.21848  21249201.1264   21249204.2854   21249201.6194
       247.000         216.000
 114856780.11848  71706572.16048  19953589.2624   19953591.6744   19953589.4964
       251.000         226.000
 127104262.54948  81250066.53848  22284206.9134   22284208.6094   22284206.5664
       237.000         205.000
 120256080.89448  93706030.82348  22883975.8484   22883977.3474   22883976.6254
       229.000         177.000
 125637075.30448  97899014.90048  23907944.7314   23907945.7974   23907944.8764
       217.000         170.000
 122455762.81248  95420075.47948  23302555.6834   23302555.6244   23302555.7284
       229.000         179.000
 108783697.82548  84766507.70448  20700857.4934   20700858.6484   20700857.4184
       250.000         230.000
 131146254.73648  84399664.00948  23053376.8724   23053379.7504   23053376.4924
       228.000         181.000
 09  1 31  1 12  0.0000000  0  9G26G 5G 9G15G18G17G22G12G30
 117608190.37248 109434970.78048  24283017.2814   24283017.9524   24283015.6584
       189.000         124.000
 121601430.62048  76962142.66648  21237054.7204   21237057.7864   21237055.2574
       246.000         216.000
 114862988.20148  71711409.63148  19954770.6694   19954773.0144   19954770.8394
       251.000         226.000
 127195557.17548  81321205.19948  22301579.5524   22301581.5194   22301579.5404
       237.000         204.000
 120311203.84148  93748983.75048  22894465.1724   22894466.7534   22894465.9204
       227.000         177.000
 125697798.83548  97946331.93048  23919499.7564   23919501.3734   23919499.8494
       216.000         169.000
 122461550.18548  95424585.11048  23303657.0944   23303656.5574   23303656.9414
       228.000         180.000
 108745748.32048  84736936.67248  20693635.6344   20693637.1314   20693635.4544
       250.000         230.000
 131048915.90048  84323815.57848  23034853.8954   23034856.6504   23034853.6374
       228.000         181.000
 09  1 31  1 12 30.0000000  0  8G 5G 9G15G18G17G22G12G30
 121537988.26448  76912707.07548  21224981.9434   21224984.6844   21224982.4944
       246.000         216.000
 114869564.70648  71716534.18248  19956022.0814   19956024.6244   19956022.3114
       251.000         226.000
 127287163.46748  81392586.72948  22319011.2774   22319013.2564   22319010.9954
       237.000         203.000
 120366730.96048  93792251.62848  22905031.3434   22905033.4174   22905031.8404
       226.000         178.000
 125758979.04448  97994004.81448  23931142.2594   23931143.5084   23931141.7404
       217.000         169.000
 122467862.21948  95429503.56848  23304857.9304   23304858.4084   23304858.0944
       228.000         179.000
 108708243.10748  84707711.84148  20686498.8524   20686500.2164   20686498.7224
       250.000         230.000
 130951802.85548  84248143.08248  23016374.0224   23016376.5734   23016372.8904
       228.000         182.000
 09  1 31  1 13  0.0000000  0  9G26G 5G 9G15G18G17G22G12G30
 137830939.43858  89608492.88358  24325440.9205   24325448.9525   24325440.2605
       187.000         123.000
 121474933.35848  76863573.40148  21212982.7944   21212985.8104   21212983.3834
       246.000         216.000
 114876509.31548  71721945.56048  19957343.7634   19957346.1334   19957344.0244
       252.000         227.000
 127379078.94048  81464209.16648  22336502.3854   22336504.1454   22336502.3504
       236.000         202.000
 120422659.12548  93835831.98648  22915674.0314   22915676.1704   22915674.2514
       225.000         177.000
 125820613.46048  98042031.62948  23942870.8204   23942872.5344   23942870.7694
       217.000         169.000
 122474697.59348  95434829.83448  23306158.4154   23306158.8684   23306159.1254
       226.000         181.000
 108671181.65548  84678832.79648  20679446.2054   20679447.5524   20679446.2654
       250.000         231.000
 130854916.27248  84172647.07548  22997937.1654   22997939.7224   22997937.3674
       231.000         182.000
 09  1 31  1 13 30.0000000  0  9G26G 5G 9G15G18G17G22G12G30
 137942584.36548  89695488.86248  24346691.4504   24346693.3864   24346690.8654
       194.000         127.000
 121412266.75748  76814742.31548  21201057.5464   21201060.6774   21201058.0444
       246.000         216.000
 114883822.25948  71727643.96148  19958735.2444   19958737.7244   19958735.3744
       251.000         227.000
 127471301.53548  81536070.92948  22354051.8564   22354053.1334   22354051.5334
       236.000         202.000
 120478986.15748  93879723.17348  22926392.7074   22926394.4374   22926393.1704
       227.000         177.000
 125882700.31948  98090410.98748  23954685.1734   23954687.4584   23954685.2604
       218.000         167.000
 122482055.73248  95440563.42048  23307558.9914   23307559.5104   23307558.6524
       227.000         179.000
 108634563.94048  84650299.52348  20672477.9384   20672479.3614   20672477.7304
       250.000         230.000
 130758257.61148  84097328.65048  22979543.8444   22979545.9944   22979543.4184
       230.000         182.000
 09  1 31  1 14  0.0000000  0  9G26G 5G 9G15G18G17G22G12G30
 138054336.75648  89782568.68548  24367954.4354   24367959.8644   24367954.2744
       197.000         127.000
 121349988.79948  76766214.04848  21189206.5474   21189209.6734   21189207.2894
       247.000         217.000
 114891503.48348  71733629.32548  19960196.9874   19960199.3874   19960197.1324
       252.000         227.000
 127563829.20448  81608170.40248  22371659.0564   22371661.0444   22371659.0434
       236.000         202.000
 120535708.40848  93923922.32548  22937186.9594   22937188.4554   22937187.7484
       227.000         178.000
 125945237.15548  98139140.98048  23966586.4274   23966587.2744   23966586.5764
       219.000         169.000
 122489935.09148  95446703.17948  23309058.1614   23309058.8874   23309058.2164
       227.000         178.000
 108598389.61848  84622111.74248  20665594.2224   20665595.6054   20665594.1324
       250.000         231.000
 130661827.55048  84022188.34848  22961194.0404   22961195.8824   22961194.1534
       232.000         182.000
 09  1 31  1 14 30.0000000  0  9G26G 5G 9G15G18G17G22G12G30
 138166194.69348  89869730.68048  24389241.8974   24389244.8114   24389241.3364
       195.000         130.000
 121288100.41548  76717989.34448  21177429.8284   21177432.9634   21177430.4554
       247.000         217.000
 114899553.17548  71739901.81348  19961728.8704   19961731.2694   19961729.1134
       252.000         227.000
 127656660.03748  81680506.12348  22389324.3504   22389326.3144   22389324.2634
       235.000         202.000
 120592824.18948  93968428.13248  22948055.5894   22948057.4284   22948056.3964
       227.000         177.000
 126008222.42148  98188220.39748  23978572.1944   23978573.1464   23978572.1244
       217.000         166.000
 122498335.27548  95453248.75148  23310657.1744   23310657.1484   23310656.8474
       227.000         179.000
 108562659.07048  84594269.77148  20658794.9054   20658796.3764   20658794.9064
       250.000         231.000
 130565627.55748  83947227.32548  22942887.7424   22942889.5874   22942887.5174
       230.000         181.000
 09  1 31  1 15  0.0000000  0  9G26G 5G 9G15G18G17G22G12G30
 138278157.39548  89956974.40248  24410546.1694   24410547.9354   24410543.8434
       196.000         132.000
 121226602.67848  76670069.04048  21165727.1004   21165730.1214   21165727.8884
       246.000         217.000
 114907972.50448  71746462.32748  19963330.9874   19963333.4684   19963331.3054
       251.000         227.000
 127749793.05448  81753077.30048  22407046.8914   22407048.8974   22407046.5854
       235.000         201.000
 120650331.47648  94013238.98748  22958998.8444   22959000.7604   22958999.2484
       228.000         177.000
 126071654.51448  98237647.99048  23990642.0304   23990643.9824   23990641.8694
       218.000         165.000
 122507256.09048  95460200.03148  23312354.7254   23312355.1714   23312354.8224
       229.000         181.000
 108527372.92748  84566774.09448  20652080.1934   20652081.5374   20652080.0464
       250.000         231.000
 130469659.77048  83872447.25548  22924625.2124   22924627.7074   22924625.5994
       228.000         179.000
 09  1 31  1 15 30.0000000  0  9G26G 5G 9G15G18G17G22G12G30
 138390222.23348  90044297.66048  24431873.4094   24431875.3724   24431873.3924
       205.000         135.000
 121165496.24548  76622453.64248  21154099.0074   21154102.0584   21154099.6954
       247.000         218.000
 114916761.45048  71753310.85248  19965003.3494   19965005.9874   19965003.5104
       252.000         227.000
 127843225.51848  81825881.80348  22424826.3344   22424828.4514   22424825.8674
       234.000         201.000
 120708226.81848  94058352.21848  22970015.8974   22970018.2984   22970016.6164
       228.000         179.000
 126135531.30048  98287422.14248  24002797.4724   24002799.4454   24002797.6484
       216.000         166.000
 122516696.12748  95467555.89148  23314150.8764   23314151.3614   23314151.5544
       229.000         181.000
 108492530.63048  84539624.26848  20645450.0544   20645451.2334   20645449.8284
       251.000         231.000
 130373925.27048  83797848.95448  22906407.0884   22906409.7914   22906406.8744
       228.000         180.000
 09  1 31  1 16  0.0000000  0  9G26G 5G 9G15G18G17G22G12G30
 138502386.95148  90131698.70648  24453216.1944   24453218.1284   24453218.0514
       204.000         137.000
 121104781.11048  76575143.15248  21142545.3054   21142548.3294   21142545.7434
       247.000         218.000
 114925919.48948  71760446.98748  19966746.0674   19966748.5614   19966746.2964
       250.000         226.000
 127936955.43348  81898918.10448  22442662.8904   22442664.3594   22442662.6114
       237.000         202.000
 120766507.36548  94103765.60648  22981106.7424   22981109.0564   22981107.2784
       226.000         177.000
 126199850.43748  98337540.92548  24015037.3564   24015038.9694   24015036.7944
       218.000         168.000
 122526653.88248  95475315.16948  23316045.9994   23316046.3794   23316046.1514
       228.000         182.000
 108458131.63048  84512819.87148  20638904.0954   20638905.3214   20638904.1344
       250.000         231.000
 130278424.64648  83723432.88648  22888234.1814   22888236.9694   22888234.1224
       228.000         183.000
 09  1 31  1 16 30.0000000  0  9G26G 5G 9G15G18G17G22G12G30
 138614650.07748  90219176.46148  24474578.3654   24474580.6294   24474579.6894
       207.000         142.000
 121044458.13448  76528138.23548  21131066.2564   21131069.1784   21131067.0334
       247.000         218.000
 114935447.22048  71767871.19248  19968559.0894   19968561.7294   19968559.1374
       250.000         227.000
 128030981.05648  81972184.81748  22460555.3114   22460557.3424   22460555.3934
       235.000         201.000
 120825170.68348  94149477.27048  22992269.8774   22992271.8024   22992270.1284
       228.000         176.000
 126264610.02548  98388002.95148  24027359.9224   24027361.6364   24027360.1714
       215.000         165.000
 122537129.14148  95483477.68748  23318038.9774   23318039.3434   23318038.9034
       229.000         181.000
 108424176.05548  84486360.99648  20632442.6264   20632443.8234   20632442.5204
       250.000         232.000
 130183159.40348  83649200.23348  22870106.0784   22870108.7834   22870105.9224
       226.000         182.000
 09  1 31  1 17  0.0000000  0  9G26G 5G 9G15G18G17G22G12G30
 138727009.47148  90306729.25448  24495959.9864   24495963.1814   24495960.0384
       205.000         145.000
 120984527.85848  76481439.32448  21119661.7774   21119664.7564   21119662.1124
       248.000         218.000
 114945344.82048  71775583.60248  19970442.7694   19970445.2744   19970443.0844
       250.000         227.000
 128125299.79948  82045679.94948  22478503.3864   22478505.4994   22478502.7124
       234.000         200.000
 120884213.90148  94195484.96948  23003505.5404   23003507.4934   23003506.2364
       227.000         176.000
 126329807.69848  98438806.35048  24039767.2214   24039768.5154   24039765.9124
       214.000         166.000
 122548120.24848  95492042.18948  23320130.7854   23320131.2514   23320130.7374
       227.000         179.000
 108390663.63648  84460247.43748  20626065.2044   20626066.6224   20626064.9534
       251.000         232.000
 130088130.60248  83575151.84548  22852021.9654   22852025.3354   22852021.5514
       225.000         183.000
 09  1 31  1 17 30.0000000  0 10G26G 5G 9G15G18G14G17G22G12G30
 138839464.30048  90394356.38548  24517359.4884   24517361.1884   24517358.5644
       213.000         150.000
 120924991.57548  76435047.42148  21108332.2894   21108335.2614   21108332.7144
       247.000         218.000
 114955613.22148  71783584.95248  19972396.7344   19972399.2974   19972396.8474
       251.000         227.000
 128219911.09648  82119403.01748  22496507.4604   22496509.6464   22496506.7414
       235.000         201.000
 120943635.18548  94241787.24648  23014812.8244   23014815.0164   23014813.1324
       225.000         175.000
 138614878.61058  90219372.99958  24474606.9315   24474609.3435   24474608.1655
       209.000         152.000
 126395442.52948  98489950.36448  24052257.1594   24052258.3594   24052257.0694
       214.000         165.000
 122559627.02948  95501008.49148  23322320.2484   23322320.5464   23322320.8134
       226.000         178.000
 108357595.06848  84434479.73348  20619772.6084   20619773.7474   20619772.6134
       250.000         232.000
 129993340.40348  83501289.36748  22833984.1344   22833987.3634   22833984.0664
       228.000         183.000
 09  1 31  1 18  0.0000000  0 10G26G 5G 9G15G18G14G17G22G12G30
 138952011.17948  90482055.22148  24538777.0544   24538779.1214   24538776.3234
       214.000         150.000
 120865848.55748  76388961.95548  21097077.7904   21097080.9014   21097078.4124
       248.000         219.000
 114966250.82748  71791873.99348  19974421.0314   19974423.3774   19974421.3094
       250.000         226.000
 128314811.32348  82193351.25948  22514566.4084   22514568.5424   22514566.3154
       235.000         200.000
 121003430.25948  94288380.80348  23026191.4084   23026193.5244   23026191.9624
       227.000         174.000
 138510994.92348  90138424.65148  24454839.8344   24454840.6554   24454839.1094
       212.000         151.000
 126461511.01348  98541432.29348  24064829.7004   24064830.7614   24064829.8534
       214.000         162.000
 122571647.47748  95510375.05048  23324607.6684   23324608.1964   23324607.3304
       228.000         181.000
 108324968.79948  84409056.67948  20613563.8454   20613565.2134   20613563.5574
       251.000         232.000
 129898788.81148  83427612.80548  22815992.0904   22815994.7584   22815991.6564
       230.000         185.000
 09  1 31  1 18 30.0000000  0 10G26G 5G 9G15G18G14G17G22G12G30
 139064649.01548  90569824.97448  24560210.8004   24560212.5194   24560211.4844
       217.000         153.000
 120807100.34248  76343184.13148  21085898.6344   21085901.6724   21085899.2934
       248.000         219.000
 114977259.30148  71800452.01948  19976515.8344   19976518.1124   19976515.9784
       250.000         226.000
 128409999.52148  82267523.86948  22532680.1274   22532682.0134   22532680.0034
       235.000         200.000
 121063597.13448  94335264.07248  23037641.0654   23037642.6834   23037641.4664
       225.000         175.000
 138407222.85248  90057563.23648  24435092.5234   24435094.0954   24435092.1394
       206.000         154.000
 126528012.01248  98593251.19748  24077484.2434   24077485.4074   24077484.1434
       215.000         162.000
 122584181.10248  95520141.49448  23326993.1884   23326993.3394   23326993.3014
       227.000         180.000
 108292785.82248  84383979.04648  20607439.5444   20607441.0844   20607439.2514
       250.000         232.000
 129804477.79348  83354123.72048  22798045.3034   22798047.8934   22798045.0884
       228.000         184.000
 09  1 31  1 19  0.0000000  0 10G26G 5G 9G15G18G14G17G22G12G30
 139177376.21548  90657664.35848  24581662.1864   24581664.8864   24581661.9504
       218.000         157.000
 120748747.40448  76297714.31848  21074794.4724   21074797.4814   21074794.8354
       249.000         219.000
 114988638.50348  71809318.92948  19978681.3104   19978683.4434   19978681.4334
       250.000         226.000
 128505473.78048  82341919.38848  22550848.0744   22550850.2774   22550847.6204
       233.000         199.000
 121124133.62648  94382435.35548  23049161.1944   23049162.2394   23049161.3704
       229.000         175.000
 138303564.70548  89976790.77248  24415366.7584   24415368.3094   24415366.4124
       211.000         157.000
 126594943.28348  98645405.46348  24090221.2894   24090222.0764   24090221.4934
       215.000         163.000
 122597227.05848  95530307.14548  23329475.4904   23329475.7194   23329475.5674
       228.000         180.000
 108261045.85348  84359246.60948  20601399.7744   20601401.2074   20601399.5974
       251.000         232.000
 129710408.41348  83280822.92948  22780144.6544   22780147.0554   22780144.3914
       231.000         185.000
 09  1 31  1 19 30.0000000  0 10G26G 5G 9G15G18G14G17G22G12G30
 139290190.53748  90745571.63148  24603130.2114   24603132.7814   24603130.2044
       222.000         159.000
 120690790.17348  76252552.85248  21063765.4844   21063768.4754   21063766.0644
       248.000         219.000
 115000388.75748  71818474.97048  19980917.1034   19980919.5094   19980917.3114
       249.000         226.000
 128601231.52448  82416535.80148  22569070.2104   22569072.1464   22569069.5734
       235.000         199.000
 121185036.60348  94429892.20648  23060750.1304   23060751.9354   23060751.0004
       225.000         172.000
 138200023.20048  89896109.07348  24395663.6814   24395666.0894   24395663.8194
       207.000         153.000
 126662302.80748  98697893.42148  24103039.5804   24103041.1104   24103039.4904
       218.000         165.000
 122610784.02848  95540871.00448  23332055.2984   23332055.9654   23332054.8734
       229.000         180.000
 108229748.36448  84334858.96848  20595444.0804   20595445.4004   20595444.1704
       250.000         233.000
 129616582.00748  83207711.46648  22762290.3144   22762292.3444   22762290.3464
       230.000         185.000
 09  1 31  1 20  0.0000000  0 10G26G 5G 9G15G18G14G17G22G12G30
 139403090.04048  90833545.28148  24624614.0334   24624616.3934   24624614.5834
       218.000         161.000
 120633229.15648  76207700.13548  21052811.8824   21052814.8064   21052812.7394
       248.000         219.000
 115012510.22848  71827920.27248  19983223.7604   19983226.2504   19983223.8454
       250.000         226.000
 128697271.02448  82491371.78348  22587346.2104   22587347.9024   22587346.0354
       235.000         199.000
 121246303.47748  94477632.60048  23072408.6124   23072410.6164   23072409.0664
       227.000         175.000
 138096600.21648  89815519.73948  24375982.7344   24375984.0284   24375983.3754
       212.000         155.000
 126730088.41848  98750713.36848  24115938.2484   24115940.3814   24115937.9124
       216.000         163.000
 122624850.91748  95551832.22448  23334732.4634   23334732.4944   23334733.5404
       226.000         178.000
 108198893.67448  84310816.36548  20589572.6264   20589574.1044   20589572.4774
       251.000         233.000
 129522999.41048  83134789.98448  22744482.1094   22744484.0414   22744481.9884
       230.000         185.000
 09  1 31  1 20 30.0000000  0  8G 9G15G18G14G17G22G12G30
 115025003.16948  71837655.02348  19985601.1594   19985603.6564   19985601.3444
       250.000         226.000
 128793590.43248  82566425.87748  22605675.2304   22605676.9254   22605675.4694
       235.000         199.000
 121307931.00748  94525654.02948  23084136.2964   23084138.2464   23084137.0134
       227.000         174.000
 137993298.56248  89735024.93748  24356324.2574   24356325.9174   24356323.5454
       209.000         150.000
 126798298.01648  98803863.72848  24128918.3824   24128920.1214   24128918.1884
       216.000         163.000
 122639426.63448  95563189.90848  23337505.9374   23337506.3214   23337506.0884
       228.000         180.000
 108168481.34448  84287118.44448  20583785.3324   20583786.7354   20583785.2974
       250.000         233.000
 129429662.33748  83062059.82448  22726720.4084   22726722.9024   22726720.2434
       232.000         187.000
 09  1 31  1 21  0.0000000  0 10G26G 5G 9G15G18G14G17G22G12G30
 139629138.52148  91009686.89448  24667630.0204   24667632.7294   24667629.7824
       222.000         162.000
 120519298.82548  76118923.29148  21031131.5514   21031134.6874   21031131.9264
       249.000         220.000
 115037868.26448  71847679.77848  19988049.3294   19988051.8394   19988049.6284
       250.000         226.000
 128890188.21448  82641696.86948  22624056.8274   22624058.9704   22624056.5804
       232.000         197.000
 121369917.04548  94573954.84148  23095932.0444   23095934.0144   23095932.7564
       228.000         176.000
 137890120.83848  89654626.68348  24336690.8684   24336692.3154   24336691.1404
       209.000         154.000
 126866930.01148  98857343.22648  24141978.5314   24141979.2944   24141978.5184
       217.000         162.000
 122654510.51448  95574943.56648  23340376.5514   23340376.9124   23340376.4704
       229.000         182.000
 108138511.68248  84263765.47448  20578082.2504   20578083.5524   20578082.0804
       251.000         233.000
 129336572.32648  82989522.17648  22709005.6064   22709008.4904   22709004.9774
       230.000         186.000
 09  1 31  1 21 30.0000000  0 10G26G 5G 9G15G18G14G17G22G12G30
 139742283.12448  91097851.53548  24689161.1184   24689162.8294   24689161.8124
       216.000         161.000
 120462930.10248  76074999.61348  21020404.9934   21020408.0394   21020405.8614
       248.000         220.000
 115051104.96048  71857994.08048  19990568.1584   19990570.7824   19990568.3014
       250.000         227.000
 128987060.83248  82717182.00348  22642491.3484   22642493.1914   22642490.6074
       233.000         197.000
 121432258.25348  94622532.38648  23107795.1834   23107797.0804   23107795.2324
       227.000         174.000
 137787068.65148  89574326.30548  24317080.6364   24317082.4304   24317080.3624
       208.000         152.000
 126935981.19448  98911149.32948  24155119.0934   24155119.3834   24155119.8834
       221.000         166.000
 122670100.68548  95587091.73548  23343343.3444   23343343.6684   23343343.9784
       230.000         182.000
 108108983.51548  84240756.51748  20572463.4124   20572464.5854   20572463.3234
       251.000         233.000
 129243729.68948  82917177.26548  22691338.5694   22691341.2134   22691338.4174
       229.000         187.000
 09  1 31  1 22  0.0000000  0 10G26G 5G 9G15G18G14G17G22G12G30
 139855505.72248  91186076.92448  24710706.2904   24710708.2734   24710705.9004
       213.000         156.000
 120406959.71148  76031386.33348  21009754.2504   21009757.3604   21009754.6814
       249.000         220.000
 115064713.68948  71868598.28548  19993158.0044   19993160.3484   19993158.2394
       249.000         226.000
 129084207.45548  82792880.67048  22660977.5854   22660979.5294   22660977.3854
       234.000         197.000
 121494952.19548  94671384.80248  23119725.2594   23119727.2624   23119726.0264
       226.000         172.000
 137684144.79448  89494125.94448  24297494.5184   24297497.1844   24297494.8904
       207.000         155.000
 127005449.82248  98965280.74748  24168338.1284   24168339.6084   24168338.4054
       219.000         165.000
 122686196.03148  95599633.55848  23346406.3254   23346406.7104   23346405.7464
       227.000         181.000
 108079897.03548  84218091.74048  20566928.4604   20566929.6514   20566928.2464
       251.000         234.000
 129151135.95448  82845026.32048  22673718.2904   22673721.1564   22673717.7524
       231.000         187.000
 09  1 31  1 22 30.0000000  0 10G26G 5G 9G15G18G14G17G22G12G30
 139968804.66848  91274361.82748  24732266.1424   24732268.5314   24732266.5174
       210.000         157.000
 120351388.74848  75988084.29948  20999179.2084   20999182.5454   20999179.8904
       248.000         220.000
 115078695.23248  71879492.99048  19995818.4154   19995820.8544   19995818.5864
       249.000         226.000
 129181626.36748  82868791.51548  22679515.9314   22679517.6004   22679516.1204
       235.000         197.000
 121557996.42048  94720510.16848  23131721.7434   23131724.3594   23131722.0524
       224.000         173.000
 137581352.32948  89414027.93448  24277933.8924   24277936.7204   24277932.4974
       213.000         159.000
 127075334.64848  99019736.46448  24181637.0024   24181638.3054   24181636.1184
       220.000         164.000
 122702796.03848  95612568.60748  23349564.7724   23349565.5124   23349565.2484
       228.000         180.000
 108051252.28548  84195771.16348  20561477.4884   20561478.7354   20561477.2274
       251.000         234.000
 129058792.94448  82773070.74948  22656146.0664   22656148.7114   22656146.5124
       229.000         186.000
 09  1 31  1 23  0.0000000  0 10G26G 5G 9G15G18G14G17G22G12G30
 140082177.61448  91362704.36548  24753840.3194   24753843.6504   24753839.3544
       210.000         157.000
 120296217.03248  75945093.35548  20988680.6274   20988683.5344   20988681.2614
       249.000         220.000
 115093049.17148  71890677.87248  19998549.8144   19998552.2684   19998549.8824
       250.000         226.000
 129279314.75448  82944912.33348  22698105.5474   22698107.1204   22698105.2254
       233.000         196.000
 121621387.43548  94769905.74048  23143784.3964   23143787.1034   23143785.1644
       223.000         172.000
 137478693.15348  89334033.77548  24258398.7024   24258400.8654   24258399.2274
       207.000         155.000
 127145632.76648  99074514.23148  24195013.8314   24195015.5414   24195014.2834
       217.000         164.000
 122719898.75848  95625895.38448  23352819.5184   23352819.4284   23352819.6394
       229.000         178.000
 108023048.74248  84173794.37748  20556110.5434   20556111.7614   20556110.3424
       251.000         234.000
 128966701.17748  82701310.94748  22638621.4774   22638624.0724   22638620.6554
       231.000         187.000
 09  1 31  1 23 30.0000000  0 10G26G 5G 9G15G18G14G17G22G12G30
 140195623.11048  91451103.51048  24775428.7844   24775430.8444   24775427.8404
       212.000         151.000
 120241445.47448  75902414.22148  20978258.0774   20978260.8234   20978258.8264
       248.000         220.000
 115107775.92448  71902153.26148  20001352.2624   20001354.7134   20001352.4474
       250.000         226.000
 129377270.99848  83021241.86748  22716745.7834   22716747.7214   22716745.1264
       232.000         196.000
 121685123.06048  94819569.85548  23155913.2094   23155915.1754   23155913.8124
       226.000         171.000
 137376169.96448  89254145.59148  24238888.5004   24238890.5034   24238887.2404
       206.000         151.000
 127216342.10748  99129612.42148  24208468.8264   24208471.2074   24208468.7634
       215.000         162.000
 122737503.29448  95639613.18948  23356169.6574   23356169.5774   23356169.9884
       230.000         181.000
 107995286.64748  84152161.57848  20550827.5084   20550828.7344   20550827.3044
       251.000         234.000
 128874861.94548  82629747.92348  22621145.0254   22621147.5924   22621144.6854
       230.000         187.000
 09  1 31  1 24  0.0000000  0 10G26G 5G 9G15G18G14G17G22G12G30
 140309138.95848  91539557.41548  24797029.9214   24797032.3224   24797030.5734
       206.000         146.000
 120187074.09448  75860046.92748  20967911.2164   20967914.3414   20967911.5774
       248.000         220.000
 115122875.48748  71913919.15348  20004225.6964   20004228.1684   20004225.8274
       250.000         227.000
 129475492.85548  83097778.36948  22735436.5644   22735438.7904   22735435.9314
       232.000         196.000
 121749199.84648  94869499.81848  23168106.6524   23168108.5034   23168107.2534
       224.000         171.000
 137273784.94348  89174365.03248  24219406.0464   24219408.2194   24219406.4764
       211.000         154.000
 127287460.30348  99185029.21048  24222002.1974   24222004.6824   24222001.9924
       212.000         163.000
 122755608.35948  95653721.01348  23359614.8144   23359615.0904   23359615.4624
       228.000         180.000
 107967965.05048  84130872.02648  20545628.3464   20545629.6334   20545628.0984
       252.000         234.000
 128783276.40548  82558382.58648  22603716.8884   22603719.5454   22603716.7754
       231.000         187.000
 09  1 31  1 24 30.0000000  0 10G26G 5G 9G15G18G14G17G22G12G30
 140422722.95648  91628064.43048  24818643.2744   24818647.2034   24818642.7614
       204.000         144.000
 120133103.11448  75817991.64048  20957640.7264   20957644.0724   20957641.0484
       249.000         220.000
 115138347.74948  71925975.46248  20007169.9694   20007172.4284   20007170.2264
       250.000         226.000
 129573977.78948  83174519.86348  22754177.9274   22754179.6494   22754178.1764
       233.000         196.000
 121813614.76348  94919693.24848  23180364.8674   23180366.6464   23180365.6044
       225.000         172.000
 137171540.14648  89094693.79548  24199948.9754   24199951.3444   24199948.1134
       210.000         152.000
 127358985.05948  99240762.77948  24235612.7994   24235616.0234   24235612.5254
       217.000         166.000
 122774212.19248  95668217.50348  23363154.7264   23363155.2874   23363154.7454
       227.000         178.000
 107941083.39448  84109925.28348  20540513.0254   20540514.2924   20540512.7614
       251.000         234.000
 128691945.29748  82487215.49848  22586337.2014   22586339.5164   22586336.6944
       230.000         187.000
 09  1 31  1 25  0.0000000  0 10G26G 5G 9G15G18G14G17G22G12G30
 140536373.99248  91716623.63848  24840270.6344   24840272.9434   24840269.6074
       210.000         145.000
 120079533.80448  75776249.32048  20947446.9414   20947449.9684   20947447.7374
       249.000         220.000
 115154193.23648  71938322.59148  20010185.2574   20010187.6944   20010185.5034
       249.000         226.000
 129672724.06348  83251465.02248  22772968.7214   22772970.3854   22772968.6544
       232.000         195.000
 121878365.58148  94970148.41748  23192686.3614   23192688.3524   23192686.4644
       227.000         173.000
 137069438.77548  89015134.29248  24180519.3864   24180521.6274   24180520.6024
       208.000         154.000
 127430914.67948  99296811.85848  24249300.7824   24249303.1744   24249300.2824
       215.000         163.000
 122793314.00948  95683102.02948  23366789.6814   23366790.0834   23366789.8724
       228.000         178.000
 107914642.33948  84089321.86748  20535481.3794   20535482.8424   20535481.2334
       251.000         235.000
 128600870.35948  82416248.04248  22569006.1174   22569008.9674   22569006.0874
       232.000         189.000
 09  1 31  1 25 30.0000000  0 10G26G 5G 9G15G18G14G17G22G12G30
 140650089.50848  91805233.10148  24861910.0194   24861912.4344   24861909.9484
       212.000         148.000
 120026365.84548  75734819.74648  20937329.5944   20937332.3204   20937330.0824
       248.000         219.000
 115170411.64048  71950960.30348  20013271.5444   20013273.9494   20013271.7354
       250.000         226.000
 129771729.51548  83328612.14048  22791808.5834   22791810.5204   22791807.9854
       232.000         194.000
 121943449.13748  95020862.85748  23205071.5734   23205073.2554   23205072.1764
       226.000         172.000
 136967482.54248  88935687.84348  24161118.7754   24161120.6324   24161118.5534
       210.000         159.000
 127503246.39648  99353174.24548  24263065.2554   24263066.9604   24263064.9044
       210.000         163.000
 122812912.29348  95698373.40648  23370519.3794   23370519.9474   23370519.4634
       229.000         180.000
 107888640.63648  84069060.80248  20530533.5674   20530534.7714   20530533.4294
       251.000         234.000
 128510052.46748  82345480.85348  22551724.5344   22551726.7944   22551724.2624
       233.000         190.000
 09  1 31  1 26  0.0000000  0 10G26G 5G 9G15G18G14G17G22G12G30
 140763867.38848  91893891.14848  24883561.3144   24883564.4104   24883561.2804
       210.000         147.000
 119973599.49848  75693703.12148  20927288.2614   20927291.3484   20927288.6164
       248.000         220.000
 115187003.18148  71963888.77848  20016428.8114   20016431.1154   20016428.9424
       249.000         226.000
 129870992.21648  83405959.68948  22810697.5524   22810699.8294   22810697.5554
       230.000         193.000
 122008862.06948  95071833.95148  23217519.2464   23217520.9214   23217520.1534
       226.000         174.000
 136865673.80948  88856356.40848  24141744.2634   24141747.0304   24141745.4754
       209.000         156.000
 127575977.80248  99409848.04648  24276905.4194   24276907.3474   24276904.5144
       212.000         165.000
 122833005.26148  95714030.26648  23374342.9864   23374343.3194   23374342.8344
       230.000         182.000
 107863077.93948  84049141.83348  20525668.9184   20525670.2934   20525668.7154
       251.000         234.000
 128419492.68348  82274914.81648  22534491.3544   22534494.0514   22534491.5054
       232.000         188.000
 09  1 31  1 26 30.0000000  0 10G26G 5G 9G15G18G14G17G22G12G30
 140877706.22248  91982596.73948  24905223.3004   24905226.8934   24905223.3894
       206.000         147.000
 119921235.47348  75652899.98848  20917323.7024   20917326.8164   20917324.1154
       248.000         220.000
 115203968.33248  71977108.36648  20019657.1174   20019659.4374   20019657.2824
       249.000         226.000
 129970509.87148  83483505.90648  22829635.1864   22829637.2774   22829634.9424
       233.000         193.000
 122074602.15148  95123059.97848  23230029.1014   23230031.4394   23230029.2304
       227.000         175.000
 136764015.53148  88777142.17248  24122399.1834   24122401.9234   24122398.4514
       207.000         152.000
 127649106.91648  99466831.76748  24290822.3344   24290823.5324   24290822.0534
       216.000         167.000
 122853591.79548  95730071.70148  23378260.8714   23378261.6084   23378261.2714
       229.000         181.000
 107837954.07648  84029564.78748  20520888.0954   20520889.3424   20520887.9764
       251.000         234.000
 128329192.12748  82204550.75848  22517307.6524   22517310.1334   22517307.2254
       232.000         189.000
 09  1 31  1 27  0.0000000  0 10G26G 5G 9G15G18G14G17G22G12G30
 140991603.09148  92071347.51848  24926897.2814   24926900.2714   24926896.3144
       207.000         149.000
 119869273.22948  75612409.93748  20907435.7754   20907438.7184   20907436.3384
       249.000         220.000
 115221306.15548  71990618.35948  20022956.3064   20022958.7524   20022956.4124
       249.000         226.000
 130070279.55548  83561248.51748  22848620.8704   22848622.7214   22848620.9804
       231.000         194.000
 122140665.17648  95174537.65548  23242600.3754   23242602.7314   23242601.3004
       224.000         171.000
 136662509.29848  88698046.40648  24103083.2604   24103085.3164   24103083.7434
       205.000         153.000
 127722630.51848  99524122.90648  24304812.6204   24304814.5734   24304814.6234
       214.000         167.000
 122874669.57048  95746495.92448  23382271.2164   23382272.2584   23382270.9584
       228.000         181.000
 107813267.58648  84010328.56148  20516190.4174   20516191.6404   20516190.0914
       251.000         234.000
 128239150.85248  82134388.74348  22500173.3584   22500176.2534   22500173.0264
       232.000         190.000
 09  1 31  1 27 30.0000000  0 10G26G 5G 9G15G18G14G17G22G12G30
 141105557.59848  92160143.25448  24948582.8834   24948585.8114   24948582.5754
       205.000         151.000
 119817714.61848  75572234.40548  20897624.5414   20897627.3794   20897624.9604
       249.000         220.000
 115239018.41748  72004420.12248  20026326.6904   20026329.3904   20026326.9374
       249.000         226.000
 130170300.51948  83639186.92048  22867654.5644   22867655.9864   22867654.3754
       234.000         195.000
 122207049.87648  95226265.98448  23255232.8594   23255235.0914   23255233.1104
       224.000         169.000
 136561158.90648  88619072.09648  24083797.2264   24083799.5444   24083796.7554
       210.000         156.000
 127796547.93448  99581720.87448  24318878.6954   24318880.6864   24318878.6084
       213.000         168.000
 122896238.51148  95763302.88348  23386375.3314   23386376.3574   23386375.6474
       225.000         177.000
 107789019.95348  83991434.31148  20511576.0494   20511577.5914   20511575.7794
       251.000         234.000
 128149371.70748  82064430.99648  22483088.7474   22483091.3474   22483088.6174
       230.000         189.000
 09  1 31  1 28  0.0000000  0 10G26G 5G 9G15G18G14G17G22G12G30
 141219567.65748  92248982.33048  24970278.5964   24970280.9444   24970277.3854
       206.000         152.000
 119766559.84048  75532373.54748  20887890.1924   20887892.9674   20887890.5704
       249.000         220.000
 115257105.08248  72018513.61748  20029768.5554   20029771.2264   20029768.5444
       250.000         226.000
 130270570.43248  83717319.32448  22886735.5744   22886737.0614   22886735.8804
       233.000         195.000
 122273753.18948  95278242.58748  23267925.8474   23267928.2014   23267926.3614
       225.000         171.000
 136459966.39048  88540220.79348  24064541.2234   24064543.0364   24064541.1554
       213.000         156.000
 127870856.80148  99639623.92848  24333019.0834   24333020.5424   24333017.8574
       212.000         164.000
 122918297.21148  95780491.48648  23390573.4134   23390573.6074   23390573.7634
       226.000         177.000
 107765210.40948  83972881.42148  20507045.3214   20507046.6714   20507044.9904
       251.000         234.000
 128059855.70748  81994678.27948  22466054.1054   22466056.6604   22466053.7044
       232.000         189.000
 09  1 31  1 28 30.0000000  0 10G26G 5G 9G15G18G14G17G22G12G30
 141333631.11348  92337862.94148  24991983.0964   24991987.2954   24991983.8044
       203.000         147.000
 119715808.90748  75492827.37448  20878232.4814   20878235.3334   20878232.8534
       249.000         220.000
 115275565.70248  72032898.52048  20033281.5254   20033284.1684   20033281.7494
       249.000         226.000
 130371087.09748  83795643.98948  22905862.7794   22905864.8394   22905861.9594
       231.000         193.000
 122340772.04148  95330465.06148  23280679.2494   23280681.4634   23280679.9884
       223.000         170.000
 136358934.43448  88461494.54548  24045315.9914   24045317.1534   24045315.8964
       209.000         158.000
 127945554.32648  99697829.78948  24347233.4504   24347235.6554   24347233.5864
       213.000         167.000
 122940843.76148  95798060.22148  23394864.0074   23394864.6294   23394863.9494
       226.000         177.000
 107741838.55048  83954669.58548  20502597.7744   20502599.2834   20502597.7294
       251.000         234.000
 127970603.62248  81925131.20148  22449070.3464   22449072.5944   22449070.2764
       232.000         191.000
 09  1 31  1 29  0.0000000  0 10G26G 5G 9G15G18G14G17G22G12G30
 141447746.36748  92426783.86748  25013698.9794   25013702.7304   25013697.8514
       206.000         147.000
 119665462.51248  75453596.42748  20868651.9214   20868654.7134   20868652.7514
       250.000         221.000
 115294400.79248  72047575.19548  20036865.9294   20036868.3344   20036866.1704
       250.000         225.000
 130471848.40748  83874159.29248  22925037.2914   22925038.6704   22925036.8764
       230.000         191.000
 122408103.55748  95382931.14948  23293492.1034   23293494.1644   23293492.7204
       225.000         171.000
 136258065.52948  88382895.44748  24026120.9714   24026123.0594   24026119.9284
       209.000         158.000
 128020638.58148  99756336.97948  24361521.3144   24361523.4284   24361521.0584
       214.000         163.000
 122963876.86048  95816008.06648  23399246.3904   23399247.6254   23399245.6844
       226.000         179.000
 107718903.66248  83936798.24948  20498233.3504   20498234.8014   20498233.1144
       251.000         234.000
 127881616.59348  81855790.68748  22432136.6764   22432139.1594   22432136.5384
       233.000         191.000
 09  1 31  1 29 30.0000000  0 10G26G 5G 9G15G18G14G17G22G12G30
 141561911.43848  92515743.68548  25035424.2894   25035426.0284   25035423.9114
       210.000         143.000
 119615521.01748  75414680.98648  20859148.5484   20859151.3204   20859149.1974
       249.000         221.000
 115313610.54348  72062543.84148  20040521.3034   20040523.7524   20040521.4574
       250.000         225.000
 130572852.29348  83952863.62948  22944257.5574   22944259.0224   22944257.0504
       230.000         191.000
 122475745.04248  95435638.81048  23306363.9494   23306365.7894   23306364.5914
       225.000         172.000
 136157362.48448  88304425.53048  24006958.1284   24006959.6494   24006955.5934
       209.000         158.000
 128096107.42748  99815143.92348  24375882.9334   24375884.2514   24375881.7924
       213.000         163.000
 122987395.49348  95834334.25148  23403722.2654   23403723.0524   23403722.2144
       226.000         179.000
 107696405.74948  83919267.41148  20493952.2014   20493953.6104   20493952.0954
       251.000         234.000
 127792895.95348  81786657.74248  22415253.6574   22415255.9544   22415253.2764
       232.000         191.000
 09  1 31  1 30  0.0000000  0 10G26G 5G 9G15G18G14G17G22G12G30
 141676124.40948  92604740.82148  25057158.3664   25057160.1464   25057157.0114
       205.000         144.000
 119565984.59548  75376081.18448  20849721.9074   20849724.8454   20849722.4124
       250.000         221.000
 115333195.09948  72077804.51648  20044248.1304   20044250.7534   20044248.1884
       249.000         225.000
 130674096.65548  84031755.33948  22963523.4134   22963525.4124   22963523.1474
       230.000         191.000
 122543693.39448  95488585.55548  23319294.0764   23319295.7984   23319294.4404
       224.000         172.000
 136056827.66148  88226086.72048  23987826.4254   23987829.0714   23987824.4914
       208.000         159.000
 128171958.35648  99874248.55948  24390316.5554   24390317.9514   24390315.7274
       213.000         161.000
 123011397.64948  95853037.19748  23408289.8344   23408290.3504   23408289.9864
       225.000         178.000
 107674344.12748  83902076.53648  20489754.2264   20489755.4174   20489754.0444
       252.000         235.000
 127704442.45648  81717732.96748  22398421.5644   22398424.0044   22398421.5094
       235.000         192.000
 09  1 31  1 30 30.0000000  0 10G26G 5G 9G15G18G14G17G22G12G30
 141790383.01748  92693773.44948  25078899.7644   25078903.1054   25078899.4844
       205.000         141.000
 119516853.18448  75337796.97848  20840372.3874   20840375.3624   20840372.9484
       248.000         221.000
 115353154.24248  72093357.09548  20048046.1224   20048048.8814   20048046.1574
       250.000         226.000
 130775579.31148  84110832.72448  22982834.8504   22982837.2614   22982834.6424
       231.000         192.000
 122611945.05648  95541768.65848  23332281.9554   23332284.0004   23332282.3794
       225.000         171.000
 135956462.89648  88147880.43248  23968727.3054   23968730.6234   23968725.8124
       215.000         158.000
 128248188.51648  99933648.71448  24404823.1864   24404823.8844   24404823.8854
       214.000         160.000
 123035881.40348  95872115.44548  23412949.0324   23412949.4134   23412948.7504
       225.000         177.000
 107652717.80648  83885224.86348  20485638.8104   20485639.9514   20485638.6384
       251.000         235.000
 127616256.99648  81649017.03648  22381640.9324   22381643.0794   22381640.8424
       235.000         193.000
 09  1 31  1 31  0.0000000  0 10G26G 5G 9G15G18G14G17G22G12G30
 141904684.88648  92782839.83348  25100650.9644   25100655.0384   25100650.4964
       200.000         140.000
 119468126.59448  75299828.22348  20831099.7894   20831102.9774   20831100.1204
       249.000         221.000
 115373487.66248  72109201.31048  20051915.4684   20051918.0804   20051915.6814
       249.000         225.000
 130877297.24348  84190093.43748  23002191.3414   23002193.4804   23002191.0144
       231.000         192.000
 122680497.00048  95595185.77248  23345326.7294   23345329.3844   23345327.4514
       226.000         173.000
 135856270.38248  88069808.34948  23949661.3854   23949663.6124   23949661.9034
       211.000         157.000
 128324795.33248  99993342.37148  24419400.4444   24419402.2204   24419399.2684
       212.000         161.000
 123060844.91448  95891567.50348  23417699.4204   23417699.8494   23417699.5894
       225.000         178.000
 107631526.03848  83868711.80048  20481606.2254   20481607.2584   20481606.0404
       251.000         235.000
 127528340.29848  81580510.53548  22364910.7974   22364913.1454   22364910.7314
       234.000         192.000
 09  1 31  1 31 30.0000000  0 10G26G 5G 9G15G18G14G17G22G12G30
 142019028.76148  92871938.93548  25122410.6154   25122412.8644   25122408.7874
       205.000         146.000
 119419805.89748  75262175.73948  20821904.8284   20821907.7034   20821905.1374
       249.000         221.000
 115394195.90848  72125337.60548  20055856.4094   20055858.6634   20055856.5434
       250.000         225.000
 130979248.53548  84269535.99648  23021591.7884   23021593.9224   23021591.7424
       229.000         191.000
 122749346.79648  95648834.95048  23358428.6134   23358430.7184   23358428.9824
       225.000         172.000
 135756253.60248  87991873.19548  23930629.2414   23930631.5644   23930628.7644
       215.000         161.000
 128401777.21448 100053328.26348  24434050.0394   24434051.4914   24434049.4414
       212.000         162.000
 123086287.24748  95911392.69648  23422541.0544   23422541.5694   23422541.4164
       225.000         179.000
 107610769.27148  83852537.70648  20477656.3174   20477657.4154   20477656.1654
       252.000         234.000
 127440693.86948  81512214.62148  22348231.9014   22348234.3874   22348231.8114
       234.000         192.000
 09  1 31  1 32  0.0000000  0 10G26G 5G 9G15G18G14G17G22G12G30
 142133412.54448  92961069.23248  25144176.2384   25144179.9754   25144176.3284
       198.000         143.000
 119371891.04348  75224839.50048  20812786.8404   20812789.9324   20812787.6744
       249.000         221.000
 115415278.83048  72141765.84848  20059868.1324   20059870.5654   20059868.3424
       249.000         225.000
 131081431.86148  84349159.37148  23041036.7674   23041038.4604   23041036.3384
       231.000         191.000
 122818491.16048  95702713.66448  23371586.5764   23371588.3214   23371587.5694
       222.000         169.000
 135656414.56648  87914076.54648  23911629.8764   23911632.9404   23911629.8894
       210.000         160.000
 128479131.47948 100113604.34048  24448769.7384   24448771.4084   24448770.0574
       213.000         160.000
 123112206.59748  95931589.58748  23427473.0814   23427474.1784   23427473.0764
       227.000         178.000
 107590446.32448  83836701.65248  20473789.0084   20473789.9384   20473788.9954
       251.000         235.000
 127353318.79448  81444130.14748  22331605.0574   22331607.6574   22331604.8704
       235.000         193.000
 09  1 31  1 32 30.0000000  0 10G26G 5G 9G15G18G14G17G22G12G30
 142247835.24248  93050229.72848  25165950.3834   25165954.2464   25165949.3524
       206.000         143.000
 119324383.24948  75187820.46048  20803746.3474   20803749.5114   20803746.7274
       249.000         220.000
 115436737.41748  72158486.82148  20063951.6834   20063954.0044   20063951.8234
       250.000         225.000
 131183845.63148  84428962.30248  23060525.5324   23060527.1924   23060525.3694
       229.000         189.000
 122887928.10148  95756820.36048  23384799.3174   23384801.7814   23384799.6664
       222.000         167.000
 135556756.74148  87836421.14348  23892665.1324   23892668.1644   23892665.1014
       210.000         159.000
 128556856.52348 100174169.35448  24463560.5754   24463562.0954   24463560.2754
       209.000         159.000
 123138602.03248  95952157.45348  23432495.5184   23432497.0884   23432495.8724
       224.000         177.000
 107570557.89348  83821204.18148  20470004.3094   20470005.5304   20470003.9574
       252.000         235.000
 127266216.57848  81376258.29448  22315029.7634   22315032.5884   22315029.7374
       234.000         193.000
 09  1 31  1 33  0.0000000  0 10G26G 5G 9G15G18G14G17G22G12G30
 142362294.36448  93139418.67948  25187732.4644   25187733.6414   25187730.7324
       203.000         141.000
 119277282.08048  75151118.26048  20794783.3664   20794786.2774   20794784.1234
       249.000         221.000
 115458571.19148  72175500.14748  20068106.4514   20068108.7444   20068106.6664
       249.000         225.000
 131286486.52848  84508942.20648  23080057.4824   23080059.2464   23080057.0354
       229.000         188.000
 122957653.99348  95811152.23348  23398067.7764   23398069.9984   23398068.1934
       223.000         169.000
 135457282.23248  87758908.52648  23873736.5574   23873739.4564   23873736.4964
       213.000         160.000
 128634949.27048 100235020.81848  24478421.0524   24478422.7224   24478420.4404
       208.000         156.000
 123165471.37548  95973094.59148  23437609.5524   23437609.5344   23437609.4864
       227.000         175.000
 107551102.31348  83806043.99048  20466302.0864   20466303.3654   20466301.9934
       254.000         236.000
 127179387.52648  81308599.29148  22298506.7724   22298509.2594   22298506.2274
       234.000         192.000
 09  1 31  1 33 30.0000000  0 10G26G 5G 9G15G18G14G17G22G12G30
 142476787.39648  93228634.06148  25209519.3804   25209521.2474   25209517.6904
       202.000         142.000
 119230587.29448  75114732.72848  20785897.5654   20785900.6474   20785898.1994
       250.000         221.000
 115480779.95648  72192805.67648  20072332.7454   20072335.0464   20072333.0424
       250.000         225.000
 131389352.13148  84589097.23248  23099632.3084   23099633.7754   23099631.8984
       227.000         187.000
 123027665.23148  95865706.44048  23411390.7544   23411392.7714   23411391.6394
       223.000         169.000
 135357992.98948  87681540.26748  23854842.7114   23854844.8754   23854841.5704
       214.000         161.000
 128713407.24748 100296156.89748  24493351.2204   24493352.4384   24493351.5714
       205.000         153.000
 123192812.51448  95994399.37148  23442811.8354   23442811.9994   23442812.2434
       224.000         175.000
 107532078.96548  83791220.60948  20462682.1054   20462683.2084   20462681.9914
       254.000         236.000
 127092832.36448  81241153.73548  22282035.4834   22282038.5104   22282035.2304
       235.000         193.000
 09  1 31  1 34  0.0000000  0 10G26G 5G 9G15G18G14G17G22G12G30
 142591312.98648  93317874.71148  25231312.5884   25231315.5664   25231312.7194
       204.000         144.000
 119184299.47748  75078664.31148  20777089.4034   20777092.3924   20777090.0264
       250.000         221.000
 115503364.16348  72210403.76048  20076630.4054   20076632.8894   20076630.7214
       249.000         225.000
 131492440.67548  84669425.95348  23119248.9214   23119251.2464   23119248.1064
       227.000         188.000
 123097959.26848  95920481.03548  23424767.3034   23424769.6154   23424767.5254
       223.000         170.000
 135258891.81248  87604318.58248  23835984.5264   23835986.4964   23835984.0494
       210.000         161.000
 128792228.53648 100357576.10248  24508349.6404   24508351.9414   24508350.2614
       199.000         146.000
 123220624.14148  96016070.73948  23448104.6424   23448104.9894   23448104.7884
       225.000         176.000
 107513487.94048  83776734.09848  20459144.3984   20459145.3354   20459144.4744
       254.000         235.000
 127006552.73348  81173922.86648  22265617.4724   22265619.8034   22265617.0414
       235.000         192.000
 09  1 31  1 34 30.0000000  0 10G26G 5G 9G15G18G14G17G22G12G30
 142705869.68348  93407139.66448  25253111.6194   25253114.9814   25253111.7624
       210.000         150.000
 119138419.37248  75042913.58548  20768358.7244   20768361.7204   20768359.3304
       250.000         222.000
 115526324.18648  72228294.67748  20080999.5634   20081002.1324   20080999.6804
       250.000         225.000
 131595750.32748  84749926.96848  23138908.6394   23138910.6424   23138908.2274
       231.000         190.000
 123168533.70248  95975474.07948  23438197.1534   23438199.6464   23438197.2934
       225.000         170.000
 135159981.77548  87527245.84248  23817163.1664   23817164.9264   23817161.5184
       214.000         162.000
 128871410.96848 100419276.66548  24523416.8484   24523418.9624   24523416.4094
       195.000         142.000
 123248904.95248  96038107.73548  23453486.3564   23453486.2144   23453486.8884
       226.000         177.000
 107495328.61848  83762583.98648  20455688.5744   20455689.7404   20455688.6234
       253.000         235.000
 126920550.16348  81106907.89148  22249251.4704   22249253.9544   22249251.6414
       235.000         192.000
 09  1 31  1 35  0.0000000  0 10G26G 5G 9G15G18G14G17G22G12G30
 142820454.55448  93496426.59848  25274917.1644   25274920.7364   25274917.7164
       207.000         148.000
 119092946.31648  75007480.04648  20759705.6034   20759708.5574   20759706.1254
       250.000         222.000
 115549659.09948  72246477.72848  20085439.9844   20085442.5454   20085440.0934
       249.000         225.000
 131699278.18248  84830598.02348  23158609.2934   23158611.0784   23158609.1984
       229.000         189.000
 123239384.61948  96030682.59748  23451679.8974   23451681.9974   23451680.8344
       222.000         170.000
 135061264.66448  87450323.40048  23798378.1204   23798379.4724   23798377.9104
       216.000         164.000
 128950951.13648 100481256.02748  24538553.2694   24538555.5834   24538552.6184
       199.000         140.000
 123277652.56848  96060508.45148  23458956.6314   23458957.0774   23458956.0584
       227.000         176.000
 107477600.00648  83748769.48948  20452314.7904   20452316.2014   20452314.6104
       253.000         236.000
 126834824.83248  81040108.93648  22232938.7554   22232941.0094   22232938.2554
       236.000         193.000
 09  1 31  1 35 30.0000000  0 10G26G 5G 9G15G18G14G17G22G12G30
 142935065.94648  93585734.19848  25296726.8684   25296730.2894   25296726.2594
       202.000         144.000
 119047880.59948  74972363.91148  20751129.8764   20751132.8634   20751130.4694
       250.000         222.000
 115573369.27448  72264953.18448  20089951.6904   20089954.5464   20089951.7214
       249.000         225.000
 131803022.16848  84911437.49748  23178351.0094   23178353.0094   23178350.7174
       229.000         190.000
 123310508.90648  96086104.09948  23465214.4254   23465216.7184   23465214.6984
       224.000         170.000
 134962743.23748  87373553.47748  23779630.1794   23779631.4984   23779630.4524
       216.000         164.000
 129030846.78848 100543512.44348  24553756.2324   24553759.5314   24553756.2794
       197.000         140.000
 123306865.16548  96083271.50248  23464515.6614   23464515.7654   23464515.4744
       228.000         177.000
 107460301.37948  83735290.04448  20449023.1564   20449024.4384   20449023.1244
       254.000         236.000
 126749377.89048  80973526.91348  22216678.8054   22216681.0224   22216678.7254
       235.000         193.000
 09  1 31  1 36  0.0000000  0 10G26G 5G 9G15G18G14G17G22G12G30
 143049702.06548  93675061.06348  25318540.9584   25318544.7434   25318540.6324
       194.000         136.000
 119003222.63648  74937565.51048  20742631.6634   20742634.7784   20742632.1374
       250.000         222.000
 115597455.21748  72283721.44348  20094535.0804   20094537.9344   20094535.2574
       249.000         225.000
 131906980.32748  84992443.84448  23198133.6054   23198136.0034   23198133.9184
       228.000         188.000
 123381903.95948  96141736.59548  23478800.2584   23478802.1924   23478801.0404
       224.000         169.000
 134864420.35448  87296938.23848  23760919.8744   23760921.2004   23760920.3594
       215.000         165.000
 129111096.06548 100606044.34548  24569027.3244   24569029.5544   24569028.0164
       191.000         136.000
 123336541.23048  96106395.69248  23470162.7214   23470163.1704   23470163.3994
       226.000         175.000
 107443432.45148  83722145.42548  20445813.1024   20445814.4704   20445813.2404
       253.000         236.000
 126664210.33748  80907162.59248  22200471.6694   22200474.3854   22200471.6314
       234.000         193.000
 09  1 31  1 36 30.0000000  0 10G26G 5G 9G15G18G14G17G22G12G30
 143164361.32948  93764405.84148  25340359.7154   25340363.9974   25340358.5314
       199.000         137.000
 118958972.66848  74903085.01548  20734211.1504   20734214.1214   20734211.4644
       250.000         222.000
 115621917.11848  72302782.65948  20099189.9984   20099192.8444   20099190.0454
       249.000         225.000
 132011150.41748  85073615.33348  23217956.6114   23217958.5744   23217956.0664
       229.000         185.000
 123453566.55748  96197577.59548  23492436.8524   23492439.1504   23492437.3084
       222.000         170.000
 134766298.49748  87220479.67548  23742247.2924   23742249.1304   23742246.6904
       214.000         164.000
 129191696.39948 100668849.71948  24584365.6784   24584369.2224   24584364.0034
       188.000         137.000
 123366679.21748  96129879.83048  23475898.4194   23475898.1964   23475898.7684
       227.000         178.000
 107426992.62248  83709335.17748  20442684.5064   20442686.0684   20442684.1304
       253.000         236.000
 126579323.29948  80841016.85648  22184318.2434   22184320.9604   22184317.7284
       235.000         194.000
 09  1 31  1 37  0.0000000  0 10G26G 5G 9G15G18G14G17G22G12G30
 143279042.23548  93853767.60748  25362183.2304   25362186.4054   25362182.3034
       208.000         143.000
 118915131.73848  74868923.25348  20725868.4744   20725871.3844   20725869.0634
       250.000         222.000
 115646755.53248  72322137.26348  20103916.5964   20103919.3064   20103916.6814
       249.000         225.000
 132115531.13048  85154950.95148  23237819.9844   23237821.5374   23237819.6794
       229.000         186.000
 123525495.08748  96253625.80648  23506124.8364   23506126.8934   23506125.0454
       223.000         168.000
 134668381.00148  87144180.33548  23723613.9204   23723616.1794   23723614.0504
       217.000         166.000
 129272646.28748 100731927.61248  24599769.4834   24599772.3904   24599769.4714
       195.000         137.000
 123397277.98648  96153723.00548  23481721.1004   23481721.7894   23481721.0814
       226.000         177.000
 107410981.89648  83696859.28748  20439637.8394   20439639.2054   20439637.7664
       253.000         236.000
 126494718.42048  80775090.99648  22168218.7534   22168221.2394   22168218.6234
       236.000         196.000
 09  1 31  1 37 30.0000000  0 10G26G 5G 9G15G18G14G17G22G12G30
 143393741.78948  93943143.92248  25384010.4554   25384013.6954   25384009.8744
       203.000         141.000
 118871698.50748  74835079.18848  20717603.4734   20717606.2264   20717604.4374
       250.000         222.000
 115671968.87548  72341784.01248  20108714.6844   20108717.1834   20108714.7784
       249.000         225.000
 132220118.65448  85236447.72548  23257722.1264   23257724.1154   23257721.3574
       230.000         188.000
 123597684.45348  96309877.25048  23519862.0534   23519864.2234   23519863.1784
       223.000         165.000
 134570669.19448  87068041.25948  23705020.2874   23705022.3684   23705020.3674
       217.000         166.000
 129353941.88748 100795274.88248  24615241.5384   24615242.3824   24615241.0844
       194.000         139.000
 123428334.27248  96177922.68448  23487630.4184   23487630.8254   23487630.3534
       225.000         175.000
 107395398.30948  83684716.23048  20436672.3584   20436673.6434   20436672.2314
       253.000         235.000
 126410395.25948  80709384.63048  22152172.4734   22152174.6404   22152172.2334
       236.000         196.000
 09  1 31  1 38  0.0000000  0 10G26G 5G 9G15G18G14G17G22G12G30
 143508458.69748  94032533.68448  25405840.3614   25405841.9494   25405841.4334
       201.000         139.000
 118828673.78748  74801553.44148  20709416.2434   20709418.8864   20709416.6234
       251.000         223.000
 115697557.98448  72361723.57348  20113584.1504   20113586.6914   20113584.3504
       249.000         225.000
 132324911.59348  85318104.54748  23277663.1824   23277665.0814   23277663.2464
       227.000         186.000
 123670133.04748  96366330.71848  23533648.2884   23533650.2194   23533649.2904
       218.000         163.000
 134473166.33348  86992064.99248  23686465.3444   23686467.8264   23686465.0854
       214.000         164.000
 129435581.43848 100858890.14348  24630776.6424   24630777.8754   24630775.5624
       199.000         137.000
 123459847.11548  96202478.12748  23493627.2534   23493627.2074   23493627.6044
       225.000         174.000
 107380242.08548  83672906.19048  20433788.0824   20433789.4984   20433787.9464
       253.000         235.000
 126326355.75948  80643899.31848  22136180.2334   22136182.6114   22136179.8254
       237.000         195.000
 09  1 31  1 38 30.0000000  0 10G26G 5G 9G15G18G14G17G22G12G30
 143623191.01548  94121935.47448  25427672.2984   25427675.5434   25427673.7104
       202.000         142.000
 118786057.74248  74768346.14748  20701306.7754   20701309.4164   20701307.6004
       250.000         222.000
 115723523.04748  72381956.08548  20118525.2434   20118527.6764   20118525.4904
       249.000         225.000
 132429907.52248  85399919.55048  23297643.5274   23297644.7774   23297643.2574
       228.000         184.000
 123742837.51948  96422983.56548  23547483.4004   23547485.8454   23547483.3454
       221.000         166.000
 134375874.89948  86916253.50248  23667951.4774   23667954.2904   23667951.6714
       218.000         169.000
 129517562.28648 100922771.33348  24646377.8434   24646376.8884   24646378.2414
       196.000         136.000
 123491814.57148  96227387.82448  23499711.0264   23499710.6034   23499711.1454
       228.000         174.000
 107365512.68148  83661428.73548  20430985.1714   20430986.6684   20430984.8764
       254.000         236.000
 126242600.59048  80578635.55748  22120242.2564   22120244.3044   22120241.5954
       237.000         196.000
 09  1 31  1 39  0.0000000  0 10G26G 5G 9G15G18G14G17G22G12G30
 143737936.72548  94211347.72248  25449507.3244   25449511.0074   25449507.5064
       201.000         138.000
 118743850.36048  74735457.29348  20693274.7294   20693277.5274   20693275.5424
       250.000         222.000
 115749864.29248  72402481.72448  20123537.7414   20123540.3534   20123537.9104
       249.000         225.000
 132535104.37248  85481891.09348  23317661.9824   23317663.1194   23317661.5824
       228.000         184.000
 123815794.57048  96479833.22048  23561366.9334   23561369.2624   23561368.3764
       220.000         165.000
 134278797.47748  86840608.76448  23649478.7544   23649480.9154   23649479.5334
       220.000         169.000
 129599882.13148 100986916.67148  24662041.4454   24662042.2374   24662041.7284
       187.000         135.000
 123524234.65248  96252650.20948  23505879.3584   23505879.5504   23505880.5824
       224.000         173.000
 107351208.87448  83650282.90748  20428263.4874   20428264.6324   20428263.4974
       253.000         236.000
 126159130.70548  80513594.08948  22104358.2114   22104360.4464   22104358.2164
       236.000         195.000
 09  1 31  1 39 30.0000000  0  9G 5G 9G15G18G14G17G22G12G30
 118702052.24148  74702887.34048  20685320.7904   20685323.7024   20685321.4884
       250.000         222.000
 115776581.73148  72423300.50048  20128621.9794   20128624.5334   20128622.1684
       249.000         225.000
 132640500.42248  85564017.88248  23337718.5214   23337719.2064   23337718.1094
       228.000         183.000
 123889001.59748  96536877.63848  23575297.7354   23575299.8124   23575298.1814
       219.000         163.000
 134181937.17648  86765133.19948  23631047.2624   23631049.2254   23631047.5434
       220.000         169.000
 129682539.01348 101051324.61348  24677768.9784   24677771.3664   24677768.5884
       196.000         139.000
 123557105.91348  96278264.14648  23512134.5284   23512135.4494   23512134.3164
       224.000         175.000
 107337330.74748  83639468.79048  20425622.5664   20425623.8224   20425622.3584
       253.000         236.000
 126075947.61448  80448776.10848  22088529.0444   22088531.6824   22088528.8564
       236.000         196.000
 09  1 31  1 40  0.0000000  0  9G 5G 9G15G18G14G17G22G12G30
 118660663.27148  74670636.20148  20677444.7234   20677447.6544   20677445.2974
       251.000         223.000
 115803675.45748  72444412.49748  20133777.6834   20133780.3734   20133777.7934
       249.000         225.000
 132746093.03448  85646297.84948  23357812.0464   23357812.8104   23357811.6694
       229.000         184.000
 123962454.92348  96594114.01448  23589275.7674   23589278.1284   23589275.9624
       220.000         166.000
 134085296.16448  86689828.52448  23612657.2184   23612658.9044   23612657.1374
       218.000         169.000
 129765530.23648 101115993.05148  24693564.3284   24693564.7894   24693562.1734
       194.000         137.000
 123590426.15848  96304227.94848  23518475.6184   23518476.5034   23518475.5204
       225.000         176.000
 107323877.11648  83628985.44748  20423062.3004   20423063.6364   20423062.0634
       253.000         235.000
 125993051.74648  80384181.93748  22072754.5434   22072756.9084   22072754.0124
       237.000         197.000
 09  1 31  1 40 30.0000000  0  9G 5G 9G15G18G14G17G22G12G30
 118619683.52348  74638703.93448  20669646.8234   20669649.4664   20669647.7314
       251.000         223.000
 115831145.40748  72465817.64848  20139005.0664   20139007.6184   20139005.2654
       250.000         225.000
 132851879.95948  85728729.21448  23377942.2804   23377943.3464   23377941.9424
       228.000         184.000
 124036152.40048  96651540.60148  23603299.9594   23603302.2054   23603300.8394
       222.000         166.000
 133988877.43348  86614697.04648  23594309.2844   23594310.9314   23594308.8844
       221.000         169.000
 129848853.08148 101180920.00148  24709418.9864   24709419.1464   24709419.1094
       188.000         133.000
 123624193.72648  96330540.31748  23524901.2944   23524902.3644   23524901.6354
       225.000         175.000
 107310847.66548  83618832.62948  20420582.9074   20420584.1984   20420583.1064
       253.000         235.000
 125910444.18048  80319812.42248  22057034.7054   22057037.4724   22057034.8664
       238.000         199.000
 09  1 31  1 41  0.0000000  0  9G 5G 9G15G18G14G17G22G12G30
 118579112.92948  74607090.49848  20661926.4624   20661929.0784   20661927.1194
       251.000         223.000
 115858991.47748  72487515.87948  20144304.1314   20144306.5834   20144304.3204
       250.000         225.000
 132957858.77748  85811310.10248  23398109.0884   23398110.8404   23398109.3404
       227.000         183.000
 124110090.20848  96709154.48548  23617369.6644   23617371.6024   23617370.1224
       221.000         165.000
 133892683.19448  86539740.50148  23576004.0404   23576005.7574   23576004.4424
       220.000         172.000
 129932505.14848 101246103.43048  24725336.7634   24725338.8424   24725337.6024
       191.000         137.000
 123658406.18748  96357199.37548  23531412.3514   23531412.2914   23531412.3404
       225.000         175.000
 107298241.69348  83609009.79148  20418183.9754   20418185.3474   20418183.5664
       253.000         235.000
 125828126.04148  80255668.44048  22041370.1944   22041372.9924   22041370.1404
       237.000         198.000
 09  1 31  1 41 30.0000000  0  9G 5G 9G15G18G14G17G22G12G30
 118538953.54448  74575797.48448  20654284.1574   20654286.9734   20654284.6734
       250.000         223.000
 115887215.73748  72509508.81348  20149675.2214   20149677.3674   20149675.4304
       250.000         225.000
 133064029.42148  85894040.45448  23418312.7704   23418315.1244   23418312.6274
       226.000         184.000
 124184267.00048  96766954.59048  23631485.0874   23631486.8824   23631486.1014
       217.000         164.000
 133796718.01248  86464962.43448  23557742.5584   23557744.1524   23557742.0854
       222.000         171.000
 130016485.87448 101311543.00348  24741319.3634   24741318.7844   24741318.4494
       190.000         135.000
 123693063.94448  96384205.38948  23538006.8094   23538007.2814   23538006.6044
       223.000         173.000
 107286060.20448  83599517.72648  20415866.0734   20415867.2674   20415865.7104
       253.000         236.000
 125746099.66648  80191751.81048  22025761.0514   22025763.6314   22025760.5034
       238.000         198.000
 09  1 31  1 42  0.0000000  0  9G 5G 9G15G18G14G17G22G12G30
 118499203.28748  74544823.26848  20646720.1094   20646722.9254   20646720.9334
       251.000         223.000
 115915815.88748  72531794.64048  20155117.5444   20155119.7024   20155117.6974
       249.000         225.000
 133170387.47548  85976916.83448  23438552.3124   23438554.3274   23438551.7854
       226.000         181.000
 124258678.10548  96824937.26948  23645644.6654   23645647.0744   23645644.7374
       218.000         163.000
 133700982.44148  86390363.30348  23539523.9494   23539526.4874   23539523.8484
       222.000         172.000
 130100790.98748 101377235.29948  24757360.0474   24757362.6604   24757361.7474
       190.000         131.000
 123728162.77648  96411555.11348  23544686.2454   23544686.7994   23544686.5714
       224.000         174.000
 107274300.14348  83590354.03648  20413628.3414   20413629.5114   20413628.1684
       253.000         236.000
 125664364.23648  80128061.87048  22010207.3204   22010209.5594   22010207.1384
       239.000         198.000
 09  1 31  1 42 30.0000000  0  9G 5G 9G15G18G14G17G22G12G30
 118459862.49148  74514168.12448  20639233.5504   20639236.6134   20639234.3514
       250.000         223.000
 115944792.21148  72554373.60048  20160631.4454   20160633.7394   20160631.5874
       249.000         224.000
 133276930.84948  86059937.64548  23458826.3954   23458828.5484   23458826.5764
       225.000         181.000
 124333321.12348  96883100.68048  23659848.6634   23659850.9174   23659849.5064
       218.000         162.000
 133605479.52648  86315945.44448  23521350.5874   23521352.6594   23521350.4014
       220.000         171.000
 130185418.02048 101443178.44948  24773464.8724   24773465.7774   24773467.3384
       181.000         125.000
 123763700.87348  96439247.11448  23551448.4844   23551449.0714   23551448.7324
       225.000         174.000
 107262961.16548  83581518.47348  20411470.5154   20411471.8954   20411470.7844
       253.000         236.000
 125582920.94848  80064599.57048  21994709.3354   21994711.4584   21994709.5084
       239.000         198.000
 09  1 31  1 43  0.0000000  0  9G 5G 9G15G18G14G17G22G12G30
 118420930.89948  74483831.83148  20631825.3314   20631828.2334   20631825.8744
       251.000         224.000
 115974144.46848  72577245.48348  20166216.7994   20166219.3964   20166216.9614
       249.000         225.000
 133383656.88248  86143100.79848  23479135.6284   23479137.7634   23479135.5244
       226.000         181.000
 124408191.93848  96941441.57748  23674095.6214   23674098.4324   23674096.4744
       217.000         161.000
 133510211.43048  86241710.55648  23503221.7154   23503223.6804   23503221.7244
       221.000         174.000
 140270303.95558  91509309.11758  24789628.0885   24789629.6035   24789628.5225
       183.000         123.000
 123799675.90248  96467279.59448  23558294.9314   23558294.9064   23558295.0764
       226.000         175.000
 107252042.11248  83573010.12248  20409392.5954   20409393.9574   20409392.3144
       253.000         235.000
 125501770.25548  80001365.27148  21979266.5884   21979269.0774   21979266.2204
       237.000         198.000
 09  1 31  1 43 30.0000000  0  8G 5G 9G15G18G14G22G12G30
 118382408.48948  74453814.37848  20624494.6374   20624497.5404   20624495.4214
       250.000         223.000
 116003872.57848  72600410.24948  20171873.6874   20171876.5694   20171873.7594
       249.000         224.000
 133490563.44048  86226404.60748  23499479.7124   23499481.2704   23499479.4504
       226.000         179.000
 124483287.95348  96999957.98048  23688386.2844   23688388.3964   23688386.4924
       218.000         162.000
 133415181.01548  86167660.88748  23485138.3634   23485140.1934   23485138.7304
       225.000         176.000
 123836085.98248  96495651.06748  23565223.2854   23565223.3564   23565223.4074
       228.000         175.000
 107241542.26948  83564828.42848  20407394.4574   20407395.7524   20407394.0584
       253.000         235.000
 125420913.02048  79938359.65048  21963879.6184   21963882.4464   21963879.3464
       237.000         198.000
 09  1 31  1 44  0.0000000  0  8G 5G 9G15G18G14G22G12G30
 118344295.01348  74424115.57448  20617241.8754   20617244.7294   20617242.6394
       250.000         223.000
 116033976.33248  72623867.71248  20177602.2844   20177605.1264   20177602.5244
       249.000         225.000
 133597648.13548  86309847.21848  23519856.7474   23519858.7704   23519856.5504
       227.000         180.000
 124558605.39548  97058646.89548  23702719.4194   23702720.8084   23702720.1124
       222.000         163.000
 133320390.27648  86093797.97248  23467100.2684   23467101.6974   23467101.2424
       222.000         172.000
 123872928.61348  96524359.60648  23572234.4824   23572234.3504   23572234.6884
       225.000         174.000
 107231460.75648  83556972.69548  20405476.2494   20405477.3004   20405476.3054
       253.000         236.000
 125340349.64048  79875582.99948  21948549.0324   21948551.8644   21948548.7304
       237.000         198.000
 09  1 31  1 44 30.0000000  0  8G 5G 9G15G18G14G22G12G30
 118306590.81748  74394735.68548  20610067.0284   20610069.8904   20610067.5304
       250.000         223.000
 116064455.80548  72647617.95048  20183402.4144   20183405.5554   20183402.5654
       250.000         224.000
 133704908.85248  86393426.98848  23540268.3104   23540269.6094   23540268.5644
       226.000         180.000
 124634141.43848  97117506.14648  23717093.5814   23717095.0964   23717093.8424
       221.000         165.000
 133225842.49748  86020124.38648  23449108.7224   23449110.3154   23449109.5854
       224.000         175.000
 123910202.18348  96553403.92648  23579327.7064   23579327.3564   23579327.5994
       226.000         172.000
 107221796.75548  83549442.30348  20403637.1594   20403638.2464   20403636.9244
       253.000         236.000
 125260081.45648  79813036.36448  21933274.7204   21933277.3244   21933274.3764
       239.000         199.000
 09  1 31  1 45  0.0000000  0  8G 5G 9G15G18G14G22G12G30
 118269296.00648  74365674.80348  20602969.8184   20602972.8894   20602970.5394
       251.000         222.000
 116095311.22948  72671661.13248  20189274.1554   20189276.4834   20189274.4374
       250.000         224.000
 133812343.47048  86477142.27848  23560711.8504   23560714.0034   23560711.1464
       223.000         178.000
 124709893.42148  97176533.65848  23731508.9834   23731510.3894   23731509.1054
       224.000         166.000
 133131540.30448  85946642.16548  23431163.3884   23431165.2054   23431163.9044
       226.000         175.000
 123947904.88748  96582782.64448  23586501.8524   23586502.3854   23586501.7774
       221.000         172.000
 107212549.85248  83542236.92648  20401877.5254   20401878.8084   20401877.4234
       253.000         236.000
 125180109.67348  79750720.68748  21918056.7514   21918059.1614   21918056.3074
       239.000         200.000
 09  1 31  1 45 30.0000000  0  8G 5G 9G15G18G14G22G12G30
 118232411.07948  74336933.31248  20595950.8274   20595953.7754   20595951.3034
       251.000         223.000
 116126543.50248  72695997.97148  20195217.4634   20195220.1504   20195217.7844
       250.000         224.000
 133919950.37048  86560991.78948  23581188.8984   23581191.0884   23581187.9454
       223.000         178.000
 124785858.82948  97235727.45848  23745964.0254   23745966.2574   23745965.5184
       221.000         161.000
 133037487.03848  85873353.88348  23413265.9334   23413267.5104   23413266.4874
       226.000         178.000
 123986035.19648  96612494.57048  23593757.2124   23593758.1054   23593757.5084
       220.000         170.000
 107203720.13948  83535356.63448  20400197.2264   20400198.5014   20400197.1564
       253.000         236.000
 125100435.40548  79688636.84748  21902895.4294   21902897.6554   21902895.3754
       240.000         201.000
 09  1 31  1 46  0.0000000  0  8G 5G 9G15G18G14G22G12G30
 118195935.71948  74308510.95548  20589009.9744   20589012.8884   20589010.6624
       251.000         223.000
 116158151.96948  72720627.94148  20201232.4454   20201234.6624   20201232.7404
       250.000         224.000
 134027726.87448  86644973.49448  23601698.4854   23601699.9754   23601698.4004
       224.000         177.000
 124862034.32248  97295084.96948  23760459.2044   23760461.6074   23760459.8684
       215.000         161.000
 132943684.70348  85800261.18148  23395415.4144   23395417.9564   23395415.4214
       224.000         177.000
 124024590.43948  96642537.58848  23601094.0934   23601095.4354   23601093.4034
       222.000         171.000
 107195305.85148  83528800.04948  20398596.1484   20398597.4004   20398595.9464
       253.000         236.000
 125021059.35548  79626785.39148  21887790.6984   21887793.1454   21887790.5174
       241.000         202.000
 09  1 31  1 46 30.0000000  0  8G 5G 9G15G18G14G22G12G30
 118159870.26748  74280408.01748  20582146.7644   20582149.7624   20582146.9314
       252.000         223.000
 116190136.91148  72745551.27648  20207319.0184   20207321.1774   20207319.2084
       250.000         224.000
 134135670.93348  86729085.73948  23622238.9974   23622240.7194   23622238.8404
       223.000         176.000
 124938417.04848  97354603.98248  23774994.2324   23774997.1434   23774994.5664
       216.000         161.000
 132850136.52248  85727366.48248  23377613.7974   23377616.1954   23377613.7784
       222.000         177.000
 124063568.96548  96672910.45348  23608511.8954   23608512.9484   23608512.7234
       223.000         172.000
 107187306.88648  83522567.09348  20397073.9804   20397075.1444   20397073.8944
       253.000         236.000
 124941982.70748  79565167.23548  21872743.0164   21872745.3234   21872742.9804
       239.000         201.000
 09  1 31  1 47  0.0000000  0  8G 5G 9G15G18G14G22G12G30
 118124214.40648  74252624.23148  20575361.8594   20575364.6944   20575362.4214
       251.000         223.000
 116222498.20048  72770767.86448  20213477.2664   20213479.5934   20213477.4684
       251.000         224.000
 134243780.09448  86813326.63448  23642811.5724   23642813.6344   23642811.4174
       222.000         176.000
 125015003.43348  97414281.69748  23789568.3404   23789571.0014   23789568.7484
       215.000         161.000
 132756844.78548  85654671.65248  23359860.6554   23359863.1764   23359860.9024
       225.000         177.000
 124102968.35748  96703611.28748  23616009.5994   23616009.7524   23616009.3074
       226.000         172.000
 107179721.52448  83516656.42248  20395630.4894   20395631.6034   20395630.5024
       254.000         236.000
 124863205.92048  79503782.74148  21857751.9214   21857754.3634   21857751.3604
       238.000         201.000
 09  1 31  1 47 30.0000000  0  8G 5G 9G15G18G14G22G12G30
 118088967.67748  74225159.25448  20568654.4964   20568657.4934   20568655.1704
       251.000         223.000
 116255235.35848  72796277.33148  20219706.9234   20219708.9654   20219707.1574
       250.000         224.000
 134352051.64848  86897694.07248  23663414.8744   23663417.4314   23663414.3894
       221.000         180.000
 125091790.19548  97474115.54948  23804180.5094   23804183.0154   23804180.9544
       219.000         161.000
 132663811.97248  85582178.53448  23342157.4174   23342159.3334   23342157.9744
       223.000         177.000
 124142786.06948  96734638.06648  23623586.2174   23623587.0684   23623587.0084
       221.000         171.000
 107172549.63048  83511067.93848  20394265.7754   20394266.8964   20394265.9524
       253.000         236.000
 124784729.55348  79442632.34248  21842818.3364   21842820.7314   21842818.0624
       239.000         201.000
 09  1 31  1 48  0.0000000  0  8G 5G 9G15G18G14G22G12G30
 118054130.83748  74198013.67348  20562025.2654   20562028.2644   20562025.7094
       251.000         223.000
 116288348.44848  72822079.74148  20226008.0514   20226010.5914   20226008.2064
       250.000         224.000
 134460484.13248  86982186.90348  23684049.3674   23684051.3894   23684048.2434
       225.000         180.000
 125168774.90748  97534103.68048  23818830.3724   23818832.7904   23818831.3484
       220.000         160.000
 132571041.41748  85509889.80748  23324503.4764   23324506.1194   23324503.8774
       223.000         175.000
 124183020.65248  96765989.67148  23631242.8344   23631243.3404   23631242.3874
       224.000         172.000
 107165790.40648  83505801.01548  20392979.4664   20392980.5424   20392979.0814
       253.000         235.000
 124706555.29048  79381717.33948  21827942.3264   21827944.5924   21827942.1504
       239.000         202.000
 09  1 31  1 48 30.0000000  0  8G 5G 9G15G18G14G22G12G30
 118019702.70148  74171186.56148  20555473.7864   20555476.6094   20555474.3494
       250.000         223.000
 116321836.86948  72848174.60148  20232380.6264   20232383.0944   20232380.7674
       250.000         224.000
 134569074.24048  87066802.56948  23704713.4154   23704715.1624   23704713.8564
       224.000         174.000
 125245953.81548  97594243.07448  23833516.9514   23833519.8264   23833517.4304
       218.000         163.000
 132478534.78248  85437806.71948  23306900.3324   23306902.2344   23306901.3564
       226.000         179.000
 124223669.18948  96797663.82548  23638978.0954   23638978.4724   23638978.3454
       225.000         172.000
 107159441.96248  83500854.17648  20391771.3404   20391772.5094   20391771.1534
       253.000         236.000
 124628682.82848  79321037.51948  21813123.7404   21813125.9884   21813123.4084
       239.000         201.000
 09  1 31  1 49  0.0000000  0  8G 5G 9G15G18G14G22G12G30
 117985682.90548  74144677.63648  20549000.0454   20549002.9754   20549000.1444
       251.000         223.000
 116355700.32148  72874561.70948  20238824.6244   20238827.0654   20238824.9354
       250.000         224.000
 134677818.99048  87151538.72048  23725406.3764   23725408.0414   23725406.6854
       220.000         174.000
 125323323.11148  97654530.85148  23848240.1704   23848242.5354   23848240.9664
       219.000         161.000
 132386294.48848  85365931.15848  23289348.2024   23289349.4864   23289349.5704
       226.000         179.000
 124264728.58048  96829658.16748  23646791.0144   23646791.9414   23646791.8074
       223.000         170.000
 107153503.11448  83496226.50748  20390641.2674   20390642.5294   20390640.8894
       253.000         236.000
 124551112.50948  79260593.12548  21798362.4854   21798364.7424   21798362.3474
       239.000         201.000
 09  1 31  1 49 30.0000000  0  8G 5G 9G15G18G14G22G12G30
 117952072.48548  74118487.70048  20542604.2964   20542607.3384   20542604.8714
       251.000         223.000
 116389939.98948  72901241.95548  20245340.2514   20245342.5944   20245340.3514
       250.000         224.000
 134786717.57548  87236394.76548  23746129.9034   23746130.8004   23746129.1274
       224.000         176.000
 125400881.03748  97714965.59848  23862998.6054   23863001.1614   23862998.7944
       219.000         161.000
 132294324.02148  85294265.87348  23271846.4664   23271848.0554   23271847.6264
       223.000         176.000
 124306198.56748  96861972.41248  23654682.7154   23654682.8424   23654682.7834
       221.000         172.000
 107147974.50948  83491918.50548  20389589.0464   20389590.4374   20389588.6694
       253.000         236.000
 124473846.43948  79200385.80448  21783659.2574   21783661.5434   21783659.1634
       239.000         201.000
 09  1 31  1 50  0.0000000  0  8G 5G 9G15G18G14G22G12G30
 117918871.46648  74092616.77948  20536286.2494   20536289.3014   20536286.9574
       251.000         223.000
 116424555.82348  72928215.33048  20251927.3834   20251929.7274   20251927.6104
       250.000         224.000
 134895767.97548  87321369.11348  23766881.8464   23766882.7804   23766882.0904
       223.000         177.000
 125478624.24848  97775544.67648  23877793.0804   23877794.9764   23877794.2014
       218.000         161.000
 132202626.26148  85222813.07948  23254396.5864   23254398.3154   23254397.1154
       223.000         178.000
 124348076.59448  96894604.62348  23662651.9204   23662652.5774   23662652.0184
       221.000         173.000
 107142855.12648  83487929.37348  20388614.9994   20388616.2564   20388614.9364
       254.000         236.000
 124396885.68948  79140416.39548  21769013.8254   21769016.4934   21769013.4384
       239.000         203.000
 09  1 31  1 50 30.0000000  0  8G 5G 9G15G18G14G22G12G30
 117886079.66248  74067064.72948  20530046.1554   20530049.4284   20530046.8564
       251.000         223.000
 116459547.61248  72955481.65648  20258586.1944   20258588.5134   20258586.3444
       250.000         224.000
 135004967.82448  87406459.89648  23787661.3134   23787663.0254   23787661.0704
       222.000         177.000
 125556549.39148  97836265.58148  23892621.6764   23892623.4314   23892622.0014
       220.000         159.000
 132111204.10648  85151575.05248  23236999.6854   23237001.8144   23236999.9454
       222.000         178.000
 124390360.32548  96927552.97048  23670698.1584   23670699.1164   23670698.6724
       223.000         173.000
 107138144.07948  83484258.43048  20387718.6384   20387719.7534   20387718.7834
       254.000         236.000
 124320231.08348  79080685.54248  21754427.4214   21754429.9024   21754426.9934
       240.000         204.000
 09  1 31  1 51  0.0000000  0  8G 5G 9G15G18G14G22G12G30
 117853697.77348  74041832.09148  20523884.2404   20523887.0424   20523884.6864
       251.000         223.000
 116494915.97248  72983041.40748  20265316.5754   20265319.0444   20265316.7404
       250.000         224.000
 135114315.44348  87491665.82148  23808469.5244   23808471.3274   23808469.2104
       222.000         176.000
 125634655.22448  97897127.23848  23907484.4264   23907486.8414   23907485.3754
       216.000         157.000
 132020060.71348  85080554.22348  23219655.4954   23219657.8374   23219655.0214
       223.000         179.000
 124433048.38048  96960816.35648  23678821.2064   23678822.3204   23678821.3764
       220.000         169.000
 107133840.76948  83480905.20048  20386899.6524   20386900.8624   20386899.7394
       252.000         237.000
 124243883.97448  79021194.31048  21739898.7594   21739901.4324   21739898.5174
       238.000         204.000
 09  1 31  1 51 30.0000000  0  8G 5G 9G15G18G14G22G12G30
 117821725.04248  74016918.27848  20517799.9064   20517802.7694   20517800.1994
       251.000         223.000
 116530660.25148  73010894.08448  20272118.4964   20272121.0054   20272118.8104
       250.000         224.000
 135223807.86848  87576984.55548  23829304.7494   23829307.5034   23829304.5734
       219.000         175.000
 125712937.44348  97958126.41048  23922381.3144   23922382.9624   23922381.6974
       214.000         156.000
 131929198.49548  85009752.50048  23202364.9334   23202367.3984   23202364.4064
       224.000         177.000
 124476137.79548  96994392.49048  23687020.8294   23687021.7294   23687020.7344
       222.000         172.000
 107129943.95948  83477868.72948  20386158.0474   20386159.5384   20386158.1414
       253.000         237.000
 124167844.08548  78961942.47048  21725428.7394   21725431.5764   21725427.9194
       240.000         205.000
 09  1 31  1 52  0.0000000  0  8G 5G 9G15G18G14G22G12G30
 117790160.43448  73992322.48248  20511793.4654   20511796.2404   20511793.9984
       252.000         223.000
 116566779.86348  73039039.24548  20278991.8374   20278994.3054   20278991.9714
       250.000         224.000
 135333442.17748  87662413.88148  23850167.8504   23850169.5714   23850166.8684
       222.000         174.000
 125791392.02948  98019259.85248  23937310.7384   23937312.6074   23937310.6374
       219.000         158.000
 131838618.95448  84939171.03748  23185128.4564   23185130.3254   23185128.4564
       223.000         178.000
 124519625.24648  97028278.81748  23695296.4384   23695297.6504   23695296.3934
       222.000         170.000
 107126452.47248  83475148.09848  20385493.7434   20385495.0354   20385493.9194
       252.000         237.000
 124092111.82748  78902930.34148  21711017.4714   21711019.8584   21711017.1424
       240.000         204.000
 09  1 31  1 52 30.0000000  0  8G 5G 9G15G18G14G22G12G30
 117759004.17748  73968044.88548  20505864.6134   20505867.4834   20505865.3134
       251.000         223.000
 116603274.82848  73067476.87348  20285936.4544   20285939.0004   20285936.5054
       250.000         224.000
 135443216.05448  87747951.98248  23871057.3504   23871058.9504   23871057.2704
       221.000         172.000
 125870016.34948  98080525.55948  23952272.7134   23952274.0824   23952273.3664
       218.000         158.000
 131748325.26948  84868812.34348  23167945.7714   23167948.2074   23167946.6794
       224.000         178.000
 124563509.42548  97062474.26948  23703647.2904   23703647.3254   23703647.2544
       222.000         170.000
 107123365.16048  83472742.40448  20384906.2574   20384907.5644   20384906.2654
       252.000         237.000
 124016688.08248  78844158.59748  21696664.8364   21696667.1094   21696664.6894
       239.000         205.000
 09  1 31  1 53  0.0000000  0  8G 5G 9G15G18G14G22G12G30
 117728255.56848  73944084.94348  20500013.2224   20500016.2804   20500013.8024
       251.000         223.000
 116640144.37348  73096206.39148  20292952.4904   20292954.9614   20292952.6384
       250.000         223.000
 135553126.88548  87833596.80848  23891972.4884   23891974.1834   23891972.4644
       220.000         173.000
 125948806.54348  98141920.50948  23967265.4284   23967267.6114   23967265.6434
       216.000         156.000
 131658319.68148  84798678.11948  23150818.5714   23150820.2964   23150819.1294
       224.000         179.000
 124607787.38748  97096976.57248  23712073.2824   23712073.4994   23712073.9624
       222.000         172.000
 107120680.62548  83470650.56848  20384395.2164   20384396.6114   20384394.9394
       251.000         237.000
 123941573.31948  78785627.62348  21682370.8624   21682373.3344   21682370.6824
       239.000         204.000
 09  1 31  1 53 30.0000000  0  8G 5G 9G15G18G14G22G12G30
 117697915.00348  73920442.94248  20494239.6734   20494242.5544   20494240.3254
       251.000         223.000
 116677388.64348  73125227.89148  20300039.8824   20300042.3734   20300040.0454
       250.000         223.000
 135663173.00048  87919347.01648  23912912.9644   23912915.2874   23912912.8384
       215.000         169.000
 126027760.35748  98203442.95348  23982289.6184   23982291.8694   23982290.5684
       214.000         152.000
 131568605.26048  84728770.79448  23133746.4294   23133748.3964   23133746.4754
       224.000         179.000
 124652456.95848  97131784.01248  23720573.9114   23720574.1054   23720574.0544
       223.000         172.000
 107118398.31348  83468872.14848  20383961.0514   20383962.3294   20383960.7224
       252.000         237.000
 123866768.96748  78727338.52948  21668136.0244   21668138.5444   21668135.5464
       239.000         204.000
 09  1 31  1 54  0.0000000  0  8G 5G 9G15G18G14G22G12G30
 117667982.97548  73897119.28448  20488543.8444   20488546.5244   20488544.5724
       252.000         223.000
 116715008.56048  73154542.11048  20307198.6864   20307201.2234   20307198.7884
       250.000         223.000
 135773352.41548  88005201.09548  23933879.5974   23933881.8524   23933879.3274
       216.000         169.000
 126106875.27248  98265090.95348  23997344.6274   23997347.1684   23997345.3564
       215.000         155.000
 131479185.47748  84659093.03748  23116730.3004   23116732.2884   23116730.6564
       225.000         178.000
 124697516.55848  97166895.37848  23729148.6134   23729148.8904   23729148.8104
       223.000         173.000
 107116518.00048  83467406.98148  20383603.2064   20383604.5404   20383602.8204
       252.000         237.000
 123792275.85048  78669291.95448  21653960.6694   21653963.0014   21653960.4814
       240.000         205.000
 09  1 31  1 54 30.0000000  0  8G 5G 9G15G18G14G22G12G30
 117638458.72848  73874113.38048  20482925.4934   20482928.3114   20482926.3464
       252.000         223.000
 116753003.32748  73184148.41848  20314428.8584   20314431.4694   20314429.0194
       250.000         224.000
 135883662.73548  88091157.19048  23954870.4914   23954872.9634   23954870.4104
       217.000         170.000
 126186147.54148  98326861.54948  24012430.1734   24012432.3274   24012430.6564
       212.000         152.000
 131390062.34848  84589646.45948  23099770.3004   23099772.4234   23099770.8104
       222.000         178.000
 124742963.53748  97202308.58648  23737797.0804   23737797.4544   23737796.7954
       223.000         173.000
 107115038.22148  83466253.91648  20383321.5854   20383322.8674   20383321.4004
       252.000         237.000
 123718094.26748  78611488.14148  21639844.3484   21639846.8204   21639844.2304
       240.000         206.000
 09  1 31  1 55  0.0000000  0  8G 5G 9G15G18G14G22G12G30
 117609342.38348  73851425.32448  20477384.7924   20477387.5964   20477385.6554
       252.000         223.000
 116791373.26548  73214047.06948  20321730.5514   20321732.9864   20321730.6504
       250.000         223.000
 135994101.77248  88177213.57748  23975886.2304   23975888.5374   23975886.3304
       218.000         169.000
 126265574.52648  98388752.73148  24027544.4844   24027547.0454   24027544.5724
       211.000         152.000
 131301239.01148  84520433.45848  23082867.9814   23082869.9754   23082867.7724
       223.000         177.000
 124788795.81748  97238022.05548  23746518.3774   23746519.1334   23746518.6004
       223.000         172.000
 107113958.50448  83465412.58148  20383116.1414   20383117.4814   20383115.7904
       252.000         237.000
 123644225.66048  78553928.19848  21625787.6464   21625790.0814   21625787.3474
       241.000         206.000
 09  1 31  1 55 30.0000000  0  8G 5G 9G15G18G14G22G12G30
 117580633.32748  73829054.62848  20471921.7484   20471924.4804   20471922.6124
       251.000         223.000
 116830117.55848  73244237.41948  20329103.2744   20329105.7904   20329103.4594
       250.000         223.000
 136104666.65448  88263368.05048  23996926.0514   23996928.5224   23996924.9044
       216.000         169.000
 126345152.67348  98450761.66348  24042687.8184   24042690.4654   24042688.4154
       216.000         156.000
 131212717.32148  84451455.51548  23066023.3304   23066024.9714   23066023.5284
       223.000         178.000
 124835010.50948  97274033.48248  23755311.9334   23755313.0514   23755311.4164
       223.000         170.000
 107113277.09648  83464881.61348  20382986.4784   20382987.8094   20382986.1294
       253.000         237.000
 123570670.11648  78496612.20048  21611790.4004   21611792.9814   21611789.9944
       242.000         206.000
 09  1 31  1 56  0.0000000  0  8G 5G 9G15G18G14G22G12G30
 117552332.10948  73807001.74448  20466536.2824   20466539.0294   20466536.9314
       252.000         224.000
 116869237.23748  73274720.28748  20336547.4584   20336550.1104   20336547.7374
       249.000         223.000
 136215356.26548  88349619.71148  24017989.7564   24017991.9044   24017988.7704
       215.000         167.000
 126424879.71348  98512886.64548  24057860.1314   24057861.7274   24057861.1014
       215.000         156.000
 131124501.16448  84382715.66148  23049236.3864   23049238.0764   23049236.2064
       223.000         178.000
 124881605.90948  97310341.55548  23764179.1874   23764180.3934   23764179.4234
       221.000         171.000
 107112994.13648  83464661.14448  20382932.5824   20382934.0064   20382932.5044
       252.000         237.000
 123497429.34848  78439541.49848  21597852.9414   21597855.7584   21597852.9404
       241.000         205.000
 09  1 31  1 56 30.0000000  0  8G 5G 9G15G18G14G22G12G30
 117524437.27148  73785265.51448  20461227.9784   20461230.8464   20461228.5334
       252.000         224.000
 116908730.70348  73305494.42048  20344062.8674   20344065.3674   20344063.0944
       250.000         223.000
 136326166.65048  88435965.45048  24039075.9644   24039078.9854   24039074.6024
       216.000         168.000
 126504751.00948  98575124.06748  24073058.3094   24073060.1964   24073058.9094
       213.000         153.000
 131036591.69248  84314214.78248  23032507.8024   23032509.5744   23032508.2424
       221.000         178.000
 124928578.36748  97346943.44748  23773118.2604   23773118.5714   23773118.1384
       223.000         169.000
 107113107.11548  83464749.19148  20382954.2004   20382955.3404   20382954.0094
       252.000         237.000
 123424502.62648  78382715.49248  21583975.5534   21583977.9694   21583975.5554
       240.000         205.000
 09  1 31  1 57  0.0000000  0  8G 5G 9G15G18G14G22G12G30
 117496948.88948  73763845.99748  20455997.2094   20455999.9224   20455997.5184
       249.000         224.000
 116948598.11648  73336559.92648  20351649.3624   20351651.9274   20351649.4044
       249.000         223.000
 136437095.85348  88522403.75848  24060185.1104   24060188.0744   24060183.8704
       217.000         169.000
 126584764.11548  98637471.90148  24088284.3954   24088286.5364   24088283.9034
       212.000         151.000
 130948992.24548  84245955.46248  23015838.0844   23015839.8634   23015839.1544
       227.000         180.000
 124975926.17048  97383837.82148  23782128.0134   23782127.9764   23782128.1784
       218.000         168.000
 107113615.47748  83465145.31948  20383050.8184   20383052.1264   20383050.7634
       253.000         237.000
 123351890.82548  78326134.86448  21570158.2184   21570160.3854   21570157.8984
       241.000         207.000
 09  1 31  1 57 30.0000000  0  8G 5G 9G15G18G14G22G12G30
 117469866.44248  73742742.80148  20450843.4374   20450846.3554   20450843.6744
       250.000         224.000
 116988838.99948  73367916.46348  20359307.0714   20359309.6574   20359307.1924
       249.000         223.000
 136548141.21748  88608932.61348  24081317.1324   24081318.9514   24081315.8324
       219.000         169.000
 126664915.49148  98699927.53948  24103536.2104   24103538.1274   24103538.1654
       212.000         152.000
 130861705.23548  84177939.63048  22999227.8984   22999229.7234   22999228.9164
       227.000         181.000
 125023646.55448  97421022.52948  23791208.5764   23791208.9754   23791209.3324
       222.000         166.000
 107114518.18348  83465848.74748  20383222.6394   20383223.9154   20383222.2804
       252.000         237.000
 123279594.35148  78269799.96248  21556400.7264   21556403.0634   21556400.4014
       242.000         207.000
 09  1 31  1 58  0.0000000  0  8G 5G 9G15G18G14G22G12G30
 117443189.54148  73721955.61448  20445766.9164   20445769.8124   20445767.2364
       250.000         224.000
 117029453.09448  73399563.80748  20367035.5554   20367038.1404   20367035.8674
       249.000         223.000
 136659300.43148  88695550.18448  24102470.8104   24102472.6494   24102470.4424
       219.000         172.000
 126745201.95948  98762488.39848  24118814.7134   24118816.3374   24118814.6914
       215.000         152.000
 130774733.05548  84110169.10648  22982677.7624   22982679.3434   22982679.2064
       226.000         180.000
 125071736.75948  97458495.41448  23800360.1074   23800360.4794   23800359.5264
       223.000         166.000
 107115813.81948  83466858.34148  20383469.0914   20383470.5274   20383468.6974
       252.000         237.000
 123207613.73048  78213711.17748  21542703.2174   21542705.4854   21542703.0334
       242.000         208.000
 09  1 31  1 58 30.0000000  0  8G 5G 9G15G18G14G22G12G30
 117416916.82248  73701483.37948  20440767.3604   20440770.3214   20440767.8834
       250.000         224.000
 117070439.20648  73431501.03548  20374834.7884   20374837.4674   20374834.9094
       249.000         222.000
 136770570.10848  88782253.80248  24123644.1834   24123646.6044   24123644.0244
       213.000         164.000
 126825619.36448  98825151.33448  24134117.3284   24134118.9334   24134118.5874
       212.000         148.000
 130688077.31848  84042645.15448  22966187.5704   22966188.8724   22966187.8904
       224.000         179.000
 125120193.17548  97496253.66148  23809581.1904   23809581.4454   23809582.5974
       223.000         168.000
 107117500.09248  83468172.33148  20383790.0544   20383791.4184   20383789.6074
       252.000         237.000
 123135948.63348  78157868.26148  21529065.9094   21529068.1584   21529065.8574
       241.000         208.000
 09  1 31  1 59  0.0000000  0  8G 5G 9G15G18G14G22G12G30
 117391051.47348  73681328.56148  20435845.5544   20435848.3884   20435846.3704
       250.000         224.000
 117111800.50848  73463730.62048  20382705.6854   20382708.1174   20382705.8984
       249.000         222.000
 136881951.20748  88869044.28048  24144839.0904   24144840.7424   24144838.9504
       211.000         160.000
 126906167.94048  98887916.49048  24149445.0544   24149446.5064   24149445.0674
       208.000         145.000
 130601744.15748  83975372.57148  22949758.4954   22949760.4524   22949759.0894
       226.000         179.000
 125169016.98348  97534298.18048  23818872.2084   23818873.1304   23818872.2054
       219.000         165.000
 107119579.06848  83469792.31848  20384185.5614   20384186.9284   20384185.2004
       253.000         237.000
 123064603.06948  78102274.32748  21515489.0574   21515491.4454   21515489.0924
       241.000         207.000
 09  1 31  1 59 30.0000000  0  8G 5G 9G15G18G14G22G12G30
 117365591.54048  73661489.65648  20431000.6194   20431003.4784   20431001.3074
       250.000         224.000
 117153535.05448  73496251.04648  20390647.5604   20390649.9934   20390647.6704
       248.000         222.000
 136993440.00148  88955918.66248  24166054.9854   24166056.9564   24166055.1464
       218.000         165.000
 126986843.01148  98950780.18648  24164797.0314   24164799.5454   24164797.1054
       211.000         150.000
 130515734.50948  83908352.06048  22933391.7984   22933393.2994   22933392.7684
       225.000         181.000
 125218203.83748  97572625.60948  23828231.9904   23828232.4524   23828232.4814
       219.000         162.000
 107122049.11548  83471717.03148  20384655.7634   20384656.8814   20384655.5154
       252.000         237.000
 122993576.38848  78046928.87348  21501973.0824   21501975.2504   21501972.8084
       241.000         207.000
 09  1 31  2  0  0.0000000  0  9G 5G 9G15G18G29G14G22G12G30
 117340537.03348  73641966.66748  20426232.8554   20426235.7994   20426233.1904
       250.000         224.000
 117195642.91048  73529062.35748  20398660.3274   20398662.9634   20398660.4694
       249.000         222.000
 137105034.30648  89042875.27548  24187290.7494   24187292.7024   24187290.6434
       218.000         171.000
 127067641.46848  99013740.02748  24180172.2524   24180174.8774   24180174.1054
       212.000         153.000
 139297463.04358  90751263.45158  24604494.0715   24604494.8275   24604492.9675
       214.000         151.000
 130430051.17748  83841585.83548  22917087.0004   22917088.1194   22917087.7194
       226.000         181.000
 125267751.54448  97611234.17048  23837660.5764   23837661.6724   23837659.9324
       212.000         158.000
 107124908.96348  83473945.49148  20385199.9054   20385201.1064   20385200.0984
       253.000         237.000
 122922869.47448  77991832.59348  21488517.8574   21488520.1194   21488517.4914
       241.000         207.000
 09  1 31  2  0 30.0000000  0  9G 5G 9G15G18G29G14G22G12G30
 117315888.48348  73622760.01348  20421542.4384   20421545.3664   20421543.0104
       250.000         224.000
 117238124.68448  73562165.03448  20406744.1644   20406746.8664   20406744.3504
       248.000         222.000
 137216732.54648  89129912.85848  24208546.7914   24208548.0604   24208545.4364
       221.000         173.000
 127148561.49148  99076794.57148  24195571.0994   24195572.9794   24195570.3384
       208.000         153.000
 139184136.73048  90662957.17948  24582929.4014   24582929.4174   24582929.6194
       212.000         155.000
 130344698.00048  83775076.87548  22900844.6064   22900846.1974   22900844.4094
       225.000         181.000
 125317658.78648  97650122.93448  23847157.5654   23847158.2034   23847158.2924
       210.000         156.000
 107128158.21148  83476477.37748  20385818.1914   20385819.3974   20385818.5594
       253.000         237.000
 122852483.70348  77936986.56048  21475124.0024   21475126.4484   21475123.7974
       241.000         208.000
 09  1 31  2  1  0.0000000  0  9G 5G 9G15G18G29G14G22G12G30
 117291646.05248  73603869.81248  20416929.2604   20416932.0704   20416929.8994
       250.000         224.000
 117280980.78648  73595559.40448  20414899.7444   20414902.1694   20414900.0014
       249.000         222.000
 137328533.04048  89217030.08748  24229821.3884   24229823.3854   24229821.1384
       215.000         166.000
 127229600.52348  99139941.87348  24210991.9604   24210994.4654   24210992.4844
       210.000         151.000
 139070823.72248  90574661.39048  24561366.2354   24561368.2754   24561366.1684
       215.000         160.000
 130259678.09148  83708827.59348  22884665.4684   22884667.5514   22884664.5284
       226.000         181.000
 125367923.30848  97689290.07148  23856722.6544   23856722.8534   23856721.8484
       213.000         157.000
 107131796.38748  83479312.32348  20386510.5424   20386511.7194   20386510.5794
       253.000         237.000
 122782420.04948  77882391.52048  21461791.2184   21461793.6064   21461791.0414
       242.000         208.000
 09  1 31  2  1 30.0000000  0  9G 5G 9G15G18G29G14G22G12G30
 117267807.89548  73585294.63248  20412392.9764   20412395.9634   20412393.5694
       250.000         224.000
 117324209.66048  73629244.23048  20423125.8274   20423128.4964   20423125.7944
       249.000         222.000
 137440431.87048  89304223.95048  24251114.7594   24251116.2464   24251113.4804
       214.000         159.000
 127310753.71448  99203178.13548  24226435.2554   24226436.7604   24226435.2384
       211.000         149.000
 138957525.08648  90486376.76548  24539806.6784   24539809.0754   24539806.2634
       215.000         162.000
 130174992.56848  83642838.86348  22868550.2104   22868552.3434   22868550.0114
       227.000         181.000
 125418541.21748  97728732.56548  23866355.2014   23866355.0514   23866355.9764
       211.000         154.000
 107135821.00448  83482448.39248  20387276.3784   20387277.6104   20387276.3074
       253.000         237.000
 122712677.47548  77828046.66548  21448519.7674   21448522.0744   21448519.3414
       242.000         208.000
 09  1 31  2  2  0.0000000  0  9G 5G 9G15G18G29G14G22G12G30
 117244373.35048  73567033.95048  20407933.3824   20407936.3554   20407934.2264
       251.000         224.000
 117367810.33248  73663218.78248  20431422.7384   20431425.5024   20431423.0824
       248.000         222.000
 137552426.33948  89391492.38748  24272427.3564   24272427.0834   24272427.2804
       219.000         163.000
 127392017.73048  99266500.76348  24241899.2814   24241901.0294   24241899.6444
       209.000         148.000
 138844243.13648  90398105.12048  24518250.4084   24518251.0704   24518250.7514
       220.000         165.000
 130090643.58848  83577112.39048  22852498.9774   22852501.3884   22852499.8584
       225.000         181.000
 125469509.42848  97768448.03548  23876053.8774   23876053.8394   23876054.1434
       212.000         154.000
 107140230.47948  83485884.34648  20388115.4834   20388116.8164   20388115.4244
       252.000         237.000
 122643256.49848  77773952.40048  21435309.3544   21435311.7644   21435308.9264
       242.000         208.000
 09  1 31  2  2 30.0000000  0  9G 5G 9G15G18G29G14G22G12G30
 117221341.61548  73549087.14948  20403550.8384   20403553.5234   20403551.8554
       250.000         224.000
 117411782.56348  73697482.86248  20439790.4344   20439793.0534   20439790.4564
       249.000         222.000
 137664513.73848  89478833.25748  24293757.2114   24293757.3844   24293757.6834
       222.000         167.000
 127473389.12948  99329907.02048  24257383.8954   24257385.4754   24257384.0394
       212.000         145.000
 138730979.90548  90309848.10648  24496697.3644   24496697.8764   24496697.9604
       218.000         165.000
 130006633.49548  83511649.99048  22836512.5464   22836514.9014   22836512.9904
       227.000         182.000
 125520824.99248  97808434.18348  23885818.6484   23885818.8814   23885819.3874
       210.000         151.000
 107145023.00448  83489618.78648  20389027.4694   20389028.7494   20389027.5204
       252.000         237.000
 122574157.34548  77720108.91848  21422160.1054   21422162.5174   21422160.0054
       242.000         208.000
 09  1 31  2  3  0.0000000  0  9G 5G 9G15G18G29G14G22G12G30
 117198712.74648  73531454.26548  20399244.5804   20399247.5204   20399245.2894
       250.000         225.000
 117456126.53448  73732036.59648  20448228.5844   20448231.3204   20448228.8894
       247.000         221.000
 137776691.72548  89566244.67548  24315103.7014   24315104.3894   24315103.9154
       217.000         164.000
 127554865.07448  99393394.80148  24272888.4024   24272889.8574   24272889.4684
       209.000         148.000
 138617738.17048  90221607.83348  24475147.1244   24475149.0934   24475147.1364
       216.000         167.000
 129922965.21148  83446453.93148  22820591.3754   22820593.4644   22820591.8214
       227.000         183.000
 125572485.56848  97848689.17848  23895648.5784   23895649.6134   23895648.3244
       209.000         148.000
 107150198.27248  83493651.46448  20390012.1234   20390013.5254   20390012.0054
       252.000         237.000
 122505381.00748  77666516.98148  21409072.5874   21409074.7604   21409072.4394
       242.000         209.000
 09  1 31  2  3 30.0000000  0  9G 5G 9G15G18G29G14G22G12G30
 117176487.52848  73514135.91648  20395015.2884   20395018.1224   20395015.8424
       251.000         225.000
 117500843.10648  73766880.67748  20456737.9474   20456740.6074   20456738.0144
       248.000         222.000
 137888959.90448  89653726.32548  24336466.8024   24336468.3904   24336466.5894
       209.000         159.000
 127636443.23448  99456962.21648  24288412.4254   24288414.2854   24288413.2774
       212.000         152.000
 138504521.76248  90133387.25548  24453602.7554   24453605.2344   24453601.4104
       213.000         163.000
 129839642.81148  83381527.37948  22804735.6844   22804737.8264   22804735.2064
       228.000         185.000
 125624490.17848  97889212.22748  23905544.9354   23905545.6204   23905545.1354
       206.000         149.000
 107155756.50348  83497982.55448  20391070.0344   20391071.1314   20391069.5024
       252.000         237.000
 122436929.10248  77613177.84648  21396046.8404   21396048.6284   21396046.6684
       242.000         209.000
 09  1 31  2  4  0.0000000  0  9G 5G 9G15G18G29G14G22G12G30
 117154665.26548  73497131.56348  20390862.6464   20390865.4504   20390863.3884
       250.000         224.000
 117545931.29848  73802014.33648  20465318.2324   20465320.6514   20465318.3274
       249.000         222.000
 138001315.07948  89741275.77248  24357847.2444   24357849.1824   24357846.7744
       213.000         163.000
 127718120.77648  99520607.07448  24303955.3384   24303957.4434   24303955.8164
       214.000         154.000
 138391332.87948  90045188.13648  24432063.8724   24432064.6014   24432063.5264
       218.000         163.000
 129756668.40048  83316872.00648  22788946.2804   22788948.2654   22788946.1894
       229.000         185.000
 125676835.60448  97930000.85748  23915505.8684   23915507.2214   23915506.5904
       208.000         150.000
 107161695.99948  83502610.72948  20392200.2924   20392201.3084   20392199.9674
       253.000         237.000
 122368801.90348  77560091.74048  21383082.5694   21383084.6744   21383082.2704
       243.000         210.000
 09  1 31  2  4 30.0000000  0  9G 5G 9G15G18G29G14G22G12G30
 117133244.69748  73480440.21248  20386786.4974   20386789.2774   20386787.0614
       250.000         225.000
 117591390.18748  73837436.84548  20473968.4144   20473971.2284   20473968.8774
       246.000         221.000
 138113754.05548  89828890.55748  24379243.5584   24379245.0844   24379243.4874
       217.000         160.000
 127799894.12648  99584326.55248  24319516.1324   24319517.9794   24319516.7974
       209.000         154.000
 138278173.21348  89957011.76948  24410530.7904   24410531.6064   24410530.9034
       222.000         169.000
 129674044.00748  83252489.35748  22773223.2994   22773225.2934   22773223.4724
       229.000         185.000
 125729518.57548  97971052.50648  23925532.4934   23925532.6374   23925532.6244
       208.000         152.000
 107168014.41048  83507534.16648  20393402.6864   20393403.7834   20393402.6154
       253.000         237.000
 122300999.04148  77507258.35848  21370179.9344   21370182.1444   21370179.4454
       242.000         209.000
 09  1 31  2  5  0.0000000  0  9G 5G 9G15G18G29G14G22G12G30
 117112225.88148  73464061.92348  20382786.5924   20382789.5504   20382787.3094
       250.000         225.000
 117637219.81648  73873148.24648  20482689.6264   20482692.2664   20482689.5994
       248.000         221.000
 138226275.05548  89916569.34748  24400656.2734   24400656.2074   24400656.0164
       217.000         161.000
 127881759.87448  99648118.02348  24335094.1064   24335097.0234   24335095.1204
       207.000         152.000
 138165045.87948  89868860.59448  24389003.1484   24389004.4624   24389003.1624
       220.000         169.000
 129591772.51248  83188381.70848  22757567.6234   22757569.8404   22757567.7514
       227.000         185.000
 125782536.97048  98012365.53048  23935620.9564   23935622.4554   23935621.2774
       203.000         152.000
 107174711.20248  83512752.45548  20394676.8884   20394678.0804   20394676.6914
       253.000         237.000
 122233521.79248  77454678.70048  21357339.3994   21357341.5274   21357338.9874
       242.000         210.000
 09  1 31  2  5 30.0000000  0  9G 5G 9G15G18G29G14G22G12G30
 117091608.80448  73447996.67148  20378863.4254   20378866.2694   20378863.9504
       250.000         225.000
 117683420.35148  73909148.65948  20491481.2884   20491483.9314   20491481.3364
       248.000         221.000
 138338875.84548  90004310.21948  24422083.0254   24422084.0664   24422082.7114
       205.000         157.000
 127963715.50748  99711979.51148  24350690.2194   24350692.8314   24350691.4674
       209.000         150.000
 138051953.64248  89780736.78548  24367482.1884   24367484.3994   24367482.4994
       217.000         167.000
 129509857.02648  83124551.45748  22741979.5564   22741981.5954   22741979.9704
       230.000         186.000
 125835888.64248  98053938.22048  23945772.6634   23945775.0204   23945771.9684
       203.000         151.000
 107181786.45748  83518265.64448  20396023.3674   20396024.5524   20396023.1294
       253.000         237.000
 122166371.07548  77402353.46648  21344561.1704   21344563.3414   21344560.9494
       244.000         210.000
 09  1 31  2  6  0.0000000  0  9G 5G 9G15G18G29G14G22G12G30
 117071392.36948  73432243.59948  20375016.3614   20375019.2094   20375016.9574
       252.000         225.000
 117729991.04848  73945437.51148  20500343.5844   20500346.0834   20500344.0684
       247.000         220.000
 138451553.80848  90092111.14648  24443523.8904   24443526.8144   24443522.8474
       206.000         157.000
 128045757.31348  99775908.18348  24366302.4374   24366304.4284   24366302.2914
       215.000         151.000
 137938898.32048  89692641.73648  24345968.4834   24345970.3634   24345967.8254
       216.000         170.000
 129428299.47948  83061000.12948  22726460.2454   22726461.4954   22726461.7804
       229.000         186.000
 125889570.04648  98095767.85648  23955988.1714   23955989.8804   23955988.4394
       207.000         149.000
 107189237.64348  83524071.75748  20397441.3104   20397442.4564   20397441.2184
       253.000         237.000
 122099546.76148  77350282.57748  21331844.9194   21331846.9884   21331844.6334
       242.000         210.000
 09  1 31  2  6 30.0000000  0  9G 5G 9G15G18G29G14G22G12G30
 117051576.67648  73416802.80648  20371245.6724   20371248.3154   20371246.5654
       250.000         225.000
 117776931.93048  73982014.82448  20509276.0124   20509278.6614   20509275.8984
       250.000         222.000
 138564307.12148  90179970.84448  24464981.2144   24464983.5174   24464980.2564
       214.000         164.000
 128127882.62948  99839901.93748  24381930.5754   24381931.9924   24381931.2464
       211.000         149.000
 137825882.78948  89604577.69448  24324462.3574   24324463.8374   24324461.8424
       216.000         168.000
 129347102.96848  82997730.13348  22711008.7234   22711010.5104   22711009.8394
       229.000         186.000
 125943579.04148  98137852.78048  23966265.6104   23966267.7784   23966265.9324
       205.000         149.000
 107197063.99648  83530170.22048  20398930.5904   20398931.7224   20398930.8524
       253.000         237.000
 122033049.69348  77298466.70348  21319190.8204   21319192.9394   21319190.3064
       243.000         210.000
 09  1 31  2  7  0.0000000  0  9G 5G 9G15G18G29G14G22G12G30
 117032161.36048  73401673.99448  20367550.9684   20367553.7604   20367551.5684
       251.000         225.000
 117824242.86948  74018880.49548  20518279.3494   20518281.5854   20518280.1834
       247.000         220.000
 138677133.14948  90267887.22548  24486451.9394   24486454.0684   24486451.9654
       221.000         168.000
 128210088.61548  99903958.56648  24397573.0214   24397574.8904   24397573.7194
       209.000         146.000
 137712910.11748  89516547.04748  24302963.6414   24302965.6374   24302962.8774
       218.000         166.000
 129266270.14548  82934743.51648  22695626.4794   22695628.4394   22695627.1174
       229.000         186.000
 125997913.46748  98180191.25948  23976606.0994   23976607.1434   23976605.8874
       214.000         154.000
 107205264.76548  83536560.43548  20400491.0464   20400492.2594   20400490.8734
       252.000         237.000
 121966880.27448  77246906.13348  21306599.1564   21306601.3114   21306599.0684
       243.000         209.000
 09  1 31  2  7 30.0000000  0  9G 5G 9G15G18G29G14G22G12G30
 117013146.51548  73386857.24048  20363932.3834   20363935.4484   20363933.0664
       250.000         225.000
 117871924.06648  74056034.65848  20527352.4034   20527355.0874   20527352.0864
       249.000         221.000
 138790030.52548  90355859.21948  24507935.5074   24507937.4434   24507936.0264
       213.000         156.000
 128292372.31248  99968075.73648  24413231.0624   24413233.1294   24413231.1464
       209.000         147.000
 137599983.23148  89428552.07548  24281473.9184   24281475.9624   24281474.0874
       216.000         166.000
 129185804.36748  82872042.91648  22680314.2134   22680316.5084   22680314.1094
       228.000         186.000
 126052570.85448  98222781.43248  23987006.6494   23987007.3134   23987007.3374
       212.000         150.000
 107213838.80148  83543241.50548  20402122.6574   20402123.8974   20402122.5384
       252.000         237.000
 121901039.86448  77195601.92848  21294070.1004   21294072.1074   21294069.8314
       242.000         209.000
 09  1 31  2  8  0.0000000  0  9G 5G 9G15G18G29G14G22G12G30
 116994531.07248  73372351.70148  20360390.0254   20360393.0244   20360390.5574
       250.000         225.000
 117919974.63648  74093476.67548  20536496.4034   20536498.8124   20536496.7924
       247.000         220.000
 138902995.97348  90443884.29248  24529431.0504   24529432.8944   24529431.3314
       205.000         148.000
 128374730.68848 100032251.11948  24428902.8644   24428905.1504   24428903.7364
       210.000         151.000
 137487103.99248  89340594.22548  24259993.9304   24259996.4014   24259993.5694
       217.000         171.000
 129105707.57148  82809629.82448  22665072.2284   22665074.5064   22665072.5644
       228.000         186.000
 126107547.78948  98265620.62048  23997468.6024   23997468.1924   23997470.0064
       213.000         150.000
 107222785.16548  83550212.70248  20403825.1384   20403826.2454   20403824.9674
       252.000         237.000
 121835528.18548  77144553.88248  21281603.6224   21281605.7784   21281603.1074
       243.000         210.000
 09  1 31  2  8 30.0000000  0  9G 5G 9G15G18G29G14G22G12G30
 116976315.08748  73358157.42948  20356923.7934   20356926.5404   20356924.1524
       251.000         225.000
 117968394.73248  74131206.61348  20545709.8824   20545712.8324   20545709.7914
       248.000         220.000
 139016027.41248  90531960.68748  24550938.7334   24550942.5174   24550939.5274
       209.000         159.000
 128457160.92148 100096482.44748  24444590.0464   24444591.9654   24444590.6334
       213.000         153.000
 137374275.41348  89252675.86848  24238523.5014   24238525.5534   24238523.8994
       218.000         168.000
 129025982.57648  82747506.45948  22649900.8284   22649903.2844   22649901.8454
       229.000         186.000
 126162842.10848  98308707.07748  24007990.6694   24007991.7174   24007990.3354
       212.000         152.000
 107232102.45148  83557472.93348  20405598.0084   20405599.2634   20405598.0144
       252.000         236.000
 121770346.20948  77093762.75048  21269199.7264   21269202.0204   21269199.5604
       242.000         210.000
 09  1 31  2  9  0.0000000  0 10G 2G 5G 9G15G18G29G14G22G12G30
 143355936.39358  93913718.57558  25376789.6265   25376788.9505   25376790.4415
       212.000         154.000
 116958497.56148  73344273.64148  20353533.2324   20353536.0524   20353533.6134
       251.000         225.000
 118017183.15148  74169223.56248  20554994.7354   20554996.8774   20554995.0794
       247.000         220.000
 139129122.17548  90620086.44848  24572462.0654   24572464.4204   24572461.4834
       215.000         165.000
 128539659.35348 100160766.89348  24460287.5814   24460291.3544   24460288.3204
       210.000         151.000
 137261499.45648  89164798.51748  24217062.5824   24217064.6594   24217062.8624
       216.000         165.000
 128946631.68148  82685674.59548  22634801.1234   22634803.4054   22634802.1624
       230.000         187.000
 126218450.84348  98352038.54548  24018572.4304   24018573.4954   24018572.0544
       214.000         151.000
 107241789.02948  83565020.91648  20407441.3794   20407442.5234   20407441.3594
       252.000         236.000
 121705494.26248  77043228.77548  21256858.8334   21256861.2474   21256858.5694
       244.000         211.000
 09  1 31  2  9 30.0000000  0 10G 2G 5G 9G15G18G29G14G22G12G30
 143282428.57948  93856439.74448  25362800.9774   25362801.6554   25362800.6464
       215.000         155.000
 116941078.44648  73330700.30348  20350218.4624   20350221.1064   20350219.0054
       251.000         225.000
 118066340.17948  74207527.73848  20564348.4244   20564351.2714   20564348.4834
       246.000         220.000
 139242278.11748  90708259.90048  24593994.4824   24593996.5644   24593993.9014
       212.000         160.000
 128622223.19348 100225102.33748  24475999.6714   24476002.0764   24476000.5704
       211.000         151.000
 137148779.39848  89076964.71948  24195612.5284   24195615.1584   24195613.3064
       214.000         165.000
 128867658.24148  82624136.85148  22619773.0284   22619775.1274   22619773.7724
       231.000         186.000
 126274371.69948  98395613.20248  24029213.6914   24029214.5734   24029214.0744
       208.000         151.000
 107251844.13548  83572856.06648  20409354.8744   20409356.1014   20409354.6544
       252.000         236.000
 121640972.84348  76992952.36948  21244581.0354   21244583.3774   21244580.9534
       245.000         213.000
 09  1 31  2 10  0.0000000  0 10G 2G 5G 9G15G18G29G14G22G12G30
 143208999.39348  93799222.20248  25348828.3074   25348828.4804   25348828.3674
       217.000         155.000
 116924058.78848  73317438.24248  20346979.5884   20346982.4084   20346980.1324
       250.000         225.000
 118115866.94448  74246120.02148  20573773.3534   20573775.9024   20573773.3944
       247.000         220.000
 139355495.15648  90796480.96048  24615539.0154   24615540.9914   24615537.5684
       205.000         151.000
 128704851.15648 100289487.75748  24491723.1524   24491725.8254   24491723.8664
       211.000         153.000
 137036119.08948  88989177.48148  24174173.6794   24174176.6084   24174173.0414
       213.000         165.000
 128789066.10148  82562896.21148  22604817.6914   22604819.3064   22604817.2514
       228.000         187.000
 126330603.45148  98439430.15748  24039914.2384   24039915.2564   24039914.8194
       209.000         154.000
 107262268.39648  83580978.87348  20411338.5364   20411339.6134   20411338.3774
       253.000         236.000
 121576783.84848  76942934.98448  21232366.4244   21232368.5134   21232366.2134
       245.000         212.000
 09  1 31  2 10 30.0000000  0 10G 2G 5G 9G15G18G29G14G22G12G30
 143135651.61148  93742068.06948  25334871.0504   25334871.3174   25334870.7404
       209.000         151.000
 116907437.90548  73304486.90148  20343816.8944   20343819.6504   20343817.3854
       251.000         225.000
 118165763.24848  74285000.26448  20583268.3934   20583270.6184   20583268.5294
       247.000         220.000
 139468770.32548  90884747.27748  24637093.6254   24637096.4084   24637092.9684
       202.000         145.000
 128787540.00048 100353920.62548  24507458.7984   24507460.6704   24507458.4214
       214.000         152.000
 136923520.82848  88901438.57148  24152747.7684   24152750.0864   24152747.0194
       216.000         168.000
 128710857.38448  82501954.35948  22589934.6914   22589936.6194   22589934.4614
       228.000         188.000
 126387143.15548  98483487.03648  24050674.2634   24050675.3324   24050673.7744
       211.000         156.000
 107273060.51948  83589388.32448  20413392.1144   20413393.2804   20413392.2214
       252.000         236.000
 121512927.88748  76893177.10248  21220215.0204   21220216.8694   21220214.9314
       244.000         212.000
 09  1 31  2 11  0.0000000  0 10G 2G 5G 9G15G18G29G14G22G12G30
 143062385.09848  93684977.29548  25320927.2954   25320928.8714   25320926.4664
       213.000         149.000
 116891212.53248  73291843.76348  20340729.1294   20340731.9454   20340729.8774
       250.000         225.000
 118216025.79348  74324165.87848  20592832.8384   20592835.5614   20592833.2254
       247.000         220.000
 139582098.34948  90973054.87048  24658660.1264   24658661.2274   24658660.6494
       215.000         156.000
 128870284.05748 100418396.50348  24523204.6924   24523206.3014   24523204.9724
       212.000         149.000
 136810984.51848  88813747.98648  24131331.9394   24131334.8314   24131331.5254
       208.000         162.000
 128633032.11348  82441311.29748  22575125.1364   22575127.1924   22575125.4224
       228.000         188.000
 126443985.32148  98527779.62348  24061489.8954   24061491.8984   24061491.3384
       207.000         155.000
 107284216.38248  83598081.21048  20415515.0104   20415516.2104   20415514.8234
       252.000         236.000
 121449402.60548  76843676.90948  21208126.4824   21208128.6714   21208126.2114
       244.000         212.000
 09  1 31  2 11 30.0000000  0 10G 2G 5G 9G15G18G29G14G22G12G30
 142989203.46948  93627952.62048  25307001.9664   25307002.7414   25307002.1564
       218.000         156.000
 116875382.68548  73279508.81348  20337717.0074   20337719.7034   20337717.3514
       250.000         225.000
 118266654.72148  74363616.99048  20602467.2994   20602469.7754   20602467.5424
       247.000         220.000
 139695477.50648  91061402.30848  24680236.1294   24680237.8124   24680236.4004
       213.000         165.000
 128953080.55348 100482913.25848  24538959.9344   24538960.9154   24538961.1794
       207.000         144.000
 136698513.36448  88726108.12348  24109929.9144   24109932.3684   24109928.7684
       214.000         166.000
 128555593.67548  82380969.65348  22560389.2424   22560391.2984   22560389.6604
       229.000         188.000
 126501127.77148  98572306.15548  24072364.2204   24072365.7104   24072363.8834
       209.000         155.000
 107295735.18248  83607056.90048  20417707.0864   20417708.0664   20417706.9624
       252.000         236.000
 121386208.81348  76794434.99948  21196101.0654   21196103.1844   21196101.0144
       243.000         211.000
 09  1 31  2 12  0.0000000  0 10G 2G 5G 9G15G18G29G14G22G12G30
 142916109.82148  93570996.53948  25293092.9354   25293092.7974   25293092.7094
       212.000         156.000
 116859948.05648  73267481.83048  20334779.6564   20334782.4764   20334779.8444
       250.000         225.000
 118317649.77548  74403353.39148  20612171.2734   20612173.6404   20612171.6274
       247.000         220.000
 139808905.64448  91149787.81348  24701820.2294   24701823.1004   24701819.9544
       205.000         158.000
 129035926.47548 100547468.55148  24554724.9864   24554726.4464   24554725.2944
       207.000         145.000
 136586109.88848  88638521.01248  24088540.5844   24088542.7264   24088539.6484
       213.000         164.000
 128478544.50248  82320931.32748  22545727.1514   22545729.3564   22545727.0044
       229.000         188.000
 126558567.98448  98617064.73048  24083295.4954   24083295.8214   24083294.6894
       214.000         160.000
 107307615.79548  83616314.52548  20419967.8014   20419968.9844   20419967.9224
       252.000         236.000
 121323347.26948  76745451.99148  21184138.7454   21184140.8404   21184138.4924
       243.000         211.000
 09  1 31  2 12 30.0000000  0 10G 2G 5G 9G15G18G29G14G22G12G30
 142843107.69748  93514111.79948  25279200.1674   25279200.6414   25279199.3304
       214.000         153.000
 116844908.78948  73255762.92848  20331917.7784   20331920.7174   20331918.1694
       250.000         225.000
 118369011.13548  74443375.23848  20621944.9684   20621947.3814   20621945.1164
       247.000         220.000
 139922381.27748  91238210.31248  24723414.5314   24723416.2874   24723413.6914
       209.000         156.000
 129118819.47548 100612060.46548  24570499.1264   24570500.6104   24570500.8364
       210.000         146.000
 136473777.30848  88550989.13548  24067164.8404   24067166.8254   24067164.7844
       221.000         168.000
 128401887.93748  82261198.94848  22531140.2124   22531141.7254   22531140.6784
       231.000         189.000
 126616303.88648  98662053.71548  24094282.4034   24094282.5534   24094282.4064
       211.000         157.000
 107319857.54848  83625853.55348  20422297.2454   20422298.5034   20422297.2784
       251.000         236.000
 121260819.39648  76696728.99248  21172240.2014   21172242.3244   21172239.9024
       244.000         213.000
 09  1 31  2 13  0.0000000  0 10G 2G 5G 9G15G18G29G14G22G12G30
 142770197.87848  93457298.93148  25265326.0464   25265327.0654   25265326.7014
       218.000         156.000
 116830263.20548  73244350.78648  20329130.9744   20329133.5964   20329131.4034
       250.000         225.000
 118420737.50348  74483681.48448  20631788.2694   20631790.7324   20631788.6044
       247.000         219.000
 140035900.75648  91326667.03648  24745016.4534   24745017.7774   24745016.3954
       210.000         153.000
 129201755.48548 100676685.89548  24586281.3484   24586283.3024   24586281.6934
       212.000         146.000
 136361517.39948  88463513.86548  24045803.2964   24045804.7824   24045803.6564
       219.000         169.000
 128325625.32148  82201773.53448  22516627.7084   22516629.2644   22516629.1384
       230.000         188.000
 126674331.58648  98707270.08848  24105324.9964   24105324.4594   24105324.7794
       211.000         153.000
 107332458.28948  83635672.32148  20424695.0704   20424696.4484   20424694.8564
       251.000         236.000
 121198624.14048  76648265.16148  21160404.8334   21160407.0934   21160404.3424
       244.000         213.000
 09  1 31  2 13 30.0000000  0 10G 2G 5G 9G15G18G29G14G22G12G30
 142697385.71848  93400562.18848  25251471.1884   25251471.5634   25251471.9534
       216.000         156.000
 116816012.29248  73233246.18048  20326419.0674   20326421.8784   20326419.6934
       250.000         225.000
 118472829.75548  74524272.85648  20641700.9684   20641703.6254   20641701.2574
       246.000         219.000
 140149463.20448  91415157.33048  24766626.5194   24766625.6444   24766626.3994
       212.000         149.000
 129284733.44748 100741344.02448  24602072.0614   24602073.9684   24602072.6194
       210.000         147.000
 136249333.96848  88376098.24148  24024454.7734   24024457.6314   24024455.0014
       218.000         169.000
 128249760.79948  82142658.31748  22502190.9104   22502192.7594   22502191.5114
       231.000         189.000
 126732649.70548  98752712.79148  24116421.9144   24116421.6634   24116421.6174
       210.000         151.000
 107345418.49548  83645771.18548  20427161.3414   20427162.6024   20427161.1474
       252.000         235.000
 121136763.34648  76600061.95448  21148632.9584   21148635.5094   21148632.8004
       244.000         213.000
 09  1 31  2 14  0.0000000  0 10G 2G 5G 9G15G18G29G14G22G12G30
 142624674.51148  93343904.06048  25237633.3194   25237635.1874   25237634.1204
       218.000         158.000
 116802156.29648  73222449.30648  20323782.4574   20323785.0984   20323783.1624
       251.000         225.000
 118525288.42848  74565149.74848  20651683.4414   20651686.2224   20651683.4904
       246.000         219.000
 140263066.99548  91503679.81348  24788244.3354   24788245.4194   24788243.7394
       210.000         155.000
 129367750.51948 100806032.66248  24617869.3624   24617870.5614   24617870.1334
       210.000         147.000
 136137230.16848  88288744.61848  24003122.1754   24003124.4434   24003122.2064
       220.000         168.000
 128174297.78448  82083855.97948  22487831.0824   22487833.1124   22487831.1294
       230.000         190.000
 126791255.97648  98798380.00448  24127574.4604   24127575.0484   24127574.6004
       211.000         151.000
 107358737.72148  83656149.80548  20429695.7954   20429697.1394   20429695.6824
       251.000         235.000
 121075238.54848  76552120.55548  21136925.1104   21136927.4934   21136925.1624
       244.000         213.000
