     2.11           OBSERVATION DATA    G (GPS)             RINEX VERSION / TYPE
teqc  2008Oct2      gpsops              20090130 00:05:57UTCPGM / RUN BY / DATE
    30.0000                                                 INTERVAL
     1     1                                                WAVELENGTH FACT L1/2
     7    L1    L2    P1    P2    C1    S1    S2            # / TYPES OF OBSERV
Linux 2.4.20-8|Pentium IV|gcc -static|Linux|486/DX+         COMMENT
     2.10           OBSERVATION DATA    GPS                 COMMENT
soc2rnx ver 1.20    gpsops              30-Jan-2009 00:05:53COMMENT
S1, if present, is the SNR for the C/A data stream on L1.   COMMENT
 SNR is mapped to RINEX snr flag value [1,4-9]              COMMENT
    SNR:   >316  >100  >31.6  >10  >3.2    >0 bad=0         COMMENT
L1 & L2:      9     8     7     6     5     4     1         COMMENT
                                                            COMMENT
This data is provided as a public service by NASA/JPL.      COMMENT
No warranty is expressed or implied regarding suitability   COMMENT
for use.  For further information, contact:                 COMMENT
Dave Stowers, NASA/JPL m/s 238-600                          COMMENT
4800 Oak Grove Drive, Pasadena CA 91109 USA                 COMMENT
                                                            COMMENT
Forced Modulo Decimation to 30 seconds                      COMMENT
  2009     1    29     0     0    0.0000000     GPS         TIME OF FIRST OBS
DSN                 JPL                                     OBSERVER / AGENCY
451-U               AOAD/M_T        NONE                    ANT # / TYPE
  4849202.3940  -360328.9929  4114913.1862                  APPROX POSITION XYZ
        0.0254        0.0000        0.0000                  ANTENNA: DELTA H/E/N
LP03574             ASHTECH Z-XII3      CC00                REC # / TYPE / VERS
MADR                                                        MARKER NAME
13407S012                                                   MARKER NUMBER
                                                            END OF HEADER
 09  1 29  0  0  0.0000000  0 10G 5G 9G10G26G15G18G17G27G12G28
 126039965.99248  98212942.87048  23984621.1974   23984624.6784   23984622.3764
       221.000         171.000
 108350936.76548  84429288.35448  20618508.7404   20618511.7794   20618509.5444
       250.000         219.000
 133874823.71048 104318031.44148  25475540.2534   25475543.2344   25475541.9364
       202.000         140.000
 112368607.46948  87559931.74848  21383052.0024   21383054.7254   21383051.9784
       244.000         212.000
 107512288.55948  83775803.41948  20458911.7654   20458913.4414   20458911.4704
       250.000         235.000
 117899103.19448  91869424.39848  22435457.8844   22435459.7074   22435458.5454
       235.000         193.000
 122597024.89048  95530137.89248  23329447.4034   23329448.8964   23329447.0214
       231.000         189.000
 127857461.67348  99629175.27648  24330478.5514   24330482.0514   24330477.8634
       209.000         156.000
 120079670.85648  93568560.50748  22850411.3234   22850413.8884   22850411.9514
       230.000         190.000
 126923019.98048  98901047.42548  24152651.4334   24152653.5374   24152653.2004
       220.000         163.000
 09  1 29  0  0 30.0000000  0 10G 5G 9G10G26G15G18G17G27G12G28
 125929897.56348  98127175.25148  23963675.8264   23963679.2724   23963676.7164
       219.000         171.000
 108302838.93248  84391809.52948  20609355.9094   20609359.0004   20609356.1674
       249.000         219.000
 133983410.32748 104402644.39448  25496203.8924   25496208.0944   25496205.5214
       201.000         138.000
 112440941.53248  87616295.95048  21396816.6504   21396819.2774   21396816.5684
       244.000         212.000
 107537500.60348  83795449.15448  20463709.4964   20463711.3584   20463709.1014
       251.000         235.000
 117869752.98048  91846554.08948  22429872.5674   22429874.7464   22429872.4154
       235.000         192.000
 122573509.77448  95511814.42748  23324972.2544   23324974.0564   23324972.3114
       230.000         188.000
 127925710.65548  99682356.29248  24343466.3674   24343469.4544   24343466.5684
       210.000         157.000
 119980802.30648  93491520.08748  22831597.6084   22831599.6734   22831597.5794
       232.000         192.000
 127014164.89748  98972069.43048  24169995.9574   24169998.1034   24169996.9794
       218.000         163.000
 09  1 29  0  1  0.0000000  0 11G 5G 9G10G26G15G18G17G27G12G28G22
 125819991.52248  98041534.20148  23942761.1174   23942765.1274   23942761.3994
       221.000         170.000
 108255050.67848  84354571.93148  20600262.4564   20600265.0584   20600262.5254
       249.000         220.000
 134091887.37248 104487171.98048  25516847.4574   25516851.1074   25516848.1864
       202.000         138.000
 112513625.84248  87672933.06848  21410647.7984   21410650.7354   21410647.5914
       244.000         212.000
 107563171.21548  83815452.22248  20468594.6074   20468596.2954   20468594.4534
       250.000         234.000
 117840964.26748  91824121.32348  22424394.2684   22424396.3484   22424395.0914
       233.000         192.000
 122550502.20448  95493886.45448  23320593.6054   23320595.4814   23320593.6554
       231.000         187.000
 127993992.04448  99735562.53148  24356459.3594   24356462.6534   24356460.2164
       207.000         155.000
 119882203.82648  93414690.11448  22812835.1334   22812837.2274   22812834.9264
       233.000         193.000
 127105460.63048  99043208.94448  24187368.9494   24187371.4454   24187369.3584
       219.000         164.000
 138018755.95458  89754869.14258  24361163.4475   24361164.5345   24361162.3645
       222.000         166.000
 09  1 29  0  1 30.0000000  0 11G 5G 9G10G26G15G18G17G27G12G28G22
 125710249.32648  97956020.79348  23921877.9564   23921882.0804   23921878.9864
       221.000         171.000
 108207572.02348  84317575.58948  20591227.3684   20591230.3054   20591227.6284
       249.000         220.000
 134200252.83048 104571612.63548  25537469.3584   25537472.5714   25537471.1234
       200.000         135.000
 112586659.07548  87729842.07748  21424545.9064   21424548.5384   21424545.9104
       244.000         212.000
 107589299.57748  83835811.98848  20473566.5144   20473568.1964   20473566.1534
       251.000         234.000
 117812737.53248  91802126.46248  22419023.0544   22419025.2724   22419023.1704
       235.000         192.000
 122528003.52748  95476355.03748  23316312.3164   23316314.5674   23316311.8184
       230.000         188.000
 128062305.31448  99788793.66348  24369458.1814   24369461.4994   24369458.3364
       205.000         154.000
 119783877.04548  93338071.84548  22794124.3134   22794126.6554   22794124.2424
       233.000         193.000
 127196904.67548  99114464.02248  24204770.4904   24204772.5724   24204771.1924
       219.000         162.000
 137946586.26348  89698632.89248  24347430.2944   24347430.6684   24347430.4384
       220.000         163.000
 09  1 29  0  2  0.0000000  0 11G 5G 9G10G26G15G18G17G27G12G28G22
 125600672.99948  97870636.64448  23901026.9754   23901030.2034   23901026.5264
       225.000         174.000
 108160403.74448  84280821.09548  20582251.4634   20582254.2534   20582251.7364
       249.000         219.000
 134308503.90248 104655964.12448  25558068.6084   25558072.6074   25558068.6574
       198.000         136.000
 112660040.37548  87787022.31248  21438509.8134   21438512.5244   21438509.7964
       243.000         212.000
 107615886.08448  83856528.74148  20478625.8034   20478627.4594   20478625.5144
       251.000         234.000
 117785073.79148  91780570.29048  22413758.5304   22413760.8804   22413759.3804
       233.000         192.000
 122506015.08848  95459221.19248  23312128.0584   23312129.8534   23312127.2994
       231.000         187.000
 128130650.73548  99842049.81648  24382464.1324   24382467.7374   24382463.9944
       208.000         156.000
 119685824.14148  93261666.99348  22775465.4054   22775467.6504   22775465.2314
       232.000         193.000
 127288494.76148  99185832.92448  24222199.3384   24222201.5674   24222198.6074
       214.000         160.000
 137874804.47548  89642699.06748  24333770.7554   24333769.9774   24333770.7094
       219.000         168.000
 09  1 29  0  2 30.0000000  0 11G 5G 9G10G26G15G18G17G27G12G28G22
 125491263.90148  97785382.77848  23880207.3444   23880210.6594   23880208.7004
       223.000         173.000
 108113545.45948  84244308.15448  20573334.4564   20573337.4114   20573334.7354
       246.000         220.000
 134416638.31948 104740224.73948  25578644.5744   25578649.5694   25578646.1924
       203.000         138.000
 112733768.30748  87844472.64048  21452539.6894   21452542.4084   21452539.4194
       243.000         211.000
 107642930.49048  83877602.30448  20483772.2944   20483773.9294   20483772.0844
       251.000         234.000
 117757973.36148  91759453.07748  22408601.6384   22408603.3734   22408601.5994
       233.000         191.000
 122484537.76748  95442485.61648  23308041.5944   23308042.6584   23308041.0484
       232.000         189.000
 128199027.71648  99895330.56848  24395476.3334   24395479.6184   24395477.0094
       208.000         158.000
 119588046.53248  93185476.67448  22756858.9204   22756861.1434   22756859.1074
       233.000         194.000
 127380228.27648  99257313.56348  24239655.2864   24239657.8774   24239655.7194
       219.000         160.000
 137803412.18448  89587068.69448  24320184.7324   24320186.0654   24320185.2954
       215.000         163.000
 09  1 29  0  3  0.0000000  0 10G 5G 9G26G15G18G17G27G12G28G22
 125382023.35348  97700260.30148  23859418.3934   23859422.6124   23859419.1374
       221.000         172.000
 108066997.01548  84208036.64648  20564476.5664   20564479.6744   20564476.8124
       247.000         220.000
 112807841.47248  87902191.98648  21466635.2114   21466638.1974   21466635.2354
       243.000         211.000
 107670432.42948  83899032.38748  20489005.6904   20489007.4694   20489005.3704
       251.000         234.000
 117731436.85848  91738775.27248  22403551.6654   22403553.8724   22403551.7464
       235.000         192.000
 122463572.28648  95426148.88948  23304051.5984   23304053.6184   23304051.6434
       231.000         189.000
 128267435.75848  99948635.55048  24408493.4204   24408498.0714   24408493.5984
       208.000         160.000
 119490545.41348  93109501.80348  22738305.3494   22738307.2464   22738305.2674
       234.000         195.000
 127472102.73048  99328904.04448  24257138.8964   24257140.6684   24257140.8424
       216.000         158.000
 137732411.43248  89531743.44048  24306674.3294   24306674.7974   24306673.4684
       218.000         173.000
 09  1 29  0  3 30.0000000  0 10G 5G 9G26G15G18G17G27G12G28G22
 125272953.94348  97615271.15248  23838663.3244   23838667.0614   23838663.4634
       224.000         173.000
 108020759.71248  84172007.58448  20555678.0004   20555680.8834   20555678.1874
       247.000         220.000
 112882259.53948  87960180.08348  21480796.6324   21480799.3304   21480796.6824
       243.000         211.000
 107698392.68448  83920819.59048  20494326.4414   20494328.1004   20494326.2764
       251.000         234.000
 117705465.28848  91718537.67348  22398609.8504   22398611.7824   22398610.4574
       234.000         192.000
 122443120.95648  95410212.80348  23300159.7604   23300161.8604   23300159.5554
       232.000         190.000
 128335875.66548 100001965.33348  24421517.8734   24421521.6994   24421518.6764
       208.000         159.000
 119393323.68148  93033744.62548  22719804.8924   22719806.3764   22719804.8954
       235.000         195.000
 127564116.51548  99400603.08148  24274648.1014   24274650.2854   24274649.8744
       218.000         159.000
 137661804.82148  89476725.30348  24293238.4674   24293238.4184   24293238.8594
       224.000         167.000
 09  1 29  0  4  0.0000000  0 10G 5G 9G26G15G18G17G27G12G28G22
 125164057.02848  97530416.42748  23817941.3614   23817944.5124   23817942.0284
       223.000         174.000
 107974833.34748  84136220.82148  20546938.6564   20546941.3894   20546938.7884
       248.000         221.000
 112957020.91548  88018435.69848  21495023.2314   21495026.0884   21495023.1474
       243.000         210.000
 107726810.98548  83942963.72048  20499734.2104   20499735.7764   20499734.0124
       250.000         234.000
 117680059.25148  91698740.76248  22393775.0204   22393777.2024   22393775.4564
       235.000         193.000
 122423184.64348  95394678.02548  23296365.8744   23296368.1714   23296365.8894
       232.000         190.000
 128404347.23448 100055319.77848  24434548.0214   24434550.8764   24434548.2234
       211.000         159.000
 119296382.53748  92958206.08048  22701357.0464   22701359.1084   22701357.4224
       233.000         195.000
 127656267.25348  99472408.80648  24292183.8194   24292185.8794   24292185.0424
       212.000         158.000
 137591593.14048  89422014.88548  24279876.9734   24279877.3514   24279877.7604
       216.000         161.000
 09  1 29  0  4 30.0000000  0 10G 5G 9G26G15G18G17G27G12G28G22
 125055335.75248  97445698.56548  23797252.5564   23797255.6494   23797252.1574
       224.000         175.000
 107929219.46348  84100677.54448  20538258.6384   20538261.4164   20538258.4804
       248.000         221.000
 113032126.06948  88076959.18748  21509315.3644   21509318.1554   21509315.4004
       243.000         210.000
 107755688.56648  83965465.72748  20505229.3434   20505231.0044   20505229.1164
       251.000         234.000
 117655220.52448  91679385.91548  22389048.6774   22389050.7034   22389048.9314
       237.000         193.000
 122403765.53548  95379546.26148  23292670.8534   23292672.6384   23292670.6784
       231.000         191.000
 128472851.62648 100108699.80548  24447584.4494   24447587.4154   24447584.6184
       212.000         160.000
 119199725.10348  92882888.60948  22682963.1634   22682965.6314   22682962.3564
       232.000         193.000
 127748554.29648  99544320.79948  24309745.2254   24309747.3514   24309745.1354
       213.000         157.000
 137521780.37548  89367615.24348  24266591.7204   24266592.3914   24266589.6504
       217.000         165.000
 09  1 29  0  5  0.0000000  0 10G 5G 9G26G15G18G17G27G12G28G22
 124946791.37948  97361118.53348  23776597.0364   23776600.7344   23776598.1884
       224.000         176.000
 107883918.13648  84065377.82448  20529637.9894   20529640.7254   20529638.3524
       248.000         221.000
 113107573.03448  88135749.02448  21523672.3314   21523675.1874   21523672.1894
       242.000         210.000
 107785024.83048  83988325.14548  20510811.9184   20510813.5504   20510811.5984
       251.000         234.000
 117630948.95348  91660473.00448  22384429.7164   22384431.8544   22384430.3234
       235.000         192.000
 122384864.57048  95364818.23348  23289073.8054   23289076.1964   23289073.4214
       231.000         190.000
 128541388.01448 100162104.75448  24460625.6824   24460629.2684   24460625.9594
       213.000         159.000
 119103352.81848  92807793.34348  22664624.4724   22664626.7554   22664624.2944
       235.000         195.000
 127840974.42548  99616336.45348  24327332.4974   24327334.3084   24327333.3014
       212.000         153.000
 137452368.52948  89313528.05248  24253383.6214   24253384.2224   24253385.9524
       220.000         166.000
 09  1 29  0  5 30.0000000  0 10G 5G 9G26G15G18G17G27G12G28G22
 124838424.33048  97276676.66948  23755975.5094   23755979.4104   23755976.3244
       224.000         175.000
 107838928.26148  84030320.78948  20521076.7554   20521079.4774   20521076.8984
       248.000         221.000
 113183359.75148  88194803.60748  21538094.0444   21538096.9354   21538093.9434
       242.000         209.000
 107814818.87948  84011541.28348  20516481.4484   20516483.2294   20516481.1504
       250.000         234.000
 117607244.21948  91642001.77848  22379919.0254   22379920.8284   22379919.5514
       236.000         192.000
 122366481.77048  95350493.98248  23285575.5414   23285578.0734   23285575.4494
       232.000         192.000
 128609955.08148 100215533.64748  24473673.7994   24473676.6084   24473674.3484
       210.000         160.000
 119007266.02348  92732920.52448  22646340.0554   22646341.9224   22646340.1274
       235.000         196.000
 127933524.18448  99688453.12548  24344944.4644   24344945.5804   24344946.7254
       210.000         152.000
 137383357.91748  89259753.54948  24240250.8564   24240251.6394   24240250.7714
       216.000         165.000
 09  1 29  0  6  0.0000000  0 10G 5G 9G26G15G18G17G27G12G28G22
 124730238.47048  97192375.99648  23735388.0644   23735391.8164   23735388.5974
       222.000         174.000
 107794252.47448  83995508.50648  20512575.1524   20512577.8194   20512575.3054
       248.000         221.000
 113259486.76748  88254123.35948  21552580.4274   21552583.4594   21552580.2734
       242.000         209.000
 107845072.48248  84035115.51248  20522238.5744   20522240.3844   20522238.4154
       251.000         233.000
 117584108.77748  91623974.14948  22375516.3934   22375518.3804   22375517.0684
       235.000         192.000
 122348620.02748  95336575.75648  23282176.7044   23282178.9944   23282176.8574
       231.000         191.000
 128678554.91248 100268988.03648  24486727.1064   24486731.5124   24486726.9204
       215.000         162.000
 118911468.80748  92658273.35748  22628110.5774   22628112.3934   22628110.4314
       235.000         196.000
 128026203.64748  99760670.88048  24362580.2944   24362582.2324   24362578.9444
       209.000         151.000
 137314751.77948  89206294.22248  24227196.2234   24227196.2404   24227195.0854
       216.000         166.000
 09  1 29  0  6 30.0000000  0 10G 5G 9G26G15G18G17G27G12G28G22
 124622235.33648  97108217.70348  23714835.2684   23714839.3304   23714835.1444
       224.000         173.000
 107749891.01848  83960941.14648  20504133.5344   20504136.2944   20504133.8964
       248.000         221.000
 113335953.13248  88313707.53648  21567131.6344   21567134.5824   21567131.3794
       243.000         209.000
 107875785.54348  84059047.75948  20528083.2164   20528084.7774   20528083.0494
       250.000         233.000
 117561543.16248  91606390.55048  22371222.5494   22371224.5834   22371223.1214
       235.000         193.000
 122331280.52248  95323064.45048  23278877.2284   23278879.5634   23278877.2254
       231.000         191.000
 128747187.42448 100322467.90448  24499788.1854   24499791.4634   24499788.6164
       210.000         162.000
 118815962.62848  92583852.96548  22609936.1634   22609938.3334   22609936.1054
       235.000         196.000
 128119010.55048  99832987.90848  24380240.8804   24380242.3954   24380241.3114
       207.000         149.000
 137246553.52748  89153152.73748  24214217.3554   24214219.4084   24214220.0734
       217.000         169.000
 09  1 29  0  7  0.0000000  0 10G 5G 9G26G15G18G17G27G12G28G22
 124514416.07748  97024202.68848  23694318.3724   23694321.9984   23694319.4024
       225.000         175.000
 107705843.03648  83926618.04948  20495751.4634   20495754.1284   20495751.7134
       249.000         222.000
 113412756.98448  88373554.68948  21581747.0874   21581749.9374   21581746.9774
       243.000         209.000
 107906957.17248  84083337.33848  20534014.7224   20534016.5214   20534014.3624
       250.000         233.000
 117539546.80848  91589250.53548  22367036.8674   22367038.4944   22367037.4224
       236.000         194.000
 122314463.64848  95309960.38548  23275677.1604   23275679.1434   23275676.2424
       233.000         191.000
 128815851.77048 100375972.59248  24512854.4944   24512858.0304   24512854.8064
       214.000         163.000
 118720748.60548  92509660.23048  22591817.2104   22591819.4894   22591817.0054
       233.000         195.000
 128211941.98448  99905401.96148  24397925.8974   24397927.7964   24397926.5354
       209.000         149.000
 137178762.55848  89100328.57948  24201317.9824   24201319.3884   24201318.2734
       218.000         170.000
 09  1 29  0  7 30.0000000  0 10G 5G 9G26G15G18G17G27G12G28G22
 124406782.37848  96940332.28448  23673836.3694   23673839.8564   23673837.5024
       225.000         175.000
 107662109.44648  83892539.93648  20487429.0654   20487432.0074   20487429.3214
       248.000         221.000
 113489897.16848  88433663.92048  21596426.3034   21596429.1414   21596426.3894
       242.000         209.000
 107938587.19948  84107984.10648  20540033.8234   20540035.4664   20540033.5204
       250.000         233.000
 117518120.52048  91572554.73048  22362959.5324   22362961.3434   22362959.8894
       236.000         193.000
 122298170.68348  95297264.57448  23272576.6864   23272578.5814   23272576.7364
       233.000         191.000
 128884548.06448 100429502.16248  24525927.2204   24525930.7174   24525928.1334
       212.000         163.000
 118625828.62948  92435696.61648  22573754.4794   22573756.8074   22573754.2474
       233.000         196.000
 128304995.81148  99977911.45148  24415632.9524   24415634.8214   24415635.3474
       213.000         153.000
 137111381.73448  89047824.07448  24188496.0174   24188496.7074   24188496.4234
       220.000         168.000
 09  1 29  0  8  0.0000000  0 10G 5G 9G26G15G18G17G27G12G28G22
 124299336.40548  96856608.14048  23653390.3994   23653393.6374   23653391.1404
       225.000         176.000
 107618690.24348  83858706.79548  20479166.7734   20479169.5794   20479167.0944
       248.000         222.000
 113567372.78048  88494034.52248  21611169.3914   21611172.1354   21611169.1634
       242.000         209.000
 107970676.39848  84132988.67148  20546140.1884   20546141.8664   20546140.0534
       250.000         233.000
 117497264.98348  91556303.65448  22358990.9104   22358992.8594   22358990.9564
       236.000         194.000
 122282402.75448  95284977.87148  23269575.9804   23269578.2374   23269575.9774
       231.000         192.000
 128953276.34648 100483056.66948  24539005.3474   24539008.5534   24539005.8544
       215.000         161.000
 118531204.55748  92361963.58048  22555748.0864   22555750.1204   22555748.0274
       235.000         197.000
 128398170.08948 100050514.78448  24433363.8644   24433365.6504   24433363.8334
       210.000         154.000
 137044413.63648  88995641.13248  24175752.1514   24175753.2874   24175753.1694
       222.000         169.000
 09  1 29  0  8 30.0000000  0 10G 5G 9G26G15G18G17G27G12G28G22
 124192080.33348  96773031.98148  23632980.0624   23632983.3224   23632980.2854
       225.000         175.000
 107575586.65848  83825119.57948  20470964.4164   20470967.2484   20470964.3624
       248.000         222.000
 113645183.04548  88554665.88848  21625976.1554   21625978.9574   21625976.0764
       242.000         208.000
 108003224.93748  84158351.16548  20552333.9414   20552335.7644   20552333.5134
       250.000         233.000
 117476981.32248  91540498.20948  22355131.2404   22355132.8674   22355131.8734
       237.000         194.000
 122267161.46748  95273101.54948  23266675.6674   23266677.7694   23266675.3124
       231.000         190.000
 129022037.05648 100536636.44348  24552090.4384   24552093.7224   24552090.9324
       211.000         163.000
 118436878.69848  92288462.91548  22537798.7164   22537800.7744   22537798.4904
       236.000         197.000
 128491463.26148 100123210.69748  24451116.8544   24451119.4414   24451117.0894
       212.000         154.000
 136977860.34448  88943781.37148  24163088.2604   24163089.0754   24163088.4554
       224.000         173.000
 09  1 29  0  9  0.0000000  0 10G 5G 9G26G15G18G17G27G12G28G22
 124085015.81648  96689605.07448  23612606.6744   23612609.6154   23612607.2234
       225.000         177.000
 107532798.42748  83791778.09848  20462821.9804   20462824.9664   20462822.1624
       249.000         222.000
 113723327.07448  88615557.34048  21640846.6334   21640849.1054   21640846.4724
       242.000         208.000
 108036232.55348  84184071.37448  20558615.2374   20558616.8544   20558615.0494
       250.000         233.000
 117457269.92148  91525138.66748  22351380.1734   22351381.8754   22351380.8694
       236.000         193.000
 122252447.68348  95261636.26348  23263875.9104   23263877.5984   23263875.3474
       231.000         191.000
 129090830.16848 100590241.42748  24565181.2444   24565184.0934   24565181.9874
       215.000         162.000
 118342852.85248  92215196.02248  22519906.2234   22519908.1514   22519906.1004
       237.000         198.000
 128584873.10148 100195997.54948  24468892.8204   24468894.3674   24468893.5724
       212.000         155.000
 136911723.59048  88892246.26948  24150502.8224   24150502.9704   24150504.7444
       219.000         166.000
 09  1 29  0  9 30.0000000  0 10G 5G 9G26G15G18G17G27G12G28G22
 123978144.72648  96606328.90848  23592269.6294   23592272.7114   23592270.0474
       223.000         176.000
 107490326.49048  83758683.07648  20454740.1454   20454742.9244   20454740.4194
       249.000         222.000
 113801803.43848  88676707.74648  21655780.1744   21655782.7764   21655780.0734
       243.000         208.000
 108069699.18748  84210149.26448  20564983.7494   20564985.3094   20564983.4744
       250.000         232.000
 117438131.24748  91510225.40048  22347738.0424   22347740.4044   22347738.4294
       235.000         193.000
 122238262.85148  95250583.16148  23261176.4544   23261178.6694   23261176.6144
       229.000         192.000
 129159655.74948 100643871.76848  24578277.3884   24578281.4054   24578277.1214
       211.000         163.000
 118249128.57548  92142164.12748  22502071.4524   22502073.2754   22502071.4784
       237.000         199.000
 128678397.50348 100268873.68248  24486689.7484   24486691.2714   24486690.4064
       211.000         154.000
 136846005.61348  88841037.43548  24137995.9694   24137996.7824   24137996.9344
       215.000         161.000
 09  1 29  0 10  0.0000000  0 10G 5G 9G26G15G18G17G27G12G28G22
 123871469.24048  96523205.14548  23571969.9744   23571973.3234   23571970.3264
       223.000         177.000
 107448171.41548  83725834.97048  20446718.1594   20446720.8544   20446718.2364
       249.000         223.000
 113880611.53148  88738116.65848  21670776.8854   21670779.5664   21670777.1854
       242.000         207.000
 108103625.26248  84236585.16348  20571439.6674   20571441.2864   20571439.4034
       250.000         232.000
 117419565.98648  91495758.95248  22344205.4724   22344207.4214   22344205.9984
       236.000         194.000
 122224608.31348  95239943.27648  23258577.8754   23258580.4404   23258577.9544
       232.000         192.000
 129228514.10148 100697527.62348  24591380.9494   24591385.2194   24591381.0694
       210.000         162.000
 118155708.37148  92069369.17848  22484294.0714   22484295.8524   22484293.9824
       236.000         199.000
 128772034.62448 100341837.64148  24504508.4594   24504509.5574   24504508.9954
       211.000         153.000
 136780708.59548  88790156.63948  24125570.9674   24125571.0934   24125571.7264
       217.000         165.000
 09  1 29  0 10 30.0000000  0 10G 5G 9G26G15G18G17G27G12G28G22
 123764990.67148  96440234.84448  23551707.6344   23551711.2924   23551707.8894
       224.000         178.000
 107406333.21548  83693233.77748  20438756.7094   20438759.2994   20438756.7874
       249.000         223.000
 113959749.66848  88799782.72648  21685835.9714   21685839.1474   21685835.7254
       242.000         207.000
 108138010.29948  84263378.68748  20577982.8814   20577984.5884   20577982.6654
       250.000         232.000
 117401574.14648  91481739.33648  22340781.3894   22340783.5574   22340782.1274
       235.000         194.000
 122211484.41148  95229716.87448  23256080.5414   23256083.0824   23256080.1114
       232.000         193.000
 129297405.19348 100751208.98448  24604491.4024   24604494.5844   24604491.2594
       214.000         163.000
 118062593.54848  91996812.19248  22466574.4474   22466576.7714   22466574.1784
       238.000         198.000
 128865782.12648 100414887.61548  24522348.0264   24522349.3684   24522349.8154
       212.000         149.000
 136715833.99248  88739605.01148  24113225.2774   24113226.3694   24113226.5114
       216.000         167.000
 09  1 29  0 11  0.0000000  0 10G 5G 9G26G15G18G17G27G12G28G22
 123658711.17948  96357419.67648  23531483.2044   23531487.0754   23531484.1644
       226.000         179.000
 107364812.76348  83660880.18648  20430855.5634   20430858.2124   20430855.7074
       249.000         223.000
 114039217.20448  88861705.46948  21700958.1744   21700961.0484   21700958.0674
       241.000         206.000
 108172854.47848  84290529.98548  20584613.3564   20584615.1664   20584613.0724
       249.000         232.000
 117384156.46048  91468167.10748  22337467.0634   22337469.0514   22337467.0454
       237.000         194.000
 122198892.60248  95219905.06848  23253685.0144   23253686.8854   23253684.3824
       231.000         194.000
 129366329.30548 100804916.08848  24617605.9714   24617611.0164   24617606.0454
       210.000         161.000
 117969785.88648  91924494.54748  22448913.6454   22448915.6464   22448913.4054
       237.000         198.000
 128959638.26548 100488022.23948  24540207.9564   24540208.9954   24540208.4974
       212.000         150.000
 136651384.22248  88689384.35548  24100960.8374   24100962.5774   24100959.2174
       216.000         165.000
 09  1 29  0 11 30.0000000  0 10G 5G 9G26G15G18G17G27G12G28G22
 123552632.57448  96274761.02848  23511297.1834   23511300.6964   23511297.6044
       224.000         177.000
 107323610.27248  83628774.35548  20423014.8474   20423017.6314   20423015.0564
       249.000         223.000
 114119012.95448  88923883.97848  21716142.9574   21716145.6504   21716143.0094
       242.000         206.000
 108208157.48548  84318038.81148  20591331.2354   20591333.0164   20591330.8724
       249.000         232.000
 117367313.29448  91455042.54048  22334261.9664   22334263.8904   22334262.3684
       237.000         193.000
 122186833.89948  95210508.68348  23251389.9284   23251391.9764   23251389.6044
       229.000         192.000
 129435286.31448 100858648.81548  24630728.5264   24630732.8674   24630728.2744
       211.000         159.000
 117877287.43548  91852417.84448  22431311.5144   22431313.6574   22431311.5254
       238.000         199.000
 129053601.05448 100561239.99448  24558088.8344   24558089.4384   24558089.2354
       210.000         151.000
 136587360.94748  88639496.08248  24088778.0984   24088778.8244   24088778.8114
       219.000         170.000
 09  1 29  0 12  0.0000000  0 10G 5G 9G26G15G18G17G27G12G28G22
 123446756.63948  96192260.29648  23491149.5094   23491153.0694   23491149.6494
       225.000         178.000
 107282726.14948  83596916.60648  20415234.9024   20415237.8044   20415234.9374
       249.000         223.000
 114199136.02948  88986317.53748  21731390.1264   21731392.8214   21731390.0264
       242.000         207.000
 108243919.31148  84345905.15448  20598136.6354   20598138.2614   20598136.4914
       250.000         231.000
 117351045.03448  91442365.97248  22331166.0824   22331168.3204   22331166.4054
       237.000         195.000
 122175309.29848  95201528.47948  23249196.8144   23249198.7854   23249196.3664
       230.000         191.000
 129504276.60848 100912407.47548  24643857.4134   24643861.2444   24643857.3254
       212.000         162.000
 117785100.03848  91780583.51448  22413769.0684   22413771.2174   22413768.7054
       239.000         200.000
 129147668.48648 100634539.28048  24575988.9174   24575989.9554   24575988.4664
       206.000         147.000
 136523766.17848  88589941.77148  24076676.8924   24076677.4834   24076677.7394
       220.000         171.000
 09  1 29  0 12 30.0000000  0 10G 5G 9G26G15G18G17G27G12G28G22
 123341085.21248  96109918.93048  23471040.8024   23471044.5024   23471041.6474
       225.000         177.000
 107242160.82548  83565307.26748  20407515.6064   20407518.3884   20407515.7524
       249.000         223.000
 114279584.94048  89049004.99048  21746698.9444   21746701.5784   21746698.9294
       241.000         206.000
 108280140.22248  84374129.23648  20605029.2244   20605030.9364   20605029.0214
       249.000         231.000
 117335352.01248  91430137.63448  22328179.9904   22328182.1524   22328180.8554
       237.000         194.000
 122164319.69348  95192965.16248  23247105.6794   23247107.6224   23247105.8384
       230.000         192.000
 129573299.99048 100966191.94448  24656991.8024   24656995.7374   24656991.9454
       214.000         162.000
 117693225.31748  91708992.82948  22396285.8034   22396288.1044   22396285.7004
       238.000         201.000
 129241838.36448 100707918.39448  24593908.2974   24593909.4584   24593908.6734
       207.000         145.000
 136460602.22248  88540723.08148  24064656.6894   24064657.1834   24064655.5214
       217.000         167.000
 09  1 29  0 13  0.0000000  0 10G 5G 9G26G15G18G17G27G12G28G22
 123235619.98948  96027738.22948  23450971.7424   23450975.2184   23450972.4934
       226.000         178.000
 107201914.70948  83533946.66548  20399857.0814   20399859.8694   20399857.5444
       248.000         223.000
 114360358.60148  89111945.50148  21762069.7014   21762072.4114   21762069.4864
       242.000         206.000
 108316819.66748  84402710.61548  20612009.2364   20612010.9024   20612008.9404
       250.000         231.000
 117320234.61248  91418357.82948  22325302.8984   22325305.2014   22325303.1304
       237.000         194.000
 122153866.03148  95184819.45048  23245116.3694   23245118.3964   23245116.0014
       230.000         191.000
 129642356.47148 101020002.20948  24670131.9674   24670136.6184   24670132.1474
       214.000         161.000
 117601665.03448  91637647.16148  22378862.5744   22378864.8214   22378862.2754
       238.000         200.000
 129336108.84648 100781375.90548  24611847.5254   24611848.5514   24611847.8234
       205.000         144.000
 136397870.89548  88491841.52148  24052718.9534   24052720.5094   24052718.9004
       219.000         171.000
 09  1 29  0 13 30.0000000  0 10G 5G 9G26G15G18G17G27G12G28G22
 123130362.67048  95945719.54348  23430942.2534   23430944.8854   23430942.9994
       226.000         179.000
 107161987.83148  83502834.81148  20392259.2064   20392261.9554   20392259.3964
       248.000         223.000
 114441455.73048  89175138.06048  21777502.0664   21777504.5684   21777502.1134
       242.000         206.000
 108353957.59848  84431649.26448  20619076.3574   20619077.9674   20619076.2084
       250.000         231.000
 117305692.79048  91407026.52148  22322535.8734   22322537.7354   22322536.1764
       237.000         193.000
 122143949.10648  95177091.98148  23243229.2724   23243231.2704   23243229.4094
       231.000         192.000
 129711446.05448 101073838.23748  24683280.2354   24683283.9584   24683281.3984
       212.000         162.000
 117510420.85648  91566547.80448  22361499.3094   22361501.7544   22361499.3934
       238.000         201.000
 129430477.92848 100854910.21848  24629805.4834   24629807.0134   24629805.4684
       207.000         144.000
 136335572.83248  88443297.57048  24040864.8004   24040865.4864   24040865.6104
       219.000         170.000
 09  1 29  0 14  0.0000000  0 10G 5G 9G26G15G18G17G27G12G28G22
 123025314.72548  95863863.98648  23410952.2994   23410955.2874   23410953.0744
       225.000         179.000
 107122380.50048  83471971.95548  20384722.1344   20384725.0164   20384722.1374
       249.000         223.000
 114522874.89548  89238581.57448  21792995.5454   21792997.9914   21792995.5154
       241.000         205.000
 108391553.29148  84460944.60948  20626230.3624   20626232.1844   20626230.0154
       250.000         231.000
 117291726.78148  91396143.90548  22319878.2164   22319880.0784   22319878.9444
       236.000         193.000
 122134569.24048  95169783.00748  23241444.3514   23241446.2924   23241444.0864
       232.000         192.000
 129780568.40448 101127699.84948  24696433.5874   24696437.2644   24696434.0764
       214.000         162.000
 117419494.03548  91495695.74148  22344196.6644   22344198.7584   22344196.4674
       240.000         202.000
 129524942.83948 100928519.18248  24647781.4974   24647783.6524   24647783.4624
       206.000         148.000
 136273710.82748  88395093.41348  24029092.3344   24029093.3464   24029092.2884
       218.000         169.000
 09  1 29  0 14 30.0000000  0 10G 5G 9G26G15G18G17G27G12G28G22
 122920478.06748  95782173.11348  23391002.1494   23391005.7244   23391002.9404
       223.000         178.000
 107083093.24748  83441358.51148  20377245.9784   20377248.7724   20377245.9844
       249.000         223.000
 114604615.11348  89302275.24748  21808549.9844   21808552.7214   21808549.7774
       242.000         205.000
 108429606.97348  84490596.82248  20633471.6654   20633473.5534   20633471.3854
       249.000         230.000
 117278336.92248  91385710.24748  22317330.1864   22317332.2664   22317331.3544
       236.000         193.000
 122125727.75248  95162893.53448  23239762.1304   23239763.7474   23239762.2064
       231.000         192.000
 129849724.08248 101181587.38648  24709593.7354   24709597.1184   24709593.9684
       216.000         165.000
 117328886.63048  91425092.57848  22326954.9534   22326956.5824   22326954.8824
       242.000         203.000
 129619502.00148 101002201.62848  24665776.1684   24665777.5934   24665776.3664
       202.000         149.000
 136212286.27048  88347230.12448  24017404.1114   24017404.4654   24017403.7824
       223.000         171.000
 09  1 29  0 15  0.0000000  0 10G 5G 9G26G15G18G17G27G12G28G22
 122815855.14848  95700648.75648  23371092.7434   23371096.5414   23371092.7144
       223.000         178.000
 107044127.34148  83410995.47748  20369831.1224   20369833.9824   20369831.6114
       249.000         224.000
 114686675.74248  89366218.59748  21824165.8084   21824168.2954   21824165.9324
       240.000         204.000
 108468119.02448  84520606.20748  20640800.3074   20640802.2364   20640800.0794
       249.000         231.000
 117265524.07648  91375726.19948  22314891.8604   22314893.9394   22314892.1334
       236.000         193.000
 122117426.41148  95156424.97748  23238182.4704   23238184.0644   23238182.2964
       231.000         192.000
 129918913.64348 101235501.36448  24722759.4964   24722764.0374   24722759.8174
       215.000         165.000
 117238600.88148  91354740.03648  22309774.2284   22309775.7544   22309774.0704
       242.000         203.000
 129714153.79148 101075956.26448  24683787.3404   24683789.8544   24683786.4114
       206.000         151.000
 136151301.85248  88299709.78548  24005799.4404   24005799.6254   24005800.3464
       220.000         168.000
 09  1 29  0 15 30.0000000  0 10G 5G 9G26G15G18G17G27G12G28G22
 122711448.03948  95619292.57448  23351224.7084   23351228.3964   23351225.2034
       224.000         178.000
 107005483.44748  83380883.35448  20362477.4644   20362480.0244   20362477.5294
       249.000         224.000
 114769055.94248  89430410.95448  21839842.0134   21839844.6904   21839841.7654
       241.000         204.000
 108507089.57848  84550972.86548  20648216.1674   20648218.1134   20648215.7264
       249.000         231.000
 117253288.57248  91366192.04048  22312563.6934   22312565.5614   22312564.3354
       237.000         193.000
 122109665.94548  95150377.89248  23236705.3784   23236707.2684   23236704.8614
       231.000         192.000
 129988137.23448 101289441.82148  24735932.4804   24735936.6434   24735931.8424
       216.000         165.000
 117148638.80348  91284639.72948  22292654.6774   22292656.7314   22292654.6634
       240.000         202.000
 129808896.95848 101149782.07548  24701816.4794   24701818.7264   24701816.8574
       206.000         150.000
 136090760.00848  88252534.31448  23994277.5454   23994279.0664   23994278.7064
       222.000         165.000
 09  1 29  0 16  0.0000000  0 10G 5G 9G26G15G18G17G27G12G28G22
 122607258.30148  95538105.76648  23331398.3974   23331401.8654   23331398.7164
       226.000         179.000
 106967161.46448  83351022.07648  20355185.1034   20355187.7554   20355185.4484
       249.000         224.000
 114851754.27948  89494851.20948  21855579.1494   21855581.8934   21855579.0374
       241.000         204.000
 108546517.71248  84581696.08248  20655719.2794   20655721.0224   20655718.9184
       250.000         230.000
 117241630.35248  91357107.70748  22310345.2604   22310346.9134   22310346.0114
       236.000         193.000
 122102446.89048  95144752.66148  23235331.8264   23235333.5434   23235331.2354
       232.000         193.000
 130057395.05648 101343408.94148  24749111.4054   24749115.4224   24749111.9044
       218.000         164.000
 117059002.19348  91214793.05248  22275597.1024   22275599.6804   22275596.7274
       239.000         203.000
 129903729.28148 101223677.37348  24719862.1474   24719864.5124   24719862.3294
       206.000         150.000
 136030662.04648  88205704.71548  23982841.3064   23982842.4014   23982840.6574
       222.000         170.000
 09  1 29  0 16 30.0000000  0 10G 5G 9G26G15G18G17G27G12G28G22
 122503287.55148  95457089.58648  23311613.4944   23311616.8714   23311614.6404
       226.000         180.000
 106929161.89948  83321412.02548  20347954.0344   20347956.4564   20347954.2824
       249.000         224.000
 114934769.41448  89559538.33348  21871376.1854   21871379.1424   21871375.8864
       240.000         204.000
 108586403.57848  84612775.97748  20663309.2314   20663311.1444   20663308.9514
       249.000         230.000
 117230549.48548  91348473.26248  22308236.3594   22308238.5654   22308237.3634
       236.000         193.000
 122095770.06948  95139549.95148  23234061.2994   23234062.9964   23234061.5054
       233.000         194.000
 130126686.87648 101397402.56848  24762297.8694   24762301.6864   24762297.4444
       216.000         163.000
 116969692.42748  91145201.04348  22258602.4594   22258604.5844   22258602.4134
       242.000         205.000
 129998648.50048 101297640.45148  24737925.2194   24737926.7004   24737922.9214
       205.000         152.000
 135971009.75048  88159222.41348  23971490.4274   23971491.5714   23971490.2494
       221.000         173.000
 09  1 29  0 17  0.0000000  0 10G 5G 9G26G15G18G17G27G12G28G22
 122399536.87048  95376244.92048  23291870.0844   23291874.1594   23291870.6534
       223.000         179.000
 106891484.19048  83292052.79048  20340783.9444   20340786.8774   20340783.9094
       249.000         224.000
 115018099.35848  89624470.75848  21887233.6304   21887236.2994   21887233.4114
       242.000         204.000
 108626746.16948  84644211.75948  20670986.2924   20670988.0094   20670985.9874
       249.000         230.000
 117220045.60848  91340288.41448  22306237.6454   22306239.4694   22306238.3134
       237.000         193.000
 122089635.47848  95134769.76248  23232894.0764   23232895.7864   23232894.4414
       229.000         193.000
 130196012.12148 101451422.24548  24775490.4574   24775494.3554   24775490.4634
       215.000         164.000
 116880710.56448  91075864.53248  22241669.9674   22241671.8054   22241669.7954
       240.000         205.000
 130093651.86848 101371669.04148  24756003.4474   24756006.4544   24756004.1614
       207.000         152.000
 135911804.32048  88113088.29848  23960224.1554   23960225.3554   23960224.1044
       221.000         170.000
 09  1 29  0 17 30.0000000  0 10G 5G 9G26G15G18G17G27G12G28G22
 122296008.34148  95295573.33748  23272169.1864   23272173.0774   23272169.1424
       224.000         179.000
 106854129.18548  83262944.99248  20333675.6994   20333678.3654   20333675.7934
       249.000         224.000
 115101743.32648  89689647.86948  21903150.3904   21903153.2154   21903150.5564
       241.000         203.000
 108667545.53348  84676003.46948  20678749.9734   20678751.7444   20678749.6124
       249.000         229.000
 117210119.13948  91332553.49548  22304348.9804   22304350.8744   22304348.9304
       238.000         195.000
 122084044.27448  95130413.00448  23231829.7124   23231831.5744   23231829.5284
       230.000         192.000
 130265371.28048 101505468.33848  24788688.7754   24788691.7144   24788688.4204
       212.000         162.000
 116792058.55948  91006785.05848  22224800.0214   22224801.6564   22224799.8774
       240.000         205.000
 130188737.80348 101445761.95748  24774097.4444   24774100.4494   24774098.3364
       204.000         151.000
 135853047.93248  88067304.09148  23949043.0184   23949043.8714   23949043.7434
       220.000         170.000
 09  1 29  0 18  0.0000000  0 10G 5G 9G26G15G18G17G27G12G28G22
 122192703.85248  95215076.33548  23252511.5664   23252515.1034   23252511.7464
       226.000         181.000
 106817097.37148  83234089.04548  20326628.5534   20326631.4554   20326628.9634
       249.000         224.000
 115185700.35748  89755068.93448  21919126.8924   21919129.2834   21919126.7554
       240.000         202.000
 108708801.22348  84708150.75848  20686600.6814   20686602.3984   20686600.4394
       248.000         230.000
 117200769.90348  91325268.37748  22302570.2064   22302571.6284   22302570.8784
       238.000         195.000
 122078996.85948  95126479.95948  23230869.2664   23230871.4764   23230869.4364
       230.000         193.000
 130334764.65948 101559541.09948  24801893.6234   24801897.2434   24801892.9864
       214.000         163.000
 116703737.73848  90937963.65448  22207992.8764   22207994.8124   22207992.7004
       240.000         204.000
 130283904.44548 101519917.78248  24792207.7704   24792209.6214   24792207.6624
       206.000         153.000
 135794741.77148  88021870.77848  23937948.3104   23937948.3334   23937949.4364
       222.000         173.000
 09  1 29  0 18 30.0000000  0 10G 5G 9G26G15G18G17G27G12G28G22
 122089625.06548  95134755.21448  23232896.2184   23232899.9684   23232897.3384
       226.000         181.000
 106780389.41448  83205485.45048  20319643.3064   20319646.0454   20319643.4054
       249.000         224.000
 115269969.01348  89820732.81848  21935162.8114   21935165.3024   21935162.7744
       240.000         203.000
 108750513.42848  84740653.77548  20694538.2744   20694540.1414   20694537.9264
       249.000         230.000
 117191998.17648  91318433.25848  22300900.5344   22300902.3384   22300901.0104
       236.000         194.000
 122074494.07948  95122971.31148  23230012.2074   23230014.6904   23230012.3274
       227.000         191.000
 130404192.26648 101613640.52948  24815104.8964   24815109.0524   24815105.0164
       214.000         162.000
 116615750.36548  90869402.07148  22191249.0964   22191251.2534   22191248.8204
       239.000         204.000
 130379150.46948 101594135.46848  24810331.5254   24810334.6934   24810331.8824
       204.000         152.000
 135736888.30348  87976790.16148  23926938.7494   23926939.7494   23926937.5584
       221.000         174.000
 09  1 29  0 19  0.0000000  0 10G 5G 9G26G15G18G17G27G12G28G22
 121986774.82048  95054612.16648  23213324.0724   23213328.2134   23213324.9584
       224.000         180.000
 106744006.56748  83177135.19148  20312719.9794   20312722.6694   20312720.3544
       249.000         224.000
 115354549.10548  89886639.38448  21951257.8814   21951260.5024   21951257.8294
       241.000         203.000
 108792682.65548  84773512.90548  20702562.7914   20702564.7104   20702562.4954
       249.000         229.000
 117183805.09948  91312049.02948  22299341.2704   22299343.6464   22299341.6304
       238.000         195.000
 122070538.04548  95119888.69648  23229259.4474   23229261.5624   23229258.8694
       231.000         192.000
 130473655.17748 101667767.44848  24828323.9074   24828326.9474   24828323.4834
       219.000         163.000
 116528098.99148  90801102.30948  22174569.3524   22174571.7164   22174569.3914
       240.000         204.000
 130474474.38948 101668413.81848  24828471.0474   24828474.3754   24828470.0084
       204.000         154.000
 135679490.08348  87932064.25848  23916016.5934   23916016.7494   23916015.5414
       224.000         173.000
 09  1 29  0 19 30.0000000  0 10G 5G 9G26G15G18G17G27G12G28G22
 121884153.69648  94974647.66748  23193796.0414   23193800.1934   23193795.9514
       226.000         182.000
 106707947.75848  83149037.42448  20305857.9804   20305860.8264   20305858.2044
       249.000         224.000
 115439438.29648  89952786.80748  21967411.8134   21967414.3854   21967411.8654
       241.000         202.000
 108835307.24048  84806726.85748  20710673.9934   20710675.8654   20710673.7714
       249.000         229.000
 117176189.40448  91306114.71248  22297892.4664   22297894.4034   22297893.3274
       237.000         195.000
 122067128.17148  95117231.65648  23228610.9504   23228612.4934   23228611.1884
       230.000         192.000
 130543152.29548 101721921.04248  24841548.4994   24841552.3254   24841549.3114
       216.000         162.000
 116440784.16848  90733064.80048  22157954.3904   22157956.1924   22157954.0024
       239.000         205.000
 130569873.35448 101742750.70348  24846624.8324   24846628.0124   24846624.1084
       204.000         155.000
 135622547.52148  87887693.43348  23905180.6454   23905180.8554   23905183.0204
       225.000         173.000
 09  1 29  0 20  0.0000000  0 10G 5G 9G26G15G18G17G27G12G28G22
 121781763.08248  94894862.77048  23174311.8704   23174315.7534   23174312.1264
       228.000         182.000
 106672213.42848  83121192.49048  20299058.1524   20299060.9994   20299058.0464
       250.000         224.000
 115524634.92948  90019173.78948  21983624.1424   21983626.8574   21983624.1954
       240.000         202.000
 108878386.50848  84840295.10848  20718871.6484   20718873.5734   20718871.1914
       249.000         229.000
 117169150.60648  91300629.93048  22296552.9954   22296554.8694   22296553.1804
       237.000         195.000
 122064264.52248  95115000.24548  23228065.6914   23228067.6494   23228065.9094
       229.000         191.000
 130612683.38948 101776101.09448  24854780.5474   24854783.6394   24854780.9784
       214.000         161.000
 116353806.95848  90665290.35548  22141403.3204   22141405.0734   22141403.0114
       241.000         206.000
 130665344.75848 101817143.97348  24864791.9934   24864795.7644   24864792.3134
       207.000         156.000
 135566062.11148  87843678.83248  23894431.3814   23894432.3294   23894433.0324
       225.000         173.000
 09  1 29  0 20 30.0000000  0 10G 5G 9G26G15G18G17G27G12G28G22
 121679605.23148  94815259.25548  23154871.7844   23154875.4864   23154872.6684
       226.000         181.000
 106636804.54848  83093601.16748  20292320.0224   20292322.8454   20292320.4394
       249.000         225.000
 115610138.34048  90085799.82648  21999895.0394   21999897.5724   21999895.0024
       240.000         202.000
 108921920.94448  84874218.04248  20727155.9794   20727157.8024   20727155.7664
       248.000         229.000
 117162689.41948  91295595.23748  22295323.3374   22295325.2334   22295324.0144
       235.000         194.000
 122061948.31048  95113195.41848  23227624.8044   23227626.6444   23227624.2814
       229.000         191.000
 130682248.96948 101830308.05348  24868017.3304   24868021.5754   24868017.7354
       208.000         159.000
 116267169.52748  90597780.67148  22124916.7854   22124918.6134   22124916.7934
       240.000         207.000
 130760887.74248 101891593.07248  24882974.2674   24882976.5204   24882974.9234
       208.000         156.000
 135510035.98348  87800022.10748  23883770.4694   23883771.0704   23883770.1444
       227.000         175.000
 09  1 29  0 21  0.0000000  0 10G 5G 9G26G15G18G17G27G12G28G22
 121577682.44848  94735838.90148  23135476.5184   23135480.1134   23135476.9264
       226.000         180.000
 106601721.87548  83066264.02848  20285644.0534   20285646.6884   20285644.1894
       250.000         225.000
 115695947.79648  90152664.33948  22016223.7904   22016226.4964   22016223.5734
       239.000         201.000
 108965910.59948  84908495.70048  20735527.0114   20735528.8504   20735526.6714
       249.000         229.000
 117156806.43148  91291011.07448  22294203.6564   22294206.0144   22294203.6144
       237.000         195.000
 122060180.52748  95111817.94248  23227288.6394   23227290.3674   23227288.2964
       229.000         191.000
 130751850.09648 101884542.70348  24881262.9094   24881266.1204   24881262.6234
       217.000         164.000
 116180874.24548  90530537.62048  22108495.2044   22108497.1254   22108495.0214
       240.000         205.000
 130856500.73448 101966096.71648  24901168.8824   24901170.8084   24901169.2194
       211.000         157.000
 135454471.55848  87756725.14148  23873196.6594   23873196.9614   23873196.8244
       223.000         170.000
 09  1 29  0 21 30.0000000  0 10G 5G 9G26G15G18G17G27G12G28G22
 121475995.82348  94656602.55848  23116125.9274   23116130.0974   23116126.3724
       226.000         181.000
 106566965.32148  83039181.01648  20279030.0994   20279032.7794   20279030.2504
       250.000         225.000
 115782061.57948  90219765.98848  22032610.9504   22032613.3424   22032610.5064
       241.000         202.000
 109010354.26648  84943127.12148  20743984.4164   20743986.1874   20743984.2094
       249.000         229.000
 117151500.41948  91286876.51348  22293194.0764   22293196.2664   22293195.0334
       236.000         194.000
 122058961.09948  95110867.76048  23227056.3494   23227058.7224   23227056.4624
       228.000         192.000
 130821486.19448 101938804.59748  24894513.4674   24894517.4854   24894514.8974
       214.000         161.000
 116094922.03848  90463561.88048  22092138.9464   22092140.6704   22092138.8274
       239.000         204.000
 130952180.62248 102040652.47948  24919376.1834   24919377.6964   24919376.3384
       211.000         159.000
 135399369.97548  87713788.84048  23862711.0804   23862711.7244   23862712.5944
       225.000         175.000
 09  1 29  0 22  0.0000000  0 10G 5G 9G26G15G18G17G27G12G28G22
 121374546.69048  94577551.29648  23096821.2084   23096825.0834   23096822.2424
       225.000         182.000
 106532534.75048  83012352.00448  20272478.3534   20272480.8784   20272478.3894
       250.000         225.000
 115868477.59048  90287103.13548  22049055.2844   22049057.9964   22049055.2584
       240.000         202.000
 109055251.40648  84978111.89548  20752527.9114   20752529.8354   20752527.6314
       248.000         228.000
 117146771.18148  91283191.39348  22292294.0764   22292296.2214   22292294.7284
       235.000         194.000
 122058290.35948  95110345.10348  23226928.7684   23226931.0404   23226928.4254
       229.000         192.000
 130891156.80848 101993093.40348  24907771.6524   24907775.0654   24907771.7284
       216.000         162.000
 116009314.11048  90396854.41448  22075848.2054   22075850.0024   22075848.3614
       240.000         205.000
 131047926.10948 102115259.36848  24937595.7354   24937597.2494   24937596.1564
       211.000         158.000
 135344732.40848  87671214.09148  23852313.5974   23852314.4634   23852313.3794
       225.000         177.000
 09  1 29  0 22 30.0000000  0 10G 5G 9G26G15G18G17G27G12G28G22
 121273336.98748  94498686.61048  23077561.2124   23077565.4884   23077561.7544
       227.000         183.000
 106498431.22548  82985777.83948  20265988.5704   20265991.2594   20265988.9884
       250.000         225.000
 115955195.11548  90354675.22548  22065557.0154   22065559.9914   22065556.9494
       239.000         201.000
 109100601.85048  85013449.89848  20761157.8714   20761159.7574   20761157.5364
       249.000         228.000
 117142618.81848  91279955.76248  22291503.6904   22291505.9104   22291504.2664
       235.000         193.000
 122058169.07448  95110250.62048  23226905.6034   23226907.8014   23226905.1924
       230.000         190.000
 130960862.45148 102047409.50548  24921035.9564   24921038.9094   24921035.9834
       217.000         160.000
 115924052.28848  90330416.63648  22059623.4714   22059625.1394   22059623.2314
       239.000         206.000
 131143734.90548 102189915.61948  24955827.8844   24955828.5494   24955827.9974
       214.000         159.000
 135290560.67048  87629002.37048  23842005.4854   23842006.1474   23842005.2764
       223.000         171.000
 09  1 29  0 23  0.0000000  0 10G 5G 9G26G15G18G17G27G12G28G22
 121172370.75048  94420011.62948  23058348.3434   23058352.3894   23058349.4134
       226.000         184.000
 106464657.19248  82959460.41548  20259561.5654   20259564.2244   20259561.7594
       250.000         225.000
 116042215.19448  90422483.08748  22082116.3734   22082119.1984   22082116.1704
       239.000         200.000
 109146407.63948  85049142.71348  20769874.3964   20769876.4364   20769874.1544
       248.000         228.000
 117139045.96148  91277171.71048  22290823.9204   22290826.0414   22290824.6714
       236.000         194.000
 122058599.91448  95110586.34048  23226987.3104   23226989.7634   23226987.0234
       229.000         191.000
 131030605.69148 102101754.89748  24934307.9474   24934311.3434   24934308.3914
       219.000         163.000
 115839140.42848  90264251.54848  22043465.1364   22043467.2094   22043464.8314
       240.000         207.000
 131239607.82348 102264621.84748  24974071.6944   24974072.8134   24974072.5154
       213.000         159.000
 135236858.62448  87587156.65148  23831786.2444   23831786.8274   23831786.7364
       227.000         174.000
 09  1 29  0 23 30.0000000  0 10G 5G 9G26G15G18G17G27G12G28G22
 121071648.41648  94341526.70348  23039181.4924   23039185.7734   23039181.3924
       227.000         184.000
 106431211.53248  82933398.86548  20253197.0034   20253199.7854   20253197.3064
       250.000         225.000
 116129535.23548  90490524.67248  22098732.7274   22098735.5744   22098732.5934
       238.000         200.000
 109192666.78948  85085188.79748  20778677.1944   20778679.3144   20778676.9404
       248.000         228.000
 117136050.40048  91274837.50048  22290254.3044   22290255.8464   22290254.4044
       237.000         195.000
 122059582.12448  95111351.71648  23227174.3834   23227176.4774   23227174.1644
       230.000         191.000
 131100385.19648 102156128.53248  24947586.4404   24947590.5084   24947587.6124
       215.000         162.000
 115754578.62848  90198359.25148  22027373.6664   22027375.8444   22027373.4884
       240.000         207.000
 131335541.63948 102339375.49548  24992327.2324   24992328.7634   24992328.1914
       212.000         159.000
 135183626.78448  87545677.26148  23821657.4434   23821657.2684   23821657.9824
       225.000         177.000
 09  1 29  0 24  0.0000000  0 10G 5G 9G26G15G18G17G27G12G28G22
 120971170.46948  94263232.21248  23020060.9584   23020065.1434   23020061.8674
       227.000         182.000
 106398093.72848  82907592.78548  20246894.8104   20246897.4634   20246894.8284
       250.000         225.000
 116217152.59248  90558797.93548  22115405.7524   22115408.5554   22115405.4724
       240.000         199.000
 109239377.69748  85121586.90248  20787566.2294   20787568.0364   20787565.9234
       249.000         228.000
 117133631.01448  91272952.26348  22289793.8324   22289795.6714   22289794.3014
       236.000         195.000
 122061114.74748  95112545.98848  23227465.7504   23227468.1344   23227466.2024
       229.000         190.000
 131170199.95348 102210529.66148  24960872.0664   24960874.6094   24960872.0684
       216.000         158.000
 115670367.45348  90132740.16548  22011348.8914   22011350.9204   22011348.9354
       240.000         207.000
 131431533.03248 102414174.01648  25010593.3014   25010594.8844   25010594.0274
       210.000         158.000
 135130865.42848  87504564.55148  23811615.9764   23811617.5894   23811617.1064
       222.000         175.000
 09  1 29  0 24 30.0000000  0 10G 5G 9G26G15G18G17G27G12G28G22
 120870939.44548  94185130.12348  23000987.8514   23000991.5524   23000988.7004
       228.000         182.000
 106365304.97448  82882043.10848  20240655.3154   20240658.0104   20240655.5494
       251.000         225.000
 116305066.66148  90627302.41348  22132135.2764   22132138.0554   22132135.3244
       239.000         199.000
 109286540.67548  85158337.26548  20796540.9144   20796542.8244   20796540.7604
       249.000         228.000
 117131788.20448  91271516.28948  22289442.9434   22289445.0794   22289443.7444
       235.000         193.000
 122063198.95648  95114170.04848  23227862.7854   23227864.7024   23227861.9264
       229.000         191.000
 131240050.80548 102264958.91248  24974164.1574   24974167.2224   24974164.3694
       214.000         159.000
 115586509.29248  90067396.14448  21995390.9474   21995392.9884   21995390.4464
       238.000         206.000
 131527581.33748 102489016.88348  25028870.6844   25028872.1474   25028870.9584
       209.000         157.000
 135078577.07748  87463820.39048  23801665.9164   23801666.8494   23801665.6994
       227.000         177.000
 09  1 29  0 25  0.0000000  0 10G 5G 9G26G15G18G17G27G12G28G22
 120770956.98148  94107221.71348  22981962.1694   22981965.1954   22981962.3984
       229.000         183.000
 106332845.75148  82856750.20248  20234478.6724   20234481.1994   20234478.9444
       250.000         225.000
 116393276.40748  90696037.26548  22148920.8634   22148923.8134   22148920.8154
       238.000         199.000
 109334155.34548  85195439.59748  20805601.7084   20805603.6694   20805601.5324
       248.000         228.000
 117130521.94548  91270529.57348  22289201.9604   22289203.8094   22289202.1954
       236.000         193.000
 122065835.83848  95116224.78248  23228364.7614   23228366.5034   23228364.2664
       230.000         193.000
 131309937.85348 102319416.37448  24987462.4664   24987465.9334   24987462.2724
       212.000         160.000
 115503005.70348  90002328.43348  21979500.6234   21979502.9174   21979500.2934
       238.000         207.000
 131623684.75848 102563902.69648  25047158.6324   25047160.9224   25047158.8084
       210.000         158.000
 135026763.26348  87423445.96448  23791806.8304   23791807.2294   23791806.8764
       223.000         177.000
 09  1 29  0 25 30.0000000  0 10G 5G 9G26G15G18G17G27G12G28G22
 120671224.35848  94029507.98448  22962983.8294   22962986.5514   22962984.7004
       230.000         184.000
 106300715.72648  82831713.82148  20228364.3834   20228367.1054   20228364.3984
       251.000         225.000
 116481779.96548  90765001.08348  22165762.6124   22165765.6134   22165762.5554
       238.000         199.000
 109382220.46948  85232892.93348  20814748.1174   20814750.2664   20814747.7314
       248.000         227.000
 117129831.39448  91269991.48348  22289070.7994   22289072.2694   22289071.2264
       237.000         194.000
 122069024.87648  95118709.75848  23228971.4214   23228973.7834   23228971.1084
       230.000         192.000
 131379860.72448 102373901.76548  25000768.9834   25000772.5614   25000768.9644
       216.000         161.000
 115419857.67948  89937537.77248  21963678.4864   21963680.4854   21963678.4164
       240.000         208.000
 131719840.66948 102638829.42148  25065456.4754   25065459.0454   25065458.4234
       210.000         155.000
 134975424.83048  87383442.01748  23782036.1474   23782037.9074   23782035.1454
       226.000         177.000
 09  1 29  0 26  0.0000000  0 10G 5G 9G26G15G18G17G27G12G28G22
 120571743.18448  93951990.19348  22944052.9644   22944056.1124   22944053.3714
       228.000         183.000
 106268915.36548  82806934.32148  20222312.9474   20222315.7274   20222313.3034
       251.000         226.000
 116570575.80248  90834192.65148  22182660.0244   22182662.6244   22182659.8174
       239.000         197.000
 109430735.68848  85270696.99348  20823980.2874   20823982.2164   20823979.8684
       248.000         227.000
 117129716.34348  91269901.82648  22289048.9574   22289050.6794   22289049.7124
       235.000         193.000
 122072766.05448  95121624.97348  23229683.1364   23229685.5724   23229683.9194
       228.000         191.000
 131449819.63848 102428415.20548  25014081.4024   25014085.1884   25014081.5144
       216.000         160.000
 115337066.76948  89873025.38948  21947923.6944   21947925.8024   21947923.1384
       240.000         208.000
 131816047.44948 102713795.76548  25083763.7364   25083766.6324   25083764.5924
       209.000         156.000
 134924563.69848  87343809.94548  23772359.0374   23772358.8734   23772359.2074
       228.000         180.000
 09  1 29  0 26 30.0000000  0 10G 5G 9G26G15G18G17G27G12G28G22
 120472514.74848  93874669.35748  22925169.7384   22925173.7154   22925170.3134
       228.000         184.000
 106237444.69748  82782411.72848  20216324.3704   20216327.1334   20216324.2664
       251.000         226.000
 116659662.39948  90903610.78448  22199612.4824   22199615.2624   22199612.3514
       238.000         198.000
 109479700.52848  85308851.40148  20833298.0324   20833299.8284   20833297.9214
       248.000         227.000
 117130176.16648  91270260.12648  22289136.0394   22289138.3354   22289136.8944
       235.000         193.000
 122077059.67248  95124970.65948  23230499.6154   23230502.4474   23230499.1824
       228.000         190.000
 131519814.29348 102482956.52848  25027401.5034   25027404.4504   25027401.9484
       216.000         160.000
 115254634.05048  89808792.10448  21932237.6734   21932239.3584   21932237.7114
       240.000         209.000
 131912302.40548 102788799.63048  25102080.5174   25102083.5054   25102082.0204
       209.000         155.000
 134874180.70048  87304550.48348  23762770.9044   23762771.7634   23762770.3394
       222.000         176.000
 09  1 29  0 27  0.0000000  0 10G 5G 9G26G15G18G17G27G12G28G22
 120373542.70148  93797548.29948  22906336.1344   22906339.8304   22906336.7634
       229.000         185.000
 106206306.10448  82758147.89048  20210398.8864   20210401.5344   20210399.0924
       251.000         226.000
 116749040.29048  90973255.88648  22216620.5544   22216623.3394   22216620.4144
       238.000         198.000
 109529115.80748  85347356.79948  20842701.2424   20842703.2734   20842700.8884
       248.000         226.000
 117131212.05748  91271067.29248  22289333.3244   22289335.3634   22289333.6414
       236.000         194.000
 122081908.01148  95128748.60848  23231422.3214   23231424.9444   23231421.9554
       227.000         188.000
 131589846.70448 102537527.27448  25040727.5474   25040730.8534   25040728.0754
       214.000         158.000
 115172562.87548  89744840.55448  21916620.1364   21916621.6684   21916620.1814
       240.000         208.000
 132008605.84748 102863841.28348  25120406.2254   25120409.1844   25120409.0024
       209.000         153.000
 134824279.56748  87265666.48948  23753275.1434   23753275.5984   23753273.2634
       228.000         178.000
 09  1 29  0 27 30.0000000  0 10G 5G 9G26G15G18G17G27G12G28G22
 120274826.79748  93720626.82948  22887551.3654   22887554.7684   22887551.9844
       229.000         186.000
 106175498.23048  82734141.74648  20204536.4194   20204539.1494   20204536.4734
       251.000         226.000
 116838706.19348  91043125.41748  22233683.4704   22233686.1244   22233683.4854
       237.000         197.000
 109578979.48848  85386211.60748  20852190.1154   20852192.0564   20852189.7364
       248.000         227.000
 117132821.90748  91272321.70948  22289640.1354   22289641.8354   22289640.4714
       237.000         195.000
 122087309.29148  95132957.39648  23232450.5314   23232452.5934   23232450.2314
       228.000         188.000
 131659915.43548 102592126.30248  25054061.5174   25054064.9794   25054061.4324
       215.000         159.000
 115090852.97148  89681170.51448  21901070.9324   21901072.7604   21901070.8164
       241.000         208.000
 132104954.75248 102938918.37448  25138741.3384   25138743.4944   25138741.7254
       206.000         152.000
 134774859.49048  87227157.34948  23743871.0064   23743871.2844   23743871.6374
       224.000         176.000
 09  1 29  0 28  0.0000000  0 10G 5G 9G26G15G18G17G27G12G28G22
 120176369.05248  93643906.51248  22868815.6554   22868819.1684   22868816.0984
       231.000         187.000
 106145021.84948  82710393.91348  20198737.0304   20198739.6254   20198737.2944
       250.000         226.000
 116928659.17248  91113218.64948  22250801.1334   22250803.3974   22250801.0794
       238.000         196.000
 109629290.98248  85425415.36048  20861764.2084   20861766.0634   20861763.9094
       247.000         227.000
 117135005.79748  91274023.43648  22290055.5654   22290057.5254   22290056.3254
       236.000         195.000
 122093264.29248  95137597.66648  23233584.1324   23233585.8984   23233583.5844
       228.000         188.000
 131730020.87648 102646753.92848  25067401.8764   25067404.9354   25067402.9194
       213.000         160.000
 115009506.32848  89617783.54148  21885591.1544   21885593.3344   21885591.1944
       240.000         210.000
 132201347.32048 103014029.43948  25157083.5664   25157086.7654   25157082.5544
       205.000         153.000
 134725922.69048  87189024.75048  23734558.4244   23734558.4584   23734557.8844
       223.000         174.000
 09  1 29  0 28 30.0000000  0 11G 5G 9G26G15G18G17G27G12G28G22G30
 120078170.96648  93567388.53148  22850129.1964   22850132.7864   22850129.7194
       232.000         187.000
 106114876.93448  82686904.36548  20193000.5854   20193003.3664   20193000.7744
       251.000         226.000
 117018897.83848  91183534.50048  22267973.1644   22267975.3944   22267973.2324
       238.000         198.000
 109680049.82748  85464967.70548  20871423.2174   20871425.1934   20871422.8224
       247.000         226.000
 117137763.01648  91276171.90348  22290580.2324   22290581.9984   22290580.7684
       235.000         194.000
 122099773.04948  95142669.43748  23234822.4764   23234824.1304   23234822.2844
       226.000         188.000
 131800162.86448 102701410.05848  25080750.3144   25080753.4964   25080750.8644
       215.000         161.000
 114928523.92848  89554680.39848  21870180.7284   21870182.7324   21870180.7674
       239.000         210.000
 132297781.64048 103089173.04448  25175434.6194   25175437.2564   25175434.1734
       207.000         155.000
 134677470.44448  87151269.72948  23725337.6974   23725338.5224   23725338.8424
       222.000         176.000
 132056971.53158 102901535.54058  25129607.3725   25129607.3485   25129606.2155
       209.000         146.000
 09  1 29  0 29  0.0000000  0 11G 5G 9G26G15G18G17G27G12G28G22G30
 119980234.42348  93491074.36348  22831492.1794   22831496.0694   22831492.9834
       230.000         186.000
 106085064.14548  82663673.61148  20187327.4384   20187330.0394   20187327.5884
       251.000         227.000
 117109420.86248  91254071.91648  22285198.8134   22285201.3374   22285198.3174
       237.000         196.000
 109731255.53248  85504868.24448  20881167.3224   20881169.3814   20881166.8844
       249.000         227.000
 117141093.20948  91278766.85348  22291213.7804   22291215.7044   22291214.4064
       236.000         194.000
 122106835.82948  95148172.90848  23236166.2214   23236168.2274   23236165.5374
       227.000         189.000
 131870342.11448 102756095.16448  25094103.4614   25094107.8584   25094104.6884
       212.000         158.000
 114847907.62348  89491862.51348  21854839.8074   21854841.7684   21854839.5664
       239.000         209.000
 132394256.15648 103164347.97848  25193793.3264   25193795.4104   25193794.4694
       207.000         151.000
 134629504.19648  87113893.46148  23716210.1874   23716211.4064   23716210.4794
       222.000         173.000
 131944292.22048 102813733.47748  25108164.7204   25108165.9564   25108163.6024
       210.000         146.000
 09  1 29  0 29 30.0000000  0 11G 5G 9G26G15G18G17G27G12G28G22G30
 119882561.66448  93414965.74048  22812905.3924   22812909.6214   22812905.7304
       230.000         186.000
 106055584.89348  82640702.76548  20181717.7234   20181720.4224   20181717.8714
       251.000         226.000
 117200227.45848  91324830.29348  22302478.8164   22302481.2374   22302478.8614
       237.000         196.000
 109782908.08948  85545116.98248  20890996.5124   20890998.6704   20890996.2094
       248.000         227.000
 117144996.59048  91281808.43748  22291956.5394   22291958.5054   22291957.1354
       235.000         193.000
 122114453.65448  95154108.89048  23237615.6564   23237618.1014   23237615.4744
       228.000         188.000
 131940559.08148 102810809.74448  25107466.2244   25107469.3394   25107466.9714
       211.000         152.000
 114767659.35048  89429331.40748  21839569.1534   21839571.0114   21839568.7894
       239.000         209.000
 132490769.61248 103239553.22648  25212159.1864   25212162.0954   25212160.0024
       208.000         149.000
 134582025.97848  87076897.46948  23707175.2414   23707176.3744   23707175.6754
       223.000         174.000
 131831682.50448 102725985.66348  25086735.4414   25086737.0674   25086734.7034
       210.000         146.000
 09  1 29  0 30  0.0000000  0 11G 5G 9G26G15G18G17G27G12G28G22G30
 119785153.83448  93339063.54248  22794369.1594   22794373.3794   22794369.9384
       231.000         187.000
 106026439.12948  82617991.77148  20176171.5764   20176174.0794   20176171.7054
       252.000         226.000
 117291315.95048  91395808.35848  22319812.3974   22319814.8494   22319812.5484
       239.000         196.000
 109835006.52948  85585713.16548  20900910.7164   20900912.5994   20900910.6064
       248.000         226.000
 117149472.09548  91285295.83948  22292808.2934   22292809.9644   22292808.4734
       236.000         193.000
 122122625.86048  95160476.86848  23239170.7764   23239172.8944   23239170.7274
       228.000         188.000
 132010813.48648 102865553.43048  25120834.5444   25120837.4124   25120835.1924
       209.000         150.000
 114687780.39148  89367088.08148  21824368.4934   21824370.6024   21824368.6324
       239.000         209.000
 132587319.76848 103314787.11248  25230531.9784   25230534.1644   25230532.1324
       203.000         146.000
 134535037.14148  87040282.77348  23698233.1654   23698234.4384   23698233.2484
       220.000         174.000
 131719144.08948 102638293.40448  25065319.6934   25065322.3104   25065321.0454
       210.000         145.000
 09  1 29  0 30 30.0000000  0 11G 5G 9G26G15G18G17G27G12G28G22G30
 119688012.96348  93263369.35448  22775884.3074   22775888.1904   22775884.7704
       231.000         187.000
 105997627.32248  82595541.01648  20170688.6964   20170691.3864   20170688.8354
       252.000         227.000
 117382685.09048  91467005.07348  22337199.1904   22337202.0804   22337199.2244
       237.000         196.000
 109887550.47048  85626656.49848  20910909.4004   20910911.3324   20910909.1444
       248.000         226.000
 117154519.70548  91289229.02448  22293768.9174   22293770.7164   22293769.2134
       234.000         192.000
 122131353.30848  95167277.48448  23240831.8414   23240834.2264   23240831.7924
       230.000         190.000
 132081105.85748 102920326.75548  25134210.8904   25134213.9044   25134210.9604
       214.000         154.000
 114608272.12148  89305133.60548  21809238.5404   21809240.6434   21809238.1554
       239.000         210.000
 132683904.99648 103390048.29648  25248911.2764   25248912.7344   25248909.6304
       206.000         146.000
 134488538.97248  87004050.47048  23689385.1614   23689386.2804   23689385.8674
       226.000         177.000
 131606678.14848 102550657.61048  25043917.3844   25043920.7644   25043918.7554
       208.000         149.000
 09  1 29  0 31  0.0000000  0 11G 5G 9G26G15G18G17G27G12G28G22G30
 119591139.34648  93187883.41148  22757450.0494   22757453.4544   22757451.0714
       231.000         187.000
 105969148.73248  82573349.90948  20165269.2864   20165272.1954   20165269.5104
       250.000         226.000
 117474332.33448  91538418.50548  22354639.1594   22354641.8204   22354638.8424
       236.000         195.000
 109940538.04348  85667945.50548  20920992.5204   20920994.5584   20920992.0684
       248.000         226.000
 117160137.84048  91293606.78548  22294837.5904   22294839.7354   22294837.8784
       236.000         193.000
 122140634.84148  95174509.85348  23242598.4624   23242600.2944   23242598.2304
       230.000         190.000
 132151435.05148 102975128.77448  25147594.5864   25147597.1274   25147594.3814
       212.000         155.000
 114529134.78948  89243468.18748  21794179.4044   21794181.2544   21794179.3584
       239.000         210.000
 132780522.84348 103465334.92448  25267297.7554   25267299.0084   25267296.6764
       203.000         145.000
 134442531.74748  86968200.67848  23680630.7204   23680631.8844   23680631.7334
       225.000         179.000
 131494285.23248 102463078.72548  25022529.6634   25022533.2424   25022529.2114
       215.000         152.000
 09  1 29  0 31 30.0000000  0 11G 5G 9G26G15G18G17G27G12G28G22G30
 119494535.33548  93112607.55748  22739066.6614   22739070.3224   22739066.9244
       232.000         189.000
 105941004.29548  82551419.18848  20159913.5464   20159916.4084   20159913.6104
       251.000         227.000
 117566257.00248  91610048.11048  22372132.0074   22372134.4234   22372131.9224
       235.000         194.000
 109993969.58748  85709580.46748  20931160.2284   20931162.1564   20931159.9284
       248.000         226.000
 117166326.27648  91298428.92948  22296015.3964   22296017.6454   22296015.8304
       235.000         193.000
 122150471.14948  95182174.51548  23244470.3074   23244471.8064   23244470.5084
       231.000         189.000
 132221802.03948 103029960.22648  25160984.1904   25160987.9494   25160984.3604
       212.000         151.000
 114450370.58348  89182093.50548  21779191.0244   21779192.8444   21779190.9584
       240.000         209.000
 132877172.33248 103540646.20448  25285689.4404   25285690.0144   25285691.0174
       208.000         145.000
 134397017.64048  86932735.12248  23671969.9884   23671970.1334   23671970.1064
       226.000         178.000
 131381968.31248 102375559.04148  25001157.7534   25001160.4184   25001157.9464
       212.000         152.000
 09  1 29  0 32  0.0000000  0 11G 5G 9G26G15G18G17G27G12G28G22G30
 119398202.79248  93037543.24548  22720735.4954   22720738.9554   22720736.5034
       234.000         189.000
 105913194.70648  82529749.37948  20154621.6774   20154624.2424   20154621.9264
       251.000         226.000
 117658457.86648  91681892.94448  22389677.0264   22389679.3834   22389677.1104
       235.000         193.000
 110047844.02448  85751560.54348  20941412.0794   20941414.1184   20941411.6564
       249.000         225.000
 117173084.68848  91303695.20848  22297301.5574   22297304.0514   22297302.1344
       234.000         193.000
 122160862.46348  95190271.65248  23246447.4414   23246448.8914   23246447.1554
       230.000         188.000
 132292206.92548 103084821.17348  25174381.9534   25174384.6384   25174382.8014
       213.000         148.000
 114371981.14548  89121010.84748  21764273.9324   21764275.8184   21764273.8694
       239.000         210.000
 132973851.52548 103615980.64948  25304087.0054   25304087.6624   25304089.9454
       208.000         144.000
 134351998.17148  86897655.05748  23663402.5494   23663403.1184   23663402.4754
       225.000         177.000
 131269728.82248 102288099.70448  24979798.5614   24979801.7274   24979796.7134
       210.000         152.000
 09  1 29  0 32 30.0000000  0 11G 5G 9G26G15G18G17G27G12G28G22G30
 119302143.42848  92962691.80848  22702455.9094   22702459.3954   22702456.7104
       233.000         189.000
 105885720.49748  82508340.90548  20149393.5924   20149396.0684   20149393.7514
       251.000         227.000
 117750933.73448  91753952.05848  22407274.7684   22407277.3284   22407274.6674
       233.000         193.000
 110102161.14048  85793885.56348  20951748.3244   20951750.3274   20951748.0734
       249.000         225.000
 117180412.57548  91309405.24348  22298695.8054   22298698.1944   22298696.2314
       235.000         194.000
 122171809.08548  95198801.50448  23248530.3084   23248531.7864   23248530.1664
       229.000         188.000
 132362650.09148 103139712.02248  25187787.5574   25187790.6114   25187787.7554
       215.000         155.000
 114293967.77148  89060221.23648  21749428.3864   21749430.1314   21749428.0504
       239.000         209.000
 133070558.79848 103691336.97348  25322490.0514   25322490.6094   25322490.8254
       205.000         144.000
 134307475.11448  86862961.75948  23654930.3534   23654929.6864   23654930.7774
       227.000         175.000
 131157568.89048 102200702.35748  24958454.7284   24958458.1744   24958454.5674
       211.000         152.000
 09  1 29  0 33  0.0000000  0 11G 5G 9G26G15G18G17G27G12G28G22G30
 119206358.35048  92888054.09448  22684228.5714   22684232.1274   22684229.5244
       233.000         190.000
 105858581.71248  82487193.79848  20144229.2944   20144231.8324   20144229.4064
       252.000         227.000
 117843682.66848  91826223.94348  22424924.3294   22424926.8984   22424924.3354
       236.000         195.000
 110156919.74448  85836554.60248  20962168.6214   20962170.4564   20962168.4264
       248.000         225.000
 117188308.66748  91315558.01348  22300198.6124   22300200.7844   22300199.4534
       234.000         192.000
 122183310.72548  95207763.83948  23250719.2594   23250720.6324   23250719.0784
       230.000         188.000
 132433131.36248 103194632.49648  25201198.7404   25201202.6484   25201198.8184
       210.000         153.000
 114216331.60648  88999725.53648  21734654.5674   21734656.3404   21734654.3694
       240.000         209.000
 133167292.05648 103766713.58748  25340897.6654   25340898.2434   25340897.5484
       205.000         144.000
 134263448.63548  86828655.42448  23646552.4424   23646552.7514   23646552.8794
       225.000         179.000
 131045489.48348 102113367.74448  24937127.0674   24937129.6524   24937127.1274
       212.000         153.000
 09  1 29  0 33 30.0000000  0 11G 5G 9G26G15G18G17G27G12G28G22G30
 119110849.43848  92813631.58148  22666053.5584   22666057.3324   22666054.0434
       233.000         189.000
 105831779.09948  82466308.64448  20139128.7814   20139131.6114   20139128.9474
       251.000         227.000
 117936703.42348  91898707.63448  22442625.6984   22442628.3904   22442625.7544
       235.000         195.000
 110212119.30248  85879567.24448  20972672.7354   20972674.6544   20972672.3494
       249.000         225.000
 117196773.05148  91322153.62648  22301809.1504   22301811.3574   22301809.5074
       235.000         192.000
 122195367.09648  95217158.41848  23253013.6974   23253015.1884   23253013.9064
       231.000         189.000
 132503651.19848 103249583.00148  25214618.7324   25214621.6034   25214618.4454
       208.000         152.000
 114139074.27148  88939525.01248  21719953.1494   21719954.9484   21719953.0084
       240.000         211.000
 133264050.26048 103842109.60848  25359310.3284   25359311.6194   25359311.4554
       204.000         144.000
 134219921.07848  86794737.84148  23638268.9084   23638270.8614   23638268.8764
       225.000         177.000
 130933492.67248 102026097.51648  24915815.0924   24915818.2564   24915814.6844
       217.000         158.000
 09  1 29  0 34  0.0000000  0 11G 5G 9G26G15G18G17G27G12G28G22G30
 119015618.66148  92739425.78548  22647931.9014   22647935.3274   22647932.7654
       234.000         190.000
 105805313.21548  82445685.88248  20134092.5594   20134095.1084   20134092.8264
       252.000         227.000
 118029994.88548  91971402.28448  22460378.5584   22460381.1494   22460378.3394
       234.000         193.000
 110267759.42848  85922923.18348  20983260.8234   20983262.6644   20983260.5374
       248.000         225.000
 117205804.87548  91329191.39948  22303528.1924   22303530.2314   22303528.4134
       235.000         192.000
 122207978.84248  95226985.77648  23255413.6404   23255414.9554   23255413.7314
       230.000         188.000
 132574209.92548 103304563.81948  25228045.8684   25228049.7724   25228045.5114
       214.000         158.000
 114062197.27448  88879620.86648  21705324.0784   21705326.0944   21705324.1574
       240.000         211.000
 133360832.07048 103917524.01148  25377727.2494   25377728.5744   25377728.5814
       202.000         143.000
 134176893.13748  86761209.52948  23630081.0474   23630081.3904   23630080.8554
       221.000         172.000
 130821580.43948 101938893.14948  24894518.4374   24894521.8754   24894517.8674
       208.000         156.000
 09  1 29  0 34 30.0000000  0 11G 5G 9G26G15G18G17G27G12G28G22G30
 118920667.68448  92665438.01448  22629863.4744   22629866.6784   22629864.1574
       234.000         190.000
 105779184.67448  82425325.97648  20129120.4314   20129123.0624   20129120.4504
       251.000         226.000
 118123555.90948  92044306.98348  22478182.4574   22478185.0754   22478181.9864
       235.000         193.000
 110323839.61548  85966622.03448  20993932.4804   20993934.2474   20993932.2324
       249.000         225.000
 117215403.49648  91336670.82348  22305354.6764   22305356.7534   22305354.8654
       236.000         193.000
 122221146.24448  95237246.10648  23257919.1164   23257920.7184   23257918.8934
       230.000         188.000
 132644807.93348 103359575.33348  25241478.9404   25241483.6854   25241479.0284
       213.000         154.000
 113985702.13448  88820014.27748  21690767.4464   21690769.5694   21690767.0344
       240.000         211.000
 133457635.21048 103992955.05048  25396147.0244   25396149.4144   25396146.8444
       202.000         141.000
 134134366.86048  86728072.20148  23621988.7084   23621989.4684   23621986.5754
       224.000         178.000
 130709754.41348 101851756.00848  24873238.0494   24873242.4364   24873237.0554
       214.000         156.000
 09  1 29  0 35  0.0000000  0 11G 5G 9G26G15G18G17G27G12G28G22G30
 118825997.86748  92591669.34048  22611848.0904   22611851.5834   22611848.7844
       234.000         191.000
 105753393.73648  82405229.14348  20124212.6124   20124214.9534   20124212.9244
       252.000         226.000
 118217384.78448  92117420.40248  22496037.3194   22496040.0194   22496037.3044
       235.000         193.000
 110380358.68748  86010662.86748  21004687.5774   21004689.6314   21004687.3394
       247.000         224.000
 117225568.15848  91344591.33548  22307288.9584   22307290.8784   22307289.5954
       237.000         193.000
 122234868.78048  95247939.01348  23260530.5014   23260532.1094   23260530.5274
       232.000         189.000
 132715445.19648 103414617.39748  25254921.8304   25254925.7374   25254921.9734
       209.000         155.000
 113909590.05448  88760706.18148  21676283.6034   21676285.8404   21676283.5954
       239.000         211.000
 133554458.41148 104068401.77748  25414572.6914   25414574.4944   25414571.7914
       204.000         142.000
 134092342.87448  86695326.24548  23613991.9904   23613992.4934   23613991.5264
       224.000         176.000
 130598016.25048 101764687.28848  24851975.6864   24851979.2854   24851975.9394
       212.000         157.000
 09  1 29  0 35 30.0000000  0 11G 5G 9G26G15G18G17G27G12G28G22G30
 118731610.18848  92518120.52548  22593886.8264   22593890.3654   22593887.9224
       235.000         191.000
 105727939.91948  82385395.00148  20119368.9794   20119371.4174   20119369.1354
       253.000         227.000
 118311479.47748  92190740.94048  22513942.8604   22513945.8504   22513942.9234
       233.000         192.000
 110437315.10448  86055044.48448  21015526.0464   21015528.1134   21015525.6944
       248.000         224.000
 117236297.50148  91352951.84448  22309330.7984   22309332.6854   22309331.3764
       236.000         193.000
 122249145.59848  95259063.80048  23263247.6344   23263248.7674   23263247.3794
       229.000         188.000
 132786121.17048 103469689.53248  25268370.0724   25268375.2274   25268370.2274
       211.000         153.000
 113833861.53248  88701696.96548  21661872.9534   21661875.2324   21661872.7064
       241.000         213.000
 133651299.60448 104143862.50448  25433000.5974   25433003.3804   25433000.7494
       204.000         140.000
 134050822.46848  86662972.64648  23606090.2364   23606090.5844   23606088.6734
       220.000         171.000
 130486366.92148 101677687.82148  24830730.4404   24830732.6684   24830729.6354
       215.000         158.000
 09  1 29  0 36  0.0000000  0 11G 5G 9G26G15G18G17G27G12G28G22G30
 118637506.39648  92444792.90448  22575979.5504   22575982.8534   22575980.7304
       235.000         191.000
 105702824.02648  82365824.18348  20114589.5924   20114592.0684   20114589.7714
       252.000         227.000
 118405838.65648  92264267.55448  22531898.7974   22531901.8094   22531898.0764
       234.000         190.000
 110494708.70848  86099766.78148  21026447.5684   21026449.6404   21026447.3734
       247.000         224.000
 117247591.06248  91361752.01048  22311479.8614   22311481.7084   22311480.0574
       235.000         191.000
 122263977.14748  95270620.84248  23266069.8684   23266071.1344   23266069.5144
       231.000         189.000
 132856836.20248 103524792.14548  25281827.0934   25281831.0454   25281828.0384
       206.000         152.000
 113758518.37148  88642988.01248  21647535.8284   21647537.8874   21647535.7594
       241.000         213.000
 133748157.07748 104219335.88848  25451431.9244   25451435.0154   25451431.7144
       205.000         140.000
 134009806.34748  86631012.07548  23598285.0344   23598286.1554   23598284.8584
       224.000         178.000
 130374808.46948 101590759.18248  24809501.1184   24809504.1934   24809501.3914
       213.000         158.000
 09  1 29  0 36 30.0000000  0 11G 5G 9G26G15G18G17G27G12G28G22G30
 118543687.11848  92371686.99448  22558126.4904   22558129.7554   22558127.4344
       237.000         193.000
 105678045.38348  82346516.15948  20109874.3104   20109877.0354   20109874.5944
       252.000         227.000
 118500459.96148  92337998.43548  22549904.4834   22549907.8024   22549904.3984
       233.000         190.000
 110552537.79948  86144828.41048  21037452.0814   21037454.2114   21037451.7524
       247.000         224.000
 117259446.99248  91370990.38748  22313735.8374   22313737.8844   22313736.4524
       234.000         191.000
 122279362.14548  95282609.18748  23268997.2524   23268998.8924   23268997.6464
       230.000         188.000
 132927589.55448 103579924.62248  25295291.8654   25295295.6304   25295292.1034
       213.000         155.000
 113683560.73148  88584579.47748  21633271.6924   21633273.6674   21633271.5114
       241.000         213.000
 133845028.05048 104294819.78548  25469866.6064   25469867.8834   25469867.9384
       204.000         141.000
 133969295.03748  86599444.84748  23590576.0104   23590577.0364   23590576.0254
       221.000         172.000
 130263341.61048 101503901.91648  24788289.2184   24788291.9564   24788289.5334
       209.000         156.000
 09  1 29  0 37  0.0000000  0 11G 5G 9G26G15G18G17G27G12G28G22G30
 118450155.07948  92298804.91048  22540327.8594   22540331.2474   22540329.1754
       235.000         193.000
 105653606.01448  82327472.50048  20105223.6964   20105226.5044   20105223.8764
       252.000         227.000
 118595343.14348  92411933.40248  22567960.3304   22567963.0564   22567959.8964
       235.000         190.000
 110610802.31048  86190229.32348  21048539.4144   21048541.6464   21048539.0524
       247.000         223.000
 117271865.65448  91380667.25448  22316099.2234   22316101.0004   22316099.1634
       237.000         192.000
 122295301.55048  95295029.51748  23272030.2164   23272032.3054   23272030.0064
       231.000         191.000
 132998382.54648 103635088.01348  25308762.4744   25308767.3944   25308764.5544
       207.000         149.000
 113608990.95048  88526473.16448  21619081.5754   21619083.3454   21619081.3904
       240.000         212.000
 133941912.01848 104370313.79948  25488303.0934   25488304.8874   25488304.0554
       208.000         142.000
 133929290.74448  86568272.63848  23582964.1134   23582964.1784   23582963.0334
       228.000         180.000
 130151968.78348 101417117.91948  24767095.2754   24767098.7334   24767094.3204
       209.000         156.000
 09  1 29  0 37 30.0000000  0 11G 5G 9G26G15G18G17G27G12G28G22G30
 118356911.33548  92226147.47048  22522583.8494   22522587.7234   22522584.7584
       235.000         191.000
 105629505.81548  82308693.12148  20100637.5434   20100640.2484   20100637.7704
       252.000         227.000
 118690486.25048  92486070.88848  22586065.4974   22586068.2984   22586065.5834
       233.000         191.000
 110669501.23048  86235968.73548  21059709.6184   21059711.4794   21059709.4014
       248.000         223.000
 117284845.37348  91390781.30348  22318569.2494   22318570.9514   22318569.7874
       236.000         192.000
 122311795.09748  95307881.63048  23275169.3194   23275170.8484   23275169.2364
       233.000         192.000
 133069214.95948 103690282.07148  25322241.9134   25322244.9954   25322242.4654
       207.000         148.000
 113534809.96048  88468669.80748  21604965.3034   21604967.2044   21604965.1504
       241.000         213.000
 134038807.09248 104445816.48548  25506741.3294   25506743.0884   25506742.2554
       208.000         142.000
 133889794.25148  86537496.14848  23575448.0614   23575449.3754   23575448.5204
       223.000         177.000
 130040691.70048 101330408.48948  24745919.7894   24745924.0384   24745919.7664
       212.000         157.000
 09  1 29  0 38  0.0000000  0 11G 5G 9G26G15G18G17G27G12G28G22G30
 118263960.49248  92153718.24648  22504895.8964   22504899.1024   22504896.7904
       236.000         192.000
 105605747.87748  82290180.43548  20096116.5924   20096119.1684   20096116.6134
       251.000         227.000
 118785890.78248  92560412.07548  22604220.2524   22604223.2914   22604219.9704
       233.000         190.000
 110728636.72548  86282048.33748  21070962.7414   21070964.5594   21070962.4414
       248.000         223.000
 117298388.57348  91401334.43948  22321146.3094   22321147.9154   22321147.0664
       233.000         191.000
 122328845.32148  95321167.53348  23278413.9184   23278415.0634   23278413.6894
       233.000         190.000
 133140089.87948 103745509.29048  25335729.7704   25335731.9644   25335729.6424
       207.000         148.000
 113461022.07948  88411172.76148  21590924.1234   21590925.9774   21590923.9254
       242.000         214.000
 134135714.81448 104521329.03948  25525182.3414   25525183.8544   25525182.1144
       204.000         139.000
 133850809.60548  86507118.50548  23568029.5864   23568030.5484   23568029.6104
       228.000         181.000
 129929514.77448 101243777.14448  24724765.0144   24724766.9374   24724764.2674
       213.000         155.000
 09  1 29  0 38 30.0000000  0 11G 5G 9G26G15G18G17G27G12G28G22G30
 118171299.37448  92081514.78548  22487263.3734   22487266.5934   22487264.4344
       237.000         194.000
 105582327.97048  82271931.15548  20091659.7594   20091662.4724   20091659.8634
       252.000         227.000
 118881550.86848  92634952.38648  22622424.0894   22622426.7194   22622423.8254
       234.000         189.000
 110788203.13548  86328463.71748  21082297.8114   21082299.7304   21082297.5784
       248.000         223.000
 117312489.60048  91412322.23648  22323829.4814   22323831.4104   22323829.7384
       236.000         192.000
 122346447.66148  95334883.65048  23281763.4374   23281764.4824   23281763.5824
       231.000         189.000
 133211002.96748 103800766.23748  25349222.9754   25349227.9704   25349222.5954
       206.000         150.000
 113387623.66148  88353979.20448  21576956.9404   21576958.6804   21576957.1054
       242.000         214.000
 134232629.12048 104596846.72948  25543623.8384   25543626.5644   25543624.2574
       200.000         136.000
 133812333.80148  86477137.33948  23560708.2254   23560709.0204   23560708.0614
       225.000         180.000
 129818435.06748 101157221.51148  24703627.1964   24703628.6564   24703627.8024
       217.000         158.000
 09  1 29  0 39  0.0000000  0 10G 5G 9G26G15G18G17G27G12G22G30
 118078927.44848  92009536.68048  22469685.4234   22469688.8674   22469686.4134
       236.000         196.000
 105559244.34548  82253943.92148  20087267.2554   20087269.7664   20087267.5294
       251.000         227.000
 118977462.63648  92709688.83948  22640675.6214   22640677.9954   22640675.5994
       235.000         190.000
 110848197.80148  86375212.80648  21093714.4224   21093716.4094   21093714.1934
       247.000         223.000
 117327145.59048  91423742.48448  22326618.7044   22326620.2754   22326619.2004
       236.000         192.000
 122364599.37148  95349027.84348  23285217.1194   23285218.7434   23285216.8844
       229.000         188.000
 133281952.12248 103856051.26048  25362725.0574   25362728.1494   25362724.5604
       214.000         152.000
 113314614.29048  88297088.80948  21563063.5624   21563065.6734   21563063.3394
       242.000         215.000
 133774365.30348  86447551.51748  23553482.8704   23553483.9624   23553481.8534
       228.000         181.000
 129707452.24648 101070741.41348  24682507.4254   24682509.9484   24682506.4734
       216.000         158.000
 09  1 29  0 39 30.0000000  0 10G 5G 9G26G15G18G17G27G12G22G30
 117986851.17848  91937788.94448  22452164.1674   22452167.5604   22452165.3034
       238.000         196.000
 105536502.65848  82236223.12648  20082939.6104   20082942.2304   20082939.8054
       251.000         227.000
 119073629.56648  92784624.12348  22658975.5334   22658977.9654   22658975.8404
       233.000         190.000
 110908624.48348  86422298.52648  21105213.2284   21105215.4004   21105212.8574
       248.000         223.000
 117342360.23048  91435598.04848  22329514.0004   22329515.6684   22329515.0334
       236.000         193.000
 122383305.11848  95363603.76748  23288776.9614   23288778.1894   23288777.1434
       230.000         188.000
 133352942.36748 103911368.31748  25376234.3114   25376236.5624   25376234.9114
       212.000         149.000
 113241999.70948  88240506.03348  21549245.5474   21549247.7744   21549245.2754
       243.000         215.000
 133736910.14648  86418365.63248  23546355.3794   23546356.1204   23546356.8424
       223.000         177.000
 129596572.75248 100984341.81748  24661407.7964   24661410.5084   24661407.4404
       217.000         160.000
 09  1 29  0 40  0.0000000  0 10G 5G 9G26G15G18G17G27G12G22G30
 117895071.81448  91866272.57848  22434699.1374   22434702.3674   22434700.1404
       236.000         197.000
 105514103.02048  82218768.86448  20078677.1014   20078679.8044   20078677.2704
       251.000         227.000
 119170049.91348  92859756.85648  22677323.5744   22677326.5354   22677323.2594
       231.000         189.000
 110969482.27848  86469720.18148  21116794.1994   21116796.1354   21116794.0714
       247.000         223.000
 117358132.63048  91447888.23448  22332515.0824   22332517.3894   22332515.4644
       235.000         192.000
 122402564.64948  95378611.20348  23292441.4294   23292443.2114   23292440.9734
       227.000         185.000
 133423973.83848 103966717.51948  25389750.7084   25389754.0114   25389751.1634
       210.000         150.000
 113169781.27848  88184231.94548  21535502.7234   21535504.9044   21535502.6914
       242.000         214.000
 133699969.38648  86389580.64548  23539325.1024   23539326.2384   23539324.4844
       226.000         180.000
 129485798.06648 100898023.88248  24640328.2494   24640330.6504   24640328.2164
       218.000         158.000
 09  1 29  0 40 30.0000000  0 10G 5G 9G26G15G18G17G27G12G22G30
 117803590.71648  91794988.62448  22417290.8404   22417294.1604   22417291.9354
       237.000         197.000
 105492045.55048  82201581.22048  20074479.5724   20074482.3704   20074479.7334
       251.000         227.000
 119266722.10248  92935085.82248  22695719.8244   22695722.6774   22695719.6724
       230.000         188.000
 111030769.85648  86517476.73448  21128456.7134   21128458.7654   21128456.2974
       247.000         223.000
 117374461.40848  91460611.93548  22335622.1904   22335624.7204   22335622.5204
       233.000         192.000
 122422377.36848  95394049.69148  23296212.0834   23296213.5514   23296211.2104
       232.000         188.000
 133495046.51848 104022098.80048  25403275.4264   25403278.2274   25403275.6114
       216.000         153.000
 113097959.76948  88128267.15248  21521835.6254   21521837.3654   21521835.4634
       243.000         215.000
 133663543.66748  86361196.96648  23532394.2094   23532394.5184   23532394.7404
       220.000         173.000
 129375129.59348 100811788.68748  24619268.5554   24619270.8194   24619269.2804
       216.000         158.000
 09  1 29  0 41  0.0000000  0 10G 5G 9G26G15G18G17G27G12G22G30
 117712409.04948  91723937.98848  22399939.3914   22399942.8574   22399940.4504
       236.000         197.000
 105470330.51448  82184660.41748  20070347.3144   20070350.0714   20070347.6084
       251.000         227.000
 119363644.45848  93010609.73448  22714163.2254   22714166.0884   22714162.8924
       232.000         189.000
 111092485.88648  86565567.13948  21140200.7494   21140203.0644   21140200.5374
       247.000         222.000
 117391345.14448  91473768.08948  22338835.3034   22338837.3694   22338835.5944
       233.000         192.000
 122442742.45848  95409918.60248  23300087.8844   23300088.8454   23300088.1174
       230.000         188.000
 133566160.39548 104077512.21948  25416808.0124   25416810.5294   25416808.9984
       206.000         146.000
 113026536.02148  88072612.30348  21508244.1654   21508245.8924   21508244.0534
       243.000         215.000
 133627633.62448  86333215.10348  23525560.0764   23525560.7764   23525558.8844
       223.000         176.000
 129264568.58248 100725637.25848  24598229.0724   24598232.1034   24598229.3324
       216.000         159.000
 09  1 29  0 41 30.0000000  0 10G 5G 9G26G15G18G17G27G12G22G30
 117621527.87348  91653121.48748  22382645.1954   22382648.6364   22382645.8444
       237.000         197.000
 105448957.73148  82168006.29848  20066280.2574   20066282.9934   20066280.4194
       251.000         227.000
 119460814.78048  93086326.87248  22732654.1874   22732656.8714   22732654.1574
       232.000         188.000
 111154629.08648  86613990.40448  21152026.2654   21152028.5264   21152025.9274
       248.000         222.000
 117408782.59448  91487355.70548  22342153.3704   22342155.5624   22342153.7664
       235.000         192.000
 122463659.32348  95426217.46548  23304067.5424   23304069.0594   23304067.4664
       229.000         187.000
 133637315.22448 104132957.55848  25430348.0474   25430350.8094   25430347.7184
       201.000         139.000
 112955510.72648  88017267.91748  21494728.3964   21494730.2404   21494728.2674
       243.000         215.000
 133592239.97148  86305635.60448  23518825.3924   23518826.6804   23518825.7034
       222.000         179.000
 129154116.60048 100639570.77848  24577210.7834   24577213.2764   24577211.4854
       216.000         158.000
 09  1 29  0 42  0.0000000  0 10G 5G 9G26G15G18G17G27G12G22G30
 117530948.91648  91582540.50348  22365408.1874   22365411.9884   22365408.8494
       234.000         196.000
 105427927.60848  82151619.19948  20062278.5674   20062281.0364   20062278.7364
       252.000         227.000
 119558231.79248  93162236.25548  22751191.7224   22751194.9204   22751192.0214
       231.000         186.000
 111217199.17448  86662746.31348  21163933.1654   21163935.3234   21163933.0224
       246.000         222.000
 117426772.72048  91501373.95548  22345576.9404   22345579.0894   22345577.3874
       235.000         191.000
 122485127.66248  95442946.05748  23308152.5154   23308154.3884   23308152.2694
       232.000         188.000
 133708511.36948 104188435.10248  25443896.7004   25443900.5304   25443895.7574
       190.000         129.000
 112884885.19848  87962235.04048  21481288.9464   21481290.6584   21481288.8614
       244.000         216.000
 133557363.51148  86278459.15548  23512188.2864   23512190.1504   23512188.6104
       225.000         181.000
 129043775.45148 100553590.68748  24556213.7324   24556216.3984   24556213.3224
       216.000         159.000
 09  1 29  0 42 30.0000000  0  9G 5G 9G26G15G18G17G12G22G30
 117440673.33948  91512195.91748  22348229.2554   22348233.1124   22348229.5894
       237.000         198.000
 105407240.68048  82135499.52048  20058341.9894   20058344.4794   20058342.1094
       251.000         227.000
 119655893.98148  93238336.66248  22769776.4044   22769779.2834   22769776.5164
       230.000         185.000
 111280194.59048  86711833.64448  21175920.7654   21175922.7824   21175920.4134
       248.000         222.000
 117445314.20448  91515821.85048  22349105.4404   22349107.4424   22349106.0294
       235.000         192.000
 122507146.73748  95460103.78148  23312343.3154   23312344.5754   23312342.8834
       233.000         189.000
 112814660.48148  87907514.47748  21467925.4634   21467927.4404   21467925.3454
       242.000         215.000
 133523005.46948  86251686.63948  23505651.3184   23505651.6624   23505650.7874
       225.000         181.000
 128933546.61048 100467698.09148  24535238.1234   24535240.2944   24535238.6244
       219.000         161.000
 09  1 29  0 43  0.0000000  0  9G 5G 9G26G15G18G17G12G22G30
 117350702.34748  91442088.64848  22331108.7884   22331112.3944   22331109.4774
       237.000         199.000
 105386896.94648  82119647.27548  20054470.7374   20054473.1514   20054471.0134
       251.000         227.000
 119753799.28648  93314626.52048  22788407.2364   22788409.8694   22788406.4044
       230.000         186.000
 111343613.53348  86761251.00148  21187988.9354   21187990.8054   21187988.7154
       246.000         221.000
 117464405.47248  91530698.15348  22352738.3314   22352740.0104   22352739.1384
       236.000         191.000
 122529716.14048  95477690.33248  23316638.1684   23316639.3474   23316638.5164
       229.000         186.000
 112744837.27148  87853106.79048  21454638.4814   21454640.6454   21454638.2684
       243.000         216.000
 133489166.40548  86225318.54848  23499211.2624   23499212.2794   23499210.7534
       226.000         180.000
 128823431.26348 100381893.96248  24514283.8824   24514285.8494   24514283.4494
       215.000         161.000
 09  1 29  0 43 30.0000000  0  9G 5G 9G26G15G18G17G12G22G30
 117261037.69848  91372220.10748  22314045.9044   22314049.6534   22314046.6354
       237.000         198.000
 105366897.12548  82104063.00948  20050664.7234   20050667.2314   20050664.9924
       251.000         227.000
 119851946.49348  93391104.86348  22807084.1084   22807086.8454   22807084.0794
       232.000         187.000
 111407456.11848  86810998.46848  21200137.8264   21200139.6834   21200137.4904
       248.000         221.000
 117484045.86248  91546002.36448  22356475.9164   22356477.7964   22356476.6964
       234.000         191.000
 122552835.60748  95495705.53248  23321036.7244   23321038.8184   23321036.9394
       229.000         186.000
 112675417.24448  87799013.26448  21441428.4844   21441430.3164   21441428.2834
       245.000         216.000
 133455847.89148  86199356.03148  23492871.5964   23492871.7864   23492871.6134
       228.000         181.000
 128713431.64848 100296179.98048  24493350.9574   24493353.8654   24493350.0624
       214.000         157.000
 09  1 29  0 44  0.0000000  0  9G 5G 9G26G15G18G17G12G22G30
 117171680.22648  91302590.91548  22297041.8904   22297045.2574   22297042.5254
       238.000         199.000
 105347240.84848  82088746.43348  20046924.2754   20046926.7334   20046924.4934
       251.000         227.000
 119950333.49348  93467770.04748  22825806.3444   22825809.1344   22825806.7264
       231.000         188.000
 111471720.23548  86861074.40248  21212366.9484   21212368.7774   21212366.7944
       247.000         221.000
 117504233.77048  91561733.18448  22360317.2744   22360319.6864   22360318.0584
       235.000         192.000
 122576504.03548  95514148.45648  23325541.7414   23325542.5564   23325541.1694
       232.000         189.000
 112606400.61448  87745234.08548  21428295.0364   21428296.7524   21428295.1084
       243.000         216.000
 133423049.50648  86173798.85848  23486629.8684   23486630.7664   23486631.3994
       229.000         181.000
 128603548.40148 100210556.67448  24472441.1274   24472443.8064   24472440.5944
       216.000         157.000
 09  1 29  0 44 30.0000000  0  9G 5G 9G26G15G18G17G12G22G30
 117082631.29048  91233202.14348  22280096.7804   22280099.8534   22280097.8184
       238.000         198.000
 105327928.60748  82073697.94048  20043249.1504   20043251.7154   20043249.3374
       251.000         227.000
 120048958.67448  93544620.83348  22844574.1674   22844577.1554   22844574.2234
       231.000         188.000
 111536404.88348  86911478.02048  21224675.9234   21224677.9034   21224675.7904
       247.000         221.000
 117524967.62848  91577889.42348  22364262.9724   22364265.2684   22364263.8394
       235.000         193.000
 122600720.83948  95533018.68848  23330149.7184   23330150.9584   23330149.7544
       226.000         186.000
 112537788.66448  87691770.23148  21415238.5394   21415240.3484   21415238.4644
       243.000         216.000
 133390772.35648  86148647.84348  23480488.1004   23480488.0744   23480489.3004
       229.000         181.000
 128493783.43148 100125025.50848  24451553.3544   24451556.9264   24451553.4264
       214.000         157.000
 09  1 29  0 45  0.0000000  0  9G 5G 9G26G15G18G17G12G22G30
 116993893.12848  91164055.54148  22263210.3044   22263213.2864   22263210.7684
       238.000         199.000
 105308961.46448  82058918.34948  20039640.0114   20039642.4064   20039640.2084
       251.000         227.000
 120147821.12848  93621656.50148  22863387.0524   22863389.8774   22863387.2794
       229.000         186.000
 111601509.64348  86962209.00448  21237064.9454   21237066.8954   21237064.7214
       246.000         221.000
 117546246.81648  91594470.60448  22368312.5164   22368314.6934   22368312.7704
       235.000         194.000
 122625486.13248  95552316.34548  23334860.7724   23334863.9454   23334860.3104
       229.000         185.000
 112469582.93148  87638622.91648  21402259.1034   21402260.9934   21402258.7094
       243.000         216.000
 133359017.70148  86123903.96848  23474445.2774   23474445.7054   23474446.2984
       228.000         181.000
 128384138.71548 100039588.08248  24430688.8684   24430692.2174   24430689.1534
       212.000         160.000
 09  1 29  0 45 30.0000000  0  9G 5G 9G26G15G18G17G12G22G30
 116905467.34048  91095152.34448  22246383.3354   22246386.6684   22246384.0854
       239.000         200.000
 105290340.29748  82044408.35848  20036096.4404   20036098.9274   20036096.6394
       251.000         227.000
 120246919.79848  93698876.22948  22882244.9964   22882247.7914   22882244.6714
       229.000         185.000
 111667034.06548  87013266.98948  21249533.7394   21249535.7504   21249533.3934
       247.000         220.000
 117568070.74048  91611476.25648  22372465.3414   22372467.4214   22372465.6954
       235.000         192.000
 122650799.64148  95572041.13148  23339679.9154   23339680.9374   23339679.9014
       232.000         190.000
 112401784.94748  87585793.31548  21389357.8964   21389359.5444   21389357.7094
       246.000         217.000
 133327786.93548  86099568.29648  23468502.2654   23468502.4724   23468501.6414
       228.000         181.000
 128274616.35548  99954246.02148  24409847.0524   24409850.8204   24409845.9964
       215.000         160.000
 09  1 29  0 46  0.0000000  0  9G 5G 9G26G15G18G17G12G22G30
 116817354.83748  91026493.25848  22229616.1064   22229619.6344   22229616.7484
       239.000         201.000
 105272064.71048  82030167.65248  20032618.7184   20032621.1584   20032618.8274
       251.000         227.000
 120346252.43148  93776278.28248  22901147.3914   22901150.3454   22901146.8284
       229.000         185.000
 111732976.54048  87064650.73348  21262082.2874   21262084.2594   21262082.0314
       246.000         220.000
 117590437.60348  91628904.97548  22376721.4354   22376723.5444   22376721.5774
       234.000         190.000
 122676660.37248  95592192.36348  23344600.8184   23344602.2864   23344601.1084
       227.000         185.000
 112334395.11248  87533281.76848  21376534.0494   21376535.8234   21376533.8124
       246.000         218.000
 133297080.50448  86075641.19448  23462658.7174   23462658.7894   23462657.5064
       227.000         180.000
 128165217.45548  99869000.12648  24389029.7574   24389032.8784   24389029.9424
       220.000         163.000
 09  1 29  0 46 30.0000000  0  9G 5G 9G26G15G18G17G12G22G30
 116729557.51048  90958079.75448  22212908.8434   22212912.2944   22212909.3824
       239.000         201.000
 105254135.35148  82016196.72748  20029206.8004   20029209.3504   20029207.0794
       251.000         227.000
 120445817.92348  93853861.78248  22920093.8624   22920097.0904   22920093.5894
       227.000         186.000
 111799336.32248  87116359.65048  21274710.1934   21274712.0744   21274709.9274
       247.000         220.000
 117613346.34448  91646755.93548  22381080.7154   22381082.6684   22381080.7214
       234.000         188.000
 122703068.10248  95612769.83748  23349624.3584   23349627.2094   23349623.2254
       228.000         186.000
 112267414.79048  87481089.31248  21363787.9784   21363789.8394   21363787.8294
       245.000         217.000
 133266899.50248  86052123.51048  23456915.8784   23456915.6044   23456915.4704
       228.000         179.000
 128055943.92448  99783851.93748  24368235.5194   24368238.8824   24368235.7984
       221.000         166.000
 09  1 29  0 47  0.0000000  0  9G 5G 9G26G15G18G17G12G22G30
 116642076.67648  90889912.88348  22196261.7654   22196264.9444   22196262.6834
       238.000         201.000
 105236553.03948  82002496.23548  20025861.0694   20025863.7124   20025861.2954
       250.000         227.000
 120545614.51848  93931625.35748  22939084.8724   22939087.5554   22939083.9924
       229.000         187.000
 111866111.80048  87168392.48948  21287417.1544   21287418.9764   21287416.6684
       246.000         219.000
 117636795.39648  91665027.91648  22385543.1514   22385544.7354   22385543.7714
       234.000         189.000
 122730022.25448  95633773.08848  23354755.1644   23354756.1524   23354754.7204
       232.000         187.000
 112200844.99048  87429216.75048  21351120.0494   21351122.1594   21351119.7224
       246.000         218.000
 133237244.38948  86029015.63148  23451272.0824   23451273.0474   23451271.9844
       229.000         183.000
 127946797.41848  99698802.70248  24347466.5354   24347468.9324   24347464.9194
       223.000         166.000
 09  1 29  0 47 30.0000000  0  9G 5G 9G26G15G18G17G12G22G30
 116554911.95648  90821992.33748  22179674.6024   22179678.0084   22179675.2364
       238.000         201.000
 105219316.27348  81989064.99148  20022580.8064   20022583.6344   20022580.8094
       250.000         227.000
 120645639.03248  94009566.53348  22958119.0184   22958121.4024   22958119.2474
       230.000         185.000
 111933300.68848  87220747.46148  21300202.5834   21300204.6274   21300202.1634
       245.000         219.000
 117660781.95348  91683718.73748  22390107.5234   22390109.5884   22390107.8874
       235.000         190.000
 122757520.35948  95655200.18348  23359987.6874   23359989.0714   23359987.8394
       232.000         185.000
 112134685.24948  87377663.70948  21338530.4444   21338532.4864   21338530.3074
       246.000         218.000
 133208114.46848  86006316.98748  23445729.3924   23445730.6304   23445729.5914
       230.000         183.000
 127837777.85748  99613852.36148  24326720.4464   24326722.9524   24326720.1924
       223.000         163.000
 09  1 29  0 48  0.0000000  0  9G 5G 9G26G15G18G17G12G22G30
 116468065.31748  90754319.64448  22163148.3164   22163151.8174   22163148.8844
       239.000         202.000
 105202425.97548  81975903.72448  20019366.6834   20019369.2694   20019366.8624
       250.000         227.000
 120745890.66948  94087684.68948  22977195.9334   22977198.7714   22977196.1904
       226.000         184.000
 112000902.22148  87273423.97048  21313066.9054   21313068.7864   21313066.4124
       246.000         220.000
 117685305.47548  91702827.96148  22394774.4024   22394776.2074   22394774.7054
       236.000         190.000
 122785562.53248  95677051.21948  23365323.7674   23365325.1534   23365323.7094
       231.000         184.000
 112068936.94248  87326431.27348  21326018.8444   21326020.9114   21326018.7334
       246.000         218.000
 133179510.89148  85984028.47748  23440285.6654   23440287.0714   23440286.9974
       230.000         184.000
 127728887.53548  99529002.74048  24305999.1734   24306001.5824   24305999.0774
       223.000         161.000
 09  1 29  0 48 30.0000000  0  9G 5G 9G26G15G18G17G12G22G30
 116381538.76448  90686896.36948  22146682.7684   22146686.3164   22146683.3654
       239.000         202.000
 105185883.31748  81963013.34948  20016218.6804   20016221.5214   20016218.8284
       251.000         227.000
 120846368.12948  94165978.78148  22996316.2004   22996319.1904   22996315.3374
       228.000         185.000
 112068915.86148  87326421.60548  21326009.3694   21326011.3994   21326009.1694
       245.000         219.000
 117710364.91348  91722354.79248  22399542.9224   22399544.9014   22399543.4294
       234.000         189.000
 122814148.30648  95699325.86048  23370763.2284   23370765.0374   23370763.3304
       228.000         184.000
 112003601.45948  87275520.49248  21313586.1254   21313587.8334   21313585.8814
       247.000         219.000
 133151435.21948  85962151.33748  23434943.3704   23434944.5244   23434943.7354
       227.000         183.000
 127620128.72648  99444255.59548  24285303.2934   24285305.0844   24285304.0544
       218.000         160.000
 09  1 29  0 49  0.0000000  0  9G 5G 9G26G15G18G17G12G22G30
 116295334.36848  90619724.12048  22130278.7264   22130282.2964   22130279.3044
       240.000         203.000
 105169689.19648  81950394.55448  20013137.2324   20013139.7774   20013137.3154
       251.000         227.000
 120947070.55648  94244448.17848  23015479.6134   23015482.5644   23015479.6564
       228.000         185.000
 112137341.56648  87379740.32548  21339030.5074   21339032.3664   21339030.2804
       247.000         219.000
 117735959.40548  91742298.52548  22404413.2214   22404415.4194   22404413.7904
       233.000         189.000
 122843277.94648  95722024.31748  23376305.7114   23376308.1964   23376305.9634
       228.000         185.000
 111938680.73048  87224932.91948  21301232.2404   21301233.8334   21301232.1854
       248.000         219.000
 133123888.69848  85940686.52648  23429701.2784   23429702.5694   23429701.4814
       231.000         185.000
 127511503.37548  99359612.48648  24264631.8004   24264634.8394   24264631.0774
       214.000         159.000
 09  1 29  0 49 30.0000000  0  9G 5G 9G26G15G18G17G12G22G30
 116209452.72048  90552803.36148  22113936.1844   22113939.7474   22113936.8924
       239.000         203.000
 105153843.27748  81938047.09748  20010122.0724   20010124.3444   20010122.2874
       251.000         227.000
 121047995.82048  94323091.22648  23034685.1704   23034688.1304   23034685.0954
       230.000         185.000
 112206176.99348  87433378.32548  21352129.4854   21352131.2274   21352129.4924
       245.000         218.000
 117762086.92548  91762657.61748  22409385.2624   22409387.2614   22409385.4284
       234.000         189.000
 122872950.03248  95745145.40948  23381952.8364   23381954.8104   23381952.4934
       232.000         189.000
 111874175.02748  87174668.72848  21288957.2254   21288958.8644   21288956.9584
       247.000         219.000
 133096871.31448  85919634.02248  23424560.3424   23424561.3084   23424561.6604
       228.000         183.000
 127403012.88448  99275074.48848  24243985.9994   24243989.8184   24243985.0394
       215.000         158.000
 09  1 29  0 50  0.0000000  0  9G 5G 9G26G15G18G17G12G22G30
 116123895.41348  90486135.34248  22097654.9064   22097658.6484   22097655.7224
       239.000         204.000
 105138346.35448  81925971.58148  20007172.9234   20007175.3874   20007173.3334
       250.000         227.000
 121149142.22048  94401906.59748  23053932.5814   23053935.2724   23053932.6584
       227.000         184.000
 112275420.99548  87487334.68948  21365306.2404   21365307.9354   21365305.7674
       246.000         219.000
 117788746.22748  91783431.10548  22414458.4224   22414460.2274   22414458.8884
       234.000         188.000
 122903164.06748  95768688.79448  23387703.0024   23387704.0414   23387702.9564
       233.000         188.000
 111810085.27448  87124728.66048  21276761.4954   21276762.9824   21276761.3474
       247.000         219.000
 133070383.98548  85898994.52648  23419519.6224   23419520.3084   23419519.1094
       230.000         182.000
 127294658.83648  99190642.76648  24223367.8104   24223370.6904   24223368.2674
       217.000         162.000
 09  1 29  0 50 30.0000000  0  9G 5G 9G26G15G18G17G12G22G30
 116038663.22748  90419720.65548  22081436.0144   22081439.3624   22081436.7914
       240.000         204.000
 105123198.18848  81914167.82048  20004290.2974   20004292.8814   20004290.5114
       250.000         227.000
 121250507.78948  94480892.75848  23073221.5464   23073224.4974   23073220.9014
       229.000         184.000
 112345072.31448  87541608.43548  21378560.3804   21378562.3194   21378560.2924
       246.000         218.000
 117815935.35448  91804617.44348  22419632.0544   22419634.3234   22419632.8134
       232.000         187.000
 122933918.40848  95792653.24548  23393554.9264   23393556.8324   23393555.3994
       228.000         186.000
 111746411.79448  87075112.96748  21264644.5594   21264646.2674   21264644.3394
       247.000         220.000
 133044426.47448  85878767.87548  23414580.6124   23414580.4994   23414580.4884
       228.000         179.000
 127186441.93548  99106317.92348  24202774.8544   24202777.5784   24202775.2094
       219.000         163.000
 09  1 29  0 51  0.0000000  0  9G 5G 9G26G15G18G17G12G22G30
 115953757.91348  90353560.69548  22065279.0764   22065282.5064   22065279.5314
       240.000         204.000
 105108399.54948  81902636.41648  20001474.1414   20001476.7234   20001474.3074
       251.000         227.000
 121352091.50948  94560048.89348  23092552.3604   23092555.0394   23092552.8224
       227.000         183.000
 112415129.95648  87596198.80548  21391891.8404   21391893.7264   21391891.4504
       244.000         218.000
 117843653.14848  91826215.70348  22424906.6244   22424908.7284   22424907.1034
       232.000         187.000
 122965212.97248  95817038.62248  23399509.4944   23399511.9444   23399509.0474
       228.000         184.000
 111683156.28048  87025822.97348  21252607.3944   21252609.2974   21252607.4494
       248.000         220.000
 133019000.01248  85858955.03448  23409741.5794   23409742.1584   23409742.1844
       227.000         181.000
 127078364.57148  99022101.80648  24182208.6584   24182210.6454   24182208.1114
       220.000         163.000
 09  1 29  0 51 30.0000000  0  9G 5G 9G26G15G18G17G12G22G30
 115869180.93348  90287656.58548  22049184.4274   22049187.9584   22049185.0444
       239.000         204.000
 105093950.69348  81891377.57048  19998724.7424   19998727.1804   19998724.9754
       250.000         227.000
 121453891.48848  94639373.53848  23111923.9674   23111926.8614   23111923.8904
       226.000         182.000
 112485593.02648  87651105.08548  21405300.3014   21405302.4274   21405299.7424
       245.000         217.000
 117871898.42048  91848224.98148  22430281.4744   22430283.7224   22430282.0204
       232.000         187.000
 122997047.21548  95841844.52848  23405566.9504   23405569.9374   23405566.5934
       228.000         187.000
 111620319.46948  86976859.22448  21240649.9424   21240651.9714   21240649.8074
       248.000         221.000
 132994105.32448  85839556.59648  23405004.1914   23405005.2484   23405003.7014
       226.000         179.000
 126970428.24048  98937995.55048  24161668.7604   24161671.0094   24161668.4204
       221.000         163.000
 09  1 29  0 52  0.0000000  0  9G 5G 9G26G15G18G17G12G22G30
 115784933.57048  90222009.30448  22033152.9874   22033156.0224   22033153.5054
       240.000         204.000
 105079852.28848  81880391.80348  19996041.7394   19996044.3704   19996041.8204
       250.000         227.000
 121555906.45248  94718865.71348  23131337.1744   23131339.5904   23131336.9314
       225.000         181.000
 112556460.05948  87706326.14548  21418785.9804   21418787.8734   21418785.4904
       245.000         217.000
 117900669.28448  91870643.82848  22435756.5384   22435758.7644   22435757.0874
       234.000         190.000
 123029420.09548  95867070.14348  23411728.0744   23411730.3894   23411727.6234
       231.000         189.000
 111557902.38448  86928222.54248  21228772.3704   21228774.4294   21228772.2844
       248.000         221.000
 132969742.93148  85820572.92748  23400367.6494   23400369.1854   23400368.0394
       228.000         181.000
 126862634.56048  98854000.47048  24141156.2944   24141159.2514   24141156.1384
       220.000         165.000
 09  1 29  0 52 30.0000000  0  9G 5G 9G26G15G18G17G12G22G30
 115701016.20048  90156619.16548  22017183.6424   22017186.8294   22017184.3874
       240.000         204.000
 105066103.94848  81869678.80948  19993425.5134   19993428.2654   19993425.7944
       249.000         227.000
 121658133.89648  94798523.45448  23150790.2334   23150793.0304   23150790.2104
       226.000         182.000
 112627728.91048  87761860.30548  21432348.1494   21432350.0214   21432347.9184
       245.000         217.000
 117929963.66348  91893470.61348  22441331.4694   22441333.3084   22441332.2964
       234.000         190.000
 123062329.75448  95892714.01948  23417991.1144   23417992.7664   23417990.6834
       231.000         187.000
 111495904.81048  86879912.74248  21216974.7574   21216976.6684   21216974.6224
       248.000         221.000
 132945912.54248  85802003.80748  23395833.5774   23395834.3194   23395833.2584
       230.000         183.000
 126754984.37648  98770117.20548  24120670.9424   24120674.0944   24120670.8624
       219.000         165.000
 09  1 29  0 53  0.0000000  0  9G 5G 9G26G15G18G17G12G22G30
 115617430.08048  90091487.13948  22001277.8304   22001281.1574   22001278.2354
       241.000         205.000
 105052705.92448  81859238.78948  19990875.9084   19990878.6754   19990876.0324
       251.000         227.000
 121760571.89448  94878345.26448  23170283.6034   23170286.1824   23170283.3814
       224.000         182.000
 112699398.28148  87817706.56048  21445986.3054   21445988.2774   21445986.2584
       244.000         217.000
 117959779.75748  91916703.90548  22447005.0904   22447007.3524   22447005.6474
       233.000         189.000
 123095775.46448  95918775.61148  23424355.3584   23424356.7824   23424355.1714
       229.000         186.000
 111434327.23848  86831930.23648  21205256.9504   21205258.6164   21205256.6914
       248.000         221.000
 132922614.51448  85783849.48948  23391400.7484   23391400.4064   23391401.3064
       229.000         183.000
 126647479.35148  98686347.03248  24100213.5154   24100216.6964   24100213.1474
       219.000         165.000
 09  1 29  0 53 30.0000000  0  9G 5G 9G26G15G18G17G12G22G30
 115534176.91148  90026614.53448  21985435.1104   21985438.5954   21985435.8434
       239.000         205.000
 105039658.90848  81849072.28448  19988393.1554   19988395.8724   19988393.3064
       251.000         227.000
 121863219.15148  94958330.12948  23189816.4414   23189819.3864   23189816.3944
       226.000         182.000
 112771467.11448  87873864.09048  21459700.5294   21459702.4274   21459700.1504
       245.000         216.000
 117990116.20548  91940342.68148  22452778.0234   22452780.1414   22452778.3994
       234.000         190.000
 123129756.61548  95945254.45548  23430821.2784   23430823.5374   23430821.3794
       229.000         186.000
 111373171.67948  86784276.55448  21193619.4104   21193621.1004   21193619.1824
       247.000         222.000
 132899850.14548  85766111.00048  23387068.2654   23387068.8164   23387068.6224
       227.000         181.000
 126540121.45748  98602691.52648  24079784.4904   24079787.1604   24079784.3034
       220.000         165.000
 09  1 29  0 54  0.0000000  0  9G 5G 9G26G15G18G17G12G22G30
 115451258.03448  89962002.44348  21969656.0704   21969659.5614   21969656.6204
       240.000         206.000
 105026963.08148  81839179.43848  19985977.1594   19985980.1044   19985977.2504
       252.000         227.000
 121966074.22348  95038476.94848  23209389.2234   23209391.9884   23209389.1004
       229.000         183.000
 112843934.38848  87930332.09348  21473490.3384   21473492.5454   21473490.1794
       243.000         215.000
 118020971.26148  91964385.57648  22458649.6334   22458651.6694   22458650.3364
       234.000         187.000
 123164272.34848  95972149.83548  23437389.3824   23437392.2534   23437389.2604
       229.000         185.000
 111312438.65248  86736952.11348  21182062.3744   21182064.1594   21182062.0234
       247.000         222.000
 132877619.19348  85748788.16348  23382838.2744   23382838.4384   23382838.3704
       228.000         181.000
 126432911.97848  98519151.70948  24059382.9044   24059385.5604   24059382.5864
       218.000         165.000
 09  1 29  0 54 30.0000000  0  9G 5G 9G26G15G18G17G12G22G30
 115368674.80548  89897651.88348  21953941.3024   21953944.7414   21953941.8704
       242.000         207.000
 105014619.14148  81829560.78648  19983628.2394   19983630.9254   19983628.3914
       252.000         227.000
 122069135.62948  95118784.52448  23229001.1144   23229004.2464   23229001.2844
       228.000         183.000
 112916798.98448  87987109.69448  21487356.2424   21487358.1884   21487355.8544
       244.000         216.000
 118052344.01148  91988831.85248  22464619.4184   22464621.3934   22464620.0384
       233.000         186.000
 123199321.64348  95999460.96948  23444059.1864   23444061.1284   23444059.2554
       228.000         184.000
 111252129.15348  86689957.71048  21170585.6464   21170587.5914   21170585.5694
       248.000         222.000
 132855922.50648  85731881.68948  23378708.6634   23378709.3334   23378710.0104
       227.000         180.000
 126325852.72348  98435728.90048  24039010.4894   24039012.9914   24039010.4194
       217.000         162.000
 09  1 29  0 55  0.0000000  0  9G 5G 9G26G15G18G17G12G22G30
 115286428.29948  89833563.69948  21938290.6624   21938293.6154   21938291.3914
       242.000         207.000
 105002627.26348  81820216.46248  19981346.4704   19981348.8174   19981346.6544
       252.000         227.000
 122172401.34748  95199251.31348  23248652.3334   23248654.9424   23248652.0114
       229.000         181.000
 112990059.45348  88044195.77848  21501297.1154   21501299.1164   21501296.8454
       243.000         216.000
 118084232.32148  92013679.88748  22470687.5244   22470689.5694   22470687.9814
       233.000         187.000
 123234903.68348  96027187.23448  23450830.6224   23450831.8914   23450830.4574
       229.000         183.000
 111192243.54148  86643293.61148  21159189.7934   21159191.6744   21159189.5964
       248.000         222.000
 132834760.31448  85715391.65648  23374682.5914   23374682.5944   23374681.9454
       228.000         181.000
 126218945.28148  98352424.40748  24018665.8794   24018669.0504   24018666.0704
       216.000         160.000
 09  1 29  0 55 30.0000000  0  9G 5G 9G26G15G18G17G12G22G30
 115204519.99048  89769739.06148  21922703.7494   21922706.7464   21922704.5714
       240.000         206.000
 104990988.00048  81811146.90848  19979131.4614   19979134.0624   19979131.7754
       252.000         227.000
 122275870.22148  95279876.40948  23268341.7294   23268344.2264   23268341.5454
       228.000         180.000
 113063714.52348  88101589.33548  21515313.3794   21515315.3274   21515312.9714
       244.000         216.000
 118116634.43248  92038928.27848  22476853.7614   22476855.5424   22476854.3294
       232.000         187.000
 123271017.66948  96055328.00748  23457702.7004   23457704.0624   23457702.7514
       228.000         181.000
 111132782.91948  86596960.66848  21147874.9234   21147876.6714   21147874.9184
       248.000         222.000
 132814133.18348  85699318.56048  23370757.6934   23370757.5304   23370757.8074
       230.000         184.000
 126112191.35948  98269239.52248  23998351.1264   23998354.4464   23998350.7174
       218.000         163.000
 09  1 29  0 56  0.0000000  0  9G 5G 9G26G15G18G17G12G22G30
 115122951.16148  89706178.94948  21907181.6764   21907184.6854   21907182.0774
       241.000         207.000
 104979702.19848  81802352.77548  19976983.8474   19976986.3974   19976984.0374
       252.000         227.000
 122379540.43848  95360658.39948  23288069.2824   23288072.1614   23288069.4814
       228.000         179.000
 113137762.82148  88159289.30048  21529404.3454   21529406.4424   21529404.1724
       244.000         216.000
 118149548.83948  92064575.84348  22483116.6184   22483119.2974   22483117.5234
       232.000         186.000
 123307662.62548  96083882.52248  23464675.4774   23464677.7774   23464675.4524
       227.000         182.000
 111073748.11448  86550959.51848  21136640.9524   21136642.6404   21136640.8944
       247.000         222.000
 132794041.68348  85683662.84948  23366933.6294   23366934.2034   23366934.1044
       231.000         180.000
 126005592.37748  98186175.38148  23978066.3994   23978069.6644   23978065.9884
       219.000         165.000
 09  1 29  0 56 30.0000000  0  9G 5G 9G26G15G18G17G12G22G30
 115041722.50148  89642883.89848  21891724.2584   21891727.5264   21891724.8374
       240.000         207.000
 104968769.37748  81793833.69448  19974903.3954   19974906.0204   19974903.4274
       252.000         228.000
 122483409.84748  95441595.58048  23307835.0744   23307837.6774   23307835.1034
       227.000         177.000
 113212202.68048  88217294.38548  21543569.9794   21543571.8234   21543569.5774
       244.000         215.000
 118182973.55348  92090621.07348  22489477.3434   22489480.0364   22489477.5414
       233.000         187.000
 123344836.81148  96112849.42248  23471749.8774   23471751.5744   23471749.2624
       229.000         183.000
 111015139.58348  86505290.54448  21125487.9584   21125489.9204   21125487.8164
       248.000         223.000
 132774485.62448  85668424.33348  23363212.3724   23363211.8114   23363213.1684
       227.000         179.000
 125899149.49048  98103232.87748  23957810.9724   23957814.1054   23957810.7644
       222.000         167.000
 09  1 29  0 57  0.0000000  0  9G 5G 9G26G15G18G17G12G22G30
 114960836.03048  89579855.48848  21876331.8144   21876335.4124   21876332.5364
       240.000         207.000
 104958190.66348  81785590.54248  19972890.4264   19972892.9254   19972890.7054
       252.000         228.000
 122587477.63048  95522687.35948  23327638.2964   23327641.1154   23327638.7964
       223.000         175.000
 113287033.62048  88275604.20748  21557809.6424   21557811.3704   21557809.2934
       243.000         215.000
 118216907.30248  92117062.94948  22495934.7514   22495937.3724   22495935.4584
       232.000         186.000
 123382540.14848  96142228.64648  23478924.4104   23478926.6314   23478924.7194
       227.000         183.000
 110956958.48448  86459954.63148  21114416.6204   21114418.4704   21114416.5344
       249.000         223.000
 132755466.17348  85653604.00748  23359592.4554   23359593.3554   23359591.2634
       228.000         181.000
 125792864.83348  98020413.66848  23937585.3844   23937588.9674   23937585.4034
       218.000         166.000
 09  1 29  0 57 30.0000000  0  9G 5G 9G26G15G18G17G12G22G30
 114880292.56348  89517094.36748  21861004.5574   21861008.4894   21861005.0854
       240.000         207.000
 104947966.17248  81777623.41648  19970944.6804   19970947.4334   19970944.9094
       252.000         228.000
 122691741.67248  95603932.03248  23347478.6734   23347481.7904   23347477.9144
       222.000         176.000
 113362253.42448  88334217.04848  21572123.4464   21572125.2814   21572123.0434
       242.000         214.000
 118251348.02448  92143899.86848  22502488.6204   22502490.9584   22502489.2664
       232.000         186.000
 123420771.09848  96172018.99548  23486199.8284   23486201.7544   23486199.6864
       227.000         183.000
 110899205.21848  86414952.10548  21103426.5614   21103428.3394   21103426.4914
       249.000         223.000
 132736983.08748  85639201.60248  23356076.1664   23356076.3014   23356076.4644
       229.000         182.000
 125686739.92248  97937718.90748  23917390.5154   23917394.0994   23917390.2894
       217.000         166.000
 09  1 29  0 58  0.0000000  0  9G 5G 9G26G15G18G17G12G22G30
 114800092.79848  89454601.04948  21845743.2334   21845746.9184   21845743.5334
       241.000         207.000
 104938095.59348  81769932.05048  19969066.3554   19969069.1184   19969066.5154
       252.000         228.000
 122796199.71548  95685327.89248  23367356.8664   23367359.5734   23367356.5474
       223.000         177.000
 113437860.44248  88393131.60248  21586510.7674   21586512.8764   21586510.2254
       242.000         214.000
 118286293.63048  92171130.19548  22509139.0184   22509140.7274   22509139.7174
       230.000         186.000
 123459527.93348  96202219.13048  23493575.1524   23493576.8424   23493574.6944
       228.000         183.000
 110841880.16748  86370283.25648  21092517.9654   21092519.6124   21092517.6724
       249.000         223.000
 132719036.14248  85625216.94748  23352660.9824   23352661.3084   23352660.3904
       231.000         183.000
 125580775.65648  97855149.35548  23897226.2164   23897229.8634   23897225.9914
       219.000         168.000
 09  1 29  0 58 30.0000000  0  9G 5G 9G26G15G18G17G12G22G30
 114720238.21648  89392376.70548  21830547.5704   21830551.3794   21830548.1414
       241.000         208.000
 104928579.49748  81762516.90948  19967255.5224   19967258.2594   19967255.7554
       252.000         227.000
 122900850.50448  95766873.94548  23387271.2664   23387274.2714   23387270.8014
       224.000         179.000
 113513853.79648  88452347.19848  21600971.9954   21600973.9604   21600971.7274
       242.000         214.000
 118321742.24348  92198752.49048  22515884.6264   22515886.1064   22515884.8884
       232.000         186.000
 123498810.03648  96232828.57448  23501050.0084   23501051.6144   23501049.8264
       228.000         181.000
 110784984.22948  86325948.77448  21081691.0544   21081692.6764   21081690.8904
       249.000         223.000
 132701626.03248  85611650.63448  23349348.1484   23349348.2294   23349348.9044
       230.000         183.000
 125474973.81248  97772706.34448  23877093.2814   23877096.3414   23877092.8294
       222.000         167.000
 09  1 29  0 59  0.0000000  0  9G 5G 9G26G15G18G17G12G22G30
 114640729.32648  89330421.71248  21815417.8904   21815421.0644   21815418.3604
       242.000         208.000
 104919417.88048  81755377.98248  19965512.1334   19965514.6654   19965512.3334
       252.000         227.000
 123005691.59448  95848568.27648  23407222.0544   23407224.9504   23407221.6544
       225.000         181.000
 113590231.25648  88511862.09648  21615506.2284   21615508.1324   21615505.8484
       243.000         215.000
 118357691.56948  92226764.93848  22522725.2624   22522726.8304   22522725.9584
       230.000         185.000
 123538615.71848  96263845.98748  23508624.7364   23508626.2494   23508624.2384
       227.000         180.000
 110728517.36248  86281948.63048  21070945.6894   21070947.3824   21070945.6934
       248.000         223.000
 132684752.30448  85598502.28648  23346136.3174   23346137.3314   23346136.7604
       229.000         183.000
 125369335.57248  97690390.82248  23856990.6524   23856993.7784   23856991.8044
       218.000         165.000
 09  1 29  0 59 30.0000000  0  9G 5G 9G26G15G18G17G12G22G30
 114561568.21948  89268737.74148  21800353.9784   21800357.2294   21800354.3704
       242.000         208.000
 104910611.78648  81748516.08948  19963836.4534   19963838.9954   19963836.6654
       252.000         228.000
 123110722.23448  95930410.31548  23427208.8214   23427211.7824   23427208.7854
       228.000         183.000
 113666992.36348  88571675.94948  21630113.5014   21630115.3004   21630113.4694
       243.000         214.000
 118394140.76148  92255166.88048  22529660.8874   22529663.1384   22529661.2344
       229.000         184.000
 123578944.58548  96295271.08048  23516299.1144   23516300.8274   23516298.5764
       227.000         182.000
 110672481.30748  86238284.17848  21060282.2464   21060284.1274   21060281.8574
       248.000         223.000
 132668415.99448  85585772.68348  23343027.9794   23343028.5464   23343027.6904
       230.000         182.000
 125263863.11848  97608204.48048  23836919.7724   23836922.6504   23836919.1924
       217.000         162.000
 09  1 29  1  0  0.0000000  0  9G 5G 9G26G15G18G17G12G22G30
 114482755.54848  89207325.27148  21785356.6494   21785359.8284   21785357.2164
       244.000         210.000
 104902161.08548  81741931.12448  19962228.1754   19962231.0124   19962228.3504
       252.000         228.000
 123215940.22648  96012398.34548  23447231.1934   23447233.8124   23447230.9544
       226.000         183.000
 113744134.87248  88631786.98548  21644793.0744   21644795.1634   21644792.7094
       242.000         214.000
 118431087.29348  92283956.38148  22536692.1544   22536694.0464   22536692.4694
       230.000         185.000
 123619794.95148  96327102.53148  23524072.7214   23524074.8074   23524072.8704
       227.000         182.000
 110616875.89848  86194955.29548  21049700.7394   21049702.5664   21049700.6604
       248.000         223.000
 132652616.92248  85573461.74548  23340021.6874   23340022.1124   23340022.9744
       232.000         182.000
 125158557.18048  97526147.87948  23816880.5144   23816883.6024   23816880.0214
       216.000         163.000
 09  1 29  1  0 30.0000000  0  9G 5G 9G26G15G18G17G12G22G30
 114404292.08348  89146184.92448  21770425.5304   21770428.7254   21770426.4804
       242.000         209.000
 104894066.21048  81735623.42448  19960687.8674   19960690.5404   19960688.0894
       252.000         228.000
 123321343.46148  96094530.72648  23467288.7664   23467291.2754   23467288.1344
       231.000         186.000
 113821657.19748  88692193.98448  21659545.1324   21659547.2014   21659544.6784
       242.000         214.000
 118468528.88548  92313131.65548  22543816.7804   22543818.9754   22543817.1784
       233.000         185.000
 123661165.16448  96359339.06448  23531945.3904   23531946.6724   23531945.2924
       226.000         181.000
 110561701.27348  86151962.08448  21039201.5624   21039203.1654   21039201.3924
       249.000         223.000
 132637354.93448  85561569.25748  23337117.1704   23337117.6634   23337118.0164
       229.000         181.000
 125053419.25148  97444222.20248  23796873.6814   23796876.5664   23796873.6494
       216.000         166.000
 09  1 29  1  1  0.0000000  0  9G 5G 9G26G15G18G17G12G22G30
 114326179.54848  89085318.01848  21755561.1624   21755564.2094   21755561.4374
       243.000         210.000
 104886327.45848  81729593.22948  19959215.0994   19959217.9344   19959215.2024
       251.000         228.000
 123426930.78048  96176806.55348  23487381.5054   23487384.1984   23487381.8584
       229.000         185.000
 113899558.26148  88752896.11448  21674369.2864   21674371.1394   21674368.9114
       242.000         213.000
 118506464.12648  92342691.59448  22551035.7664   22551037.7734   22551036.4874
       232.000         187.000
 123703054.62148  96391980.21648  23539916.3584   23539917.9234   23539916.3114
       228.000         181.000
 110506959.20448  86109305.92748  21028784.3904   21028785.9514   21028784.1484
       248.000         223.000
 132622630.42048  85550095.58648  23334315.2324   23334315.9224   23334314.9164
       229.000         182.000
 124948451.05648  97362428.80248  23776898.8534   23776902.0124   23776897.8444
       223.000         171.000
 09  1 29  1  1 30.0000000  0  9G 5G 9G26G15G18G17G12G22G30
 114248418.90948  89024725.33148  21740763.5784   21740766.7854   21740764.3784
       241.000         209.000
 104878945.49248  81723841.05048  19957810.3434   19957813.1054   19957810.4124
       252.000         228.000
 123532700.36848  96259224.39348  23507508.6384   23507511.6134   23507508.4194
       231.000         184.000
 113977836.79348  88813892.37548  21689265.2164   21689267.0594   21689264.9974
       242.000         213.000
 118544891.05648  92372634.62848  22558348.1724   22558350.5114   22558348.9444
       231.000         186.000
 123745462.20048  96425025.09848  23547986.0874   23547988.4084   23547985.6744
       227.000         182.000
 110452649.82748  86066986.93748  21018449.7604   21018451.3874   21018449.6874
       249.000         224.000
 132608443.67448  85539040.97348  23331615.7904   23331616.2374   23331615.5944
       230.000         184.000
 124843654.40048  97280769.04948  23756957.8554   23756959.9904   23756958.2534
       224.000         171.000
 09  1 29  1  2  0.0000000  0  9G 5G 9G26G15G18G17G12G22G30
 114171011.59748  88964407.95448  21726033.3564   21726036.5914   21726033.8614
       242.000         208.000
 104871920.76848  81718367.23548  19956473.5894   19956476.4644   19956473.8784
       251.000         228.000
 123638650.93948  96341783.26848  23527670.2734   23527673.0794   23527670.8474
       229.000         184.000
 114056491.33248  88875181.62748  21704232.4544   21704234.5554   21704232.2884
       242.000         213.000
 118583807.90048  92402959.42148  22565753.8004   22565756.3554   22565754.0204
       232.000         186.000
 123788386.78948  96458472.82048  23556154.7404   23556156.3464   23556153.9944
       227.000         180.000
 110398774.06848  86025005.82248  21008197.5164   21008199.3864   21008197.4844
       248.000         225.000
 132594795.10848  85528405.74948  23329018.4564   23329019.2994   23329018.0164
       231.000         183.000
 124739030.99548  97199244.33048  23737048.2384   23737051.0864   23737048.4164
       222.000         170.000
 09  1 29  1  2 30.0000000  0  9G 5G 9G26G15G18G17G12G22G30
 114093958.31148  88904366.44848  21711370.5484   21711373.7864   21711371.1514
       242.000         209.000
 104865253.07848  81713171.62448  19955204.7574   19955207.5274   19955204.7644
       252.000         228.000
 123744780.05048  96424481.26948  23547866.0194   23547868.7094   23547865.9324
       229.000         184.000
 114135519.68248  88936762.15348  21719271.1364   21719273.4014   21719270.6214
       242.000         213.000
 118623212.40948  92433664.21948  22573252.3964   22573254.5874   22573253.1364
       232.000         186.000
 123831826.47248  96492321.95548  23564421.1934   23564422.5844   23564421.4074
       227.000         180.000
 110345332.20148  85983362.81448  20998027.8664   20998029.8224   20998027.6804
       249.000         225.000
 132581684.35748  85518189.56248  23326523.7354   23326523.3604   23326523.8664
       229.000         180.000
 124634581.81248  97117855.32448  23717172.4664   23717174.7894   23717172.3534
       221.000         170.000
 09  1 29  1  3  0.0000000  0  9G 5G 9G26G15G18G17G12G22G30
 114017260.14048  88844601.65248  21696775.4984   21696778.7354   21696776.3064
       241.000         209.000
 104858943.23348  81708254.87148  19954004.0244   19954006.7574   19954004.2574
       252.000         228.000
 123851086.29948  96507317.29648  23568095.8394   23568098.2864   23568096.0584
       231.000         183.000
 114214921.27848  88998633.52448  21734380.6064   21734382.8804   21734380.1994
       242.000         212.000
 118663102.71748  92464747.59948  22580843.3304   22580845.3404   22580844.2164
       231.000         187.000
 123875780.30248  96526571.68648  23572785.1104   23572786.6564   23572784.9414
       225.000         180.000
 110292324.64248  85942058.22948  20987940.8344   20987942.5444   20987940.6914
       249.000         224.000
 132569111.12748  85508392.24848  23324130.5164   23324131.5314   23324130.8244
       231.000         184.000
 124530308.69548  97036603.52748  23697329.7214   23697331.9684   23697328.0314
       222.000         168.000
 09  1 29  1  3 30.0000000  0  9G 5G 9G26G15G18G17G12G22G30
 113940918.40248  88785114.58248  21682247.9724   21682251.4994   21682248.6474
       242.000         210.000
 104852991.28348  81703616.98248  19952871.5294   19952874.3004   19952871.7134
       252.000         228.000
 123957567.89348  96590289.95448  23588358.3554   23588361.3154   23588358.7994
       227.000         180.000
 114294694.24448  89060794.27348  21749560.9294   21749563.1074   21749560.6644
       241.000         212.000
 118703476.58348  92496207.72948  22588526.0104   22588528.2374   22588526.5044
       231.000         186.000
 123920246.93948  96561221.01748  23581246.5814   23581248.4074   23581246.1704
       225.000         179.000
 110239752.32348  85901092.79848  20977936.6724   20977938.3914   20977936.4624
       249.000         225.000
 132557076.01848  85499014.22748  23321840.5404   23321841.6274   23321840.6334
       227.000         183.000
 124426213.03448  96955490.01448  23677520.7684   23677523.2614   23677521.7544
       222.000         167.000
 09  1 29  1  4  0.0000000  0  9G 5G 9G26G15G18G17G12G22G30
 113864934.49848  88725906.35348  21667788.9554   21667792.3814   21667789.6274
       242.000         210.000
 104847398.18148  81699258.72348  19951807.1634   19951809.9134   19951807.2764
       252.000         228.000
 124064223.65848  96673398.32448  23608653.9434   23608656.8564   23608653.8564
       226.000         177.000
 114374837.35948  89123243.45748  21764811.7614   21764813.8634   21764811.5674
       241.000         212.000
 118744332.77548  92528043.70448  22596300.7794   22596302.9724   22596301.2224
       232.000         186.000
 123965225.51548  96596269.25548  23589805.4924   23589807.8494   23589805.2154
       226.000         177.000
 110187615.85048  85860466.98948  20968015.3284   20968017.1894   20968015.2264
       248.000         225.000
 132545579.30548  85490055.73748  23319652.6524   23319653.8414   23319652.4774
       229.000         182.000
 124322296.79748  96874516.31548  23657745.8194   23657748.4654   23657745.8854
       222.000         168.000
 09  1 29  1  4 30.0000000  0  9G 5G 9G26G15G18G17G12G22G30
 113789309.16448  88666977.53148  21653397.7284   21653401.3114   21653398.3044
       242.000         210.000
 104842163.70348  81695179.91048  19950811.0464   19950813.8184   19950811.3294
       252.000         228.000
 124171051.38248  96756640.70348  23628982.8994   23628985.3064   23628982.8154
       225.000         173.000
 114455348.73848  89185979.59448  21780132.6424   21780134.5174   21780132.2524
       241.000         212.000
 118785668.21348  92560253.13048  22604166.4874   22604168.6794   22604167.2094
       230.000         185.000
 124010714.38848  96631715.13748  23598461.5774   23598463.0764   23598461.5814
       224.000         175.000
 110135915.15248  85820180.74248  20958177.0204   20958178.8314   20958176.8414
       249.000         225.000
 132534620.74648  85481516.57448  23317567.0794   23317568.3874   23317566.6904
       232.000         184.000
 124218560.91848  96793683.14748  23638006.1314   23638008.8204   23638005.8634
       225.000         173.000
 09  1 29  1  5  0.0000000  0  9G 5G 9G26G15G18G17G12G22G30
 113714043.28448  88608328.80848  21639075.3134   21639078.5064   21639075.9154
       243.000         211.000
 104837288.06648  81691380.70648  19949883.3504   19949886.1114   19949883.4334
       251.000         228.000
 124278049.25748  96840015.67148  23649343.4794   23649346.7064   23649343.1994
       223.000         172.000
 114536226.57948  89249001.29048  21795523.1164   21795524.9154   21795522.6544
       241.000         211.000
 118827481.24548  92592834.70748  22612123.2814   22612125.3294   22612123.9134
       232.000         185.000
 124056711.80048  96667557.26748  23607215.2794   23607216.3884   23607214.7784
       225.000         179.000
 110084650.91848  85780234.59648  20948422.0014   20948423.4884   20948422.0454
       250.000         225.000
 132524200.06148  85473396.55848  23315584.6834   23315585.3244   23315585.2884
       229.000         184.000
 124115006.75848  96712991.58548  23618300.4144   23618303.1254   23618299.8924
       223.000         172.000
 09  1 29  1  5 30.0000000  0  7G 5G 9G26G15G12G22G30
 113639137.68248  88549960.81548  21624821.1734   21624824.3924   21624821.8404
       243.000         211.000
 104832771.87948  81687861.60848  19949023.8434   19949026.6104   19949023.8764
       252.000         228.000
 124385215.44148  96923521.76348  23669736.6714   23669739.7694   23669736.2894
       222.000         170.000
 114617468.82448  89312306.94348  21810983.1074   21810984.6094   21810983.1814
       240.000         211.000
 110033823.52748  85740628.85248  20938749.7364   20938751.2204   20938749.6154
       250.000         225.000
 132514316.67848  85465695.22148  23313703.8404   23313704.5444   23313703.2774
       230.000         184.000
 124011635.69348  96632442.70248  23598629.0984   23598632.0564   23598629.3484
       223.000         171.000
 09  1 29  1  6  0.0000000  0  9G 5G 9G26G15G18G17G12G22G30
 113564593.30848  88491874.30548  21610635.8904   21610638.9254   21610636.5174
       243.000         210.000
 104828614.96548  81684622.46048  19948233.0254   19948235.5504   19948233.2924
       252.000         228.000
 124492547.83048  97007157.38848  23690161.5194   23690164.3924   23690161.8124
       220.000         166.000
 114699074.47448  89375895.76248  21826511.9094   21826514.0724   21826511.7874
       239.000         210.000
 118912530.47548  92659106.78748  22628307.7574   22628310.0394   22628308.3594
       231.000         183.000
 124150226.47048  96740425.82548  23625010.5514   23625012.9444   23625010.5904
       226.000         181.000
 109983433.45648  85701363.86448  20929160.7704   20929162.4104   20929160.6804
       249.000         225.000
 132504970.43448  85458412.42248  23311925.4854   23311926.3564   23311925.2624
       228.000         184.000
 123908449.04048  96552037.52048  23578993.2294   23578996.4424   23578993.0654
       221.000         171.000
 09  1 29  1  6 30.0000000  0  9G 5G 9G26G15G18G17G12G22G30
 113490411.60748  88434070.40848  21596519.2774   21596522.4604   21596519.9544
       243.000         210.000
 104824817.97148  81681663.76048  19947510.3774   19947513.0154   19947510.5264
       252.000         228.000
 124600045.13448  97090921.51748  23710617.1214   23710620.0554   23710617.4334
       221.000         165.000
 114781042.18148  89439766.69648  21842109.8604   21842111.9734   21842109.2574
       239.000         210.000
 118955762.79548  92692794.30548  22636534.7084   22636536.5764   22636535.1244
       230.000         183.000
 124197741.11348  96777450.22948  23634052.1724   23634054.5054   23634053.0564
       226.000         180.000
 109933481.35048  85662440.14548  20919655.1284   20919656.9284   20919654.9464
       249.000         226.000
 132496161.82648  85451548.56848  23310248.6934   23310249.9954   23310248.9004
       231.000         186.000
 123805448.54348  96471777.38948  23559393.4004   23559396.0124   23559392.4714
       224.000         170.000
 09  1 29  1  7  0.0000000  0  9G 5G 9G26G15G18G17G12G22G30
 113416592.93948  88376549.38348  21582472.1224   21582475.5524   21582472.6554
       242.000         211.000
 104821380.68148  81678985.35548  19946856.1764   19946859.0474   19946856.1824
       252.000         229.000
 124707705.11748  97174812.42048  23731104.6804   23731107.3934   23731104.3424
       218.000         163.000
 114863369.35148  89503917.73848  21857776.3944   21857778.1494   21857776.0714
       241.000         210.000
 118999463.87848  92726847.06548  22644850.5374   22644852.7994   22644850.9744
       229.000         182.000
 124245758.40748  96814866.30848  23643189.6954   23643191.6394   23643189.4784
       225.000         178.000
 109883966.67748  85623857.28348  20910233.0104   20910234.7274   20910233.0324
       250.000         226.000
 132487890.15648  85445103.10148  23308674.9724   23308676.1474   23308675.4234
       228.000         186.000
 123702635.10848  96391663.03248  23539828.3944   23539831.1304   23539827.9884
       222.000         171.000
 09  1 29  1  7 30.0000000  0  9G 5G 9G26G15G18G17G12G22G30
 113343139.74148  88319313.12348  21568494.3184   21568497.7214   21568495.0154
       242.000         211.000
 104818304.96748  81676588.69448  19946270.9194   19946273.7444   19946271.1714
       252.000         228.000
 124815527.28148  97258829.68948  23751622.2594   23751625.0564   23751621.7604
       217.000         159.000
 114946056.14748  89568349.01048  21873510.8724   21873513.0024   21873510.8194
       240.000         210.000
 119043632.64848  92761264.26948  22653255.5624   22653257.6764   22653256.2404
       229.000         180.000
 124294278.12948  96852673.88848  23652422.6044   23652424.1844   23652422.3224
       224.000         178.000
 109834891.69748  85585617.03948  20900894.4524   20900895.8534   20900894.3854
       249.000         226.000
 132480156.56548  85439076.91648  23307203.3904   23307204.7094   23307202.4984
       230.000         186.000
 123600011.76048  96311696.77848  23520299.9464   23520302.4514   23520299.7034
       225.000         171.000
 09  1 29  1  8  0.0000000  0  9G 5G 9G26G15G18G17G12G22G30
 113270051.28748  88262361.06948  21554586.1384   21554589.6494   21554586.6424
       243.000         211.000
 104815589.54148  81674472.77648  19945754.2664   19945757.0364   19945754.4264
       252.000         228.000
 124923508.36148  97342970.79648  23772170.5834   23772173.4174   23772170.5364
       212.000         156.000
 115029099.12848  89633057.82248  21889313.7304   21889315.7384   21889313.3734
       240.000         211.000
 119088265.15748  92796042.82848  22661748.7074   22661750.6554   22661749.5974
       229.000         179.000
 124343297.00148  96890870.42948  23661750.5594   23661752.6314   23661751.2574
       223.000         175.000
 109786254.87048  85547718.22148  20891639.0104   20891640.6484   20891638.7884
       249.000         226.000
 132472959.58048  85433468.86448  23305834.0504   23305834.9734   23305834.1974
       231.000         185.000
 123497577.97948  96231878.24148  23500807.1964   23500810.1914   23500806.7934
       225.000         172.000
 09  1 29  1  8 30.0000000  0  9G 5G 9G26G15G18G17G12G22G30
 113197329.19448  88205694.50548  21540747.7574   21540751.2714   21540748.5604
       243.000         212.000
 104813235.34048  81672638.32648  19945306.2174   19945309.0324   19945306.2794
       252.000         228.000
 125031647.13648  97427234.76748  23792748.9214   23792751.7214   23792747.6644
       210.000         154.000
 115112497.32948  89698043.43848  21905184.0154   21905185.8784   21905183.5894
       241.000         210.000
 119133359.85448  92831181.52848  22670330.0274   22670332.0794   22670330.2784
       229.000         181.000
 124392814.36948  96929455.37948  23671173.3414   23671174.4294   23671172.6544
       222.000         173.000
 109738057.46148  85510161.80448  20882467.2404   20882468.9694   20882467.0284
       249.000         226.000
 132466299.05848  85428278.85648  23304566.4524   23304567.1924   23304567.1574
       231.000         186.000
 123395336.17548  96152209.28448  23481351.2014   23481354.2724   23481351.4224
       226.000         174.000
 09  1 29  1  9  0.0000000  0  9G 5G 9G26G15G18G17G12G22G30
 113124974.52448  88149314.24748  21526979.1654   21526982.7724   21526979.2604
       245.000         213.000
 104811242.36048  81671085.35148  19944926.9504   19944929.7384   19944927.1084
       252.000         228.000
 125139941.73548  97511620.15248  23813356.4824   23813358.9084   23813355.7474
       210.000         150.000
 115196249.05248  89763304.51848  21921121.2994   21921123.2774   21921121.2444
       240.000         208.000
 119178914.72048  92866678.78648  22678999.2564   22679001.1294   22678999.9324
       228.000         180.000
 124442828.83448  96968427.65148  23680690.2124   23680691.5274   23680690.6744
       222.000         174.000
 109690300.04548  85472948.24348  20873379.2624   20873381.0904   20873379.2184
       250.000         227.000
 132460175.03048  85423506.86448  23303401.2524   23303401.8964   23303401.3884
       229.000         184.000
 123293287.46948  96072690.80248  23461932.1054   23461934.9974   23461931.9374
       223.000         174.000
 09  1 29  1  9 30.0000000  0  9G 5G 9G26G15G18G17G12G22G30
 113052988.62448  88093221.34148  21513280.5964   21513284.1924   21513281.3104
       244.000         213.000
 104809611.55248  81669814.59548  19944616.6134   19944619.2424   19944616.9134
       252.000         228.000
 125248390.97248  97596126.08048  23833993.8424   23833997.2804   23833993.5244
       210.000         148.000
 115280353.07848  89828840.13248  21937125.8044   21937127.4344   21937125.5124
       240.000         208.000
 119224927.94148  92902533.24148  22687754.6404   22687757.1004   22687755.4934
       228.000         178.000
 124493339.36048  97007786.52748  23690302.4084   23690305.0444   23690301.2024
       225.000         178.000
 109642983.00948  85436077.83048  20864375.3394   20864377.0254   20864375.1794
       249.000         227.000
 132454587.91148  85419153.24948  23302337.9154   23302338.9844   23302337.8564
       229.000         184.000
 123191434.07248  95993324.52448  23442549.8934   23442553.2094   23442549.6484
       223.000         175.000
 09  1 29  1 10  0.0000000  0  9G 5G 9G26G15G18G17G12G22G30
 112981371.96448  88037416.15548  21499652.1654   21499655.9324   21499652.8074
       244.000         213.000
 104808342.86148  81668826.00748  19944375.2134   19944377.8444   19944375.4114
       252.000         228.000
 125356992.51248  97680750.63048  23854660.4724   23854663.2324   23854659.5894
       210.000         148.000
 115364807.14048  89894648.49848  21953196.6724   21953198.3244   21953196.5154
       239.000         207.000
 119271396.53848  92938742.51448  22696597.4444   22696599.8774   22696597.6284
       228.000         180.000
 124544343.14548  97047529.77748  23700008.6544   23700011.4144   23700008.6174
       225.000         176.000
 109596106.33348  85399550.57248  20855454.9224   20855456.6084   20855454.7634
       250.000         227.000
 132449536.33448  85415216.95948  23301376.5574   23301377.5254   23301376.3744
       231.000         183.000
 123089776.79548  95914111.05348  23423205.3014   23423208.1204   23423204.7694
       222.000         173.000
 09  1 29  1 10 30.0000000  0  9G 5G 9G26G15G18G17G12G22G30
 112910125.18048  87981899.18848  21486094.2164   21486098.0714   21486094.7844
       245.000         213.000
 104807436.22248  81668119.53248  19944202.7384   19944205.3304   19944203.0394
       252.000         228.000
 125465744.25248  97765492.26148  23875354.4994   23875357.4914   23875354.6954
       205.000         142.000
 115449609.47648  89960728.24248  21969334.1734   21969336.0374   21969333.8534
       240.000         208.000
 119318318.23248  92975304.85648  22705526.3334   22705528.9014   22705526.6154
       230.000         180.000
 124595839.10348  97087656.49148  23709807.7534   23709808.5424   23709807.6274
       225.000         174.000
 109549670.01548  85363366.44348  20846618.3404   20846619.8544   20846618.1754
       249.000         227.000
 132445020.47948  85411698.08148  23300516.8634   23300518.0024   23300516.8224
       227.000         183.000
 122988316.93848  95835051.40848  23403898.2444   23403900.9804   23403898.4324
       226.000         177.000
 09  1 29  1 11  0.0000000  0  9G 5G 9G26G15G18G17G12G22G30
 112839249.57148  87926671.41648  21472607.4454   21472610.6724   21472608.0884
       244.000         212.000
 104806892.27448  81667695.67548  19944099.1554   19944101.8914   19944099.1314
       252.000         228.000
 125574644.71448  97850349.75348  23896077.7244   23896080.2994   23896076.3474
       204.000         139.000
 115534758.31748  90027077.98348  21985537.4554   21985539.3414   21985537.4544
       239.000         208.000
 119365690.93348  93012218.63048  22714540.8534   22714543.3654   22714541.5434
       228.000         181.000
 124647825.66248  97128165.46548  23719700.3494   23719701.3724   23719700.0964
       225.000         176.000
 109503674.73048  85327525.96848  20837865.7264   20837867.3324   20837865.3314
       250.000         228.000
 132441039.92548  85408596.38148  23299759.4534   23299760.8894   23299760.0844
       229.000         183.000
 122887056.09848  95756146.81848  23384629.4854   23384631.6354   23384629.2274
       226.000         174.000
 09  1 29  1 11 30.0000000  0  9G 5G 9G26G15G18G17G12G22G30
 112768745.65448  87871733.29948  21459190.9224   21459194.3914   21459191.5394
       245.000         213.000
 104806711.03448  81667554.44648  19944064.6594   19944067.4164   19944064.7334
       252.000         227.000
 125683691.92848  97935321.61048  23916828.0924   23916830.7774   23916829.1524
       197.000         137.000
 115620252.05648  90093696.46548  22001806.3224   22001808.3954   22001806.1444
       239.000         208.000
 119413511.99648  93049481.78648  22723641.3304   22723643.4464   22723641.7884
       228.000         181.000
 124700300.85948  97169055.26348  23729686.1424   23729689.5074   23729685.9144
       223.000         177.000
 109458120.37148  85292029.07548  20829196.9624   20829198.6854   20829196.9224
       250.000         228.000
 132437594.00348  85405911.23448  23299103.7344   23299104.9504   23299103.6814
       229.000         185.000
 122785995.12548  95677398.00748  23365397.7804   23365400.2544   23365397.8114
       224.000         175.000
 09  1 29  1 12  0.0000000  0  9G 5G 9G26G15G18G17G12G22G30
 112698614.60648  87817085.73248  21445845.4894   21445849.0624   21445846.2514
       244.000         214.000
 104806892.91748  81667696.17348  19944099.2914   19944102.0314   19944099.6414
       251.000         227.000
 125792884.13048  98020406.43948  23937606.7914   23937609.0424   23937608.5634
       195.000         134.000
 115706089.14348  90160582.50148  22018140.6024   22018142.6174   22018140.1714
       240.000         208.000
 119461779.36348  93087092.72048  22732826.3884   22732828.7064   22732826.7984
       229.000         183.000
 124753263.16848  97210324.63048  23739763.9104   23739768.2674   23739763.8244
       222.000         174.000
 109413007.47248  85256876.16948  20820612.2584   20820613.8424   20820612.2444
       249.000         227.000
 132434682.69848  85403642.70148  23298550.3914   23298551.1604   23298550.1004
       230.000         185.000
 122685136.13148  95598806.56848  23346205.3384   23346207.5014   23346204.4654
       227.000         176.000
 09  1 29  1 12 30.0000000  0  9G 5G 9G26G15G18G17G12G22G30
 112628857.31648  87762729.40748  21432571.0884   21432574.5384   21432571.4664
       245.000         214.000
 104807438.53748  81668121.33448  19944203.2004   19944205.7414   19944203.3714
       252.000         228.000
 135902256.82458  88105641.07058  23958412.7505   23958417.1855   23958413.7605
       200.000         133.000
 115792267.63248  90227734.56348  22034540.0644   22034541.9804   22034540.0654
       238.000         207.000
 119510490.77048  93125049.64448  22742096.0214   22742098.1524   22742096.9384
       229.000         182.000
 124806711.33348  97251972.56648  23749934.9724   23749936.8754   23749934.3364
       221.000         170.000
 109368336.50548  85222067.63748  20812111.5284   20812113.1934   20812111.2894
       249.000         228.000
 132432305.58448  85401790.38748  23298097.4354   23298099.0324   23298097.7624
       228.000         184.000
 122584480.11548  95520373.30548  23327050.5734   23327053.3944   23327050.8584
       224.000         175.000
 09  1 29  1 13  0.0000000  0  9G 5G 9G26G15G18G17G12G22G30
 112559474.98748  87708665.25148  21419368.1964   21419371.5554   21419368.7134
       243.000         214.000
 104808348.13748  81668830.11048  19944376.3754   19944378.7454   19944376.5134
       252.000         228.000
 136011734.29248  88190948.20248  23979245.0464   23979249.8474   23979247.3004
       195.000         131.000
 115878786.39048  90295151.77048  22051003.9524   22051005.7414   22051003.5334
       239.000         206.000
 119559643.84748  93163350.72748  22751449.5794   22751451.6764   22751450.1094
       229.000         182.000
 124860643.84048  97293997.86248  23760197.8834   23760198.2364   23760197.8394
       224.000         172.000
 109324108.03448  85187603.89548  20803695.3454   20803696.9574   20803695.2894
       250.000         228.000
 132430462.43348  85400354.15448  23297747.0614   23297747.8334   23297747.0234
       230.000         184.000
 122484028.91748  95442099.62248  23307935.3394   23307938.4094   23307935.0144
       225.000         177.000
 09  1 29  1 13 30.0000000  0  9G 5G 9G26G15G18G17G12G22G30
 112490467.68548  87654893.32548  21406236.2664   21406239.9754   21406236.8194
       243.000         213.000
 104809621.40348  81669822.26848  19944618.5294   19944621.2464   19944618.5704
       251.000         227.000
 136121350.85148  88276363.68048  24000104.3044   24000106.7724   24000104.9144
       198.000         129.000
 115965642.92048  90362832.19148  22067531.8364   22067533.6324   22067531.4824
       237.000         205.000
 119609236.18748  93201994.08648  22760886.6874   22760888.7814   22760887.5174
       228.000         179.000
 124915058.13348  97336398.59148  23770552.8084   23770553.7234   23770552.8904
       222.000         172.000
 109280321.40348  85153484.44448  20795363.0194   20795364.7694   20795362.8094
       250.000         228.000
 132429151.95848  85399332.99748  23297497.0844   23297498.9544   23297497.8654
       229.000         184.000
 122383783.02548  95363985.96548  23288859.2954   23288862.8804   23288858.7884
       227.000         178.000
 09  1 29  1 14  0.0000000  0  9G 5G 9G26G15G18G17G12G22G30
 112421836.79148  87601414.71148  21393176.1754   21393179.8894   21393176.5474
       244.000         214.000
 104811258.88948  81671098.23048  19944930.2394   19944932.7394   19944930.4314
       250.000         227.000
 136231105.28348  88361886.65148  24020992.0034   24020992.5064   24020991.4774
       201.000         125.000
 116052835.76548  90430774.65548  22084124.1264   22084126.1344   22084123.7594
       238.000         206.000
 119659265.23748  93240977.76048  22770406.8344   22770408.9014   22770407.3414
       227.000         178.000
 124969953.15948  97379173.93048  23780999.0414   23781000.7874   23780998.3804
       223.000         174.000
 109236977.06448  85119709.63948  20787114.6884   20787116.6334   20787114.5934
       249.000         228.000
 132428374.23048  85398726.94848  23297349.4014   23297350.4474   23297349.1134
       230.000         184.000
 122283744.43648  95286033.82048  23269823.0244   23269825.8754   23269824.2364
       227.000         178.000
 09  1 29  1 14 30.0000000  0  9G 5G 9G26G15G18G17G12G22G30
 112353583.25448  87548230.13548  21380188.1534   21380191.6384   21380188.7734
       245.000         214.000
 104813261.28148  81672658.53448  19945311.2504   19945313.6704   19945311.4824
       250.000         227.000
 116340944.89658 108447463.75858  24041902.8705   24041908.7155   24041901.6315
       193.000         124.000
 116140363.12048  90498977.78548  22100780.2284   22100782.3004   22100779.8744
       239.000         207.000
 119709728.90848  93280300.11348  22780009.4014   22780011.9324   22780009.7994
       226.000         179.000
 125025327.36748  97422322.68948  23791535.6364   23791539.1414   23791535.8684
       222.000         174.000
 109194075.54748  85086279.89348  20778950.8054   20778952.5804   20778950.6404
       250.000         228.000
 132428128.96548  85398535.80848  23297303.2034   23297303.8024   23297303.5294
       230.000         184.000
 122183914.58448  95208244.37148  23250825.6724   23250828.9774   23250825.2024
       226.000         179.000
 09  1 29  1 15  0.0000000  0  9G 5G 9G26G15G18G17G12G22G30
 112285708.12148  87495340.42048  21367272.3374   21367275.3294   21367273.0014
       245.000         215.000
 104815629.03948  81674503.53748  19945761.8984   19945764.3044   19945762.1604
       250.000         227.000
 136450970.26558  88533202.81658  24062835.5925   24062841.1825   24062838.3755
       190.000         122.000
 116228223.51648  90567440.43148  22117499.3954   22117501.5554   22117499.3014
       237.000         206.000
 119760624.80348  93319959.23748  22789694.4084   22789697.2664   22789694.7684
       229.000         180.000
 125081179.09748  97465843.54348  23802164.4344   23802168.0224   23802163.9634
       221.000         175.000
 109151617.41248  85053195.64748  20770871.5524   20770872.9874   20770871.4674
       250.000         229.000
 132428415.92948  85398759.40348  23297357.7044   23297358.4194   23297358.1764
       228.000         182.000
 122084294.76648  95130618.55548  23231868.8454   23231871.6204   23231868.3954
       229.000         178.000
 09  1 29  1 15 30.0000000  0  8G 5G 9G15G18G17G12G22G30
 112218211.48948  87442745.65148  21354427.9404   21354431.1314   21354428.4734
       244.000         215.000
 104818361.73848  81676632.91148  19946281.6004   19946284.3534   19946281.7774
       249.000         227.000
 116316414.76548  90636160.87748  22134281.4494   22134283.6194   22134280.8164
       238.000         205.000
 119811950.13448  93359953.00148  22799461.6694   22799464.3984   22799461.9714
       228.000         180.000
 125137506.13548  97509734.75748  23812882.8664   23812886.4114   23812882.6994
       222.000         175.000
 109109602.08948  85020456.44548  20762876.2494   20762877.7414   20762876.2404
       250.000         229.000
 132429233.79248  85399396.68348  23297513.2304   23297514.4054   23297513.4154
       230.000         183.000
 121984886.07148  95053157.23548  23212951.7144   23212954.0314   23212951.7244
       227.000         176.000
 09  1 29  1 16  0.0000000  0  9G 5G 9G26G15G18G17G12G22G30
 112151094.90548  87390447.04148  21341655.8424   21341659.3224   21341656.3304
       245.000         215.000
 104821460.17848  81679047.27848  19946871.3364   19946874.0214   19946871.2984
       249.000         227.000
 116671535.11458 108705093.70158  24104791.1745   24104790.9675   24104787.7615
       187.000         124.000
 116404935.43048  90705138.01248  22151126.6474   22151128.5574   22151126.5474
       238.000         205.000
 119863702.65448  93400279.63248  22809310.3944   22809312.1664   22809311.0144
       231.000         180.000
 125194306.99948  97553995.19148  23823692.3144   23823694.0224   23823692.1504
       224.000         173.000
 109068030.28048  84988062.83448  20754965.2674   20754966.8324   20754965.1144
       250.000         228.000
 132430582.72148  85400447.79348  23297770.2404   23297770.9594   23297770.6914
       232.000         183.000
 121885690.49748  94975862.01148  23194075.0944   23194077.9414   23194074.6504
       225.000         177.000
 09  1 29  1 16 30.0000000  0  9G 5G 9G26G15G18G17G12G22G30
 112084358.78048  87338444.87948  21328956.1604   21328959.9714   21328956.5784
       244.000         215.000
 104824924.11948  81681746.45448  19947530.4934   19947533.1444   19947530.8134
       249.000         227.000
 136781915.11058  88791094.99958  24125799.8095   24125802.2375   24125798.1625
       201.000         132.000
 116493783.32448  90774370.14048  22168033.8754   22168035.7644   22168033.6954
       237.000         204.000
 119915880.08448  93440937.36148  22819239.5454   22819241.1234   22819240.3824
       230.000         180.000
 125251579.89448  97598623.38648  23834591.0624   23834591.7954   23834590.9034
       224.000         172.000
 109026901.82348  84956014.69748  20747138.6834   20747140.4414   20747138.4614
       250.000         229.000
 132432461.72448  85401911.95548  23298127.3854   23298128.2844   23298127.5574
       229.000         183.000
 121786709.10848  94898733.68348  23175239.4604   23175242.4264   23175239.6974
       227.000         178.000
 09  1 29  1 17  0.0000000  0  9G 5G 9G26G15G18G17G12G22G30
 112018003.62348  87286739.57348  21316329.3234   21316332.9154   21316329.8844
       245.000         216.000
 104828753.98448  81684730.76848  19948259.2594   19948262.0114   19948259.4774
       250.000         227.000
 136892458.72048  88877232.88848  24146837.4764   24146838.9374   24146835.6974
       201.000         135.000
 116582956.68648  90843855.87048  22185002.7894   22185004.8304   22185002.0314
       236.000         204.000
 119968479.29248  93481923.75448  22829248.3714   22829250.4734   22829248.9944
       231.000         180.000
 125309322.61748  97643617.71348  23845579.2244   23845579.7154   23845579.7864
       220.000         173.000
 108986216.49848  84924311.85548  20739396.5164   20739398.3014   20739396.4704
       249.000         229.000
 132434869.88848  85403788.42248  23298585.5514   23298586.6724   23298585.6134
       227.000         179.000
 121687942.69048  94821772.83948  23156445.1334   23156448.1844   23156444.5544
       227.000         180.000
 09  1 29  1 17 30.0000000  0  9G 5G 9G26G15G18G17G12G22G30
 111952030.54448  87235331.99148  21303775.2914   21303778.7204   21303776.0194
       245.000         215.000
 104832950.21148  81688000.55748  19949057.9924   19949060.4754   19949058.0924
       250.000         227.000
 137003127.53048  88963468.28048  24167895.9194   24167899.0004   24167896.8324
       202.000         136.000
 116672453.76548  90913593.84148  22202033.8724   22202035.6474   22202033.6344
       238.000         205.000
 120021498.21248  93523237.17348  22839337.6264   22839339.6624   22839337.9504
       230.000         179.000
 125367533.56448  97688976.87848  23856656.3154   23856657.7654   23856655.5304
       221.000         172.000
 108945974.94748  84892954.82048  20731738.8894   20731740.5274   20731738.5474
       250.000         229.000
 132437806.99448  85406077.05248  23299144.3684   23299145.1304   23299144.4464
       230.000         183.000
 121589392.96648  94744980.84948  23137691.7654   23137694.8614   23137691.2814
       227.000         179.000
 09  1 29  1 18  0.0000000  0  9G 5G 9G26G15G18G17G12G22G30
 111886440.02348  87184222.51848  21291293.9024   21291297.0474   21291294.1764
       245.000         215.000
 104837512.83048  81691555.85348  19949926.1894   19949928.6474   19949926.4564
       250.000         227.000
 137113919.40748  89049799.57348  24188979.1464   24188981.8744   24188980.5134
       202.000         136.000
 116762271.97948  90983582.05148  22219125.7034   22219127.5814   22219125.6014
       237.000         204.000
 120074934.05848  93564875.47148  22849505.8404   22849507.7584   22849506.9794
       226.000         178.000
 125426210.66648  97734699.31448  23867822.1274   23867824.2754   23867822.4074
       222.000         173.000
 108906176.85948  84861943.35948  20724165.4964   20724167.0984   20724165.4204
       249.000         229.000
 132441271.79048  85408776.89448  23299804.0574   23299804.8184   23299804.2474
       231.000         182.000
 121491061.12548  94668358.65348  23118979.9034   23118982.8144   23118979.3924
       229.000         180.000
 09  1 29  1 18 30.0000000  0  9G 5G 9G26G15G18G17G12G22G30
 111821233.10848  87133411.93948  21278885.2504   21278888.6704   21278885.7624
       246.000         215.000
 104842442.39748  81695397.07048  19950864.1424   19950866.7804   19950864.2734
       249.000         227.000
 137224832.76148  89136225.60748  24210084.9054   24210088.7154   24210084.0914
       188.000         133.000
 116852410.59948  91053819.92848  22236278.4234   22236279.9924   22236278.2024
       237.000         203.000
 120128784.48048  93606836.79348  22859753.0904   22859755.6154   22859753.0854
       226.000         178.000
 125485352.52848  97780783.90348  23879076.3204   23879079.2334   23879075.9584
       222.000         176.000
 108866822.50148  84831277.63748  20716676.7934   20716678.2614   20716676.5834
       250.000         230.000
 132445263.90448  85411887.62748  23300563.7994   23300564.0394   23300564.2634
       230.000         181.000
 121392948.78748  94591907.49648  23100309.7484   23100312.8314   23100309.7294
       228.000         180.000
 09  1 29  1 19  0.0000000  0  9G 5G 9G26G15G18G17G12G22G30
 111756411.36348  87082901.50448  21266550.1304   21266553.3904   21266550.7384
       246.000         215.000
 104847740.03548  81699525.09948  19951872.2394   19951874.8214   19951872.4444
       249.000         227.000
 137335866.54448  89222745.46748  24231214.0704   24231213.9364   24231212.9584
       203.000         129.000
 116942868.15548  91124306.33848  22253491.9334   22253493.4784   22253491.4634
       236.000         203.000
 120183047.78248  93649119.89248  22870079.1694   22870081.7064   22870079.7174
       226.000         179.000
 125544957.96148  97827229.70748  23890419.1344   23890422.0114   23890419.3454
       222.000         175.000
 108827912.74748  84800958.36448  20709272.4464   20709273.8314   20709272.3314
       250.000         230.000
 132449784.07948  85415409.80448  23301423.8494   23301423.7834   23301423.9554
       230.000         179.000
 121295058.12248  94515629.05748  23081681.8144   23081684.9764   23081681.2844
       229.000         180.000
 09  1 29  1 19 30.0000000  0  9G 5G 9G26G15G18G17G12G22G30
 111691973.67448  87032690.32948  21254287.9564   21254291.3854   21254288.6154
       245.000         216.000
 104853403.79248  81703938.42448  19952950.0374   19952952.5904   19952950.2724
       249.000         227.000
 117447087.98058 109309430.19158  24252365.5965   24252362.9395   24252362.2905
       188.000         125.000
 117033640.85748  91195038.30148  22270765.5214   22270767.3124   22270765.2064
       238.000         204.000
 120237719.78148  93691721.42448  22880483.3254   22880485.8354   22880484.2014
       228.000         179.000
 125605023.37948  97874033.94148  23901849.0284   23901850.9544   23901849.0934
       221.000         175.000
 108789446.15248  84770984.41148  20701952.5174   20701953.9074   20701952.3174
       250.000         230.000
 132454829.38048  85419341.18548  23302383.8494   23302384.1514   23302384.2334
       230.000         182.000
 121197388.49748  94439522.89448  23063095.7254   23063099.0524   23063095.6914
       228.000         181.000
 09  1 29  1 20  0.0000000  0  9G 5G 9G26G15G18G17G12G22G30
 111627922.13948  86982780.06448  21242099.5114   21242102.9694   21242100.1954
       246.000         216.000
 104859435.45548  81708638.42948  19954097.8014   19954100.3184   19954098.0184
       250.000         227.000
 117558354.90448 109396131.72048  24273540.3334   24273539.3604   24273538.5244
       196.000         124.000
 117124728.47548  91266015.66048  22288098.9714   22288100.8124   22288099.1094
       236.000         203.000
 120292799.24848  93734640.46748  22890964.3534   22890966.8614   22890964.8184
       227.000         178.000
 125665548.22248  97921196.16948  23913366.7234   23913368.1004   23913366.1714
       220.000         174.000
 108751424.00548  84741356.78948  20694716.8644   20694718.5404   20694716.6994
       250.000         230.000
 132460400.33248  85423682.15948  23303444.2524   23303444.2414   23303444.4154
       231.000         182.000
 121099942.38148  94363590.87448  23044552.3704   23044555.4284   23044551.6684
       229.000         181.000
 09  1 29  1 20 30.0000000  0  8G 5G 9G15G18G17G12G22G30
 111564257.06648  86933170.93848  21229984.2384   21229987.6634   21229984.7964
       246.000         216.000
 104865834.92648  81713625.02548  19955315.6074   19955318.1754   19955315.9284
       249.000         227.000
 117216128.48248  91337236.44048  22305491.4094   22305493.3214   22305490.6354
       237.000         202.000
 120348283.21048  93777874.71848  22901522.5074   22901524.8754   22901523.0004
       226.000         179.000
 125726530.14248  97968714.53248  23924971.1854   23924972.7354   23924971.3224
       220.000         172.000
 108713845.70048  84712074.99948  20687566.1384   20687567.7904   20687566.0224
       250.000         231.000
 132466495.65348  85428431.74548  23304604.0794   23304604.4984   23304603.6654
       230.000         182.000
 121002720.90748  94287833.89748  23026051.5054   23026054.6384   23026051.2924
       228.000         182.000
 09  1 29  1 21  0.0000000  0  9G 5G 9G26G15G18G17G12G22G30
 111500979.02648  86883863.38548  21217943.0104   21217945.8954   21217943.5314
       245.000         216.000
 104872602.19348  81718898.22548  19956603.3734   19956606.0124   19956603.4364
       250.000         227.000
 137781145.54358  89569713.51358  24315952.8645   24315952.7035   24315951.5985
       189.000         125.000
 117307839.11248  91408699.27948  22322943.4694   22322945.0464   22322943.6504
       237.000         202.000
 120404168.84248  93821421.94848  22912157.3034   22912159.6074   22912157.2804
       227.000         178.000
 125787967.01848  98016587.43148  23936662.4374   23936663.7944   23936662.1954
       221.000         173.000
 108676711.33748  84683139.12548  20680499.6904   20680501.3384   20680499.7684
       250.000         231.000
 132473114.66848  85433589.41848  23305863.1114   23305864.2504   23305863.9424
       230.000         179.000
 120905725.13148  94212252.78848  23007594.1724   23007596.9504   23007593.6004
       228.000         182.000
 09  1 29  1 21 30.0000000  0  9G 5G 9G26G15G18G17G12G22G30
 111438088.83048  86834858.06048  21205975.0944   21205978.4684   21205975.5084
       246.000         216.000
 104879737.83448  81724458.46348  19957961.3564   19957963.8964   19957961.6294
       250.000         227.000
 137892748.81848  89656677.06748  24337188.5364   24337191.3354   24337190.5204
       192.000         125.000
 117399858.30948  91480402.53248  22340454.0724   22340455.9864   22340454.3194
       235.000         201.000
 120460453.61148  93865280.19048  22922867.6944   22922869.8364   22922868.4394
       227.000         178.000
 125849857.11648  98064813.47548  23948439.3614   23948441.5334   23948439.4544
       218.000         173.000
 108640020.88648  84654549.17048  20673517.5974   20673519.2804   20673517.5004
       250.000         230.000
 132480256.65648  85439154.57148  23307222.3134   23307223.5294   23307222.2904
       231.000         181.000
 120808956.36248  94136848.57548  22989179.7614   22989182.2854   22989179.4314
       231.000         183.000
 09  1 29  1 22  0.0000000  0  9G 5G 9G26G15G18G17G12G22G30
 111375587.13348  86786155.45848  21194081.4494   21194084.7444   21194082.2604
       246.000         216.000
 104887241.97748  81730305.84748  19959389.2444   19959391.8474   19959389.4404
       250.000         227.000
 138004460.39348  89743725.04448  24358446.6534   24358449.5804   24358445.8274
       191.000         126.000
 117492184.33448  91552344.87048  22358023.2834   22358024.9704   22358022.6374
       236.000         202.000
 120517134.73348  93909447.30848  22933654.3514   22933656.0474   22933654.7234
       228.000         179.000
 125912198.64048  98113391.30948  23960302.9614   23960304.0494   23960302.7154
       221.000         171.000
 108603774.33448  84626305.11448  20666620.1564   20666621.7084   20666619.8624
       251.000         231.000
 132487920.70148  85445126.55148  23308680.8894   23308681.6274   23308680.8554
       231.000         181.000
 120712416.22648  94061622.50548  22970808.8444   22970811.1404   22970809.1994
       229.000         182.000
 09  1 29  1 22 30.0000000  0  9G 5G 9G26G15G18G17G12G22G30
 111313474.93548  86737756.36048  21182261.9044   21182265.3624   21182262.5644
       246.000         217.000
 104895115.06948  81736440.71848  19960887.4994   19960890.1064   19960887.6324
       250.000         227.000
 138116278.93748  89830856.35948  24379723.5714   24379728.2934   24379723.0414
       201.000         129.000
 117584815.40448  91624524.90348  22375650.3084   22375652.4754   22375649.7034
       236.000         202.000
 120574210.02448  93953921.57948  22944515.2884   22944517.4584   22944516.3844
       227.000         179.000
 125974989.96848  98162319.62748  23972252.2024   23972252.8094   23972252.7044
       222.000         171.000
 108567971.63948  84598406.92648  20659807.1864   20659808.7894   20659807.1404
       251.000         231.000
 132496106.20848  85451504.85748  23310238.7644   23310239.3664   23310238.8124
       229.000         180.000
 120616106.13448  93986575.70148  22952481.7864   22952484.0994   22952481.6954
       229.000         182.000
 09  1 29  1 23  0.0000000  0  9G 5G 9G26G15G18G17G12G22G30
 111251751.99448  86689660.57248  21170516.6094   21170519.8074   21170517.1624
       247.000         217.000
 104903356.73248  81742862.79548  19962455.9644   19962458.4344   19962456.1144
       251.000         227.000
 138228201.65448  89918068.90648  24401022.1434   24401024.7534   24401022.9474
       202.000         131.000
 117677748.78348  91696940.52048  22393335.1734   22393337.0934   22393335.0574
       235.000         200.000
 120631676.37048  93998700.54648  22955450.5074   22955452.9024   22955450.9744
       228.000         179.000
 126038227.58748  98211595.72148  23984285.4024   23984286.6974   23984286.1104
       217.000         170.000
 108532612.51048  84570854.36448  20653078.4494   20653080.1394   20653078.7144
       250.000         231.000
 132504811.75348  85458288.39448  23311895.3584   23311896.0994   23311895.4004
       232.000         182.000
 120520026.26248  93911708.27148  22934198.3654   22934200.7964   22934198.2514
       228.000         180.000
 09  1 29  1 23 30.0000000  0  9G 5G 9G26G15G18G17G12G22G30
 111190419.01448  86641868.64948  21158845.1494   21158848.4184   21158845.7054
       247.000         216.000
 104911967.27148  81749572.30648  19964094.4204   19964096.9934   19964094.7664
       250.000         227.000
 138340226.97448  90005361.38648  24422340.6844   24422343.3494   24422341.5434
       204.000         133.000
 117770982.69948  91769590.32148  22411076.8324   22411078.7664   22411076.6654
       234.000         200.000
 120689530.52948  94043781.69848  22966459.9024   22966462.3724   22966460.3264
       228.000         179.000
 126101910.09648  98261218.47848  23996403.2634   23996404.9414   23996403.6764
       215.000         169.000
 108497696.91348  84543647.40748  20646434.2294   20646435.8674   20646434.1554
       250.000         231.000
 132514036.16948  85465476.24348  23313650.8234   23313651.8144   23313651.5134
       228.000         181.000
 120424178.40148  93837021.64448  22915958.4894   22915961.4684   22915958.2504
       228.000         181.000
 09  1 29  1 24  0.0000000  0 10G 5G 9G14G26G15G18G17G12G22G30
 111129477.38648  86594381.68048  21147248.4174   21147251.5994   21147249.1814
       246.000         217.000
 104920947.07248  81756569.54648  19965803.1414   19965805.7794   19965803.3394
       250.000         227.000
 139009998.69058  90527261.22158  24549795.0315   24549798.0605   24549794.5145
       208.000         157.000
 138452353.48148  90092732.66148  24443679.3214   24443679.5254   24443679.7534
       202.000         135.000
 117864515.97648  91842473.37948  22428875.5484   22428877.4844   22428875.0894
       234.000         199.000
 120747770.91248  94089163.81948  22977542.9854   22977545.2404   22977543.2204
       227.000         179.000
 126166036.55448  98311187.14948  24008606.1674   24008608.2294   24008605.4724
       219.000         171.000
 108463225.37548  84516786.47948  20639874.6264   20639876.1484   20639874.5924
       250.000         231.000
 132523779.47648  85473068.37948  23315504.6664   23315505.7594   23315504.6744
       230.000         183.000
 120328564.24648  93762517.09948  22897764.0644   22897766.5574   22897763.8774
       230.000         183.000
 09  1 29  1 24 30.0000000  0 10G 5G 9G14G26G15G18G17G12G22G30
 111068927.41748  86547199.88848  21135726.0184   21135729.3564   21135726.4754
       247.000         217.000
 104930296.89648  81763855.12748  19967582.2184   19967584.9264   19967582.3124
       249.000         227.000
 138905710.29848  90445997.60648  24529949.2334   24529952.8484   24529949.6624
       206.000         150.000
 138564579.04548  90180181.14248  24465032.3284   24465034.5304   24465033.2214
       210.000         140.000
 117958346.09448  91915587.75748  22446731.2914   22446732.6584   22446730.6894
       236.000         201.000
 120806394.66548  94134844.66448  22988698.7164   22988700.8084   22988699.1484
       225.000         175.000
 126230604.49148  98361499.85048  24020893.1224   24020894.5424   24020893.5134
       219.000         168.000
 108429197.28648  84490271.08948  20633399.3134   20633400.8454   20633399.0204
       250.000         232.000
 132534040.18548  85481063.75248  23317457.1854   23317458.2934   23317457.4744
       230.000         182.000
 120233184.80548  93688195.47248  22879614.0834   22879616.8044   22879613.8934
       231.000         184.000
 09  1 29  1 25  0.0000000  0 10G 5G 9G14G26G15G18G17G12G22G30
 111008770.49948  86500324.37548  21124278.4694   21124281.8834   21124279.2574
       245.000         217.000
 104940017.27448  81771429.44648  19969432.0774   19969434.8264   19969432.1944
       251.000         227.000
 138801525.71548  90364814.77648  24510124.1834   24510127.5374   24510125.2394
       211.000         155.000
 138676902.65448  90267706.05548  24486407.5394   24486409.3684   24486408.5544
       210.000         145.000
 118052471.50448  91988932.22348  22464642.5974   22464644.6744   22464642.7654
       236.000         201.000
 120865399.53348  94180822.49048  22999926.7494   22999928.9644   22999927.3904
       226.000         176.000
 126295612.38748  98412155.36848  24033263.4874   24033264.9684   24033263.2774
       217.000         169.000
 108395612.80848  84464101.38848  20627008.2794   20627009.9164   20627008.1104
       251.000         232.000
 132544818.16248  85489462.15948  23319508.4064   23319509.1414   23319508.6034
       229.000         181.000
 120138041.87648  93614058.14348  22861508.5224   22861511.4734   22861508.6304
       228.000         183.000
 09  1 29  1 25 30.0000000  0 10G 5G 9G14G26G15G18G17G12G22G30
 110949007.13348  86453755.54548  21112905.9764   21112909.2244   21112906.3024
       247.000         217.000
 104950108.52248  81779292.75748  19971352.3434   19971355.2134   19971352.7154
       250.000         227.000
 138697446.99848  90283714.45548  24490318.1264   24490321.5954   24490317.9094
       208.000         154.000
 138789322.34248  90355305.81648  24507800.3064   24507802.0704   24507800.1124
       209.000         146.000
 118146891.21948  92062506.02548  22482609.9764   22482611.9314   22482610.1204
       234.000         199.000
 120924782.75448  94227095.12248  23011226.8774   23011229.3364   23011227.6984
       225.000         176.000
 126361058.12548  98463152.05148  24045717.8274   24045718.8294   24045716.9514
       217.000         167.000
 108362472.76948  84438277.98548  20620702.0904   20620703.4564   20620702.0084
       251.000         232.000
 132556112.32748  85498262.81048  23321657.2454   23321657.9554   23321657.5394
       230.000         180.000
 120043136.93648  93540106.28048  22843448.5384   22843451.7804   22843448.2034
       229.000         182.000
 09  1 29  1 26  0.0000000  0 10G 5G 9G14G26G15G18G17G12G22G30
 110889637.66748  86407493.62748  21101608.2714   21101611.5354   21101608.7054
       248.000         217.000
 104960570.45648  81787444.90248  19973343.2914   19973346.0384   19973343.4814
       250.000         227.000
 138593476.35448  90202698.43748  24470533.4914   24470536.2464   24470534.6464
       212.000         156.000
 138901836.00148  90442978.77248  24529210.9184   24529212.7454   24529210.6434
       210.000         149.000
 118241602.59548  92136307.08848  22500633.0734   22500635.0484   22500632.3714
       235.000         200.000
 120984541.46348  94273660.34748  23022598.4654   23022600.9064   23022598.9264
       224.000         174.000
 126426939.49048  98514488.19148  24058254.7954   24058256.0314   24058254.9334
       217.000         168.000
 108329776.53148  84412800.41848  20614480.0824   20614481.5164   20614479.8384
       250.000         232.000
 132567921.71048  85507464.91248  23323904.4974   23323905.1914   23323904.7344
       229.000         180.000
 119948470.65248  93466340.35348  22825434.4084   22825437.1404   22825434.3154
       230.000         184.000
 09  1 29  1 26 30.0000000  0 10G 5G 9G14G26G15G18G17G12G22G30
 110830661.93748  86361538.51148  21090385.7354   21090388.9514   21090386.4154
       248.000         218.000
 104971402.25448  81795885.27248  19975404.5034   19975407.0944   19975404.6924
       250.000         227.000
 138489615.43048  90121767.79748  24450769.7884   24450772.1754   24450769.4674
       212.000         154.000
 139014440.84448  90530722.80948  24550638.8664   24550640.2354   24550639.1374
       215.000         152.000
 118336602.69648  92210333.13548  22518710.8134   22518712.9464   22518710.8884
       234.000         200.000
 121044672.44848  94320515.64648  23034040.9844   23034042.9164   23034041.3884
       223.000         173.000
 126493253.63948  98566161.54248  24070873.7004   24070874.8884   24070873.8794
       214.000         163.000
 108297523.12948  84387667.91648  20608342.4004   20608343.9924   20608342.3334
       250.000         232.000
 132580244.30348  85517066.90148  23326249.8054   23326250.5694   23326249.9454
       229.000         181.000
 119854043.91148  93392761.09248  22807465.7624   22807468.4534   22807465.4244
       229.000         185.000
 09  1 29  1 27  0.0000000  0 10G 5G 9G14G26G15G18G17G12G22G30
 110772081.36348  86315891.29648  21079238.2874   21079241.5574   21079238.9134
       248.000         218.000
 104982605.29548  81804614.91548  19977536.4064   19977538.8604   19977536.5454
       249.000         227.000
 138385867.33048  90040925.14248  24431026.8854   24431029.2714   24431026.5994
       207.000         156.000
 139127136.03948  90618537.25248  24572083.7004   24572086.0904   24572084.1194
       217.000         155.000
 118431890.21448  92284583.14248  22536843.6264   22536845.5344   22536843.7014
       234.000         199.000
 121105173.58248  94367659.39548  23045554.3464   23045555.6734   23045554.6904
       227.000         174.000
 126559999.45848  98618171.27248  24083574.8974   24083575.9374   24083573.9244
       216.000         164.000
 108265713.26548  84362881.02148  20602289.1124   20602290.8074   20602288.8874
       251.000         232.000
 132593079.80648  85527068.56948  23328692.1384   23328692.6114   23328692.1004
       230.000         179.000
 119759858.60548  93319369.96948  22789542.9314   22789545.6034   22789542.7274
       230.000         185.000
 09  1 29  1 27 30.0000000  0 10G 5G 9G14G26G15G18G17G12G22G30
 110713896.16848  86270552.17748  21068165.9224   21068169.2094   21068166.6394
       247.000         218.000
 104994179.37948  81813633.66948  19979738.7594   19979741.3694   19979738.9514
       250.000         226.000
 138282234.04648  89960172.02748  24411306.4074   24411308.2964   24411306.1664
       213.000         158.000
 139239919.31048  90706420.34248  24593545.8324   24593547.7734   24593546.0164
       218.000         159.000
 118527463.00348  92359055.43148  22555030.1774   22555032.5594   22555029.9294
       233.000         197.000
 121166041.54248  94415088.96348  23057137.0244   23057138.9704   23057137.6774
       226.000         173.000
 126627174.43848  98670515.44048  24096358.2314   24096359.7244   24096358.8474
       215.000         164.000
 108234346.15348  84338439.12348  20596320.2154   20596321.7994   20596320.3564
       251.000         232.000
 132606426.26048  85537468.38748  23331231.6894   23331232.7274   23331231.8884
       228.000         181.000
 119665915.62548  93246167.67748  22771666.3024   22771668.7314   22771666.6124
       230.000         185.000
 09  1 29  1 28  0.0000000  0 10G 5G 9G14G26G15G18G17G12G22G30
 110656106.81648  86225521.51648  21057168.9884   21057172.2204   21057169.6074
       248.000         218.000
 105006124.69948  81822941.70648  19982011.9374   19982014.4634   19982012.1124
       249.000         226.000
 138178718.13148  89879510.26248  24391608.1454   24391610.4354   24391608.6604
       209.000         153.000
 139352788.68148  90794370.53848  24615024.5194   24615025.9724   24615024.1314
       218.000         160.000
 118623319.21548  92433748.58348  22573271.2464   22573273.1664   22573270.8564
       234.000         198.000
 121227274.07048  94462802.59448  23068788.8644   23068791.1854   23068789.4834
       224.000         174.000
 126694776.27048  98723192.21348  24109222.0274   24109224.2404   24109222.2294
       215.000         162.000
 108203421.55048  84314342.03448  20590435.5324   20590437.1604   20590435.4024
       251.000         233.000
 132620283.32248  85548266.07048  23333869.2034   23333869.4734   23333869.3414
       231.000         181.000
 119572216.05148  93173155.03648  22753836.0014   22753838.2684   22753835.2804
       231.000         185.000
 09  1 29  1 28 30.0000000  0 10G 5G 9G14G26G15G18G17G12G22G30
 110598713.66648  86180799.58448  21046247.3864   21046250.5434   21046247.7794
       247.000         218.000
 105018441.30848  81832539.06348  19984355.6614   19984358.3264   19984355.7134
       250.000         227.000
 138075321.42948  89798941.41248  24371931.7364   24371933.3694   24371932.4094
       213.000         155.000
 139465742.18848  90882386.22748  24636518.6974   24636521.8514   24636519.3804
       219.000         162.000
 118719456.53048  92508660.78448  22591565.5474   22591567.4204   22591565.0484
       234.000         198.000
 121288867.76948  94510797.66648  23080510.1554   23080512.3154   23080510.8614
       225.000         174.000
 126762802.89048  98776199.99848  24122167.1054   24122169.2344   24122166.8414
       214.000         158.000
 108172939.63348  84290589.89548  20584634.9904   20584636.6364   20584634.8574
       251.000         233.000
 132634649.54248  85559460.50348  23336602.8804   23336603.2794   23336603.2784
       231.000         179.000
 119478761.05348  93100332.96948  22736051.7834   22736054.5094   22736052.1254
       230.000         186.000
 09  1 29  1 29  0.0000000  0 10G 5G 9G14G26G15G18G17G12G22G30
 110541717.85148  86136387.28548  21035401.3084   21035404.7304   21035401.9084
       247.000         219.000
 105031129.54848  81842426.00448  19986770.2614   19986772.7854   19986770.4964
       250.000         227.000
 137972047.04048  89718467.80548  24352279.1444   24352280.5954   24352278.4154
       209.000         151.000
 139578778.31848  90970466.30948  24658028.3024   24658031.1444   24658028.7834
       219.000         161.000
 118815873.27848  92583790.71948  22609912.8814   22609914.9214   22609912.7804
       233.000         198.000
 121350820.50548  94559072.51648  23092299.3924   23092301.8224   23092299.9574
       227.000         176.000
 126831252.69548  98829537.52548  24135192.8854   24135194.3454   24135192.1744
       215.000         159.000
 108142900.24948  84267182.59948  20578918.6404   20578920.1114   20578918.4524
       251.000         233.000
 132649524.19048  85571051.12148  23339433.1014   23339434.5694   23339433.3604
       229.000         181.000
 119385552.21748  93027702.72248  22718314.6244   22718317.8124   22718314.1394
       228.000         185.000
 09  1 29  1 29 30.0000000  0 10G 5G 9G14G26G15G18G17G12G22G30
 110485119.46548  86092284.64248  21024631.2554   21024634.4894   21024631.9024
       248.000         219.000
 105044189.55748  81852602.62848  19989255.5004   19989258.1274   19989255.7584
       250.000         227.000
 137868897.13248  89638091.28448  24332650.6464   24332651.9584   24332650.6494
       206.000         155.000
 139691895.04548  91058609.24348  24679554.5414   24679556.0574   24679555.0574
       215.000         160.000
 118912567.42248  92659136.77448  22628313.0874   22628315.4214   22628313.0034
       232.000         196.000
 121413129.20148  94607624.72948  23104156.2324   23104158.6514   23104156.5674
       225.000         174.000
 126900123.28948  98883202.92448  24148298.9954   24148299.2254   24148299.4704
       214.000         158.000
 108113303.10848  84244119.89648  20573286.5394   20573287.9624   20573286.3954
       251.000         233.000
 132664905.76348  85583036.74348  23342360.4674   23342361.2844   23342360.7454
       231.000         182.000
 119292590.51848  92955265.03148  22700624.5894   22700627.6284   22700624.0824
       231.000         188.000
 09  1 29  1 30  0.0000000  0 10G 5G 9G14G26G15G18G17G12G22G30
 110428918.82148  86048491.95148  21013936.5264   21013939.8664   21013936.8774
       248.000         220.000
 105057621.29848  81863068.91848  19991811.5864   19991814.1034   19991811.8894
       250.000         227.000
 137765873.76948  89557813.34548  24313046.3314   24313048.1644   24313046.4154
       209.000         153.000
 139805090.16448  91146813.22848  24701094.2054   24701096.8584   24701093.2564
       214.000         159.000
 119009536.04048  92734696.72448  22646765.7764   22646767.7684   22646765.5674
       232.000         196.000
 121475790.70348  94656451.87448  23116080.5944   23116082.7294   23116081.3234
       225.000         174.000
 126969412.07148  98937194.18948  24161484.7224   24161484.7534   24161485.1564
       215.000         160.000
 108084147.51748  84221401.26248  20567738.5484   20567739.8904   20567738.3294
       250.000         233.000
 132680792.70348  85595416.17148  23345384.0024   23345384.5294   23345383.9204
       230.000         184.000
 119199876.70248  92883020.52048  22682981.8034   22682984.8734   22682981.4764
       230.000         187.000
 09  1 29  1 30 30.0000000  0 10G 5G 9G14G26G15G18G17G12G22G30
 110373117.06648  86005010.08448  21003317.7184   21003321.1964   21003318.2764
       247.000         219.000
 105071425.82548  81873825.68448  19994438.3914   19994440.9384   19994438.4504
       250.000         226.000
 137662980.17848  89477636.55048  24293465.2544   24293468.5074   24293463.9414
       210.000         158.000
 139918362.44648  91235077.36448  24722648.7274   24722651.2324   24722649.1814
       210.000         156.000
 119106778.17448  92810469.80348  22665270.2914   22665272.2804   22665269.7194
       233.000         196.000
 121538803.15548  94705552.48848  23128070.9214   23128073.7374   23128070.9984
       225.000         174.000
 127039117.48548  98991510.10048  24174748.4844   24174750.1874   24174748.2184
       214.000         162.000
 108055433.76048  84199026.91148  20562274.3474   20562275.8404   20562273.9164
       251.000         233.000
 132697184.72848  85608189.15348  23348502.7944   23348504.1184   23348502.5504
       229.000         182.000
 119107412.79448  92810970.70948  22665386.7574   22665389.4894   22665387.1304
       230.000         185.000
 09  1 29  1 31  0.0000000  0 10G 5G 9G14G26G15G18G17G12G22G30
 110317714.39848  85961839.19748  20992774.7724   20992778.3354   20992775.2564
       248.000         219.000
 105085603.06648  81884872.88748  19997136.1554   19997138.6944   19997136.4034
       250.000         226.000
 137560218.37648  89397562.44848  24273911.2264   24273914.2544   24273910.1854
       211.000         161.000
 140031709.87148  91323400.00948  24744218.2544   24744221.7344   24744217.4644
       214.000         157.000
 119204292.02648  92886454.61848  22683826.8664   22683828.5054   22683826.8554
       234.000         196.000
 121602163.06448  94754923.83248  23140127.3924   23140130.5464   23140128.0144
       222.000         170.000
 127109237.31948  99046148.93248  24188091.7254   24188093.3834   24188091.3494
       215.000         158.000
 108027161.47248  84176996.56048  20556894.3574   20556895.8224   20556894.0014
       251.000         233.000
 132714080.27148  85621354.50048  23351718.1184   23351718.7954   23351718.8474
       230.000         181.000
 119015199.68648  92739116.33648  22647838.8024   22647841.7514   22647838.0234
       230.000         187.000
 09  1 29  1 31 30.0000000  0 10G 5G 9G14G26G15G18G17G12G22G30
 110262711.11248  85918979.51448  20982308.3094   20982311.3714   20982309.0514
       248.000         219.000
 105100152.76548  81896210.30848  19999904.8144   19999907.4034   19999904.9044
       249.000         226.000
 137457590.51848  89317592.70648  24254381.3824   24254384.4144   24254380.4624
       208.000         153.000
 140145130.18348  91411779.52848  24765801.7394   24765804.1784   24765801.3074
       212.000         153.000
 119302074.84848  92962649.01948  22702434.3674   22702436.2314   22702434.2964
       234.000         196.000
 121665867.50748  94804563.66548  23152250.3054   23152252.7434   23152250.6864
       223.000         170.000
 127179768.98348  99101108.69848  24201512.4704   24201515.0394   24201513.4214
       209.000         156.000
 107999329.96548  84155309.67948  20551598.2104   20551599.5574   20551597.9424
       252.000         234.000
 132731478.04848  85634911.19648  23355028.9794   23355029.3924   23355029.2834
       233.000         182.000
 118923238.32848  92667458.12248  22630339.3114   22630342.0424   22630338.8264
       229.000         186.000
 09  1 29  1 32  0.0000000  0 10G 5G 9G14G26G15G18G17G12G22G30
 110208107.81448  85876431.51048  20971917.5964   20971920.6564   20971918.1284
       248.000         219.000
 105115075.29148  81907838.24948  20002744.4234   20002747.1564   20002744.4464
       250.000         226.000
 137355099.35948  89237729.47648  24234878.1434   24234880.5784   24234876.7324
       209.000         151.000
 140258621.70448  91500214.52548  24787398.0564   24787400.1364   24787397.9834
       207.000         147.000
 119400124.54348  93039051.36948  22721092.3784   22721094.5494   22721092.7844
       232.000         196.000
 121729913.80848  94854469.88048  23164437.8654   23164440.2924   23164438.6304
       224.000         171.000
 127250710.88648  99156388.11848  24215012.6894   24215014.8864   24215011.7934
       212.000         160.000
 107971939.78948  84133966.69748  20546385.9104   20546387.3924   20546385.7204
       251.000         234.000
 132749376.93948  85648858.38048  23358435.3594   23358435.4384   23358435.9704
       231.000         182.000
 118831530.01648  92595997.09148  22612887.6544   22612890.6404   22612887.2004
       231.000         187.000
 09  1 29  1 32 30.0000000  0 10G 5G 9G14G26G15G18G17G12G22G30
 110153904.77848  85834195.39648  20961602.8344   20961606.2164   20961603.0614
       248.000         219.000
 105130370.54448  81919756.62548  20005655.2424   20005657.6524   20005655.4724
       249.000         226.000
 137252747.09048  89157974.45548  24215401.2194   24215403.8514   24215401.8454
       206.000         156.000
 140372182.42648  91588703.40848  24809007.3244   24809011.6844   24809006.0134
       204.000         145.000
 119498439.24048  93115660.20348  22739801.1674   22739803.1474   22739800.8134
       233.000         196.000
 121794299.21148  94904640.33348  23176690.8184   23176692.5784   23176691.4954
       227.000         172.000
 127322060.33248  99211985.10348  24228589.3894   24228592.9234   24228589.4954
       207.000         159.000
 107944990.17048  84112967.00448  20541257.6584   20541259.1484   20541257.5494
       251.000         234.000
 132767775.23548  85663194.67648  23361936.1064   23361936.9044   23361936.0274
       229.000         180.000
 118740075.93148  92524734.15648  22595484.4674   22595487.4074   22595484.1544
       230.000         187.000
 09  1 29  1 33  0.0000000  0 10G 5G 9G14G26G15G18G17G12G22G30
 110100102.74448  85792271.74448  20951364.7334   20951368.0824   20951365.4814
       249.000         219.000
 105146038.97948  81931965.79648  20008636.8884   20008639.2524   20008637.0814
       250.000         226.000
 137150536.38548  89078329.78648  24195950.0634   24195953.5654   24195949.5634
       208.000         153.000
 140485810.81348  91677245.00348  24830629.7504   24830634.3904   24830628.3974
       209.000         144.000
 119597017.03248  93192474.05848  22758560.0884   22758561.8864   22758560.2004
       233.000         195.000
 121859021.10148  94955072.96448  23189006.7044   23189008.8784   23189006.6834
       227.000         174.000
 127393815.46348  99267898.17548  24242244.1514   24242247.1444   24242243.7534
       210.000         160.000
 107918480.76648  84092310.33048  20536213.0034   20536214.6684   20536212.9744
       251.000         234.000
 132786672.06748  85677919.44448  23365531.9244   23365532.7774   23365532.0814
       229.000         180.000
 118648877.43948  92453670.41748  22578130.0214   22578132.8984   22578129.5294
       231.000         188.000
 09  1 29  1 33 30.0000000  0 10G 5G 9G14G26G15G18G17G12G22G30
 110046701.65648  85750660.50948  20941202.9614   20941206.0234   20941203.5264
       249.000         220.000
 105162080.45348  81944465.64748  20011689.4544   20011691.8544   20011689.8034
       249.000         226.000
 137048469.42348  88998797.12548  24176527.9054   24176530.8624   24176528.8474
       210.000         156.000
 140599504.40548  91765837.40348  24852266.1344   24852268.1364   24852265.5424
       212.000         148.000
 119695855.18648  93269490.79648  22777368.0764   22777370.0254   22777367.7914
       231.000         194.000
 121924075.88648  95005764.98248  23201386.5114   23201388.3844   23201387.2214
       226.000         173.000
 127465973.62248  99324125.33048  24255976.2504   24255977.9074   24255976.2694
       210.000         161.000
 107892410.70148  84071995.99448  20531252.1784   20531253.5564   20531252.2504
       251.000         234.000
 132806065.59348  85693031.25548  23369222.1374   23369223.0204   23369222.4534
       230.000         179.000
 118557935.09248  92382806.27048  22560824.4984   22560827.3194   22560824.8344
       232.000         189.000
 09  1 29  1 34  0.0000000  0 10G 5G 9G14G26G15G18G17G12G22G30
 109993701.89748  85709362.01648  20931117.3104   20931120.5174   20931117.7144
       248.000         220.000
 105178495.07148  81957256.25148  20014813.1084   20014815.4604   20014813.2994
       250.000         226.000
 136946548.58948  88919378.27548  24157133.9544   24157135.8554   24157133.3564
       208.000         159.000
 140713261.41448  91854479.19048  24873912.7114   24873915.7524   24873912.2874
       211.000         148.000
 119794951.69448  93346708.84848  22796225.4074   22796227.4734   22796224.7714
       232.000         194.000
 121989460.73948  95056714.21048  23213828.6794   23213830.8664   23213829.7104
       225.000         173.000
 127538532.63648  99380664.84648  24269782.9724   24269785.0554   24269782.3664
       208.000         160.000
 107866780.08548  84052024.09048  20526374.6264   20526376.2074   20526374.4364
       251.000         234.000
 132825954.72448  85708529.25348  23373007.0364   23373007.9864   23373007.0914
       228.000         180.000
 118467250.04648  92312142.62248  22543567.9454   22543570.4494   22543567.5164
       231.000         189.000
 09  1 29  1 34 30.0000000  0 10G 5G 9G14G26G15G18G17G12G22G30
 109941103.84048  85668376.54448  20921108.1674   20921111.5534   20921108.8554
       248.000         220.000
 105195282.96048  81970337.72448  20018007.6664   20018010.0304   20018007.8774
       249.000         226.000
 136844776.14648  88840075.15448  24137765.6574   24137768.9524   24137766.4274
       204.000         154.000
 140827079.70048  91943168.76248  24895571.3544   24895575.2984   24895570.1764
       207.000         148.000
 119894304.52848  93424126.61648  22815131.7154   22815133.8564   22815131.9264
       231.000         193.000
 122055173.05448  95107918.59248  23226333.4814   23226335.7124   23226333.6604
       226.000         173.000
 127611490.15348  99437514.83148  24283666.9274   24283668.6864   24283666.3034
       209.000         163.000
 107841588.49048  84032394.28248  20521580.8734   20521582.4394   20521580.9744
       251.000         234.000
 132846337.41648  85724411.85148  23376886.3884   23376887.2134   23376886.3344
       229.000         184.000
 118376823.57648  92241680.46248  22526360.1514   22526362.7574   22526359.7204
       231.000         189.000
 09  1 29  1 35  0.0000000  0 10G 5G 9G14G26G15G18G17G12G22G30
 109888908.71448  85627705.04048  20911175.7454   20911179.0964   20911176.1684
       249.000         220.000
 105212444.87748  81983710.64648  20021273.2884   20021275.8724   20021273.4264
       249.000         226.000
 136743155.43748  88760890.18948  24118428.2684   24118431.3054   24118426.7604
       207.000         153.000
 140940958.32948  92031905.35048  24917241.5104   24917245.3484   24917240.0044
       207.000         149.000
 119993912.06948  93501742.87048  22834086.5344   22834088.3514   22834085.3344
       232.000         193.000
 122121210.35648  95159376.24648  23238899.8014   23238902.1954   23238900.8374
       224.000         171.000
 127684844.79248  99494674.26548  24297625.8864   24297627.9064   24297627.1604
       212.000         165.000
 107816836.03948  84013106.66048  20516870.7174   20516872.1014   20516870.4754
       251.000         234.000
 132867213.30248  85740678.75448  23380858.4414   23380859.4804   23380858.8494
       229.000         181.000
 118286657.43748  92171421.15948  22509201.9534   22509205.1194   22509201.6874
       233.000         191.000
 09  1 29  1 35 30.0000000  0 10G 5G 9G14G26G15G18G17G12G22G30
 109837116.12348  85587347.19648  20901320.1904   20901323.3224   20901320.9014
       249.000         220.000
 105229980.57648  81997374.82348  20024610.1184   20024612.8444   20024610.2184
       249.000         226.000
 136641688.14648  88681824.78648  24099119.6014   24099122.5624   24099119.6124
       209.000         155.000
 141054894.67948  92120686.94148  24938922.6404   24938927.2144   24938922.8414
       207.000         148.000
 120093771.67648  93579555.53248  22853089.0004   22853090.9284   22853088.4294
       230.000         193.000
 122187569.09548  95211084.35948  23251526.8974   23251529.2794   23251527.5844
       224.000         168.000
 127758593.25248  99552140.60248  24311659.3524   24311661.7664   24311660.0234
       213.000         167.000
 107792521.41348  83994160.20848  20512243.5414   20512245.3284   20512243.3034
       252.000         234.000
 132888580.29148  85757328.34348  23384924.2014   23384925.7664   23384924.5154
       225.000         178.000
 118196751.93848  92101364.94348  22492093.7484   22492096.3754   22492093.4804
       233.000         190.000
 09  1 29  1 36  0.0000000  0 10G 5G 9G14G26G15G18G17G12G22G30
 109785726.86948  85547303.63048  20891541.0924   20891544.1434   20891541.6144
       249.000         220.000
 105247890.51448  82011330.62548  20028018.2234   20028021.1704   20028018.3664
       249.000         226.000
 136540377.09648  88602881.14548  24079840.9684   24079843.6694   24079841.0994
       210.000         157.000
 141168887.01448  92209512.18848  24960615.9534   24960618.9064   24960615.6894
       210.000         154.000
 120193881.99148  93657563.55748  22872139.4624   22872141.3854   22872138.6744
       233.000         195.000
 122254246.91948  95263041.10348  23264215.1134   23264217.9764   23264215.2504
       224.000         171.000
 127832733.78548  99609912.45048  24325768.0384   24325769.9514   24325766.7244
       214.000         166.000
 107768645.45148  83975555.57348  20507700.2444   20507701.7944   20507700.1664
       252.000         234.000
 132910437.78648  85774360.13248  23389083.5104   23389084.5924   23389083.0744
       228.000         178.000
 118107108.76748  92031513.16248  22475034.4964   22475037.6714   22475034.3484
       232.000         188.000
 09  1 29  1 36 30.0000000  0 10G 5G 9G14G26G15G18G17G12G22G30
 109734740.91248  85507574.32448  20881838.7624   20881841.8544   20881839.4594
       249.000         220.000
 105266174.45748  82025577.84648  20031497.7024   20031500.4364   20031497.8114
       249.000         226.000
 136439224.76048  88524061.14248  24060592.7074   24060594.5584   24060593.3344
       215.000         157.000
 141282933.37448  92298379.53348  24982318.1474   24982321.5024   24982318.3774
       204.000         150.000
 120294240.38748  93735764.90148  22891237.1604   22891239.2104   22891236.8714
       231.000         194.000
 122321240.58148  95315243.96848  23276964.0284   23276966.4164   23276964.7544
       222.000         171.000
 127907263.80048  99667987.80048  24339950.6744   24339952.3734   24339950.5474
       211.000         161.000
 107745206.74348  83957291.65148  20503239.9244   20503241.6254   20503239.7694
       253.000         235.000
 132932783.07048  85791772.05448  23393336.2554   23393336.8604   23393336.7094
       227.000         178.000
 118017728.24148  91961865.99748  22458026.0604   22458028.9644   22458025.9674
       233.000         189.000
 09  1 29  1 37  0.0000000  0 10G 5G 9G14G26G15G18G17G12G22G30
 109684158.56148  85468159.51748  20872213.2014   20872216.2714   20872214.1344
       248.000         220.000
 105284832.24848  82040116.38448  20035048.2824   20035050.9394   20035048.4254
       250.000         226.000
 136338233.45948  88445366.61948  24041375.2774   24041376.6024   24041375.1794
       210.000         158.000
 141397031.72848  92387287.30848  25004029.5934   25004034.0814   25004028.5224
       208.000         149.000
 120394844.42548  93814157.65148  22910381.2654   22910383.2494   22910380.3324
       230.000         192.000
 122388546.87648  95367690.40648  23289771.8024   23289774.3424   23289772.0844
       224.000         170.000
 127982181.14948  99726364.96148  24354206.5944   24354208.7904   24354206.6064
       213.000         161.000
 107722205.04148  83939368.25448  20498862.9164   20498864.5134   20498862.7194
       253.000         235.000
 132955615.35448  85809563.40948  23397680.5944   23397681.7474   23397680.4004
       223.000         178.000
 117928611.90148  91892424.70648  22441067.9604   22441070.6754   22441067.6344
       232.000         190.000
 09  1 29  1 37 30.0000000  0 10G 5G 9G14G26G15G18G17G12G22G30
 109633981.10648  85429060.21848  20862664.7654   20862667.9594   20862665.3354
       249.000         221.000
 105303865.25848  82054947.28448  20038670.1124   20038672.7604   20038670.5374
       249.000         226.000
 136237406.47348  88366800.18848  24022188.2454   24022190.5764   24022186.9864
       208.000         159.000
 141511181.08748  92476234.83748  25025752.0484   25025755.3064   25025752.6924
       210.000         145.000
 120495692.90648  93892740.86148  22929572.2194   22929573.8494   22929571.3434
       229.000         190.000
 122456164.02448  95420379.09748  23302639.0914   23302641.1074   23302639.7004
       225.000         170.000
 128057484.30848  99785042.72048  24368536.6794   24368538.6544   24368536.3064
       210.000         160.000
 107699640.52248  83921785.52048  20494569.0074   20494570.6344   20494568.6814
       253.000         235.000
 132978933.64848  85827733.50848  23402117.6514   23402119.6194   23402117.2624
       224.000         179.000
 117839761.68148  91823190.76748  22424160.2044   22424163.0224   22424160.1944
       232.000         191.000
 09  1 29  1 38  0.0000000  0 10G 5G 9G14G26G15G18G17G12G22G30
 109584208.13948  85390276.09348  20853193.2894   20853196.5254   20853193.8154
       249.000         221.000
 105323272.48748  82070069.79948  20042363.1934   20042365.9004   20042363.2364
       250.000         226.000
 136136745.93048  88288363.38548  24003033.3754   24003034.9864   24003031.4854
       209.000         158.000
 141625378.87548  92565220.20048  25047483.1104   25047485.4114   25047483.5044
       211.000         145.000
 120596783.10648  93971512.44548  22948808.9424   22948810.8744   22948808.6234
       229.000         189.000
 122524087.98148  95473306.84048  23315564.9434   23315566.9024   23315565.3224
       223.000         173.000
 128133170.32548  99844018.83848  24382938.9134   24382940.7424   24382937.8694
       212.000         160.000
 107677511.80248  83904542.36448  20490358.1254   20490359.6574   20490358.0874
       253.000         235.000
 133002735.97148  85846280.74848  23406647.5014   23406648.4954   23406647.3134
       224.000         177.000
 117751177.91448  91754164.45048  22407303.1434   22407306.1264   22407302.3574
       232.000         191.000
 09  1 29  1 38 30.0000000  0 10G 5G 9G14G26G15G18G17G12G22G30
 109534840.02448  85351807.45148  20843798.8144   20843802.0214   20843799.3394
       249.000         221.000
 105343054.39448  82085484.26248  20046127.3504   20046130.3624   20046127.4824
       248.000         226.000
 136036254.02848  88210058.04048  23983909.2644   23983912.7694   23983907.2944
       209.000         160.000
 141739623.33848  92654241.81648  25069222.9254   25069227.4104   25069222.0894
       204.000         142.000
 120698113.01348  94050470.79748  22968091.4804   22968093.6204   22968091.3234
       232.000         191.000
 122592316.42248  95526471.85148  23328548.2904   23328550.5444   23328548.7694
       223.000         172.000
 128209236.89848  99903291.50148  24397414.5924   24397415.7574   24397414.0484
       216.000         162.000
 107655819.53348  83887639.31848  20486230.2164   20486231.6814   20486229.9244
       253.000         235.000
 133027021.06648  85865204.17948  23411268.6094   23411269.6954   23411268.7624
       225.000         177.000
 117662861.56148  91685346.50848  22390497.4234   22390500.3454   22390497.4584
       235.000         192.000
 09  1 29  1 39  0.0000000  0 10G 5G 9G14G26G15G18G17G12G22G30
 109485876.83348  85313654.33648  20834481.2584   20834484.6154   20834481.6774
       249.000         221.000
 105363210.58248  82101190.37648  20049963.0404   20049965.8984   20049963.1214
       250.000         226.000
 135935933.11348  88131885.91648  23964819.6404   23964822.3974   23964818.4934
       210.000         159.000
 141853912.14048  92743298.02748  25090971.3564   25090973.8324   25090971.4854
       199.000         139.000
 120799680.01548  94129613.90548  22987418.9464   22987421.2484   22987418.6894
       229.000         190.000
 122660845.83448  95579871.42448  23341589.1654   23341591.4114   23341590.0384
       225.000         174.000
 128285681.48148  99962858.72048  24411961.0774   24411963.0464   24411960.8894
       214.000         163.000
 107634562.28948  83871075.24648  20482185.1964   20482186.4884   20482184.9324
       253.000         235.000
 133051786.74648  85884502.09648  23415981.8664   23415982.3994   23415981.6384
       225.000         177.000
 117574813.47448  91616737.61048  22373742.7844   22373745.4214   22373742.7734
       235.000         193.000
 09  1 29  1 39 30.0000000  0 10G 5G 9G14G26G15G18G17G12G22G30
 109437318.96048  85275817.04848  20825240.9834   20825244.2684   20825241.3124
       250.000         221.000
 105383741.58348  82117188.55948  20053869.9674   20053872.7674   20053870.1244
       249.000         226.000
 135835785.72248  88053849.00148  23945762.3294   23945764.1754   23945762.2704
       211.000         160.000
 141968243.52548  92832387.37348  25112727.5084   25112731.8574   25112726.5054
       204.000         143.000
 120901482.22548  94208940.29048  23006791.2164   23006793.6734   23006790.5764
       229.000         190.000
 122729673.41848  95633503.29348  23354686.6804   23354688.9204   23354687.1784
       225.000         173.000
 128362501.82248 100022718.72748  24426579.4104   24426582.1414   24426578.7364
       213.000         161.000
 107613739.61648  83854849.80348  20478222.7684   20478224.0664   20478222.4504
       254.000         235.000
 133077031.59748  85904173.38748  23420785.4024   23420786.4484   23420785.4374
       226.000         177.000
 117487034.88848  91548338.71348  22357038.7614   22357041.6614   22357038.5224
       235.000         192.000
 09  1 29  1 40  0.0000000  0 10G 5G 9G14G26G15G18G17G12G22G30
 109389166.67448  85238295.80248  20816077.9734   20816081.0154   20816078.7984
       249.000         221.000
 105404647.57348  82133478.92848  20057848.4754   20057850.9874   20057848.5234
       249.000         226.000
 135735814.56148  87975949.38448  23926738.8124   23926741.0384   23926739.2774
       214.000         163.000
 142082615.48548  92921508.46348  25134492.8124   25134493.9574   25134491.7764
       205.000         145.000
 121003517.53548  94288448.30948  23026207.9294   23026210.1454   23026207.6814
       228.000         190.000
 122798796.02248  95687365.05548  23367840.1964   23367842.4674   23367841.4864
       221.000         170.000
 128439695.44548 100082869.62248  24441269.1244   24441271.1304   24441268.7254
       213.000         155.000
 107593350.88148  83838962.48448  20474342.9194   20474344.0414   20474343.0024
       253.000         235.000
 133102753.93848  85924216.78148  23425680.1814   23425681.3884   23425680.4204
       226.000         177.000
 117399526.94948  91480150.70248  22340386.8194   22340389.6464   22340386.9054
       235.000         193.000
 09  1 29  1 40 30.0000000  0 10G 5G 9G14G26G15G18G17G12G22G30
 109341421.22648  85201091.58348  20806992.1244   20806995.4624   20806992.5724
       249.000         221.000
 105425929.36748  82150062.14348  20061898.1874   20061900.8014   20061898.3354
       250.000         226.000
 135636023.24748  87898189.93048  23907748.5594   23907751.1034   23907747.8844
       210.000         160.000
 142197027.36048  93010660.60048  25156263.2544   25156267.7044   25156262.5804
       208.000         144.000
 121105784.37848  94368136.74548  23045668.5254   23045670.7034   23045668.3244
       229.000         190.000
 122868211.92948  95741455.35348  23381048.8934   23381051.6794   23381049.0754
       219.000         168.000
 128517261.28348 100143310.58048  24456029.4074   24456031.4254   24456029.5294
       209.000         153.000
 107573397.20948  83823414.18048  20470545.8064   20470547.2104   20470545.5694
       253.000         235.000
 133128953.30348  85944631.86948  23430665.8254   23430667.1804   23430666.4064
       224.000         177.000
 117312291.38748  91412174.94748  22323786.2524   22323789.1004   22323786.3844
       234.000         195.000
 09  1 29  1 41  0.0000000  0 10G 5G 9G14G26G15G18G17G12G22G30
 109294082.37148  85164204.17248  20797983.8104   20797987.1284   20797984.5254
       248.000         220.000
 105447586.44148  82166937.77648  20066019.4254   20066021.9584   20066019.5614
       249.000         226.000
 135536413.60448  87820572.05348  23888793.1664   23888796.1944   23888793.5764
       214.000         163.000
 142311476.59748  93099841.83348  25178043.1784   25178045.7564   25178042.7974
       205.000         144.000
 121208280.72948  94448004.03348  23065173.5274   23065175.0724   23065173.2804
       228.000         191.000
 122937917.54248  95795771.41548  23394313.1494   23394316.4574   23394313.4664
       223.000         170.000
 128595196.13348 100204039.00848  24470859.9524   24470861.7054   24470860.3634
       206.000         148.000
 107553877.38448  83808203.93948  20466831.3654   20466832.7494   20466831.1574
       254.000         235.000
 133155627.52848  85965416.96748  23435742.0054   23435743.0184   23435741.1854
       228.000         177.000
 117225329.00748  91344412.05048  22307238.0974   22307240.7274   22307237.3254
       235.000         194.000
 09  1 29  1 41 30.0000000  0 10G 5G 9G14G26G15G18G17G12G22G30
 109247149.49748  85127633.11748  20789052.8904   20789056.0614   20789053.2564
       250.000         221.000
 105469618.40048  82184105.54348  20070211.9674   20070214.4484   20070212.2064
       250.000         226.000
 135436987.46348  87743097.14848  23869873.5394   23869875.8344   23869874.5584
       215.000         162.000
 142425960.49148  93189050.10548  25199828.2824   25199831.7194   25199826.5074
       201.000         141.000
 121311003.03448  94528047.37648  23084720.8624   23084722.7064   23084720.1684
       227.000         189.000
 123007908.86748  95850310.10748  23407632.7364   23407635.1824   23407633.5614
       222.000         169.000
 128673497.07948 100265052.73048  24485760.2404   24485761.5134   24485759.8004
       203.000         138.000
 107534789.73748  83793330.45648  20463199.1174   20463200.3194   20463199.1014
       254.000         235.000
 133182774.00848  85986570.07748  23440907.9194   23440907.8084   23440908.9634
       224.000         175.000
 117138640.05248  91276862.22548  22290741.1854   22290744.1404   22290741.1804
       235.000         193.000
 09  1 29  1 42  0.0000000  0 10G 5G 9G14G26G15G18G17G12G22G30
 109200623.19248  85091378.85648  20780199.3364   20780202.5354   20780200.3124
       250.000         221.000
 105492025.57748  82201565.67148  20074475.9624   20074478.5634   20074476.2934
       250.000         226.000
 135337747.78848  87665767.50948  23850989.0214   23850991.1624   23850988.0234
       217.000         163.000
 142540477.51748  93278284.12248  25221620.1734   25221623.6704   25221617.8824
       203.000         143.000
 121413949.75048  94608265.60048  23104310.8844   23104312.6864   23104310.5814
       227.000         188.000
 123078183.55148  95905069.62748  23421005.3994   23421007.8714   23421005.6614
       223.000         171.000
 128752161.99148 100326350.08948  24500729.0644   24500730.5774   24500729.3924
       199.000         138.000
 107516134.14448  83778793.63848  20459649.0784   20459650.1604   20459649.0234
       253.000         235.000
 133210391.50748  86008090.19648  23446162.9884   23446163.9774   23446162.6654
       225.000         176.000
 117052226.11248  91209526.69448  22274297.3374   22274300.1144   22274296.9344
       235.000         193.000
 09  1 29  1 42 30.0000000  0  9G 5G 9G14G26G15G18G12G22G30
 109154504.24948  85055442.02248  20771423.1984   20771426.2934   20771423.8484
       250.000         222.000
 105514808.63848  82219318.70948  20078811.5094   20078814.1984   20078811.6334
       250.000         226.000
 135238697.62748  87588585.57248  23832140.4744   23832142.5114   23832139.7764
       211.000         163.000
 142655026.29048  93367542.86848  25243417.4344   25243421.7974   25243416.8894
       203.000         146.000
 121517119.10048  94688657.28348  23123942.9474   23123945.4614   23123942.5824
       228.000         188.000
 123148738.96448  95960047.84148  23434431.7374   23434434.7454   23434432.3064
       225.000         171.000
 107497910.28148  83764593.24348  20456180.9884   20456182.2684   20456180.9984
       253.000         235.000
 133238479.02448  86029976.55248  23451508.3144   23451508.5004   23451508.7714
       226.000         177.000
 116966088.40248  91142406.40548  22257905.8994   22257908.4404   22257905.8384
       234.000         193.000
 09  1 29  1 43  0.0000000  0 10G 5G 9G14G26G15G18G17G12G22G30
 109108792.67448  85019822.62448  20762724.7404   20762727.6834   20762725.3534
       250.000         222.000
 105537967.50748  82237364.56648  20083218.4614   20083221.1514   20083218.6134
       249.000         226.000
 135139839.28648  87511553.09248  23813328.1394   23813330.3284   23813326.1094
       215.000         164.000
 142769604.78948  93456824.83648  25265222.4444   25265225.3854   25265221.0944
       207.000         150.000
 121620508.67748  94769220.57648  23143617.8234   23143619.9644   23143617.4834
       228.000         188.000
 123219572.02048  96015242.43848  23447911.0184   23447913.4974   23447911.5114
       224.000         170.000
 138910560.56258  90449773.23858  24530873.1045   24530877.2815   24530868.7245
       180.000         125.000
 107480118.23048  83750729.31748  20452795.2204   20452796.6274   20452795.1784
       253.000         235.000
 133267033.98548  86052227.17348  23456941.9304   23456942.5254   23456941.9284
       227.000         176.000
 116880227.71848  91075501.98948  22241566.9914   22241569.6034   22241566.7704
       235.000         193.000
 09  1 29  1 43 30.0000000  0  9G 5G 9G14G26G15G18G12G22G30
 109063488.78748  84984520.89948  20754103.6174   20754106.6784   20754104.2284
       250.000         222.000
 105561502.09848  82255703.20548  20087696.7794   20087699.6454   20087696.8054
       249.000         226.000
 135041175.54348  87434672.24748  23794553.9924   23794555.2904   23794554.3224
       215.000         164.000
 142884210.87448  93546128.33048  25287030.9854   25287034.7234   25287029.7754
       202.000         145.000
 121724116.29148  94849953.77648  23163333.3874   23163335.6914   23163333.0004
       228.000         189.000
 123290679.77448  96070651.06348  23461442.2934   23461444.9554   23461443.0924
       223.000         171.000
 107462756.86448  83737200.98748  20449491.4904   20449492.9014   20449491.2554
       254.000         236.000
 133296055.57648  86074841.38248  23462464.7344   23462465.0974   23462464.5694
       226.000         177.000
 116794645.22148  91008814.34648  22225281.4114   22225284.0224   22225281.1324
       235.000         194.000
 09  1 29  1 44  0.0000000  0  9G 5G 9G14G26G15G18G12G22G30
 109018592.43148  84949536.73348  20745560.0654   20745563.2624   20745560.5704
       250.000         222.000
 105585412.16248  82274334.41148  20092246.7544   20092249.6874   20092246.9754
       249.000         226.000
 134942708.81648  87357944.95748  23775815.7154   23775817.6784   23775815.5864
       219.000         167.000
 142998842.80248  93635451.94648  25308844.8564   25308847.1564   25308842.9644
       197.000         139.000
 121827939.69148  94930855.13248  23183090.4804   23183092.5934   23183090.1234
       228.000         188.000
 123362058.82948  96126271.09248  23475025.3734   23475027.6764   23475026.1074
       223.000         169.000
 107445825.27448  83724007.55348  20446269.6454   20446271.0344   20446269.8854
       253.000         236.000
 133325541.53748  86097817.45548  23468075.8234   23468076.2174   23468076.0174
       226.000         175.000
 116709341.58648  90942343.98848  22209048.5534   22209051.2324   22209048.4034
       235.000         193.000
 09  1 29  1 44 30.0000000  0  9G 5G 9G14G26G15G18G12G22G30
 108974103.48948  84914870.02648  20737093.9344   20737097.3064   20737094.6314
       249.000         221.000
 105609697.60648  82293258.13148  20096867.9694   20096870.9594   20096867.9984
       249.000         226.000
 134844440.88748  87281372.52448  23757116.3394   23757117.4904   23757117.1084
       214.000         166.000
 143113498.10848  93724793.70448  25330660.6824   25330666.2884   25330660.0424
       191.000         133.000
 121931976.34948  95011922.64448  23202887.7624   23202890.3444   23202887.8744
       227.000         187.000
 123433706.05548  96182100.10848  23488659.1594   23488661.4264   23488659.2324
       224.000         170.000
 107429322.85948  83711148.54548  20443129.1544   20443130.6734   20443128.8984
       253.000         236.000
 133355489.74448  86121153.71248  23473774.6144   23473774.6354   23473774.7614
       229.000         177.000
 116624317.67348  90876091.61248  22192868.7344   22192872.0924   22192868.5004
       235.000         194.000
 09  1 29  1 45  0.0000000  0  9G 5G 9G14G26G15G18G12G22G30
 108930021.15348  84880520.16548  20728705.3404   20728708.5664   20728705.5514
       250.000         222.000
 105634357.43048  82312473.57848  20101560.5924   20101563.5214   20101560.8504
       248.000         225.000
 134746373.44548  87204956.33648  23738453.6664   23738456.0504   23738453.4334
       217.000         164.000
 143228173.92648  93814151.45748  25352483.9584   25352488.1914   25352482.9144
       201.000         138.000
 122036222.65748  95093153.54348  23222725.2144   23222727.3344   23222724.9854
       226.000         185.000
 123505617.15748  96238134.72548  23502343.9214   23502345.9524   23502344.6484
       224.000         169.000
 107413247.39048  83698622.21548  20440070.1214   20440071.5484   20440069.8314
       254.000         236.000
 133385897.20248  86144847.83648  23479561.5034   23479561.9344   23479561.1384
       227.000         178.000
 116539573.32048  90810057.06048  22176742.6914   22176745.5574   22176741.9464
       236.000         195.000
 09  1 29  1 45 30.0000000  0  9G 5G 9G14G26G15G18G12G22G30
 108886347.02548  84846488.38548  20720394.5354   20720397.6284   20720395.4864
       251.000         222.000
 105659393.30648  82331982.04448  20106324.7554   20106327.4724   20106324.8904
       249.000         225.000
 134648510.96148  87128699.83748  23719831.3454   23719833.9584   23719831.7424
       218.000         168.000
 143342869.61248  93903524.78448  25374310.5694   25374313.3874   25374309.5654
       205.000         141.000
 122140678.25948  95174547.52648  23242602.8284   23242604.7234   23242602.5624
       227.000         186.000
 123577790.83348  96294373.91948  23516078.3094   23516080.2574   23516079.1344
       224.000         168.000
 107397600.48248  83686429.83148  20437092.6314   20437093.9694   20437092.6184
       253.000         235.000
 133416763.83448  86168899.75248  23485434.4114   23485435.5964   23485435.4784
       223.000         174.000
 116455110.99548  90744242.27248  22160670.1024   22160672.7944   22160669.9924
       237.000         196.000
 09  1 29  1 46  0.0000000  0  9G 5G 9G14G26G15G18G12G22G30
 108843081.94748  84812775.34648  20712161.4384   20712164.4774   20712162.0654
       250.000         222.000
 105684805.85748  82351784.02548  20111160.6674   20111163.4264   20111160.7744
       249.000         226.000
 134550855.96748  87052605.03148  23701248.6054   23701250.5524   23701248.4794
       215.000         166.000
 143457584.23848  93992912.81148  25396139.6294   25396142.4734   25396139.9474
       193.000         137.000
 122245341.55748  95256103.33648  23262519.6794   23262522.0634   23262518.9924
       226.000         186.000
 123650224.26148  96350815.55948  23529861.4094   23529863.4584   23529862.3494
       220.000         165.000
 107382381.67848  83674571.03248  20434196.3974   20434197.9794   20434196.2224
       253.000         236.000
 133448088.32748  86193308.42948  23491394.9974   23491395.9504   23491394.8934
       225.000         175.000
 116370932.01448  90678648.28548  22144651.3484   22144653.8774   22144651.0474
       236.000         196.000
 09  1 29  1 46 30.0000000  0  9G 5G 9G14G26G15G18G12G22G30
 108800225.83248  84779380.97248  20704006.2914   20704009.3074   20704006.9484
       251.000         222.000
 105710595.17348  82371879.59648  20116068.3504   20116070.9244   20116068.5204
       249.000         225.000
 134453411.53748  86976674.28748  23682704.5104   23682707.6604   23682704.3974
       215.000         165.000
 143572315.63448  94082313.87148  25417972.4864   25417975.8214   25417971.6934
       198.000         139.000
 122350210.08048  95337819.04348  23282475.1014   23282477.4084   23282475.2854
       227.000         185.000
 123722914.53448  96407457.32648  23543693.9084   23543695.9684   23543693.8244
       221.000         165.000
 107367590.51948  83663045.46548  20431381.6354   20431383.4094   20431381.2384
       253.000         236.000
 133479868.77648  86218072.39048  23497442.9514   23497443.8584   23497442.6424
       227.000         175.000
 116287037.52148  90613275.97548  22128686.6654   22128689.3884   22128686.4694
       237.000         196.000
 09  1 29  1 47  0.0000000  0  9G 5G 9G14G26G15G18G12G22G30
 108757778.10448  84746304.82048  20695928.7654   20695931.7814   20695929.6374
       250.000         222.000
 105736760.34148  82392268.02948  20121047.4264   20121050.0374   20121047.6994
       249.000         225.000
 134356179.37148  86900908.95548  23664202.2334   23664205.1414   23664202.0064
       218.000         169.000
 143687060.95848  94171725.83548  25439806.9474   25439810.2614   25439807.1744
       198.000         138.000
 122455281.00448  95419692.49048  23302470.0244   23302471.3964   23302469.8064
       227.000         185.000
 123795857.97748  96464296.36248  23557574.4784   23557576.9344   23557575.7484
       220.000         164.000
 107353225.17548  83651851.68748  20428648.2834   20428649.6484   20428648.3904
       254.000         236.000
 133512102.25848  86243189.40648  23503577.5164   23503577.0924   23503578.9224
       225.000         175.000
 116203427.89348  90548125.62848  22112776.3254   22112778.8534   22112775.9114
       237.000         196.000
 09  1 29  1 47 30.0000000  0  9G 5G 9G14G26G15G18G12G22G30
 108715739.13348  84713547.18848  20687928.8684   20687931.9754   20687929.6314
       250.000         222.000
 105763301.67948  82412949.59948  20126098.0214   20126100.7674   20126098.1404
       249.000         225.000
 134259162.09648  86825311.06848  23645740.9184   23645743.1354   23645741.8504
       217.000         170.000
 143801818.90048  94261147.63248  25461645.1184   25461648.4584   25461644.6254
       198.000         136.000
 122560552.15048  95501721.93948  23322502.2904   23322504.0774   23322502.2714
       226.000         184.000
 123869051.75448  96521330.44548  23571502.5874   23571505.0964   23571502.8884
       221.000         164.000
 107339285.62648  83640989.70848  20425995.6294   20425997.1874   20425995.3894
       253.000         236.000
 133544787.56448  86268658.46248  23509796.6084   23509797.4084   23509796.1694
       224.000         175.000
 116120104.19548  90483198.08748  22096920.3414   22096923.0834   22096919.9874
       238.000         196.000
 09  1 29  1 48  0.0000000  0  8G 5G 9G14G15G18G12G22G30
 108674110.70548  84681109.46148  20680007.2734   20680010.2844   20680007.7284
       250.000         222.000
 105790220.61948  82433925.38948  20131220.6234   20131223.3464   20131220.8824
       248.000         225.000
 134162364.44248  86749884.30148  23627321.2824   23627323.2994   23627320.9144
       221.000         169.000
 122666023.01848  95583907.03548  23342572.6524   23342574.2194   23342571.8104
       224.000         183.000
 123942494.41448  96578558.49248  23585478.7744   23585481.0524   23585478.9524
       223.000         165.000
 107325772.49548  83630460.00948  20423424.1064   20423425.6534   20423424.0094
       254.000         236.000
 133577924.33848  86294479.30348  23516102.2774   23516103.4464   23516102.4974
       223.000         178.000
 116037069.07648  90418495.42248  22081119.2154   22081121.8954   22081119.0784
       236.000         196.000
 09  1 29  1 48 30.0000000  0  8G 5G 9G14G15G18G12G22G30
 108632892.91048  84648991.72048  20672163.9434   20672166.8534   20672164.7684
       250.000         223.000
 105817517.50148  82455195.68848  20136414.9794   20136417.7464   20136415.0414
       249.000         225.000
 134065788.67448  86674630.44548  23608943.4474   23608945.7744   23608943.4134
       222.000         171.000
 122771691.44548  95666246.06248  23362680.6134   23362682.1394   23362679.7584
       227.000         183.000
 124016182.93348  96635978.09748  23599501.3704   23599503.6564   23599502.3474
       223.000         165.000
 107312685.18648  83620262.11648  20420933.7044   20420935.1844   20420933.8274
       253.000         236.000
 133611510.67048  86320650.44948  23522493.7834   23522495.2464   23522494.2654
       224.000         177.000
 115954323.32148  90354018.21948  22065373.0604   22065375.9984   22065372.6284
       238.000         197.000
 09  1 29  1 49  0.0000000  0  8G 5G 9G14G15G18G12G22G30
 108592083.04948  84617191.83748  20664398.0954   20664401.0754   20664398.6074
       252.000         223.000
 105845189.63448  82476758.38548  20141680.8314   20141683.5604   20141681.0374
       249.000         225.000
 133969434.70748  86599549.41848  23590608.0764   23590609.6984   23590607.9504
       222.000         170.000
 122877552.29848  95748735.03748  23382825.5434   23382826.8184   23382825.4954
       227.000         183.000
 124090111.38248  96693584.67548  23613569.3914   23613571.2844   23613569.6854
       221.000         165.000
 107300020.02548  83610393.17448  20418523.5074   20418525.0264   20418523.5094
       253.000         236.000
 133645541.75048  86347168.15848  23528970.1074   23528970.7594   23528969.8374
       226.000         176.000
 115871865.24148  90289765.18148  22049681.9624   22049685.0204   22049682.0024
       238.000         198.000
 09  1 29  1 49 30.0000000  0  8G 5G 9G14G15G18G12G22G30
 108551680.80048  84585709.58048  20656709.6374   20656712.6414   20656710.4034
       251.000         222.000
 105873236.28848  82498612.92148  20147018.0054   20147020.6954   20147018.2634
       249.000         225.000
 133873304.71548  86524642.91848  23572314.9144   23572316.8734   23572315.7644
       222.000         170.000
 122983602.82048  95831371.80348  23403005.8754   23403007.5684   23403006.3084
       225.000         184.000
 124164276.42648  96751375.60948  23627681.9914   23627684.5134   23627683.4154
       219.000         165.000
 107287776.40948  83600852.70948  20416193.7294   20416195.1184   20416193.3094
       253.000         236.000
 133680015.29548  86374030.67548  23535530.0414   23535530.5934   23535530.2614
       224.000         175.000
 115789695.20148  90225736.59148  22034045.4964   22034048.3544   22034045.2134
       238.000         198.000
 09  1 29  1 50  0.0000000  0  8G 5G 9G14G15G18G12G22G30
 108511687.86048  84554546.26348  20649099.1944   20649102.4064   20649099.6594
       252.000         223.000
 105901659.24448  82520760.67248  20152426.8764   20152429.1744   20152426.9944
       250.000         225.000
 133777403.01148  86449914.28148  23554065.6604   23554067.3824   23554065.7424
       218.000         170.000
 123089842.89648  95914156.26448  23423222.7964   23423224.6384   23423222.4884
       226.000         183.000
 124238676.77248  96809349.87748  23641839.8054   23641842.5274   23641839.9864
       218.000         163.000
 107275954.90548  83591641.15248  20413944.2564   20413945.5784   20413943.9174
       253.000         236.000
 133714931.16748  86401237.83648  23542173.7374   23542174.9814   23542173.9704
       224.000         174.000
 115707815.72748  90161934.41548  22018464.4454   22018467.0874   22018464.0214
       239.000         197.000
 09  1 29  1 50 30.0000000  0  8G 5G 9G14G15G18G12G22G30
 108472104.51848  84523702.11748  20641566.8904   20641569.9414   20641567.8504
       252.000         223.000
 105930458.86048  82543201.93048  20157907.1134   20157909.5304   20157907.1824
       249.000         225.000
 133681732.64348  86375365.97348  23535859.0414   23535862.2264   23535858.9604
       222.000         172.000
 123196270.05848  95997086.52548  23443475.2304   23443477.0984   23443474.7144
       225.000         179.000
 124313309.36248  96867505.14948  23656042.1694   23656044.2714   23656042.9554
       220.000         162.000
 107264554.88948  83582758.04648  20411774.8434   20411776.3344   20411774.9654
       254.000         236.000
 133750287.49548  86428788.21648  23548901.9334   23548903.3364   23548902.3164
       222.000         173.000
 115626228.13148  90098359.66948  22002938.9324   22002941.2024   22002938.8664
       240.000         198.000
 09  1 29  1 51  0.0000000  0  8G 5G 9G14G15G18G12G22G30
 108432930.90948  84493177.24748  20634112.2204   20634115.4504   20634112.7584
       253.000         223.000
 105959635.22848  82565936.75248  20163459.1934   20163461.6044   20163459.3434
       249.000         224.000
 133586296.28448  86300999.95148  23517698.5344   23517701.0754   23517697.8194
       221.000         170.000
 123302882.17948  96080160.90048  23463762.1284   23463764.6574   23463761.7064
       224.000         180.000
 124388171.20948  96925839.04848  23670287.5214   23670290.3384   23670288.0754
       216.000         162.000
 107253576.25348  83574203.28148  20409685.6324   20409687.0554   20409685.6674
       253.000         236.000
 133786082.37648  86456680.30148  23555713.6444   23555714.4074   23555713.7514
       223.000         174.000
 115544933.29548  90035013.03548  21987469.0454   21987471.4084   21987468.9824
       239.000         199.000
 09  1 29  1 51 30.0000000  0  8G 5G 9G14G15G18G12G22G30
 108394166.57048  84462971.28248  20626735.9624   20626738.8184   20626736.7144
       252.000         223.000
 105989187.91148  82588964.81648  20169082.6624   20169085.4964   20169082.8264
       248.000         224.000
 133491095.96748  86226817.87848  23499582.9834   23499585.1644   23499583.2374
       221.000         175.000
 123409676.76748  96163377.47548  23484084.6734   23484086.7104   23484084.3764
       226.000         181.000
 124463258.90548  96984348.96748  23684576.0514   23684578.9504   23684576.5994
       218.000         161.000
 107243017.35048  83565975.57648  20407676.3014   20407677.6894   20407675.8894
       254.000         236.000
 133822313.02748  86484911.98048  23562608.3484   23562608.7354   23562608.6684
       223.000         175.000
 115463931.62648  89971894.84648  21972054.6254   21972057.3574   21972054.4464
       238.000         198.000
 09  1 29  1 52  0.0000000  0  8G 5G 9G14G15G18G12G22G30
 108355811.43848  84433084.18048  20619436.8724   20619439.9684   20619437.6724
       252.000         223.000
 106019116.58148  82612285.85748  20174777.7704   20174780.6174   20174777.8174
       249.000         224.000
 133396134.20748  86152821.68248  23481512.5494   23481514.5984   23481512.8824
       224.000         173.000
 123516651.18548  96246734.18148  23504441.5694   23504443.3004   23504441.3984
       225.000         179.000
 124538569.07448  97043032.21748  23698907.5584   23698910.0814   23698908.2024
       220.000         162.000
 107232877.32548  83558074.25848  20405746.8274   20405748.0994   20405746.7194
       254.000         236.000
 133858977.70148  86513481.85948  23569585.4384   23569586.0034   23569585.5784
       226.000         176.000
 115383223.81448  89909005.63448  21956696.2394   21956699.3024   21956695.7904
       238.000         198.000
 09  1 29  1 52 30.0000000  0  8G 5G 9G14G15G18G12G22G30
 108317865.11248  84403515.63248  20612215.9574   20612218.9974   20612216.7004
       252.000         223.000
 106049420.61548  82635899.38348  20180544.4394   20180547.8334   20180544.6624
       248.000         225.000
 133301413.09548  86079013.00448  23463487.6774   23463489.3634   23463488.5744
       224.000         173.000
 123623802.74748  96330228.90148  23524831.7144   23524833.8214   23524831.3064
       227.000         180.000
 124614098.30048  97101886.16548  23713280.7684   23713282.9984   23713280.8804
       221.000         164.000
 107223154.76948  83550498.25148  20403896.6644   20403897.8544   20403896.6154
       252.000         236.000
 133896073.85348  86542387.94748  23576644.9874   23576645.0764   23576644.7094
       226.000         175.000
 115302810.45648  89846345.87448  21941394.1764   21941397.3244   21941393.8224
       239.000         199.000
 09  1 29  1 53  0.0000000  0  8G 5G 9G14G15G18G12G22G30
 108280328.23848  84374266.13248  20605073.0394   20605075.8984   20605073.6864
       251.000         222.000
 106080100.83548  82659806.05048  20186382.8124   20186385.7924   20186382.8704
       249.000         224.000
 133206936.08948  86005394.55448  23445509.5364   23445511.4794   23445510.2074
       222.000         172.000
 123731129.68548  96413860.28348  23545255.4624   23545257.4394   23545255.1894
       226.000         180.000
 124689844.13048  97160908.87548  23727695.3214   23727697.1204   23727695.6544
       223.000         165.000
 107213849.04048  83543247.04248  20402125.7604   20402127.1504   20402125.6744
       251.000         236.000
 133933600.15848  86571629.21748  23583785.5914   23583786.4204   23583786.2954
       221.000         173.000
 115222693.17848  89783916.83848  21926148.4884   21926151.4064   21926148.4534
       239.000         200.000
 09  1 29  1 53 30.0000000  0  8G 5G 9G14G15G18G12G22G30
 108243200.62548  84345335.53848  20598007.5614   20598010.6944   20598008.0344
       251.000         222.000
 106111157.23248  82684005.83748  20192292.8064   20192295.4734   20192293.0374
       250.000         224.000
 133112705.69548  85931968.26948  23427578.0704   23427580.0484   23427578.6854
       223.000         173.000
 123838630.14448  96497626.86248  23565712.1364   23565714.2124   23565711.5314
       224.000         180.000
 124765803.36548  97220097.88548  23742149.4784   23742151.7214   23742150.5294
       221.000         163.000
 107204960.61648  83536321.01248  20400434.2924   20400435.6694   20400434.1444
       252.000         236.000
 133971554.04248  86601203.66448  23591007.9234   23591008.6684   23591007.5604
       222.000         171.000
 115142872.56848  89721718.95548  21910959.3474   21910961.8934   21910958.8204
       239.000         200.000
 09  1 29  1 54  0.0000000  0  8G 5G 9G14G15G18G12G22G30
 108206482.31248  84316723.87048  20591020.4594   20591023.3764   20591021.0544
       251.000         223.000
 106142589.93248  82708498.84248  20198274.2834   20198277.1194   20198274.5494
       250.000         224.000
 133018724.77448  85858736.37248  23409694.3004   23409696.3034   23409694.4944
       222.000         175.000
 123946301.51248  96581526.63848  23586201.2364   23586203.3874   23586200.4744
       224.000         179.000
 124841972.99848  97279450.83648  23756643.5494   23756646.1714   23756644.4874
       217.000         162.000
 107196488.10248  83529719.06248  20398822.1504   20398823.5154   20398821.9364
       252.000         236.000
 134009933.71848  86631109.88448  23598311.0504   23598312.5174   23598310.4194
       221.000         173.000
 115063349.43148  89659752.87248  21895826.5734   21895829.4014   21895826.5074
       238.000         201.000
 09  1 29  1 54 30.0000000  0  8G 5G 9G14G15G18G12G22G30
 108170174.06548  84288431.73548  20584110.9974   20584114.2534   20584111.5904
       250.000         223.000
 106174399.54848  82733285.54848  20204327.5414   20204329.7104   20204327.7444
       249.000         224.000
 132924996.56048  85785701.41548  23391857.8084   23391860.5624   23391857.6024
       223.000         176.000
 124054142.34448  96665558.45548  23606723.0854   23606724.5394   23606723.2134
       224.000         177.000
 124918350.68048  97338965.92548  23771177.4604   23771180.8834   23771177.9394
       215.000         161.000
 107188431.36248  83523441.09148  20397288.9614   20397290.2544   20397288.6404
       252.000         236.000
 134048737.79048  86661346.80648  23605695.2734   23605696.6994   23605696.1414
       222.000         172.000
 114984125.56648  89598019.98148  21880751.0334   21880753.6354   21880750.7524
       239.000         201.000
 09  1 29  1 55  0.0000000  0  8G 5G 9G14G15G18G12G22G30
 108134274.80148  84260458.28448  20577279.6934   20577282.7204   20577279.8934
       251.000         223.000
 106206584.87548  82758365.01748  20210452.2884   20210454.8374   20210452.4074
       250.000         224.000
 132831522.73848  85712864.66848  23374070.1414   23374072.9074   23374070.2244
       221.000         176.000
 124162149.59448  96749719.94348  23627275.6734   23627276.9504   23627275.1674
       223.000         177.000
 124994932.43348  97398640.03748  23785750.5654   23785753.0994   23785750.9374
       214.000         160.000
 107180788.45048  83517485.58448  20395834.4794   20395835.7784   20395834.3814
       252.000         236.000
 134087963.09548  86691911.99048  23613159.5384   23613160.8164   23613160.1034
       222.000         172.000
 114905200.62048  89536520.02648  21865731.9434   21865734.6074   21865731.6794
       238.000         202.000
 09  1 29  1 55 30.0000000  0  8G 5G 9G14G15G18G12G22G30
 108098785.43348  84232804.22748  20570526.2544   20570529.3914   20570526.8424
       251.000         222.000
 106239147.07648  82783738.15248  20216648.7504   20216650.8654   20216649.0824
       250.000         224.000
 132738306.75548  85640228.82748  23356331.7134   23356334.5674   23356331.8674
       223.000         175.000
 124270321.50248  96834009.74948  23647860.0934   23647862.0044   23647860.0144
       222.000         176.000
 125071715.75748  97458471.21248  23800361.9824   23800365.0324   23800362.3314
       217.000         161.000
 107173559.50548  83511852.64648  20394458.9524   20394460.2364   20394459.1834
       252.000         236.000
 134127608.50748  86722804.52548  23620703.8764   23620704.5134   23620704.9254
       221.000         170.000
 114826576.17848  89475254.23348  21850770.1284   21850772.7644   21850769.5964
       240.000         201.000
 09  1 29  1 56  0.0000000  0  8G 5G 9G14G15G18G12G22G30
 108063705.35848  84205469.10048  20563850.7944   20563853.9444   20563851.3644
       251.000         223.000
 106272085.48948  82809404.44248  20222916.6124   20222919.0284   20222916.7754
       249.000         224.000
 132645350.92648  85567795.70748  23338643.1334   23338645.4094   23338644.0894
       220.000         175.000
 124378655.47248  96918425.81548  23668475.3014   23668477.8524   23668474.8224
       226.000         178.000
 125148697.24248  97518456.85648  23815011.2154   23815014.2034   23815012.1584
       219.000         162.000
 107166743.37448  83506541.38148  20393161.7844   20393163.0304   20393161.6554
       252.000         236.000
 134167671.36548  86754022.32148  23628327.4724   23628328.5314   23628326.7784
       224.000         172.000
 114748253.14348  89414223.30148  21835865.6994   21835868.2184   21835865.7244
       239.000         201.000
 09  1 29  1 56 30.0000000  0  8G 5G 9G14G15G18G12G22G30
 108029034.44848  84178452.80748  20557253.2124   20557256.2634   20557253.5904
       251.000         223.000
 106305399.54948  82835363.44548  20229256.0264   20229258.6094   20229256.1194
       250.000         224.000
 132552657.68148  85495567.22148  23321003.7574   23321006.2284   23321004.0534
       222.000         173.000
 124487148.92948  97002966.18548  23689121.7494   23689123.6794   23689121.6114
       226.000         180.000
 125225873.75348  97578594.37748  23829697.6724   23829700.4994   23829697.9534
       219.000         163.000
 107160338.82348  83501550.82648  20391943.0904   20391944.2594   20391942.9824
       251.000         236.000
 134208149.50048  86785563.71348  23636030.5474   23636031.3354   23636031.3374
       223.000         173.000
 114670231.70148  89353427.37548  21821018.8004   21821021.5004   21821018.4214
       239.000         201.000
 09  1 29  1 57  0.0000000  0  8G 5G 9G14G15G18G12G22G30
 107994771.93348  84151754.74248  20550733.2064   20550736.3104   20550733.3354
       251.000         223.000
 106339088.87648  82861614.85648  20235666.9144   20235669.3634   20235667.1504
       250.000         224.000
 132460229.43048  85423545.20348  23303415.8224   23303417.6044   23303416.7374
       227.000         177.000
 124595799.05448  97087628.63048  23709796.7434   23709798.6684   23709797.3414
       223.000         175.000
 125303241.35348  97638880.85348  23844420.3064   23844422.6524   23844421.1614
       218.000         162.000
 107154344.39848  83496879.86048  20390802.4064   20390803.7344   20390802.1224
       252.000         236.000
 134249040.15548  86817426.56948  23643812.0604   23643812.4104   23643812.7054
       222.000         172.000
 114592512.18248  89292866.71848  21806229.1724   21806232.0014   21806228.9784
       239.000         201.000
 09  1 29  1 57 30.0000000  0  8G 5G 9G14G15G18G12G22G30
 107960918.34248  84125375.33048  20544291.2164   20544294.3564   20544291.7514
       251.000         223.000
 106373153.83948  82888158.98348  20242149.2174   20242151.7644   20242149.5444
       249.000         223.000
 132368069.09548  85351731.95048  23285878.4614   23285879.8774   23285879.7604
       225.000         177.000
 124704604.22948  97172411.86448  23730501.6094   23730503.2814   23730501.0404
       223.000         175.000
 125380797.70048  97699314.38048  23859178.3074   23859181.0884   23859178.1294
       217.000         158.000
 107148759.69648  83492528.15548  20389739.4994   20389740.9824   20389739.0734
       251.000         236.000
 134290341.38648  86849609.34148  23651670.7614   23651671.6074   23651670.6044
       223.000         171.000
 114515096.09748  89232542.50648  21791497.3214   21791499.9354   21791497.2614
       239.000         201.000
 09  1 29  1 58  0.0000000  0  8G 5G 9G14G15G18G12G22G30
 107927473.90748  84099314.73448  20537927.0154   20537930.0494   20537927.8974
       251.000         223.000
 106407594.84948  82914996.12148  20248703.1084   20248705.5574   20248703.1704
       249.000         223.000
 132276179.69048  85280129.82048  23268391.9644   23268393.8954   23268393.1994
       223.000         173.000
 124813562.52048  97257314.43348  23751236.1354   23751237.2664   23751236.5924
       226.000         177.000
 125458540.29348  97759892.97748  23873972.4924   23873974.6064   23873973.3394
       216.000         160.000
 107143584.27348  83488495.36248  20388754.7014   20388756.1674   20388754.5854
       252.000         236.000
 134332051.41548  86882110.66248  23659608.1194   23659609.1214   23659608.6144
       223.000         172.000
 114437984.39048  89172455.47248  21776823.3634   21776826.2304   21776823.0104
       240.000         202.000
 09  1 29  1 58 30.0000000  0  8G 5G 9G14G15G18G12G22G30
 107894438.90148  84073573.18848  20531640.4304   20531643.7294   20531641.0134
       251.000         223.000
 106442412.17448  82942126.50748  20255328.5914   20255331.0994   20255328.7814
       249.000         224.000
 132184564.16548  85208741.12548  23250958.0374   23250960.2794   23250958.7784
       223.000         176.000
 124922672.23948  97342335.00548  23771998.7584   23772000.7004   23771998.4774
       221.000         175.000
 125536465.98848  97820614.30248  23888801.1864   23888803.4414   23888801.5804
       218.000         158.000
 107138817.74448  83484781.18348  20387847.7874   20387849.0084   20387847.9574
       252.000         236.000
 134374168.50848  86914929.14448  23667622.8874   23667623.8464   23667623.1864
       221.000         172.000
 114361178.44148  89112606.68748  21762207.8994   21762210.7174   21762207.6444
       241.000         204.000
 09  1 29  1 59  0.0000000  0  8G 5G 9G14G15G18G12G22G30
 107861813.49548  84048150.80348  20525432.0764   20525435.2624   20525432.5464
       251.000         223.000
 106477606.14548  82969550.37648  20262025.8084   20262028.4834   20262025.9814
       250.000         224.000
 132093225.59348  85137568.22748  23233576.9674   23233579.3484   23233577.1664
       223.000         176.000
 125031930.72248  97427471.49348  23792789.4254   23792792.1734   23792788.4704
       221.000         176.000
 125614572.02048  97881476.12948  23903663.9194   23903666.7114   23903664.9264
       216.000         156.000
 107134459.52648  83481385.17448  20387018.3174   20387019.5904   20387018.3964
       252.000         236.000
 134416690.47748  86948063.12648  23675714.3224   23675715.6004   23675714.2154
       220.000         171.000
 114284679.34948  89052997.01348  21747650.7104   21747653.3534   21747650.5304
       239.000         203.000
 09  1 29  1 59 30.0000000  0  8G 5G 9G14G15G18G12G22G30
 107829597.35248  84023047.32648  20519301.4914   20519304.4954   20519301.9004
       251.000         223.000
 106513176.23148  82997267.31848  20268794.6274   20268797.2914   20268794.8214
       250.000         224.000
 132002166.48048  85066613.07348  23216248.8674   23216251.6784   23216248.7914
       223.000         175.000
 125141335.83048  97512722.23348  23813608.7864   23813611.2414   23813608.9324
       220.000         176.000
 125692855.08848  97942475.93448  23918560.9514   23918562.9354   23918561.4124
       213.000         155.000
 107130508.34348  83478306.33648  20386266.3674   20386267.9544   20386266.3694
       252.000         236.000
 134459615.36848  86981511.09048  23683881.7874   23683883.5824   23683881.8614
       218.000         169.000
 114208487.42348  88993626.70248  21733151.4444   21733154.5094   21733150.8224
       240.000         204.000
 09  1 29  2  0  0.0000000  0  8G 5G 9G14G15G18G12G22G30
 107797789.91148  83998262.31748  20513248.8544   20513251.8644   20513248.9194
       251.000         223.000
 106549122.10048  83025277.08948  20275634.9084   20275637.6004   20275635.1824
       249.000         224.000
 131911389.10348  84995877.46348  23198974.3274   23198977.1844   23198973.1964
       224.000         175.000
 125250884.69448  97598084.94348  23834454.7234   23834458.1854   23834454.3624
       218.000         174.000
 125771311.56648  98003610.86448  23933490.9554   23933492.7704   23933491.0364
       216.000         156.000
 107126962.79948  83475543.57748  20385591.7944   20385593.1414   20385591.9504
       252.000         236.000
 134502939.92748  87015270.46448  23692126.7934   23692128.3474   23692126.3794
       220.000         170.000
 114132603.55948  88934496.43648  21718711.6084   21718714.0704   21718711.3124
       241.000         204.000
 09  1 29  2  0 30.0000000  0  8G 5G 9G14G15G18G12G22G30
 107766391.22648  83973795.81948  20507273.8474   20507276.9474   20507274.5774
       251.000         223.000
 106585443.81948  83053579.72348  20282546.5574   20282549.3284   20282546.6344
       250.000         224.000
 131820896.28148  84925363.56748  23181754.5324   23181756.6694   23181754.7364
       223.000         177.000
 125360575.49548  97683558.30948  23855328.5504   23855330.6154   23855327.3004
       220.000         173.000
 125849938.88148  98064878.90248  23948453.6834   23948455.3444   23948454.3234
       217.000         158.000
 107123822.08148  83473096.26348  20384994.2244   20384995.4974   20384994.4744
       252.000         236.000
 134546662.10648  87049339.70348  23700446.8064   23700447.9174   23700447.2774
       220.000         168.000
 114057028.29548  88875606.62748  21704329.9854   21704332.2644   21704329.7154
       241.000         204.000
 09  1 29  2  1  0.0000000  0  8G 5G 9G14G15G18G12G22G30
 107735400.70448  83949647.37148  20501376.5694   20501379.6564   20501377.1094
       249.000         224.000
 106622140.82748  83082174.79248  20289529.7534   20289532.5034   20289529.8584
       249.000         224.000
 131730690.49248  84855073.35748  23164588.5034   23164591.0564   23164589.1674
       223.000         175.000
 125470405.56848  97769140.20148  23876228.4934   23876230.5454   23876228.2324
       220.000         171.000
 125928733.66248  98126277.43748  23963447.3444   23963449.2624   23963447.9774
       218.000         156.000
 107121085.28348  83470963.70248  20384473.2224   20384474.6624   20384473.0554
       252.000         236.000
 134590779.07048  87083716.55948  23708842.6294   23708842.7694   23708842.8994
       222.000         170.000
 113981762.20648  88816957.74248  21690007.1904   21690009.8494   21690007.0224
       241.000         204.000
 09  1 29  2  1 30.0000000  0  8G 5G 9G14G15G18G12G22G30
 107704817.34848  83925816.19448  20495556.7214   20495559.8484   20495557.2354
       250.000         224.000
 106659212.12848  83111061.51948  20296584.2554   20296586.9364   20296584.4414
       250.000         224.000
 131640773.24848  84785007.97648  23147478.2774   23147480.2454   23147478.5334
       222.000         176.000
 125580371.29048  97854827.79048  23897154.2384   23897156.3644   23897153.3954
       217.000         170.000
 126007691.83448  98187803.27348  23978472.7474   23978474.6564   23978473.3324
       215.000         154.000
 107118750.24148  83469144.19248  20384028.9244   20384030.3014   20384028.6774
       252.000         236.000
 134635288.17848  87118398.92948  23717312.2354   23717312.9044   23717312.4364
       223.000         171.000
 113906804.86548  88758549.43348  21675743.2434   21675745.8044   21675743.3264
       240.000         204.000
 09  1 29  2  2  0.0000000  0  8G 5G 9G14G15G18G12G22G30
 107674641.91148  83902302.86848  20489814.5414   20489817.4774   20489815.3054
       250.000         224.000
 106696658.79948  83140240.74148  20303710.1394   20303712.8284   20303710.3464
       249.000         224.000
 131551148.17448  84715170.29748  23130422.7914   23130425.3404   23130422.7634
       224.000         177.000
 125690471.51148  97940620.18848  23918104.8974   23918107.3684   23918104.5874
       217.000         170.000
 126086810.98748  98249454.57048  23993528.1814   23993530.5724   23993528.7384
       216.000         155.000
 107116817.07148  83467637.83648  20383661.0464   20383662.4784   20383660.8124
       252.000         236.000
 134680187.63948  87153385.51648  23725856.7274   23725857.4714   23725857.2494
       223.000         173.000
 113832157.90148  88700382.97448  21661538.3524   21661540.9284   21661537.9254
       240.000         204.000
 09  1 29  2  2 30.0000000  0  9G 5G 9G14G15G18G29G12G22G30
 107644874.12748  83879107.19748  20484149.9984   20484152.9304   20484150.6314
       249.000         223.000
 106734480.17648  83169711.94648  20310907.3064   20310910.0584   20310907.5084
       249.000         224.000
 131461818.09048  84645562.43648  23113424.0764   23113425.9524   23113424.7114
       224.000         177.000
 125800703.87248  98026515.51848  23939081.9134   23939084.2574   23939081.8464
       216.000         168.000
 126166087.63448  98311228.59748  24008614.5104   24008616.5904   24008614.7744
       211.000         154.000
 140551195.82058  91728190.72358  24843077.1535   24843080.3425   24843076.5985
       200.000         139.000
 107115284.56448  83466443.67648  20383369.3654   20383370.8274   20383369.2404
       252.000         236.000
 134725475.49748  87188674.72448  23734474.7904   23734475.6784   23734474.7294
       224.000         172.000
 113757821.83048  88642458.75548  21647392.8544   21647395.4804   21647392.7234
       241.000         204.000
 09  1 29  2  3  0.0000000  0  9G 5G 9G14G15G18G29G12G22G30
 107615513.52048  83856228.82148  20478562.7104   20478565.7284   20478563.4234
       249.000         223.000
 106772676.05248  83199474.96648  20318175.7504   20318178.5554   20318175.7894
       249.000         224.000
 131372785.24248  84576186.23248  23096481.2174   23096483.7734   23096481.5284
       224.000         177.000
 125911065.76448  98112511.79748  23960083.2224   23960085.4294   23960083.0924
       217.000         171.000
 126245518.70348  98373122.95448  24023729.2594   24023731.8624   24023729.7614
       210.000         151.000
 140437915.63348  91639920.41348  24821520.9424   24821523.3034   24821519.6274
       199.000         140.000
 107114151.17948  83465560.52348  20383153.7554   20383155.2074   20383153.3954
       251.000         237.000
 134771148.93948  87224264.41548  23743166.1834   23743166.8784   23743165.9664
       225.000         173.000
 113683797.52048  88584777.48348  21633306.3724   21633309.1434   21633306.3514
       240.000         205.000
 09  1 29  2  3 30.0000000  0  9G 5G 9G14G15G18G29G12G22G30
 107586560.31248  83833667.89648  20473052.9454   20473056.0664   20473053.7784
       250.000         223.000
 106811246.68748  83229530.01448  20325515.5434   20325518.2124   20325515.7244
       250.000         224.000
 131284052.99648  84507044.20948  23079596.5424   23079598.3664   23079596.5444
       225.000         178.000
 126021555.16848  98198607.46648  23981109.1274   23981110.3284   23981109.6974
       221.000         170.000
 126325101.81948  98435135.76248  24038873.2824   24038876.3814   24038873.5874
       213.000         153.000
 140324619.24848  91551637.46548  24799960.4394   24799962.7284   24799958.0984
       190.000         137.000
 107113416.97248  83464988.41948  20383014.0674   20383015.4614   20383013.5204
       252.000         237.000
 134817205.74048  87260152.81848  23751930.2614   23751931.3854   23751930.6344
       220.000         171.000
 113610085.86648  88527339.83248  21619279.5584   21619282.0554   21619279.1734
       241.000         205.000
 09  1 29  2  4  0.0000000  0  9G 5G 9G14G15G18G29G12G22G30
 107558013.59848  83811423.71148  20467620.8554   20467623.8094   20467621.4474
       249.000         223.000
 106850191.26348  83259876.43048  20332926.4384   20332929.1134   20332926.5954
       250.000         224.000
 131195622.87748  84438137.63748  23062769.0484   23062771.0944   23062769.4604
       222.000         178.000
 126132169.37548  98284800.36048  24002157.7634   24002159.9004   24002157.9644
       219.000         170.000
 126404832.96048  98497263.93748  24054046.5274   24054048.5514   24054047.2554
       216.000         157.000
 140211308.53848  91463343.45848  24778396.9864   24778401.5154   24778395.1884
       202.000         144.000
 107113079.73648  83464725.64848  20382949.8084   20382951.3114   20382949.5714
       252.000         237.000
 134863643.05048  87296337.69648  23760766.3984   23760767.5854   23760766.1814
       220.000         172.000
 113536687.00148  88470145.92048  21605312.0504   21605315.0314   21605312.1694
       240.000         205.000
 09  1 29  2  4 30.0000000  0  9G 5G 9G14G15G18G29G12G22G30
 107529874.17448  83789496.89848  20462265.9834   20462269.1374   20462266.3674
       250.000         224.000
 106889510.98648  83290515.18348  20340408.6704   20340411.3894   20340409.0514
       250.000         223.000
 131107498.81648  84369469.55048  23045999.4724   23046001.6424   23045999.1594
       224.000         178.000
 126242906.74048  98371089.23648  24023230.5034   24023232.5364   24023229.9754
       217.000         168.000
 126484710.10048  98559505.90648  24069246.1314   24069248.5754   24069246.5754
       214.000         155.000
 140097987.49648  91375041.36848  24756835.1234   24756838.6384   24756834.0084
       210.000         152.000
 107113140.25548  83464772.80848  20382961.4474   20382962.7184   20382960.9984
       252.000         237.000
 134910459.43248  87332817.96148  23769675.4034   23769676.7784   23769674.9554
       222.000         170.000
 113463602.97248  88413197.33748  21591404.5814   21591407.4954   21591404.3514
       242.000         205.000
 09  1 29  2  5  0.0000000  0  9G 5G 9G14G15G18G29G12G22G30
 107502142.08548  83767887.49048  20456988.8524   20456991.9194   20456989.3314
       250.000         224.000
 106929205.58648  83321446.04448  20347962.2494   20347964.9374   20347962.4324
       249.000         223.000
 131019683.86948  84301042.33248  23029288.9084   23029290.8454   23029289.1844
       228.000         179.000
 126353765.37248  98457472.58248  24044326.3464   24044328.6524   24044325.7704
       217.000         168.000
 126564730.24748  98621859.26448  24084473.5854   24084476.1344   24084473.2894
       212.000         150.000
 139984658.32148  91286732.92148  24735270.4924   24735272.0234   24735270.5324
       210.000         154.000
 107113597.32548  83465128.96848  20383048.3444   20383049.7094   20383048.0414
       252.000         237.000
 134957652.64948  87369591.87648  23778655.9844   23778657.0894   23778656.8564
       219.000         167.000
 113390834.54148  88356494.67148  21577557.5044   21577560.0224   21577557.1684
       242.000         207.000
 09  1 29  2  5 30.0000000  0  9G 5G 9G14G15G18G29G12G22G30
 107474816.15948  83746594.56748  20451788.9384   20451791.8714   20451789.1724
       250.000         224.000
 106969274.24348  83352668.37148  20355587.1644   20355589.8964   20355587.2024
       250.000         223.000
 130932179.72848  84232857.29948  23012637.3524   23012639.5824   23012638.4124
       224.000         179.000
 126464742.15848  98543947.99048  24065444.2594   24065446.7374   24065444.3284
       217.000         169.000
 126644889.08048  98684320.71148  24099726.4504   24099729.3094   24099728.1014
       213.000         152.000
 139871322.56348  91198419.30348  24713703.6774   24713704.1014   24713702.6794
       207.000         146.000
 107114448.64248  83465792.33248  20383210.5004   20383211.7964   20383210.3454
       252.000         237.000
 135005219.77148  87406657.11048  23787707.9954   23787708.4014   23787707.3554
       224.000         168.000
 113318381.24748  88300037.56048  21563770.3284   21563772.6054   21563769.9874
       242.000         208.000
 09  1 29  2  6  0.0000000  0  9G 5G 9G14G15G18G29G12G22G30
 107447895.88948  83725617.74448  20446666.1314   20446669.1314   20446666.5524
       249.000         223.000
 107009716.13948  83384181.53648  20363283.1294   20363285.7074   20363283.3894
       250.000         223.000
 130844988.95448  84164916.43848  22996045.4924   22996047.4154   22996047.0524
       228.000         179.000
 126575834.37948  98630513.34748  24086584.6294   24086586.7654   24086584.6254
       221.000         170.000
 126725184.28548  98746888.38348  24115006.5334   24115008.7314   24115007.4494
       217.000         153.000
 139757982.48748  91110102.30948  24692134.8184   24692136.4614   24692135.2184
       208.000         149.000
 107115693.57748  83466762.41748  20383447.2354   20383448.7234   20383446.9234
       252.000         237.000
 135053157.81248  87444011.42948  23796830.4494   23796831.2524   23796831.6234
       222.000         169.000
 113246243.72848  88243826.52348  21550042.9124   21550045.4424   21550042.8754
       242.000         208.000
 09  1 29  2  6 30.0000000  0  9G 5G 9G14G15G18G29G12G22G30
 107421381.19448  83704956.95648  20441620.4214   20441623.4844   20441620.9814
       250.000         223.000
 107050531.31448  83415985.56648  20371049.8724   20371052.5594   20371050.0044
       249.000         223.000
 130758114.22048  84097221.85248  22979513.6964   22979515.6404   22979514.9874
       226.000         179.000
 126687040.03748  98717167.12348  24107747.2084   24107748.8574   24107746.7764
       218.000         168.000
 126805612.02648  98809559.32848  24130311.7824   24130312.7514   24130312.6134
       211.000         150.000
 139644641.17648  91021784.47548  24670566.0434   24670569.2314   24670567.0974
       213.000         158.000
 107117330.96948  83468038.30248  20383758.9424   20383760.3234   20383758.7074
       252.000         237.000
 135101464.57348  87481653.02748  23806023.1604   23806024.0804   23806023.4744
       224.000         168.000
 113174422.75248  88187862.15548  21536375.9744   21536378.2564   21536375.6554
       243.000         208.000
 09  1 29  2  7  0.0000000  0  9G 5G 9G14G15G18G29G12G22G30
 107395273.01148  83684612.92448  20436652.2224   20436655.3044   20436653.2374
       250.000         224.000
 107091720.77248  83448081.24748  20378887.8874   20378890.5714   20378888.0404
       249.000         223.000
 130671559.57248  84029776.67148  22963042.6054   22963044.5534   22963042.7704
       225.000         180.000
 126798357.90748  98803908.29948  24128929.6814   24128931.1304   24128929.4074
       215.000         163.000
 126886170.44548  98872332.16548  24145640.7384   24145642.2104   24145641.5184
       207.000         147.000
 139531302.22048  90933468.44948  24648998.7774   24649001.9164   24649000.0914
       215.000         162.000
 107119360.90948  83469620.07848  20384145.0444   20384146.6054   20384144.6554
       253.000         237.000
 135150138.55148  87519580.76348  23815285.5174   23815287.1064   23815285.9144
       222.000         167.000
 113102920.30548  88132145.99748  21522769.1914   21522771.8544   21522769.2814
       241.000         207.000
 09  1 29  2  7 30.0000000  0  9G 5G 9G14G15G18G29G12G22G30
 107369569.92648  83664584.55948  20431761.2564   20431764.2434   20431762.1484
       250.000         224.000
 107133283.47648  83480467.77048  20386797.0354   20386799.6494   20386797.2874
       248.000         223.000
 130585326.40848  83962582.01048  22946632.9914   22946635.0654   22946633.3394
       227.000         180.000
 126909784.18048  98890733.99348  24150133.6984   24150134.3264   24150132.9654
       214.000         161.000
 126966855.91548  98935203.97148  24160994.7344   24160997.0624   24160994.8464
       209.000         145.000
 139417966.85148  90845155.17948  24627432.3804   24627434.3874   24627432.5754
       211.000         156.000
 107121781.41648  83471506.18848  20384605.8644   20384607.1714   20384605.7564
       253.000         237.000
 135199176.45448  87557792.09048  23824617.1754   23824618.2794   23824617.5014
       222.000         165.000
 113031735.78348  88076677.57648  21509223.0504   21509225.5984   21509222.9354
       242.000         208.000
 09  1 29  2  8  0.0000000  0  9G 5G 9G14G15G18G29G12G22G30
 107344272.45048  83644872.24848  20426947.1124   20426950.2804   20426947.6134
       249.000         224.000
 107175219.92348  83513145.51748  20394777.2304   20394779.9424   20394777.3044
       249.000         222.000
 130499418.16148  83895640.52348  22930285.4504   22930287.4274   22930286.6184
       228.000         181.000
 127021317.71548  98977643.26848  24171357.8554   24171359.0434   24171357.9344
       218.000         167.000
 127047665.68548  98998172.65748  24176372.4094   24176375.2744   24176374.4164
       211.000         151.000
 139304638.32748  90756847.21248  24605866.3124   24605866.3604   24605865.4754
       213.000         151.000
 107124591.80048  83473696.09648  20385140.6174   20385141.9934   20385140.8164
       253.000         237.000
 135248576.46248  87596285.57148  23834017.6894   23834019.0294   23834018.6834
       216.000         163.000
 112960870.56748  88021457.92448  21495737.9494   21495740.2094   21495737.6574
       241.000         207.000
 09  1 29  2  8 30.0000000  0  9G 5G 9G14G15G18G29G12G22G30
 107319380.28448  83625475.76848  20422210.3174   20422213.5354   20422210.7484
       250.000         224.000
 107217529.92448  83546114.34048  20402828.4674   20402831.1734   20402828.5974
       249.000         222.000
 130413837.39548  83828954.20848  22914000.1454   22914001.7644   22914000.9594
       226.000         181.000
 127132956.08248  99064634.20748  24192601.8024   24192603.9134   24192601.6564
       220.000         172.000
 127128596.70148  99061235.75648  24191773.6054   24191775.9374   24191772.8464
       213.000         155.000
 139191319.39148  90668546.68548  24584302.9024   24584302.5834   24584302.1784
       214.000         156.000
 107127791.54448  83476189.40548  20385749.4314   20385750.8014   20385749.8274
       252.000         237.000
 135298336.32748  87635059.46848  23843486.7394   23843487.6214   23843485.7354
       219.000         159.000
 112890325.29548  87966487.60348  21482313.5574   21482316.2144   21482313.0894
       243.000         208.000
 09  1 29  2  9  0.0000000  0  9G 5G 9G14G15G18G29G12G22G30
 107294893.43548  83606395.12048  20417550.6934   20417553.7634   20417551.3214
       250.000         224.000
 107260213.40548  83579374.19048  20410950.9164   20410953.5434   20410951.1774
       249.000         222.000
 130328587.48148  83762525.70548  22897777.3234   22897779.5004   22897777.0704
       228.000         182.000
 127244697.69848  99151705.61448  24213866.0914   24213867.7614   24213865.0874
       221.000         174.000
 127209646.15848  99124391.15548  24207196.7814   24207198.8264   24207196.6914
       212.000         153.000
 139078012.68848  90580255.77048  24562741.3894   24562743.0824   24562741.7634
       216.000         160.000
 107131379.62948  83478985.31548  20386432.1464   20386433.6194   20386432.0794
       252.000         237.000
 135348453.78248  87674111.94648  23853023.0864   23853024.5084   23853023.3904
       211.000         155.000
 112820101.06948  87911767.45248  21468950.3544   21468953.0134   21468950.0544
       243.000         208.000
 09  1 29  2  9 30.0000000  0  9G 5G 9G14G15G18G29G12G22G30
 107270811.51848  83587630.00448  20412968.0284   20412971.1274   20412968.6284
       250.000         224.000
 107303270.54348  83612925.21048  20419144.5054   20419147.1984   20419144.7464
       248.000         222.000
 130243670.75748  83696356.82248  22881618.1914   22881620.2424   22881617.4774
       229.000         180.000
 127356539.76948  99238855.23148  24235148.0984   24235150.6864   24235148.4464
       213.000         165.000
 127290811.21548  99187636.66748  24222641.6074   24222643.7584   24222642.9104
       208.000         149.000
 138964720.79848  90491976.38048  24541182.5274   24541184.6174   24541183.5834
       218.000         162.000
 107135355.07948  83482083.06748  20387188.6564   20387190.1164   20387188.5194
       253.000         237.000
 135398926.23348  87713441.10248  23862627.7784   23862628.7844   23862627.6434
       212.000         154.000
 112750198.33448  87857297.79648  21455648.3294   21455650.8934   21455648.2154
       243.000         209.000
 09  1 29  2 10  0.0000000  0  9G 5G 9G14G15G18G29G12G22G30
 107247133.66048  83569179.73848  20408462.2524   20408465.4164   20408462.7754
       250.000         224.000
 107346700.31348  83646766.57548  20427408.8554   20427411.6784   20427408.8544
       249.000         222.000
 130159089.57348  83630449.40348  22865522.6164   22865524.7994   22865523.0314
       227.000         182.000
 127468479.48248  99326080.97748  24256449.9244   24256451.0664   24256449.4714
       217.000         160.000
 127372088.02248  99250969.25548  24238107.9664   24238110.6624   24238108.1574
       208.000         150.000
 138851445.40948  90403709.83848  24519626.9814   24519627.9624   24519628.8364
       219.000         165.000
 107139715.78848  83485481.02348  20388018.5904   20388020.0774   20388018.7194
       252.000         237.000
 135449750.42248  87753044.34348  23872299.3244   23872300.9314   23872299.3904
       211.000         153.000
 112680617.08548  87803078.65048  21442407.4524   21442410.0624   21442407.0804
       243.000         209.000
 09  1 29  2 10 30.0000000  0  9G 5G 9G14G15G18G29G12G22G30
 107223858.57048  83551043.31548  20404033.1154   20404036.0494   20404034.0334
       250.000         224.000
 107390501.66748  83680897.50948  20435744.0504   20435746.8084   20435744.3964
       249.000         222.000
 130074845.40148  83564804.59148  22849491.2874   22849493.9714   22849492.0934
       225.000         181.000
 127580513.23148  99413380.03348  24277769.4774   24277770.1784   24277770.2584
       221.000         164.000
 127453472.52448  99314385.74548  24253595.0934   24253597.5604   24253595.6734
       213.000         147.000
 138738188.48648  90315457.73148  24498074.6154   24498075.9494   24498076.3224
       218.000         166.000
 107144460.19748  83489177.96548  20388921.4254   20388922.8364   20388921.4454
       252.000         237.000
 135500922.76448  87792918.88448  23882036.8594   23882037.8994   23882037.8164
       209.000         152.000
 112611356.97148  87749109.71848  21429227.7074   21429230.2624   21429227.4784
       243.000         209.000
 09  1 29  2 11  0.0000000  0  9G 5G 9G14G15G18G29G12G22G30
 107200986.79948  83533221.16648  20399680.8284   20399683.8774   20399681.7924
       250.000         224.000
 107434675.12948  83715318.38848  20444150.0014   20444152.5954   20444150.1034
       249.000         222.000
 129990941.95648  83499425.28748  22833525.0914   22833527.5344   22833525.8794
       228.000         182.000
 127692639.79948  99500751.44448  24299106.9524   24299107.1294   24299107.2814
       222.000         168.000
 127534962.48548  99377884.41248  24269102.1014   24269104.2884   24269103.0724
       208.000         146.000
 138624953.20148  90227222.45848  24476526.5114   24476528.9024   24476526.8264
       215.000         167.000
 107149588.26448  83493173.85748  20389897.0454   20389898.6844   20389896.9204
       252.000         237.000
 135552442.17348  87833063.90048  23891840.8834   23891842.0624   23891841.9434
       207.000         149.000
 112542419.51048  87695392.21848  21416109.2314   21416111.8824   21416108.8284
       244.000         210.000
 09  1 29  2 11 30.0000000  0  9G 5G 9G14G15G18G29G12G22G30
 107178518.17848  83515713.16548  20395405.0824   20395408.2064   20395405.8374
       250.000         224.000
 107479220.44148  83750029.01548  20452626.4914   20452629.2174   20452626.4344
       249.000         222.000
 129907382.01448  83434313.65248  22817624.5404   22817626.8184   22817625.0104
       226.000         182.000
 127804857.17448  99588193.56048  24320460.5314   24320462.1674   24320460.6024
       213.000         163.000
 127616555.11248  99441463.11748  24284628.6154   24284631.1084   24284629.8814
       210.000         149.000
 138511742.63448  90139006.43348  24454982.9664   24454985.9134   24454982.8354
       215.000         162.000
 107155098.39148  83497467.45948  20390945.8004   20390947.1024   20390945.1764
       252.000         237.000
 135604305.64648  87873476.98548  23901710.4404   23901711.5814   23901709.3584
       209.000         149.000
 112473805.70148  87641926.94248  21403052.6614   21403054.9174   21403052.6384
       244.000         210.000
 09  1 29  2 12  0.0000000  0  9G 5G 9G14G15G18G29G12G22G30
 107156453.01648  83498519.54448  20391206.2224   20391209.1714   20391206.8624
       250.000         224.000
 107524138.08848  83785029.77948  20461174.2254   20461176.8124   20461174.3504
       249.000         222.000
 129824168.92748  83369472.27348  22801789.9994   22801792.0874   22801789.6044
       229.000         185.000
 127917163.63648  99675705.05048  24341830.8134   24341833.1874   24341829.9164
       208.000         158.000
 127698247.97148  99505119.93448  24300174.6454   24300177.0164   24300174.6344
       214.000         153.000
 138398559.73948  90050811.98148  24433444.8544   24433447.0294   24433445.1664
       220.000         164.000
 107160990.62348  83502058.80548  20392067.1354   20392068.3394   20392066.8184
       253.000         237.000
 135656511.57748  87914156.88348  23911644.4564   23911646.4424   23911644.6394
       205.000         148.000
 112405516.67448  87588714.74548  21390057.6664   21390059.9774   21390057.4684
       244.000         211.000
 09  1 29  2 12 30.0000000  0  9G 5G 9G14G15G18G29G12G22G30
 107134790.18848  83481639.42548  20387083.8094   20387086.8814   20387084.5384
       250.000         224.000
 107569427.19148  83820319.99448  20469792.6474   20469795.1094   20469792.8474
       248.000         221.000
 129741304.52248  83304902.61048  22786021.3114   22786023.5824   22786021.3934
       229.000         185.000
 128029555.88648  99763283.39048  24363218.1364   24363220.4814   24363216.9284
       215.000         162.000
 127780037.14848  99568851.75348  24315738.8384   24315741.6774   24315739.9034
       211.000         154.000
 138285406.30248  89962640.46548  24411913.0444   24411914.7534   24411913.8664
       221.000         170.000
 107167263.26148  83506946.57248  20393260.7184   20393262.0984   20393260.7004
       253.000         237.000
 135709056.57348  87955100.98748  23921644.2444   23921645.8294   23921644.0994
       210.000         150.000
 112337552.22048  87535755.44448  21377124.7334   21377126.8604   21377124.2384
       244.000         210.000
 09  1 29  2 13  0.0000000  0  9G 5G 9G14G15G18G29G12G22G30
 107113529.09948  83465072.35948  20383037.9094   20383041.1424   20383038.5854
       249.000         224.000
 107615087.23848  83855899.25348  20478480.9014   20478483.9474   20478481.0344
       248.000         221.000
 129658791.39948  83240606.66248  22770319.5724   22770321.8354   22770319.5004
       228.000         185.000
 128142031.60748  99850926.84548  24384622.1214   24384623.3944   24384621.9634
       218.000         160.000
 127861919.36748  99632656.05948  24331320.1344   24331323.4694   24331321.4404
       209.000         155.000
 138172284.88848  89874493.91148  24390387.1574   24390389.0784   24390386.5664
       220.000         170.000
 107173914.59148  83512129.43248  20394526.3014   20394527.7084   20394526.1294
       252.000         237.000
 135761937.91448  87996307.25448  23931707.3714   23931708.3734   23931707.6694
       208.000         150.000
 112269912.86048  87483049.45548  21364252.8824   21364255.3814   21364252.5594
       244.000         210.000
 09  1 29  2 13 30.0000000  0  9G 5G 9G14G15G18G29G12G22G30
 107092669.17848  83448817.88548  20379068.5084   20379071.5244   20379069.0974
       250.000         224.000
 107661117.77848  83891767.19848  20487240.5394   20487243.1664   20487240.7664
       248.000         221.000
 129576631.78948  83176586.19248  22754685.1654   22754687.3904   22754685.3624
       227.000         184.000
 128254588.27148  99938633.42348  24406041.7964   24406042.2864   24406042.5174
       216.000         160.000
 127943891.53848  99696530.45148  24346918.6634   24346922.7054   24346920.5064
       207.000         151.000
 138059197.42948  89786373.82048  24368867.3084   24368869.5614   24368867.3454
       218.000         169.000
 107180943.40948  83517606.43748  20395863.9954   20395865.2544   20395863.6484
       252.000         237.000
 135815152.80548  88037773.35348  23941832.7364   23941835.5324   23941832.6354
       207.000         148.000
 112202598.88348  87430597.01548  21351443.4424   21351445.9274   21351443.2704
       244.000         211.000
