     2.11           OBSERVATION DATA    G (GPS)             RINEX VERSION / TYPE
teqc  2008Oct2      gpsops              20090114 00:17:22UTCPGM / RUN BY / DATE
    30.0000                                                 INTERVAL
     1     1                                                WAVELENGTH FACT L1/2
     7    L1    L2    P1    P2    C1    S1    S2            # / TYPES OF OBSERV
Linux 2.4.20-8|Pentium IV|gcc -static|Linux|486/DX+         COMMENT
     2.10           OBSERVATION DATA    GPS                 COMMENT
soc2rnx ver 1.20    gpsops              14-Jan-2009 00:17:20COMMENT
S1, if present, is the SNR for the C/A data stream on L1.   COMMENT
 SNR is mapped to RINEX snr flag value [1,4-9]              COMMENT
    SNR:   >316  >100  >31.6  >10  >3.2    >0 bad=0         COMMENT
L1 & L2:      9     8     7     6     5     4     1         COMMENT
                                                            COMMENT
This data is provided as a public service by NASA/JPL.      COMMENT
No warranty is expressed or implied regarding suitability   COMMENT
for use.  For further information, contact:                 COMMENT
Dave Stowers, NASA/JPL m/s 238-600                          COMMENT
4800 Oak Grove Drive, Pasadena CA 91109 USA                 COMMENT
                                                            COMMENT
Forced Modulo Decimation to 30 seconds                      COMMENT
  2009     1    13     0     0    0.0000000     GPS         TIME OF FIRST OBS
DSN                 JPL                                     OBSERVER / AGENCY
451-U               AOAD/M_T        NONE                    ANT # / TYPE
  4849202.3940  -360328.9929  4114913.1862                  APPROX POSITION XYZ
        0.0254        0.0000        0.0000                  ANTENNA: DELTA H/E/N
LP03574             ASHTECH Z-XII3      CC00                REC # / TYPE / VERS
MADR                                                        MARKER NAME
13407S012                                                   MARKER NUMBER
                                                            END OF HEADER
 09  1 13  0  0  0.0000000  0 11G24G28G 8G26G 9G27G15G18G17G21G10
 132295364.27748 103087279.32448  25174983.4294   25174989.8834   25174983.6314
       202.000         144.000
 117034634.67948  91195811.30048  22270956.9174   22270958.3754   22270957.4924
       240.000         201.000
 127068481.28148  99014388.39948  24180337.5294   24180340.4134   24180335.5194
       210.000         157.000
 106143099.85948  82708885.37048  20198379.4664   20198381.5684   20198379.5034
       251.000         228.000
 117184619.72648  91312671.62248  22299507.9434   22299510.7014   22299507.6244
       233.000         193.000
 123579396.27048  96295611.38948  23516394.4454   23516397.8174   23516395.1034
       231.000         186.000
 108006227.31648  84160691.22248  20552905.8894   20552907.2274   20552905.5884
       251.000         235.000
 125743689.50748  97982084.10948  23928238.9794   23928238.6864   23928237.9004
       220.000         165.000
 129283693.49948 100740536.71648  24601873.1844   24601873.2774   24601872.0804
       215.000         167.000
 130006804.40448 101304001.48548  24739477.3354   24739478.4054   24739478.7074
       212.000         150.000
 119914439.13348  93439808.04348  22818969.9584   22818972.9224   22818971.0494
       234.000         190.000
 09  1 13  0  0 30.0000000  0 11G24G28G 8G26G 9G27G15G18G17G21G10
 132370702.99548 103145984.77348  25189320.0974   25189325.9364   25189320.4554
       205.000         145.000
 117086850.47648  91236498.93148  22280893.1124   22280894.7744   22280893.3444
       239.000         201.000
 127158804.96348  99084770.47748  24197525.4834   24197528.5434   24197525.7974
       210.000         157.000
 106164816.51148  82725807.42848  20202511.9034   20202514.1234   20202511.8704
       251.000         228.000
 117100408.04048  91247052.15248  22283482.6674   22283485.4864   22283482.6044
       232.000         192.000
 123649495.35348  96350234.02648  23529734.0224   23529736.8654   23529734.3784
       231.000         186.000
 107976596.94148  84137602.62248  20547267.3604   20547268.7174   20547267.1814
       251.000         235.000
 125655990.67948  97913747.38048  23911549.6954   23911550.4754   23911549.3304
       220.000         163.000
 129212447.86348 100685020.68048  24588314.2034   24588315.9524   24588313.7114
       217.000         168.000
 130044231.09048 101333165.07848  24746599.1574   24746601.1404   24746600.1734
       207.000         147.000
 120016718.37348  93519506.15148  22838432.6684   22838436.0684   22838433.5784
       231.000         188.000
 09  1 13  0  1  0.0000000  0 11G24G28G 8G26G 9G27G15G18G17G21G10
 132446069.07848 103204711.54048  25203662.7594   25203666.8324   25203663.0374
       207.000         148.000
 117139499.50148  91277524.13948  22290912.1034   22290913.2804   22290912.7104
       240.000         201.000
 127249154.85348  99155172.97348  24214718.2484   24214721.0624   24214718.4414
       213.000         158.000
 106186925.09348  82743034.88048  20206718.9994   20206721.3514   20206718.8284
       250.000         228.000
 117016431.39048  91181615.80848  22267502.5444   22267505.0404   22267503.3394
       234.000         192.000
 123719623.07048  96404878.98548  23543078.7434   23543081.8474   23543079.3764
       227.000         186.000
 107947298.40848  84114772.59648  20541692.0744   20541693.3214   20541691.9524
       252.000         235.000
 125568601.00248  97845651.49448  23894919.9944   23894920.6164   23894919.5594
       221.000         165.000
 129141388.15948 100629649.47748  24574792.6544   24574793.9874   24574792.2134
       213.000         166.000
 130082031.95648 101362620.26648  24753793.0154   24753794.2164   24753793.7194
       206.000         145.000
 120119212.48248  93599371.68648  22857936.4814   22857939.8134   22857937.2874
       232.000         187.000
 09  1 13  0  1 30.0000000  0 11G24G28G 8G26G 9G27G15G18G17G21G10
 132521459.13948 103263457.03448  25218009.6454   25218012.1674   25218009.8924
       206.000         142.000
 117192579.59248  91318885.26148  22301012.8124   22301014.4304   22301013.2404
       239.000         202.000
 127339529.76548  99225594.94948  24231915.6584   24231918.7784   24231915.9764
       210.000         161.000
 106209425.62448  82760567.76048  20211000.7614   20211003.0924   20211000.6094
       251.000         228.000
 116932689.92548  91116362.73048  22251567.0414   22251569.9354   22251567.1004
       234.000         193.000
 123789778.26748  96459545.35148  23556429.1954   23556432.3714   23556429.1114
       230.000         187.000
 107918332.44348  84092201.71248  20536180.0594   20536181.3304   20536179.9234
       251.000         236.000
 125481522.84048  97777798.41248  23878349.5674   23878351.2654   23878350.9104
       221.000         166.000
 129070516.97748 100574425.15448  24561305.0004   24561307.2844   24561303.4914
       217.000         166.000
 130120204.29948 101392364.86848  24761057.3664   24761058.3344   24761056.2284
       205.000         149.000
 120221918.10248  93679402.03948  22877480.6714   22877484.0964   22877481.8554
       230.000         186.000
 09  1 13  0  2  0.0000000  0 11G24G28G 8G26G 9G27G15G18G17G21G10
 132596870.61848 103322219.22548  25232359.7254   25232362.8584   25232359.8094
       199.000         135.000
 117246089.28948  91360581.13248  22311195.3554   22311197.7014   22311195.7924
       239.000         202.000
 127429928.79548  99296035.73448  24249118.2384   24249121.5864   24249119.9344
       213.000         160.000
 106232318.39848  82778406.27948  20215357.1024   20215359.5624   20215357.0504
       250.000         228.000
 116849184.51448  91051293.59048  22235676.6464   22235679.1634   22235676.5264
       235.000         195.000
 123859960.54048  96514232.82948  23569784.9974   23569787.3284   23569785.2814
       233.000         187.000
 107889700.48448  84069891.09848  20530731.4154   20530732.8584   20530731.2244
       252.000         236.000
 125394758.59848  97710189.84948  23861839.3984   23861840.1714   23861839.1974
       218.000         164.000
 128999837.55048 100519350.27548  24547856.9404   24547857.9444   24547856.4314
       221.000         171.000
 130158746.24048 101422397.54948  24768390.3664   24768392.9884   24768391.3414
       205.000         151.000
 120324832.87748  93759595.35248  22897064.5824   22897067.9874   22897065.0704
       229.000         186.000
 09  1 13  0  2 30.0000000  0 11G24G28G 8G26G 9G27G15G18G17G21G10
 132672301.02248 103380996.15348  25246712.8694   25246716.3184   25246714.5364
       189.000         126.000
 117300026.56448  91402610.18048  22321459.2164   22321461.1734   22321459.5034
       240.000         202.000
 127520351.17848  99366494.67048  24266324.9554   24266328.8414   24266325.0054
       212.000         159.000
 106255603.80948  82796550.75348  20219788.1204   20219790.5564   20219787.9324
       252.000         228.000
 116765916.24748  90986409.23948  22219831.1224   22219833.9394   22219831.5604
       232.000         195.000
 123930169.41448  96568941.02548  23583144.9694   23583147.5854   23583145.3704
       230.000         185.000
 107861404.31848  84047842.13648  20525346.9234   20525348.2314   20525346.6234
       251.000         236.000
 125308311.10448  97642828.21648  23845388.6844   23845389.9294   23845389.3434
       221.000         168.000
 128929352.77148 100464427.09348  24534443.1634   24534445.0854   24534442.9244
       215.000         166.000
 130197655.27448 101452716.21948  24775794.8754   24775797.5564   24775795.7114
       205.000         149.000
 120427954.27448  93839949.67448  22916688.3424   22916691.6694   22916688.7784
       232.000         188.000
 09  1 13  0  3  0.0000000  0 10G28G 8G26G 9G27G15G18G17G21G10
 117354389.99248  91444971.29348  22331804.4834   22331805.9784   22331804.9594
       240.000         202.000
 127610796.04148  99436971.16748  24283535.1684   24283539.3244   24283535.9634
       209.000         157.000
 106279282.56648  82815001.72148  20224294.2764   20224296.4434   20224294.2924
       251.000         228.000
 116682885.89248  90921710.28248  22204030.6774   22204033.8524   22204030.8444
       233.000         195.000
 124000405.00348  96623670.03048  23596510.2864   23596512.6714   23596510.6134
       230.000         184.000
 107833445.53248  84026056.06048  20520026.5184   20520027.8754   20520026.1484
       251.000         236.000
 125222183.52748  97575715.79048  23828999.1914   23829000.4454   23828999.0124
       222.000         169.000
 128859066.16348 100409658.24948  24521068.1904   24521069.4754   24521067.9824
       218.000         166.000
 130236929.83248 101483319.73448  24783268.5174   24783270.3294   24783268.2994
       201.000         142.000
 120531280.35748  93920463.49248  22936350.8164   22936353.9904   22936351.9814
       232.000         189.000
 09  1 13  0  3 30.0000000  0 10G28G 8G26G 9G27G15G18G17G21G10
 117409177.32748  91487662.72348  22342230.0934   22342231.4534   22342230.7224
       241.000         201.000
 127701262.02848  99507464.13148  24300751.3094   24300754.0184   24300752.1984
       211.000         158.000
 106303354.06148  82833758.72648  20228874.8714   20228877.0764   20228874.8564
       251.000         227.000
 116600093.80448  90857196.96648  22188276.2804   22188279.2684   22188276.4164
       237.000         198.000
 124070665.93948  96678418.80448  23609880.4934   23609882.8924   23609881.1394
       228.000         184.000
 107805825.00848  84004533.57448  20514770.4614   20514771.8324   20514770.0174
       251.000         236.000
 125136377.72748  97508854.14048  23812670.4344   23812671.7504   23812672.3854
       221.000         166.000
 128788979.58348 100355045.37548  24507730.0814   24507732.8224   24507729.8474
       216.000         165.000
 130276567.02948 101514205.85848  24790811.0894   24790812.8834   24790812.9984
       198.000         135.000
 120634807.81248  94001134.23148  22956051.4744   22956054.5304   22956052.1464
       231.000         186.000
 09  1 13  0  4  0.0000000  0 10G28G 8G26G 9G27G15G18G17G21G10
 117464386.42248  91530682.80648  22352736.0874   22352737.7424   22352736.6244
       241.000         202.000
 127791748.24748  99577972.84548  24317969.4014   24317973.4304   24317970.2924
       212.000         160.000
 106327818.44948  82852821.88248  20233530.1404   20233532.4764   20233530.0304
       250.000         227.000
 116517540.78348  90792869.93548  22172567.3974   22172569.6894   22172567.5354
       236.000         198.000
 124140951.82748  96733186.99648  23623255.4024   23623258.0224   23623255.6984
       230.000         183.000
 107778543.92448  83983275.58648  20509579.1094   20509580.3624   20509578.7854
       251.000         236.000
 125050896.28648  97442245.24748  23796403.9994   23796405.6584   23796404.3314
       221.000         168.000
 128719096.74148 100300591.16248  24494433.2974   24494435.0404   24494432.8264
       218.000         170.000
 130316564.56848 101545372.71848  24798425.0794   24798423.0074   24798422.1294
       190.000         128.000
 120738533.49048  94081959.42048  22975789.8024   22975792.6584   22975790.7154
       232.000         185.000
 09  1 13  0  4 30.0000000  0 10G28G 8G26G 9G27G15G18G17G21G10
 117520015.88248  91574030.43548  22363322.0384   22363324.1434   22363323.1174
       240.000         202.000
 127882254.02548  99648496.79748  24335193.0744   24335196.4124   24335193.6774
       215.000         160.000
 106352676.63348  82872191.88648  20238260.5024   20238262.9194   20238260.2444
       252.000         227.000
 116435227.76148  90728729.93548  22156903.2034   22156906.0464   22156903.3534
       235.000         195.000
 124211262.51648  96787974.52948  23636635.1204   23636637.5584   23636635.4464
       229.000         184.000
 107751604.06548  83962283.48348  20504452.6184   20504453.8464   20504452.3574
       251.000         236.000
 124965741.85448  97375891.11248  23780199.9394   23780201.5054   23780199.8484
       219.000         168.000
 128649420.63548 100246298.09748  24481173.9504   24481175.9894   24481174.1524
       217.000         166.000
 130356920.15148 101576818.57948  24806102.5694   24806104.3474   24806103.9184
       191.000         125.000
 120842455.28948  94162937.43548  22995565.5734   22995568.2124   22995566.5644
       231.000         185.000
 09  1 13  0  5  0.0000000  0  9G28G 8G26G 9G27G15G18G17G10
 117576063.93148  91617704.23548  22373987.6644   22373989.3984   22373988.2274
       240.000         201.000
 127972778.76348  99719035.52648  24352418.8534   24352422.7664   24352418.6934
       208.000         159.000
 106377928.87448  82891868.94848  20243066.0164   20243068.2594   20243065.8474
       251.000         227.000
 116353155.70348  90664777.69348  22141285.4194   22141288.0094   22141286.0644
       236.000         195.000
 124281597.84948  96842781.27648  23650019.3944   23650022.2144   23650019.5034
       229.000         183.000
 107725007.08048  83941558.55648  20499391.4344   20499392.6754   20499391.0964
       252.000         236.000
 124880917.08148  97309793.90148  23764057.5434   23764059.8424   23764057.3244
       218.000         165.000
 128579954.50148 100192168.64048  24467955.2704   24467956.3544   24467955.7054
       216.000         163.000
 120946571.32048  94244066.81648  23015378.1624   23015380.8174   23015379.3474
       231.000         184.000
 09  1 13  0  5 30.0000000  0  9G28G 8G26G 9G27G15G18G17G10
 117632528.52948  91661702.63248  22384732.3744   22384734.0054   22384732.5774
       240.000         201.000
 128063321.55948  99789588.31048  24369648.5564   24369652.5834   24369648.0454
       212.000         161.000
 106403575.27848  82911853.14848  20247946.4424   20247948.5744   20247946.3974
       252.000         227.000
 116271325.02948  90601013.53648  22125713.7424   22125716.4784   22125714.0184
       235.000         197.000
 124351957.28648  96897606.78848  23663408.5444   23663411.4464   23663409.2114
       227.000         181.000
 107698754.64348  83921102.11348  20494395.5904   20494397.1014   20494395.4114
       251.000         237.000
 124796425.09748  97243955.97948  23747979.4844   23747980.9834   23747979.1094
       222.000         167.000
 128510701.17848 100138205.01448  24454775.3594   24454777.6624   24454775.5624
       215.000         166.000
 121050878.89148  94325345.42748  23035227.0224   23035230.3774   23035227.5334
       230.000         185.000
 09  1 13  0  6  0.0000000  0  9G28G 8G26G 9G27G15G18G17G10
 117689407.75648  91706024.10148  22395556.1064   22395557.7414   22395557.0604
       238.000         201.000
 128153881.36148  99860154.34148  24386881.9444   24386885.6704   24386882.4264
       213.000         163.000
 106429615.98248  82932144.60748  20252901.7454   20252903.8204   20252901.6464
       251.000         227.000
 116189736.70148  90537438.23448  22110187.7414   22110190.3384   22110187.4244
       235.000         196.000
 124422340.52248  96952450.85448  23676801.3774   23676804.8474   23676801.2264
       227.000         181.000
 107672847.62848  83900914.82548  20489465.8004   20489467.1814   20489465.5394
       251.000         237.000
 124712267.78748  97178378.85248  23731965.5464   23731966.5504   23731966.9164
       221.000         169.000
 128441663.39548 100084409.33048  24441638.8034   24441640.1364   24441638.1204
       215.000         168.000
 121155375.27948  94406771.17548  23055112.1484   23055115.3714   23055112.9404
       229.000         185.000
 09  1 13  0  6 30.0000000  0  9G28G 8G26G 9G27G15G18G17G10
 117746699.62048  91750667.11348  22406458.3214   22406460.4944   22406458.7804
       240.000         201.000
 128244457.23048  99930732.91548  24404117.5724   24404121.6374   24404117.5724
       213.000         163.000
 106456050.89448  82952743.23648  20257932.1614   20257934.2114   20257932.1444
       252.000         227.000
 116108390.93948  90474051.93948  22094708.0604   22094710.5534   22094707.8734
       236.000         197.000
 124492746.70248  97007312.79848  23690199.6944   23690202.9794   23690200.1744
       226.000         181.000
 107647287.21248  83880997.61848  20484601.7854   20484603.2624   20484601.4974
       252.000         237.000
 124628447.71848  97113064.53048  23716014.7224   23716016.4164   23716014.0894
       221.000         169.000
 128372844.19448 100030783.96648  24428542.8214   24428544.8274   24428542.6184
       216.000         168.000
 121260057.50448  94488341.72148  23075033.0434   23075035.8564   23075033.7994
       230.000         186.000
 09  1 13  0  7  0.0000000  0  9G28G 8G26G 9G27G15G18G17G10
 117804401.96648  91795629.98048  22417438.9694   22417441.2454   22417439.2264
       238.000         202.000
 128335048.22048 100001323.28248  24421357.0174   24421360.6844   24421357.5704
       215.000         165.000
 106482880.01548  82973649.02948  20263037.4314   20263039.7094   20263037.2274
       251.000         227.000
 116027288.59648  90410855.30548  22079274.9164   22079277.7104   22079274.8764
       236.000         197.000
 124563175.13948  97062192.07848  23703601.5064   23703604.8654   23703601.4964
       227.000         181.000
 107622074.59848  83861351.41648  20479804.0794   20479805.3754   20479803.9614
       252.000         237.000
 124544966.98748  97048014.58848  23700128.5404   23700130.6144   23700128.5444
       221.000         170.000
 128304246.13348  99977330.92048  24415489.5434   24415491.0844   24415489.8594
       215.000         172.000
 121364922.84748  94570054.96248  23094988.1254   23094991.0654   23094989.3724
       229.000         185.000
 09  1 13  0  7 30.0000000  0  9G28G 8G26G 9G27G15G18G17G10
 117862511.78948  91840910.36448  22428496.6954   22428498.8124   22428497.0134
       239.000         200.000
 128425652.43148 100071923.92948  24438598.1894   24438601.9904   24438598.9464
       217.000         164.000
 106510102.57248  82994861.40948  20268217.7754   20268220.1034   20268217.8324
       251.000         227.000
 115946429.37648  90347848.14348  22063887.7594   22063890.7044   22063888.5724
       238.000         197.000
 124633624.44148  97117087.63148  23717007.1624   23717011.0834   23717007.2124
       224.000         182.000
 107597210.19048  83841976.55448  20475072.6594   20475073.9524   20475072.4614
       253.000         238.000
 124461827.59348  96983230.63648  23684308.1874   23684309.3354   23684308.5034
       222.000         170.000
 128235871.34248  99924051.85548  24402477.8744   24402479.7074   24402477.3034
       216.000         170.000
 121469967.57748  94651907.98348  23114976.9484   23114980.5644   23114978.3414
       227.000         184.000
 09  1 13  0  8  0.0000000  0  9G28G 8G26G 9G27G15G18G17G10
 117921028.95248  91886508.14148  22439632.0444   22439633.5814   22439632.8684
       237.000         199.000
 128516270.78348 100142535.57148  24455842.3034   24455846.1064   24455843.1574
       215.000         165.000
 106537720.42748  83016381.80248  20273473.3254   20273475.6244   20273473.1974
       251.000         227.000
 115865815.43748  90285032.07748  22048547.6684   22048550.2524   22048548.1784
       236.000         198.000
 124704095.73748  97172000.31048  23730417.5264   23730421.4844   23730417.3954
       225.000         181.000
 107572697.28448  83822875.58148  20470408.1324   20470409.3034   20470408.0454
       252.000         238.000
 124379033.56948  96918715.78948  23668553.5864   23668554.2194   23668552.8054
       221.000         172.000
 128167723.69648  99870949.80448  24389509.8644   24389511.8144   24389509.6764
       218.000         171.000
 121575191.21548  94733900.42048  23135000.1404   23135003.7404   23135000.8854
       227.000         183.000
 09  1 13  0  8 30.0000000  0  9G28G 8G26G 9G27G15G18G17G10
 117979950.85048  91932421.30548  22450844.4144   22450845.9464   22450844.6004
       238.000         199.000
 128606901.72348 100213157.06848  24473089.2134   24473092.5544   24473088.8834
       217.000         165.000
 106565733.34348  83038210.04648  20278804.0024   20278806.2154   20278803.8484
       251.000         227.000
 115785446.97348  90222407.32648  22033253.9344   22033256.6854   22033254.5244
       238.000         199.000
 124774588.32248  97226929.57348  23743832.2324   23743835.4024   23743832.3244
       224.000         180.000
 107548536.65048  83804049.10948  20465810.3584   20465811.7154   20465810.0824
       252.000         238.000
 124296586.49948  96854471.35248  23652863.5464   23652865.4384   23652864.0544
       223.000         171.000
 128099807.02448  99818027.70848  24376586.1984   24376587.9264   24376586.1604
       221.000         173.000
 121680590.09348  94816029.41048  23155056.5624   23155060.6734   23155057.1444
       226.000         182.000
 09  1 13  0  9  0.0000000  0  9G28G 8G26G 9G27G15G18G17G10
 118039274.95448  91978647.88448  22462133.6254   22462135.3244   22462133.9574
       240.000         199.000
 128697544.19248 100283787.57048  24490337.4504   24490340.9094   24490337.9784
       217.000         165.000
 106594140.74648  83060345.66948  20284209.7224   20284211.8964   20284209.6604
       251.000         227.000
 115705324.18648  90159973.98648  22018007.2324   22018009.9014   22018007.3544
       239.000         200.000
 124845101.09748  97281874.57248  23757250.3314   23757253.6044   23757250.5574
       225.000         180.000
 107524728.95948  83785497.65948  20461279.8274   20461281.1524   20461279.6034
       252.000         238.000
 124214488.84348  96790499.14748  23637241.3834   23637243.1284   23637242.5784
       222.000         173.000
 128032123.11048  99765286.97648  24363706.5694   24363707.6524   24363707.1764
       219.000         173.000
 121786161.62748  94898292.94148  23175146.2174   23175150.0534   23175147.0034
       227.000         180.000
 09  1 13  0  9 30.0000000  0  9G28G 8G26G 9G27G15G18G17G10
 118098999.74748  92025186.68448  22473498.8314   22473500.9834   22473499.8984
       238.000         199.000
 128788197.61448 100354426.55148  24507589.3564   24507592.0944   24507590.4104
       222.000         167.000
 106622943.04148  83082789.01648  20289690.7104   20289692.8224   20289690.6234
       252.000         227.000
 115625448.06748  90097732.86548  22002807.3654   22002809.9164   22002807.5424
       237.000         200.000
 124915634.20448  97336835.40948  23770672.6514   23770675.8484   23770672.8274
       226.000         181.000
 107501275.97648  83767222.60448  20456816.9134   20456818.1874   20456816.7254
       252.000         238.000
 124132743.25948  96726801.29048  23621684.5314   23621686.6704   23621685.6084
       222.000         170.000
 127964675.28148  99712730.24148  24350871.3234   24350873.0814   24350870.6174
       220.000         174.000
 121891903.03548  94980688.83048  23195268.0774   23195272.3564   23195269.2924
       227.000         180.000
 09  1 13  0 10  0.0000000  0  9G28G 8G26G 9G27G15G18G17G10
 118159123.36248  92072036.26148  22484939.8534   22484941.8534   22484940.1474
       237.000         198.000
 128878861.13348 100425073.43448  24524841.8964   24524844.7284   24524843.1674
       216.000         165.000
 106652140.78048  83105540.49148  20295246.8234   20295249.0854   20295246.7624
       252.000         227.000
 115545819.61948  90035684.74348  21987654.4384   21987657.0404   21987654.7014
       237.000         199.000
 124986187.25948  97391811.79848  23784098.5664   23784101.5144   23784098.7314
       223.000         180.000
 107478179.20148  83749225.11948  20452421.7874   20452423.1264   20452421.6214
       253.000         238.000
 124051352.41048  96663379.82048  23606197.4734   23606198.1194   23606198.0924
       226.000         172.000
 127897466.41148  99660359.71348  24338081.5174   24338083.5814   24338080.8704
       218.000         171.000
 121997812.23548  95063215.47948  23215422.1554   23215426.1134   23215422.9134
       229.000         180.000
 09  1 13  0 10 30.0000000  0  9G28G 8G26G 9G27G15G18G17G10
 118219645.13348  92119196.07748  22496456.8634   22496457.9564   22496456.8324
       237.000         197.000
 128969535.78148 100495728.96548  24542096.0564   24542099.6914   24542096.1864
       218.000         165.000
 106681735.18048  83128601.05548  20300878.6224   20300880.7164   20300878.5754
       252.000         227.000
 115466440.78848  89973831.10948  21972549.0334   21972551.5974   21972549.1024
       237.000         200.000
 125056761.28248  97446804.53248  23797528.2004   23797531.3804   23797528.6964
       223.000         178.000
 107455441.15948  83731507.15748  20448094.8684   20448096.1714   20448094.5934
       252.000         238.000
 123970320.11448  96600237.75648  23590777.7144   23590778.1864   23590778.6524
       223.000         172.000
 127830500.77848  99608178.70848  24325338.5724   24325340.3394   24325338.9164
       218.000         172.000
 122103887.64048  95145871.63548  23235607.7204   23235611.4784   23235608.9204
       226.000         179.000
 09  1 13  0 11  0.0000000  0  9G28G 8G26G 9G27G15G18G17G10
 118280561.28048  92166663.19448  22508048.7494   22508049.1414   22508048.5574
       239.000         196.000
 129060218.46248 100566390.77548  24559352.2714   24559356.3894   24559352.9264
       218.000         164.000
 106711724.58848  83151969.41748  20306585.4104   20306587.4804   20306585.3674
       252.000         227.000
 115387310.38748  89912171.07348  21957490.9124   21957494.1984   21957491.0194
       237.000         201.000
 125127353.57348  97501811.49448  23810961.2224   23810964.6184   23810961.3614
       224.000         178.000
 107433061.44748  83714068.41748  20443836.1104   20443837.5164   20443835.8134
       252.000         238.000
 123889647.00348  96537375.60248  23575425.6124   23575427.1474   23575426.1694
       223.000         173.000
 127763779.35248  99556187.94748  24312641.6724   24312643.5844   24312641.2494
       218.000         167.000
 122210125.01448  95228653.99748  23255823.6374   23255827.3734   23255824.6084
       224.000         178.000
 09  1 13  0 11 30.0000000  0  9G28G 8G26G 9G27G15G18G17G10
 118341869.68948  92214435.97848  22519715.6564   22519715.9964   22519716.1314
       239.000         198.000
 129150908.52948 100637058.34348  24576609.7884   24576613.7844   24576610.4634
       219.000         164.000
 106742109.10048  83175645.65848  20312367.3724   20312369.4694   20312367.4264
       252.000         227.000
 115308429.13348  89850705.17548  21942480.4394   21942483.3874   21942481.2384
       237.000         201.000
 125197963.97448  97556832.56248  23824398.0994   23824401.5664   23824398.8874
       224.000         178.000
 107411041.57248  83696910.07248  20439645.8594   20439647.1924   20439645.6304
       252.000         238.000
 123809335.68548  96474795.35348  23560143.3754   23560144.9194   23560143.3624
       225.000         175.000
 127697305.28048  99504390.00648  24299991.8784   24299993.8914   24299992.3484
       213.000         169.000
 122316521.96848  95311560.70348  23276070.4614   23276074.2554   23276070.3084
       226.000         180.000
 09  1 13  0 12  0.0000000  0 10G28G 8G26G 9G27G15G18G17G12G10
 118403568.53748  92262512.99248  22531456.5234   22531457.8144   22531457.9924
       237.000         199.000
 129241605.29848 100707731.12448  24593868.8944   24593872.7664   24593869.4974
       212.000         160.000
 106772888.98948  83199629.97648  20318224.5004   20318226.6754   20318224.4414
       251.000         227.000
 115229797.65348  89789433.89748  21927517.6614   21927520.2334   21927517.5334
       239.000         201.000
 125268592.16548  97611867.50548  23837838.6734   23837841.6364   23837838.8284
       225.000         177.000
 107389382.85648  83680033.14748  20435524.2804   20435525.7194   20435524.0824
       252.000         238.000
 123729388.56548  96412498.89548  23544929.8134   23544930.8224   23544930.7284
       224.000         173.000
 127631081.70248  99452787.21248  24287389.5594   24287392.7364   24287388.1854
       219.000         172.000
 131533842.40458 102493888.68458  25030069.3605   25030073.2315   25030070.2705
       209.000         151.000
 122423075.40548  95394589.33948  23296347.4784   23296351.1364   23296348.1124
       227.000         181.000
 09  1 13  0 12 30.0000000  0 10G28G 8G26G 9G27G15G18G17G12G10
 118465655.60148  92310892.53048  22543271.0484   22543273.8054   22543271.4654
       237.000         200.000
 129332307.92448 100778408.49048  24611128.5974   24611132.2604   24611128.3214
       213.000         159.000
 106804064.08048  83223922.24548  20324156.9304   20324159.2374   20324156.8174
       252.000         227.000
 115151416.73148  89728357.86248  21912602.0414   21912604.4454   21912602.5574
       239.000         200.000
 125339237.69648  97666915.94948  23851281.8254   23851284.8224   23851282.3074
       224.000         176.000
 107368086.43148  83663438.53048  20431471.7364   20431473.1574   20431471.4834
       253.000         238.000
 123649808.05548  96350488.11848  23529785.8284   23529787.6914   23529786.3404
       226.000         176.000
 127565110.82548  99401381.32948  24274836.3784   24274837.8684   24274836.0954
       217.000         168.000
 131418611.04848 102404097.90148  25008140.9834   25008145.3044   25008142.5774
       208.000         153.000
 122529782.69248  95477737.86248  23316653.1514   23316656.4294   23316654.3554
       228.000         180.000
 09  1 13  0 13  0.0000000  0 10G28G 8G26G 9G27G15G18G17G12G10
 118528129.68648  92359573.64748  22555159.5234   22555162.5384   22555159.8684
       238.000         200.000
 129423016.05648 100849090.11248  24628389.8624   24628393.3974   24628390.5044
       215.000         160.000
 106835635.44848  83248523.30348  20330164.8414   20330167.1444   20330164.8234
       252.000         227.000
 115073287.59348  89667478.02548  21897734.7584   21897736.9864   21897734.7464
       240.000         201.000
 125409901.19148  97721978.39348  23864728.4514   23864732.0134   23864729.0174
       222.000         178.000
 107347154.53248  83647127.95648  20427488.6094   20427489.9224   20427488.4214
       252.000         238.000
 123570597.54248  96288765.63648  23514713.0164   23514714.6854   23514712.1404
       224.000         177.000
 127499396.87148  99350175.63848  24262331.1294   24262333.5124   24262330.7434
       215.000         165.000
 131303418.10848 102314337.00148  24986221.3454   24986224.9714   24986221.0324
       214.000         157.000
 122636642.35348  95561005.12148  23336988.0794   23336991.4174   23336988.6464
       227.000         180.000
 09  1 13  0 13 30.0000000  0 10G28G 8G26G 9G27G15G18G17G12G10
 118590988.30448  92408554.39548  22567121.2904   22567124.4054   22567121.8794
       237.000         200.000
 129513728.96648 100919775.49248  24645652.7224   24645655.3004   24645653.7804
       214.000         161.000
 106867602.29448  83273432.52648  20336247.8104   20336250.2114   20336247.7514
       252.000         227.000
 114995410.45348  89606794.55048  21882915.0894   21882917.4684   21882915.3704
       238.000         200.000
 125480581.67648  97777054.07248  23878178.6504   23878181.7954   23878179.2464
       221.000         176.000
 107326587.76348  83631101.89548  20423574.7924   20423576.2094   20423574.5044
       253.000         238.000
 123491758.84048  96227332.87748  23499710.4324   23499712.0204   23499709.7094
       224.000         177.000
 127433942.26148  99299172.05148  24249875.5404   24249876.8744   24249875.5564
       215.000         165.000
 131188265.44448 102224607.51248  24964310.0274   24964311.5644   24964310.1824
       210.000         155.000
 122743651.19948  95644388.62148  23357350.7764   23357354.6524   23357351.3824
       227.000         180.000
 09  1 13  0 14  0.0000000  0 10G28G 8G26G 9G27G15G18G17G12G10
 118654229.36848  92457833.14948  22579155.8534   22579158.5574   22579155.9704
       238.000         199.000
 129604445.85548 100990463.95148  24662915.6144   24662919.1554   24662916.4064
       213.000         163.000
 106899965.29948  83298650.44348  20342406.2154   20342408.6054   20342406.2364
       251.000         226.000
 114917786.09748  89546308.04648  21868143.5714   21868145.7754   21868143.4524
       238.000         199.000
 125551279.06948  97832142.92748  23891631.6234   23891635.0774   23891631.7234
       225.000         176.000
 107306387.88548  83615361.72748  20419730.9424   20419732.2294   20419730.7614
       253.000         238.000
 123413294.85648  96166192.11748  23484779.5304   23484780.8534   23484778.5544
       227.000         177.000
 127368749.96348  99248372.85948  24237469.9074   24237472.2184   24237469.4254
       217.000         165.000
 131073156.05048 102134911.73848  24942405.9564   24942406.6464   24942404.2864
       210.000         153.000
 122850806.61548  95727886.35948  23377741.9734   23377745.0374   23377742.8874
       227.000         178.000
 09  1 13  0 14 30.0000000  0 10G28G 8G26G 9G27G15G18G17G12G10
 118717849.91948  92507407.60448  22591262.3204   22591264.9424   22591262.7944
       238.000         197.000
 129695164.85548 101061154.04948  24680178.7564   24680182.0234   24680177.9824
       214.000         163.000
 106932723.49348  83324176.30448  20348639.8654   20348642.1934   20348639.8024
       252.000         226.000
 114840414.35348  89486018.38848  21853420.0954   21853422.3854   21853420.4104
       237.000         201.000
 125621992.15548  97887244.01848  23905088.4134   23905091.4754   23905088.4744
       226.000         175.000
 107286555.31648  83599907.77548  20415956.9344   20415958.1934   20415956.6194
       253.000         239.000
 123335206.97348  96105344.41048  23469920.0714   23469921.4404   23469920.8994
       226.000         179.000
 127303821.93048  99197779.58748  24225114.4974   24225116.1574   24225114.4234
       215.000         165.000
 130958090.67148 102045250.36248  24920508.4864   24920509.8364   24920508.6054
       211.000         153.000
 122958105.75348  95811496.05848  23398159.9284   23398164.1514   23398161.2254
       224.000         178.000
 09  1 13  0 15  0.0000000  0 10G28G 8G26G 9G27G15G18G17G12G10
 118781848.61748  92557276.72848  22603440.8864   22603443.0094   22603441.5514
       238.000         194.000
 129785886.19948 101131845.96648  24697442.1934   24697445.5164   24697442.0234
       218.000         162.000
 106965877.28748  83350010.42148  20354948.8234   20354951.0974   20354948.8014
       251.000         226.000
 114763296.70648  89425926.72748  21838745.3054   21838748.0844   21838745.4374
       238.000         202.000
 125692720.83648  97942357.26348  23918547.4624   23918550.7014   23918548.2884
       225.000         174.000
 107267091.28348  83584740.99448  20412253.0914   20412254.3674   20412252.8744
       253.000         239.000
 123257498.04448  96044792.00248  23455132.0664   23455133.8294   23455132.7024
       226.000         177.000
 127239161.43648  99147394.82648  24212809.7634   24212812.4034   24212809.6114
       217.000         164.000
 130843072.71248 101955625.87548  24898622.9654   24898622.6144   24898622.8054
       211.000         151.000
 123065545.57548  95895215.37448  23418605.1844   23418609.1124   23418606.0794
       225.000         177.000
 09  1 13  0 15 30.0000000  0 10G28G 8G26G 9G27G15G18G17G12G10
 118846223.27948  92607438.80248  22615690.9084   22615692.2474   22615691.6894
       239.000         194.000
 129876608.51548 101202538.67948  24714706.7984   24714709.4604   24714707.7604
       215.000         158.000
 106999426.52448  83376152.67648  20361333.2364   20361335.3744   20361333.1444
       252.000         226.000
 114686433.21748  89366033.10148  21824118.7844   21824121.4104   21824118.8924
       238.000         202.000
 125763464.51648  97997482.18348  23932009.3884   23932012.6124   23932009.2274
       221.000         173.000
 107247997.53648  83569862.74448  20408619.6874   20408621.0114   20408619.4784
       253.000         239.000
 123180170.36448  95984536.66148  23440417.1804   23440418.2104   23440419.3064
       225.000         176.000
 127174771.27648  99097220.63748  24200556.4474   24200559.0584   24200556.4454
       217.000         167.000
 130728103.88348 101866039.76348  24876744.6694   24876744.2724   24876745.2974
       210.000         149.000
 123173123.56248  95979042.38048  23439077.0294   23439079.8564   23439078.1954
       226.000         177.000
 09  1 13  0 16  0.0000000  0 10G28G 8G26G 9G27G15G18G17G12G10
 118910972.25048  92657892.52748  22628012.1144   22628012.7454   22628013.2614
       237.000         191.000
 129967332.07448 101273232.36548  24731970.3104   24731974.1294   24731970.7314
       215.000         159.000
 107033371.87748  83402603.59948  20367792.7344   20367795.1194   20367792.5994
       251.000         226.000
 114609825.24148  89306338.57948  21809540.7164   21809543.4974   21809540.5294
       239.000         203.000
 125834223.42948  98052619.00248  23945474.3434   23945477.7554   23945474.4284
       222.000         174.000
 107229276.04148  83555274.56348  20405057.0584   20405058.3704   20405056.9084
       253.000         239.000
 123103226.94648  95924580.75348  23425775.1964   23425776.6134   23425775.6794
       226.000         178.000
 127110655.05748  99047259.97248  24188356.9864   24188358.0704   24188356.5414
       220.000         169.000
 130613187.33348 101776494.39748  24854876.2104   24854877.1084   24854877.8744
       210.000         149.000
 123280837.96648  96062975.66948  23459574.1674   23459577.6384   23459575.2814
       226.000         177.000
 09  1 13  0 16 30.0000000  0 10G28G 8G26G 9G27G15G18G17G12G10
 118976092.96748  92708635.92948  22640404.2314   22640403.6064   22640404.8234
       236.000         189.000
 130058055.47948 101343925.92048  24749235.0544   24749238.4814   24749235.7854
       220.000         165.000
 107067713.00148  83429362.90848  20374327.6444   20374330.1394   20374327.5484
       252.000         226.000
 114533473.10348  89246843.40848  21795011.3914   21795013.9524   21795011.9454
       240.000         203.000
 125904996.94148  98107767.18748  23958942.4564   23958945.2474   23958943.2754
       223.000         176.000
 107210927.47048  83540976.97048  20401565.4324   20401566.7814   20401565.2804
       252.000         239.000
 123026669.76648  95864925.82048  23411207.0504   23411208.5874   23411208.6934
       226.000         177.000
 127046815.15248  98997514.57348  24176207.9224   24176210.1014   24176208.0514
       218.000         171.000
 130498324.76448 101686991.15948  24833018.4854   24833019.4874   24833018.4564
       208.000         152.000
 123388685.50148  96147012.70348  23480096.4514   23480100.0824   23480097.0904
       224.000         176.000
 09  1 13  0 17  0.0000000  0 10G28G 8G26G 9G27G15G18G17G12G10
 119041583.97048  92759667.87148  22652866.8004   22652865.9644   22652867.0484
       237.000         189.000
 130148778.90748 101414619.50248  24766498.7884   24766501.8574   24766499.7534
       219.000         163.000
 107102450.43348  83456431.03048  20380938.1604   20380940.4014   20380938.2944
       252.000         226.000
 114457377.98448  89187548.51048  21780530.7054   21780533.5664   21780530.7904
       238.000         203.000
 125975785.55748  98162927.11848  23972412.9504   23972415.7114   23972413.1104
       223.000         174.000
 107192953.62648  83526971.37148  20398145.1504   20398146.4704   20398145.0334
       252.000         239.000
 122950502.05848  95805574.36248  23396712.2564   23396714.3004   23396713.3244
       226.000         179.000
 126983254.75948  98947987.02548  24164113.5434   24164115.1964   24164113.2754
       222.000         173.000
 130383519.34448 101597532.44148  24811171.1524   24811173.1864   24811170.4734
       203.000         152.000
 123496664.51048  96231152.17048  23500643.9364   23500647.9964   23500645.0394
       223.000         174.000
 09  1 13  0 17 30.0000000  0 10G28G 8G26G 9G27G15G18G17G12G10
 119107442.68348  92810986.33548  22665399.0314   22665398.8684   22665399.6284
       234.000         189.000
 130239500.96148 101485311.99048  24783762.7214   24783766.2664   24783762.8674
       218.000         163.000
 107137583.76148  83483807.64248  20387623.6774   20387625.8624   20387623.5744
       251.000         226.000
 114381539.76648  89128453.79148  21766099.3374   21766101.8144   21766099.1354
       239.000         202.000
 126046588.39048  98218098.13348  23985886.2044   23985888.5424   23985886.7904
       223.000         173.000
 107175355.43148  83513258.48848  20394796.3634   20394797.6044   20394796.2014
       253.000         239.000
 122874725.42848  95746527.61448  23382293.3054   23382294.6034   23382293.8724
       228.000         179.000
 126919976.44048  98898679.23048  24152071.4314   24152073.1594   24152072.5184
       219.000         171.000
 130268772.28348 101508119.25248  24789335.0684   24789337.7514   24789333.7574
       208.000         152.000
 123604771.54348  96315391.40948  23521216.8684   23521219.8394   23521217.7264
       224.000         173.000
 09  1 13  0 18  0.0000000  0 10G28G 8G26G 9G27G15G18G17G12G10
 119173666.92048  92862589.63348  22678001.0634   22678001.8584   22678001.1334
       237.000         191.000
 130330220.57348 101556002.58948  24801026.2394   24801029.2084   24801026.1944
       218.000         160.000
 107173112.74648  83511492.55948  20394384.4914   20394386.8124   20394384.3264
       251.000         226.000
 114305959.10848  89069559.77748  21751716.7804   21751719.2584   21751717.2294
       239.000         202.000
 126117405.06548  98273279.95548  23999362.3084   23999364.6874   23999362.7954
       223.000         172.000
 107158133.84648  83499839.07148  20391519.1184   20391520.4654   20391518.8974
       253.000         239.000
 122799342.32748  95687787.53248  23367947.7784   23367949.4424   23367949.1594
       226.000         179.000
 126856983.14748  98849593.54148  24140084.4574   24140085.8754   24140084.1374
       221.000         174.000
 130154085.92348 101418753.35148  24767511.7734   24767514.5744   24767510.8824
       210.000         157.000
 123713004.00048  96399728.39348  23541812.7924   23541815.2404   23541813.4894
       224.000         172.000
 09  1 13  0 18 30.0000000  0 10G28G 8G26G 9G27G15G18G17G12G10
 119240255.01348  92914476.45448  22690672.3994   22690674.0324   22690672.7704
       236.000         192.000
 130420937.74848 101626691.28548  24818288.5314   24818291.5614   24818288.8284
       219.000         162.000
 107209037.78448  83539486.09548  20401220.8944   20401223.2234   20401220.8324
       252.000         226.000
 114230637.22348  89010867.40348  21737383.5194   21737386.1064   21737383.2694
       238.000         203.000
 126188235.53648  98328472.51748  24012840.8484   24012843.3754   24012840.7234
       223.000         173.000
 107141290.70448  83486714.54248  20388314.0094   20388315.2584   20388313.7734
       253.000         239.000
 122724355.53848  95629356.26948  23353678.5784   23353679.6254   23353678.7774
       228.000         177.000
 126794277.85348  98800732.28548  24128151.9644   24128153.8434   24128152.1004
       220.000         173.000
 130039463.33748 101329437.16848  24745700.0434   24745702.1744   24745700.0434
       208.000         155.000
 123821359.78748  96484161.44448  23562432.0184   23562435.3654   23562431.9684
       224.000         174.000
 09  1 13  0 19  0.0000000  0 10G28G 8G26G 9G27G15G18G17G12G10
 119307204.87848  92966645.18848  22703412.5564   22703414.7594   22703412.7954
       235.000         192.000
 130511651.97248 101697377.65648  24835551.2984   24835554.2574   24835552.1834
       221.000         159.000
 107245359.06948  83567788.39248  20408132.5654   20408134.9744   20408132.5254
       251.000         226.000
 114155574.86348  88952377.26748  21723099.5544   21723102.0564   21723099.8054
       238.000         202.000
 126259079.52548  98383675.62448  24026321.8584   24026325.0764   24026322.3744
       225.000         173.000
 107124827.33048  83473885.93748  20385181.1394   20385182.3784   20385180.8794
       253.000         239.000
 122649767.31648  95571235.56248  23339485.0284   23339485.6514   23339484.7414
       228.000         177.000
 126731863.50348  98752097.72648  24116274.8774   24116276.6684   24116274.7434
       217.000         172.000
 129924906.66648 101240172.35548  24723900.6874   24723902.3444   24723899.1034
       209.000         157.000
 123929836.00348  96568688.37848  23583074.5184   23583077.6704   23583074.9534
       224.000         174.000
 09  1 13  0 19 30.0000000  0 10G28G 8G26G 9G27G15G18G17G12G10
 119374511.55748  93019091.96048  22716220.5324   22716223.0064   22716220.7854
       238.000         194.000
 130602359.54348 101768058.89248  24852812.5804   24852814.8714   24852813.0284
       221.000         163.000
 107282073.74648  83596397.22248  20415119.1774   20415121.5724   20415119.0534
       251.000         226.000
 114080769.71348  88894087.54748  21708864.5054   21708867.2504   21708864.8304
       239.000         203.000
 126329933.90948  98438886.81648  24039805.2314   24039808.1524   24039806.0484
       222.000         174.000
 107108742.16348  83461352.03648  20382120.2124   20382121.4744   20382119.8284
       253.000         239.000
 122575577.64548  95513425.43748  23325366.8194   23325368.4724   23325367.8014
       227.000         179.000
 126669740.20948  98703689.98848  24104452.9974   24104454.1924   24104453.5354
       217.000         170.000
 129810415.46748 101150958.57748  24702113.0004   24702115.0214   24702113.4764
       211.000         155.000
 124038427.48348  96653305.11248  23603738.4874   23603741.7434   23603739.3264
       224.000         173.000
 09  1 13  0 20  0.0000000  0 10G28G 8G26G 9G27G15G18G17G12G10
 119442176.24148  93071817.68948  22729096.7724   22729099.4304   22729097.5814
       237.000         194.000
 130693063.14248 101838737.03248  24870072.4994   24870075.9824   24870073.2984
       218.000         162.000
 107319184.98848  83625315.07348  20422181.1804   20422183.5544   20422181.1714
       251.000         225.000
 114006225.84248  88836001.41648  21694679.4964   21694682.0064   21694679.5844
       239.000         203.000
 126400801.75548  98494108.51048  24053290.3624   24053294.0464   24053290.1254
       220.000         172.000
 107093039.61548  83449116.28048  20379132.1054   20379133.4824   20379131.9574
       253.000         239.000
 122501792.07348  95455930.18548  23311326.0914   23311327.1664   23311325.6724
       228.000         178.000
 126607914.04848  98655513.76148  24092687.6114   24092689.6154   24092687.2664
       216.000         171.000
 129695995.28148 101061800.16148  24680338.9334   24680341.2584   24680340.5344
       214.000         155.000
 124147134.58448  96738011.93748  23624425.3494   23624428.0884   23624426.3104
       226.000         174.000
 09  1 13  0 20 30.0000000  0 10G28G 8G26G 9G27G15G18G17G12G10
 119510196.69548  93124820.64048  22742040.7334   22742043.3394   22742041.2524
       237.000         194.000
 130783761.79948 101909411.30748  24887332.1814   24887335.5434   24887332.4654
       216.000         164.000
 107356692.60448  83654541.78748  20429318.5444   20429321.0104   20429318.5454
       251.000         225.000
 113931943.27348  88778118.89148  21680543.7534   21680546.4024   21680543.8584
       238.000         203.000
 126471682.65848  98549340.35348  24066778.7794   24066782.6334   24066778.5514
       222.000         172.000
 107077720.93148  83437179.64048  20376217.0894   20376218.5074   20376216.8864
       253.000         239.000
 122428412.52448  95398751.31348  23297362.3554   23297363.8294   23297362.5134
       229.000         181.000
 126546387.43948  98607570.96848  24080979.3444   24080981.4884   24080979.0594
       218.000         170.000
 129581648.01248 100972698.49048  24658580.4754   24658580.4664   24658581.0534
       214.000         160.000
 124255954.81248  96822806.90748  23645132.8014   23645135.9634   23645133.2684
       224.000         175.000
 09  1 13  0 21  0.0000000  0 10G28G 8G26G 9G27G15G18G17G12G10
 119578570.74748  93178099.13048  22755051.9394   22755054.5694   22755052.7664
       235.000         195.000
 130874455.17548 101980081.45248  24904590.6094   24904593.9214   24904591.5364
       219.000         167.000
 107394596.36248  83684077.17848  20436531.4504   20436534.0314   20436531.3804
       251.000         225.000
 113857922.68948  88720440.51348  21666458.2474   21666460.6724   21666458.2234
       239.000         204.000
 126542576.17848  98604582.03848  24080269.3714   24080272.9704   24080269.4044
       223.000         170.000
 107062787.43048  83425543.13948  20373375.3584   20373376.6684   20373375.1744
       252.000         239.000
 122355441.48348  95341890.75648  23283476.5674   23283478.1974   23283477.3214
       229.000         182.000
 126485163.22748  98559863.78248  24069329.1424   24069330.9784   24069328.6794
       216.000         171.000
 129467376.04448 100883655.52048  24636834.9144   24636835.4214   24636834.2864
       209.000         159.000
 124364885.32548  96907687.80348  23665861.6824   23665864.9024   23665862.4744
       224.000         174.000
 09  1 13  0 21 30.0000000  0 10G28G 8G26G 9G27G15G18G17G12G10
 119647295.29148  93231650.72848  22768129.7344   22768132.5924   22768130.2604
       237.000         195.000
 130965141.73048 102050746.32148  24921847.4104   24921851.2294   24921848.5144
       218.000         163.000
 107432895.54648  83713920.69348  20443819.5624   20443821.9834   20443819.4524
       251.000         225.000
 113784164.40448  88662966.53648  21652422.5094   21652424.8964   21652422.6294
       240.000         203.000
 126613481.58948  98659832.99148  24093762.6324   24093765.8504   24093763.2544
       221.000         170.000
 107048239.36148  83414206.97348  20370606.9874   20370608.2414   20370606.5584
       254.000         240.000
 122282880.60648  95285349.80648  23269668.5074   23269670.2914   23269668.3664
       230.000         183.000
 126424243.40048  98512393.80148  24057736.6664   24057738.1434   24057736.2214
       213.000         168.000
 129353181.37348 100794672.77248  24615103.3264   24615104.5684   24615101.9014
       211.000         157.000
 124473923.21348  96992652.38248  23686611.1444   23686614.0774   23686612.5324
       223.000         172.000
 09  1 13  0 22  0.0000000  0 10G28G 8G26G 9G27G15G18G17G12G10
 119716368.28848  93285473.85448  22781274.1324   22781276.5514   22781274.9664
       237.000         194.000
 131055820.73548 102121405.26248  24939103.4264   24939106.3144   24939104.1134
       220.000         168.000
 107471590.21148  83744072.37448  20451182.7934   20451185.2924   20451182.7174
       250.000         225.000
 113710668.73548  88605697.19948  21638436.4804   21638439.0324   21638436.7514
       237.000         203.000
 126684398.43048  98715092.85048  24107257.8384   24107261.1024   24107258.1654
       224.000         170.000
 107034078.06348  83403172.19448  20367912.1394   20367913.4714   20367912.0104
       253.000         240.000
 122210732.08548  95229130.17448  23255939.7694   23255940.5424   23255940.8394
       227.000         180.000
 126363630.97648  98465163.34648  24046201.3084   24046204.3414   24046200.4534
       216.000         171.000
 129239065.65548 100705751.52348  24593388.0504   24593388.6554   24593386.9754
       214.000         160.000
 124583065.40248  97077698.23248  23707379.5774   23707383.2584   23707380.6204
       220.000         170.000
 09  1 13  0 22 30.0000000  0 10G28G 8G26G 9G27G15G18G17G12G10
 119785787.49748  93339566.74148  22794484.3184   22794486.5404   22794485.2084
       235.000         195.000
 131146491.36648 102192057.67248  24956356.8884   24956360.5774   24956357.7634
       221.000         172.000
 107510680.04448  83774531.97648  20458621.5404   20458624.0324   20458621.3264
       251.000         225.000
 113637436.15348  88548632.85848  21624500.9574   21624503.3044   21624500.9254
       239.000         204.000
 126755326.30748  98770361.31748  24120755.0274   24120758.1734   24120756.1264
       221.000         169.000
 107020304.61748  83392439.63248  20365291.2304   20365292.5284   20365290.9204
       254.000         240.000
 122138998.17148  95173233.63348  23242288.3844   23242290.0494   23242289.5734
       225.000         178.000
 126303328.81848  98418174.68848  24034727.4584   24034729.0714   24034727.2704
       217.000         170.000
 129125031.47548 100616893.79548  24571688.0994   24571688.9164   24571688.5884
       213.000         160.000
 124692309.59648  97162823.55548  23728167.8814   23728172.0534   23728167.5144
       221.000         171.000
 09  1 13  0 23  0.0000000  0 10G28G 8G26G 9G27G15G18G17G12G10
 119855550.82848  93393927.78348  22807759.6994   22807761.7604   22807760.0834
       235.000         193.000
 131237153.27348 102262703.31548  24973609.1804   24973613.3874   24973609.8824
       217.000         164.000
 107550165.07448  83805299.52648  20466135.2664   20466137.7184   20466135.2054
       251.000         225.000
 113564467.38048  88491774.07048  21610615.6714   21610617.7934   21610615.7924
       240.000         204.000
 126826265.04148  98825638.23748  24134254.0614   24134257.0584   24134254.2404
       221.000         169.000
 107006920.33148  83382010.31748  20362744.2114   20362745.5784   20362744.0594
       253.000         240.000
 122067681.19548  95117661.95848  23228717.0314   23228718.3624   23228717.3754
       228.000         178.000
 126243339.64648  98371429.88248  24023312.0014   24023313.6434   24023311.7444
       219.000         173.000
 129011081.27648 100528101.54048  24550005.0764   24550005.4194   24550004.8644
       217.000         165.000
 124801653.00148  97248026.21548  23748975.5404   23748978.8734   23748976.8624
       222.000         168.000
 09  1 13  0 23 30.0000000  0 10G28G 8G26G 9G27G15G18G17G12G10
 119925656.15048  93448555.30248  22821099.7934   22821101.8574   22821100.3824
       233.000         192.000
 131327805.93448 102333341.71548  24990860.0084   24990863.4164   24990860.8164
       213.000         152.000
 107590045.10748  83836374.87348  20473724.0324   20473726.5284   20473723.9194
       251.000         225.000
 113491763.20748  88435121.47448  21596780.1694   21596782.7354   21596780.0354
       238.000         204.000
 126897214.46348  98880923.48048  24147755.1394   24147758.3904   24147755.5594
       219.000         169.000
 106993926.43548  83371885.19948  20360271.5474   20360272.8934   20360271.3414
       254.000         240.000
 121996783.70548  95062417.16748  23215225.8724   23215227.1034   23215227.8274
       226.000         178.000
 126183666.13848  98324931.03448  24011956.4004   24011958.5604   24011956.2994
       216.000         171.000
 128897216.94248 100439376.18448  24528337.0004   24528338.6704   24528336.7064
       219.000         169.000
 124911093.13848  97333304.22848  23769801.2614   23769804.9754   23769802.0204
       222.000         170.000
 09  1 13  0 24  0.0000000  0 10G28G 8G26G 9G27G15G18G17G12G10
 119996101.65548  93503447.90848  22834505.3144   22834507.0294   22834505.4614
       236.000         192.000
 131418448.57848 102403972.31648  25008108.4584   25008112.1004   25008109.1204
       201.000         140.000
 107630320.37648  83867758.19748  20481388.4074   20481390.6194   20481388.1934
       251.000         225.000
 113419324.37048  88378675.64048  21582995.5404   21582998.2934   21582995.6514
       239.000         205.000
 126968174.40548  98936216.91248  24161258.4954   24161261.3954   24161259.1674
       221.000         168.000
 106981324.18448  83362065.25848  20357873.4564   20357874.9494   20357873.3004
       252.000         240.000
 121926308.22348  95007501.20048  23201814.5164   23201815.9434   23201815.5394
       228.000         179.000
 126124311.24448  98278680.48648  24000661.4714   24000662.9424   24000660.6244
       219.000         172.000
 128783441.08448 100350719.73448  24506685.8184   24506687.7504   24506685.6604
       218.000         169.000
 125020627.56448  97418655.70948  23790645.2934   23790648.8814   23790646.4204
       224.000         170.000
 09  1 13  0 24 30.0000000  0 10G28G 8G26G 9G27G15G18G17G12G10
 120066884.47248  93558603.35248  22847975.0124   22847976.4224   22847975.8514
       233.000         191.000
 141509118.52658  92474633.61558  25025354.8585   25025360.4035   25025356.6055
       195.000         129.000
 107670990.02548  83899448.82248  20489127.4844   20489129.8894   20489127.4554
       251.000         225.000
 113347150.97348  88322436.63348  21569261.6164   21569263.9894   21569261.5254
       241.000         206.000
 127039144.26848  98991518.07948  24174764.2754   24174766.9794   24174764.6104
       219.000         168.000
 106969114.70348  83352551.36948  20355550.0414   20355551.6344   20355549.5624
       253.000         240.000
 121856256.36348  94952915.34748  23188483.9784   23188485.7124   23188484.7224
       229.000         179.000
 126065277.30948  98232680.03548  23989427.6384   23989429.3064   23989426.9294
       222.000         171.000
 128669755.70148 100262133.78548  24485052.4094   24485054.5294   24485051.7174
       219.000         169.000
 125130253.17448  97504078.25948  23811506.0974   23811509.4734   23811507.9794
       223.000         171.000
 09  1 13  0 25  0.0000000  0  9G28G26G 9G27G15G18G17G12G10
 120138003.06948  93614020.42948  22861508.2804   22861509.8234   22861508.5524
       233.000         191.000
 107712054.72348  83931447.27748  20496941.8514   20496944.3344   20496941.7654
       251.000         225.000
 113275244.15948  88266405.34648  21555578.3554   21555580.4334   21555578.5644
       239.000         205.000
 127110124.51348  99046827.34848  24188270.7474   24188273.8984   24188270.3664
       219.000         166.000
 106957299.54948  83343344.75048  20353301.8004   20353303.1374   20353301.5734
       254.000         240.000
 121786630.77348  94898661.60048  23175235.3134   23175236.2564   23175235.6504
       227.000         180.000
 126006567.49948  98186932.12848  23978256.4964   23978257.3514   23978256.1084
       218.000         172.000
 128556163.62748 100173620.54948  24463436.6354   24463438.6774   24463436.3534
       220.000         169.000
 125239968.08548  97589570.37948  23832384.2984   23832387.5864   23832385.0034
       221.000         168.000
 09  1 13  0 25 30.0000000  0  9G28G26G 9G27G15G18G17G12G10
 120209455.02948  93669697.27848  22875105.6424   22875106.9784   22875106.1254
       234.000         192.000
 107753513.96948  83963753.17548  20504831.4554   20504833.7064   20504831.5374
       252.000         225.000
 113203603.91848  88210581.80248  21541945.1744   21541947.9764   21541945.3404
       239.000         206.000
 127181114.19848  99102143.98448  24201779.6504   24201782.6794   24201780.1914
       221.000         165.000
 106945879.56848  83334446.05548  20351128.6734   20351129.9084   20351128.3944
       254.000         240.000
 121717433.39948  94844741.58548  23162066.9614   23162069.1684   23162067.2934
       228.000         181.000
 125948184.08248  98141438.55148  23967145.8124   23967146.6114   23967146.1234
       221.000         171.000
 128442667.15148 100085181.79848  24441838.4104   24441840.6944   24441838.9984
       218.000         168.000
 125349768.98248  97675129.51848  23853278.4734   23853282.5964   23853279.6774
       222.000         171.000
 09  1 13  0 26  0.0000000  0  9G28G26G 9G27G15G18G17G12G10
 120281238.09648  93725632.13248  22888765.1374   22888766.8794   22888765.2184
       232.000         190.000
 107795367.92448  83996366.63548  20512795.6524   20512798.2024   20512795.5214
       251.000         225.000
 113132231.45648  88154966.91248  21528363.4454   21528366.3774   21528363.0154
       240.000         206.000
 127252113.65048  99157468.20948  24215290.0424   24215292.9804   24215290.6334
       219.000         164.000
 106934856.17348  83325856.39248  20349030.9834   20349032.1354   20349030.8744
       254.000         240.000
 121648667.20648  94791157.52948  23148981.6654   23148983.4604   23148983.1794
       228.000         182.000
 125890130.33048  98096201.88448  23956098.1964   23956099.7224   23956098.5734
       219.000         171.000
 128329268.45348  99996819.22748  24420258.5774   24420260.8114   24420258.6734
       218.000         164.000
 125459653.80748  97760754.04048  23874188.7834   23874193.0574   23874189.5024
       220.000         168.000
 09  1 13  0 26 30.0000000  0  9G28G26G 9G27G15G18G17G12G10
 120353350.19648  93781823.38148  22902487.1614   22902489.1854   22902487.2254
       231.000         189.000
 107837616.08248  84029287.27648  20520835.7604   20520837.6674   20520835.6404
       252.000         225.000
 113061126.94648  88099560.80148  21514833.0794   21514835.5824   21514833.1934
       240.000         207.000
 127323122.51848  99212799.81048  24228803.3214   24228805.7694   24228803.9834
       218.000         162.000
 106924230.37548  83317576.54748  20347008.8844   20347010.0974   20347008.6514
       254.000         240.000
 121580333.88348  94737910.78048  23135977.8834   23135979.6494   23135979.1114
       229.000         180.000
 125832408.52848  98051223.87648  23945113.8204   23945115.4434   23945113.7534
       218.000         170.000
 128215969.80148  99908534.59648  24398698.6314   24398699.7414   24398698.7964
       220.000         166.000
 125569619.84148  97846441.83148  23895114.8454   23895118.8374   23895115.4534
       222.000         171.000
 09  1 13  0 27  0.0000000  0  9G28G26G 9G27G15G18G17G12G10
 120425789.06848  93838269.24548  22916271.8854   22916273.7994   22916271.8864
       233.000         189.000
 107880258.31948  84062514.97548  20528949.6464   20528952.2504   20528949.5274
       251.000         225.000
 112990290.89148  88044363.90248  21501353.0464   21501356.0664   21501353.1054
       240.000         206.000
 127394140.28548  99268138.29548  24242317.0204   24242319.8714   24242317.1574
       215.000         161.000
 106914003.22248  83309607.32848  20345062.6864   20345063.9414   20345062.4114
       254.000         240.000
 121512435.72848  94685003.12348  23123057.7084   23123059.2564   23123058.9964
       227.000         181.000
 125775021.70948  98006506.85548  23934193.9094   23934195.0654   23934193.9294
       216.000         171.000
 128102772.74748  99820329.13848  24377157.8764   24377158.5794   24377157.5694
       219.000         164.000
 125679664.40748  97932190.83548  23916056.0144   23916059.3114   23916057.1394
       222.000         170.000
 09  1 13  0 27 30.0000000  0  9G28G26G 9G27G15G18G17G12G10
 120498552.49948  93894968.02348  22930118.5874   22930120.0204   22930119.0744
       233.000         189.000
 107923294.43148  84096049.61848  20537139.6844   20537141.8354   20537139.6554
       251.000         225.000
 112919724.21348  87989376.88848  21487924.9584   21487927.5394   21487925.0474
       243.000         208.000
 127465166.97148  99323483.76448  24255832.6824   24255835.8054   24255832.2404
       217.000         162.000
 106904175.90148  83301949.67248  20343192.6204   20343193.8904   20343192.4564
       253.000         240.000
 121444975.11048  94632436.42948  23110219.8684   23110221.8334   23110221.6444
       227.000         179.000
 125717972.13448  97962052.66048  23923337.7494   23923339.3234   23923337.1254
       220.000         173.000
 127989679.96648  99732204.94948  24355637.7654   24355638.0754   24355637.8904
       217.000         163.000
 125789785.24548  98017999.24748  23937011.0424   23937014.4134   23937011.9884
       219.000         164.000
 09  1 13  0 28  0.0000000  0  9G28G26G 9G27G15G18G17G12G10
 120571637.92848  93951917.71248  22944026.4124   22944027.6074   22944027.1754
       234.000         188.000
 107966723.95548  84129890.78248  20545403.5974   20545406.3294   20545403.3414
       251.000         225.000
 112849427.13848  87934599.95348  21474547.8154   21474550.4924   21474547.8924
       241.000         206.000
 127536202.14948  99378835.81748  24269350.1624   24269354.3254   24269349.9424
       216.000         163.000
 106894749.27648  83294604.24848  20341398.9234   20341400.0734   20341398.5584
       255.000         240.000
 121377953.78248  94580212.03648  23097466.3104   23097467.8184   23097466.8704
       230.000         182.000
 125661262.56948  97917863.42448  23912545.3224   23912547.8184   23912545.8654
       219.000         171.000
 127876693.85948  99644163.86148  24334137.8344   24334137.4634   24334137.8564
       221.000         164.000
 125899978.92048  98103864.47448  23957980.3844   23957982.8814   23957981.3304
       222.000         165.000
 09  1 13  0 28 30.0000000  0  9G28G26G 9G27G15G18G17G12G10
 120645043.45448  94009116.81348  22957994.7464   22957996.1274   22957995.5914
       233.000         187.000
 108010546.93048  84164038.55348  20553743.2574   20553745.5484   20553743.3334
       251.000         225.000
 112779400.18448  87880033.50448  21461222.3324   21461224.6204   21461222.5774
       242.000         208.000
 127607245.77148  99434194.47648  24282870.0494   24282873.5534   24282871.3354
       219.000         162.000
 106885724.66448  83287572.07748  20339681.6234   20339682.8484   20339681.5594
       254.000         241.000
 121311374.11548  94528331.76948  23084797.1194   23084798.3144   23084798.1984
       228.000         181.000
 125604895.90048  97873941.34348  23901819.6894   23901821.5224   23901819.9834
       218.000         173.000
 127763817.05748  99556207.90848  24312657.9714   24312658.1704   24312657.4044
       217.000         164.000
 126010243.30548  98189784.75348  23978962.8724   23978965.4784   23978963.9934
       222.000         167.000
 09  1 13  0 29  0.0000000  0  9G28G26G 9G27G15G18G17G12G10
 120718766.53348  94066563.36048  22972023.7944   22972025.3184   22972024.3464
       232.000         186.000
 108054763.08448  84198492.69048  20562157.0784   20562159.6084   20562156.9384
       251.000         225.000
 112709643.94148  87825678.00448  21447948.0494   21447950.7184   21447947.8104
       241.000         208.000
 127678297.34448  99489559.33348  24296390.5494   24296393.9594   24296391.2174
       212.000         158.000
 106877103.29948  83280854.13148  20338040.8954   20338042.1964   20338040.6714
       254.000         241.000
 121245238.47748  94476797.51848  23072211.0784   23072213.5744   23072211.4544
       227.000         181.000
 125548874.41548  97830288.23848  23891159.8004   23891160.9684   23891159.7354
       220.000         172.000
 127651050.96848  99468338.24248  24291198.5674   24291199.4824   24291198.1124
       221.000         165.000
 126120575.56448  98275757.93648  23999958.4564   23999961.9794   23999960.0184
       220.000         167.000
 09  1 13  0 29 30.0000000  0  9G28G26G 9G27G15G18G17G12G10
 120792805.57448  94124256.12248  22986113.0834   22986114.4484   22986113.4394
       232.000         187.000
 108099372.69348  84233253.41748  20570646.1324   20570648.6104   20570646.0994
       251.000         225.000
 112640159.59448  87771534.38248  21434725.4124   21434728.3154   21434725.5994
       240.000         207.000
 127749357.47048  99544930.86648  24309912.5354   24309915.8424   24309911.8504
       215.000         157.000
 106868886.55548  83274451.47048  20336477.2114   20336478.5124   20336476.7364
       254.000         241.000
 121179549.30348  94425611.13748  23059711.0864   23059712.6714   23059710.7584
       229.000         180.000
 125493201.24148  97786906.53648  23880565.1754   23880566.8634   23880564.8584
       218.000         174.000
 127538398.88148  99380557.40648  24269761.5994   24269763.2374   24269762.8464
       223.000         168.000
 126230973.95548  98361782.61448  24020967.0754   24020971.4494   24020968.0594
       221.000         168.000
 09  1 13  0 30  0.0000000  0  9G28G26G 9G27G15G18G17G12G10
 120867158.29048  94182193.30848  23000261.8944   23000263.5814   23000261.8894
       230.000         186.000
 108144374.97648  84268320.11348  20579210.0244   20579212.1924   20579209.8254
       252.000         225.000
 112570947.08048  87717602.56648  21421554.7154   21421557.5184   21421555.0314
       242.000         208.000
 127820425.29648  99600308.33648  24323436.7144   24323439.5194   24323437.1064
       213.000         157.000
 106861074.98148  83268364.52748  20334990.8584   20334992.1644   20334990.7594
       254.000         241.000
 121114308.11848  94374773.85148  23047296.6104   23047298.1124   23047296.6754
       228.000         181.000
 125437878.59848  97743797.99148  23870036.7364   23870038.7754   23870036.5754
       221.000         174.000
 127425862.58248  99292866.81448  24248346.5304   24248348.9964   24248348.7064
       216.000         167.000
 126341434.87748  98447856.04848  24041987.0154   24041990.1284   24041988.1384
       221.000         164.000
 09  1 13  0 30 30.0000000  0  9G28G26G 9G27G15G18G17G12G10
 120941821.94248  94240372.77448  23014469.8574   23014471.7004   23014469.8724
       231.000         186.000
 108189769.73648  84303692.64648  20587848.3384   20587850.5114   20587848.4704
       252.000         225.000
 112502007.11848  87663883.12048  21408436.2154   21408438.5274   21408436.3684
       243.000         209.000
 127891500.68048  99655691.74748  24336961.9504   24336964.3524   24336962.3404
       212.000         157.000
 106853669.95248  83262594.36648  20333581.7194   20333583.1134   20333581.4474
       253.000         241.000
 121049517.48348  94324287.64748  23034967.4294   23034968.6824   23034967.9324
       228.000         182.000
 125382909.30848  97700964.80948  23859577.1504   23859579.3814   23859577.4474
       219.000         174.000
 127313444.40348  99205268.26348  24226953.5944   24226956.3194   24226952.3654
       216.000         169.000
 126451956.28848  98533976.61948  24063017.9884   24063020.9944   24063019.3934
       220.000         165.000
 09  1 13  0 31  0.0000000  0  9G28G26G 9G27G15G18G17G12G10
 121016794.90648  94298793.26748  23028736.9554   23028738.4444   23028737.3234
       232.000         187.000
 108235557.24948  84339371.21848  20596561.2864   20596563.6904   20596561.1674
       251.000         225.000
 112433340.46748  87610376.64848  21395368.9664   21395371.7874   21395369.3754
       241.000         208.000
 127962583.96148  99711081.30648  24350487.8334   24350491.8504   24350487.7144
       209.000         155.000
 106846673.07848  83257142.25648  20332250.2694   20332251.5094   20332249.9584
       255.000         241.000
 120985180.06948  94274154.60948  23022723.9844   23022725.8994   23022724.6824
       231.000         182.000
 125328296.63348  97658409.46848  23849184.4174   23849186.7614   23849184.1114
       222.000         175.000
 127201147.03348  99117763.82548  24205584.8284   24205586.4594   24205583.5474
       219.000         169.000
 126562535.73548  98620142.40248  24084061.2404   24084064.2104   24084062.1214
       222.000         165.000
 09  1 13  0 31 30.0000000  0  9G28G26G 9G27G15G18G17G12G10
 121092073.79048  94357452.13848  23043061.9724   23043063.3044   23043062.3024
       232.000         185.000
 108281735.92848  84375354.59148  20605348.7104   20605350.9944   20605348.4974
       252.000         225.000
 112364946.84648  87557082.92248  21382354.1064   21382356.8374   21382354.2024
       242.000         208.000
 128033673.58048  99766475.80948  24364016.2974   24364019.3004   24364016.9294
       213.000         154.000
 106840084.11348  83252007.99848  20330996.4414   20330997.6634   20330996.2964
       254.000         241.000
 120921296.16348  94224374.93948  23010567.4424   23010569.1524   23010568.3654
       231.000         183.000
 125274041.75948  97616132.92748  23838861.0654   23838862.4134   23838860.8624
       221.000         173.000
 127088971.42348  99030354.28648  24184237.9034   24184239.2284   24184238.1324
       218.000         166.000
 126673169.62948  98706350.63548  24105113.9844   24105116.1394   24105115.0444
       219.000         159.000
 09  1 13  0 32  0.0000000  0  9G28G26G 9G27G15G18G17G12G10
 121167657.23348  94416348.32248  23057444.8074   23057446.3544   23057445.4044
       231.000         186.000
 108328306.53348  84411643.35948  20614211.0494   20614213.2394   20614211.0574
       251.000         225.000
 112296827.39248  87504002.83348  21369391.4014   21369394.2554   21369391.5614
       242.000         208.000
 128104770.30648  99821875.84848  24377546.2524   24377548.7934   24377546.9584
       213.000         157.000
 106833904.99048  83247193.08948  20329820.6024   20329821.8064   20329820.3824
       254.000         240.000
 120857869.15648  94174951.31348  22998497.7134   22998499.3844   22998498.2424
       231.000         182.000
 125220148.14348  97574137.90548  23828603.9394   23828606.0934   23828603.1134
       217.000         172.000
 126976920.74248  98943042.06048  24162915.7714   24162916.4944   24162915.6594
       220.000         169.000
 126783856.35748  98792599.99448  24126176.7004   24126179.3124   24126177.9704
       219.000         164.000
 09  1 13  0 32 30.0000000  0  9G28G26G 9G27G15G18G17G12G10
 121243542.86848  94475479.98148  23071885.3254   23071887.0064   23071885.6674
       231.000         187.000
 108375268.76448  84448237.30348  20623147.5924   20623149.9574   20623147.6144
       252.000         225.000
 112228982.92948  87451137.02148  21356480.9424   21356483.7194   21356481.6574
       242.000         208.000
 128175874.13248  99877281.40048  24391076.8094   24391079.3944   24391076.5774
       213.000         156.000
 106828136.90648  83242698.47648  20328722.8914   20328724.1044   20328722.6294
       254.000         240.000
 120794901.49848  94125885.60448  22986515.5894   22986516.8364   22986516.2934
       228.000         182.000
 125166618.46148  97532426.47748  23818417.9264   23818419.7084   23818417.5214
       219.000         171.000
 126864997.32348  98855829.00948  24141618.1134   24141619.0134   24141618.7464
       221.000         171.000
 126894593.04348  98878888.30448  24147250.4574   24147253.1104   24147251.8204
       220.000         166.000
 09  1 13  0 33  0.0000000  0  9G28G26G 9G27G15G18G17G12G10
 121319728.50448  94534845.40348  23086383.0734   23086384.5784   23086383.5524
       231.000         187.000
 108422622.01248  84485135.93148  20632158.6294   20632160.8634   20632158.6424
       251.000         225.000
 112161413.46448  87398485.49148  21343623.1774   21343625.6264   21343623.2234
       243.000         209.000
 128246984.60648  99932692.11848  24404607.8584   24404612.0064   24404609.3614
       211.000         155.000
 106822780.57048  83238524.70548  20327703.7604   20327704.8774   20327703.6664
       254.000         241.000
 120732394.08448  94077178.52948  22974620.8004   22974622.3484   22974621.5734
       232.000         182.000
 125113454.77448  97491000.23548  23808301.8094   23808303.4004   23808302.2624
       220.000         170.000
 126753203.29948  98768716.78648  24120344.0044   24120345.6374   24120343.7244
       217.000         169.000
 127005376.87748  98965213.34348  24168330.5484   24168334.5304   24168331.7914
       214.000         161.000
 09  1 13  0 33 30.0000000  0  9G28G26G 9G27G15G18G17G12G10
 121396212.18748  94594443.08548  23100937.4584   23100939.1054   23100938.0034
       231.000         187.000
 108470366.34648  84522339.29148  20641243.9954   20641246.3184   20641243.8454
       251.000         225.000
 112094120.03348  87346049.05948  21330817.3274   21330820.1694   21330817.8384
       241.000         209.000
 128318101.94248  99988108.16948  24418142.1164   24418144.6204   24418142.9424
       207.000         152.000
 106817837.33248  83234672.82648  20326763.1754   20326764.2564   20326762.8744
       254.000         241.000
 120670350.03648  94028832.53648  22962814.2084   22962816.0294   22962815.6304
       232.000         184.000
 125060660.27648  97449861.66448  23798254.8214   23798256.8064   23798254.6634
       219.000         173.000
 126641541.05048  98681707.23648  24099095.1664   24099096.8834   24099094.3184
       220.000         170.000
 127116205.98148  99051573.64648  24189419.6314   24189424.1414   24189419.8834
       214.000         162.000
 09  1 13  0 34  0.0000000  0  9G28G26G 9G27G15G18G17G12G10
 121472991.36548  94654271.00148  23115548.0754   23115549.7734   23115548.5874
       231.000         187.000
 108518501.53848  84559847.22948  20650403.6764   20650406.0714   20650403.5694
       251.000         225.000
 112027103.58248  87293828.46548  21318064.6594   21318067.4984   21318064.3694
       241.000         209.000
 128389226.06748 100043529.57948  24431675.6434   24431678.4624   24431675.7914
       207.000         153.000
 106813308.47648  83231143.84748  20325901.2824   20325902.5094   20325901.1394
       254.000         241.000
 120608771.64348  93980849.37348  22951095.8244   22951097.5774   22951097.4524
       230.000         181.000
 125008237.33348  97409012.64248  23788279.3444   23788281.3404   23788279.6154
       217.000         174.000
 126530013.04948  98594802.33748  24077871.9684   24077873.4994   24077872.2784
       220.000         169.000
 127227077.66448  99137967.11948  24210518.6994   24210522.9054   24210518.8154
       218.000         164.000
 09  1 13  0 34 30.0000000  0  9G28G26G 9G27G15G18G17G12G10
 121550064.31848  94714327.84348  23130214.7454   23130215.9004   23130215.1504
       232.000         187.000
 108567027.23748  84597659.45748  20659637.8434   20659640.3494   20659637.6534
       251.000         225.000
 111960364.33248  87241823.86248  21305364.6134   21305367.0554   21305364.5184
       241.000         208.000
 128460356.70748 100098956.00748  24445212.1654   24445214.6654   24445211.4274
       211.000         155.000
 106809194.29448  83227937.98148  20325118.3264   20325119.5934   20325118.1104
       253.000         241.000
 120547660.57748  93933230.35348  22939467.2414   22939468.4894   22939468.7144
       231.000         183.000
 124956188.69648  97368455.26248  23778374.6654   23778376.9554   23778374.3714
       222.000         175.000
 126418621.40948  98508003.69148  24056674.9384   24056676.1894   24056675.6684
       222.000         170.000
 127337989.08948  99224391.58748  24231623.9014   24231627.9664   24231624.5074
       218.000         160.000
 09  1 13  0 35  0.0000000  0  9G28G26G 9G27G15G18G17G12G10
 121627428.16648  94774611.36648  23144936.7004   23144937.8864   23144937.7914
       230.000         186.000
 108615942.70448  84635775.39048  20668946.4034   20668948.6604   20668946.2494
       252.000         225.000
 111893902.31948  87190035.27748  21292717.2284   21292719.6344   21292716.7204
       241.000         208.000
 128531493.31648 100154387.09848  24458748.5044   24458751.2434   24458748.4584
       212.000         156.000
 106805496.34848  83225056.45548  20324414.8374   20324415.8944   20324414.5864
       255.000         241.000
 120487018.36648  93885976.68448  22927926.7144   22927928.8384   22927927.8484
       230.000         185.000
 124904516.26648  97328191.05348  23768541.8614   23768543.4004   23768542.4024
       223.000         177.000
 126307368.04648  98421312.74248  24035504.2574   24035504.9334   24035505.1654
       223.000         170.000
 127448937.69048  99310845.02748  24252737.2594   24252739.4864   24252736.6454
       214.000         157.000
 09  1 13  0 35 30.0000000  0  9G28G26G 9G27G15G18G17G12G10
 121705081.20948  94835120.23148  23159713.5804   23159714.6714   23159713.5404
       230.000         185.000
 108665248.10448  84674195.17548  20678328.7444   20678331.1424   20678328.6894
       252.000         225.000
 111827718.50248  87138463.47548  21280123.0314   21280125.4494   21280122.7144
       243.000         209.000
 128602636.29948 100209823.13648  24472286.6184   24472289.6474   24472286.9734
       210.000         154.000
 106802215.88348  83222500.24648  20323790.5844   20323791.6834   20323790.5554
       254.000         241.000
 120426847.55348  93839090.33648  22916476.9494   22916478.7444   22916476.8054
       232.000         184.000
 124853223.02448  97288222.28148  23758781.2244   23758782.9624   23758780.7234
       220.000         175.000
 126196256.09848  98334732.00848  24014359.9294   24014361.6734   24014360.3684
       218.000         169.000
 127559921.19748  99397325.65448  24273856.9414   24273859.5794   24273857.3904
       219.000         161.000
 09  1 13  0 36  0.0000000  0  9G28G26G 9G27G15G18G17G12G10
 121783020.87948  94895852.44348  23174544.9284   23174546.2054   23174545.1144
       229.000         185.000
 108714942.95948  84712918.42948  20687785.3664   20687787.8074   20687785.1894
       251.000         225.000
 111761813.51048  87087108.94148  21267581.9744   21267583.9854   21267582.8994
       242.000         209.000
 128673785.26048 100265263.90348  24485824.9704   24485828.8714   24485824.3334
       203.000         153.000
 106799353.62248  83220269.91248  20323245.6994   20323247.0094   20323245.4064
       254.000         241.000
 120367150.06948  93792572.82048  22905117.1734   22905118.5874   22905118.1884
       231.000         184.000
 124802311.88948  97248551.27048  23749093.2174   23749094.9524   23749092.8504
       220.000         177.000
 126085286.84448  98248262.46048  23993242.8094   23993245.1664   23993241.9394
       220.000         169.000
 127670936.96248  99483831.44048  24294982.8714   24294985.6574   24294984.1854
       219.000         161.000
 09  1 13  0 36 30.0000000  0  9G28G26G 9G27G15G18G17G12G10
 121861244.65648  94956806.02848  23189430.4084   23189431.3304   23189430.9264
       230.000         184.000
 108765026.71448  84751944.73048  20697315.9994   20697318.4144   20697315.8194
       251.000         225.000
 111696187.56148  87035971.86648  21255093.3524   21255095.8144   21255093.6834
       242.000         209.000
 128744939.96848 100320709.12348  24499365.7084   24499368.4114   24499365.2944
       209.000         153.000
 106796910.33248  83218366.04748  20322780.6414   20322782.1264   20322780.4004
       254.000         241.000
 120307927.66648  93746425.48348  22893847.6574   22893848.7844   22893847.5404
       233.000         187.000
 124751784.48348  97209179.27248  23739478.0474   23739479.6144   23739478.2694
       221.000         177.000
 125974462.77148  98161906.05048  23972154.5164   23972155.9294   23972153.9944
       220.000         171.000
 127781982.20948  99570360.15648  24316113.1864   24316117.4564   24316114.2964
       218.000         162.000
 09  1 13  0 37  0.0000000  0  9G28G26G 9G27G15G18G17G12G10
 121939750.63548  95017979.51648  23204369.6654   23204370.5544   23204370.8284
       231.000         183.000
 108815499.01348  84791273.78448  20706920.5794   20706923.0164   20706920.5034
       252.000         224.000
 111630841.15848  86985052.59448  21242658.4094   21242660.8924   21242659.2234
       242.000         209.000
 128816100.53148 100376158.85848  24512907.2904   24512910.7424   24512907.6454
       211.000         153.000
 106794887.18948  83216789.56748  20322395.7164   20322397.1454   20322395.5334
       254.000         241.000
 120249182.58148  93700650.09348  22882668.4034   22882669.9344   22882669.6104
       233.000         186.000
 124701643.62948  97170108.50948  23729936.1674   23729938.6534   23729936.3524
       221.000         176.000
 125863786.26648  98075664.61548  23951093.6484   23951094.2334   23951092.8504
       223.000         172.000
 127893054.22448  99656909.75048  24337249.8744   24337253.9694   24337251.1874
       220.000         162.000
 09  1 13  0 37 30.0000000  0  9G28G26G 9G27G15G18G17G12G10
 122018536.05648  95079370.75448  23219361.9794   23219363.3614   23219362.6574
       229.000         182.000
 108866359.21448  84830905.10748  20716598.9984   20716601.2754   20716599.0284
       251.000         224.000
 111565774.49248  86934351.31748  21230276.4334   21230279.0764   21230276.7474
       242.000         209.000
 128887266.17848 100431612.58248  24526449.6204   24526453.0184   24526449.1954
       210.000         155.000
 106793284.78748  83215540.94148  20322090.8874   20322092.2634   20322090.6814
       254.000         241.000
 120190916.30948  93655247.80548  22871581.2134   22871582.2874   22871581.4254
       235.000         188.000
 124651891.64748  97131340.71548  23720469.4284   23720471.1244   23720468.7544
       222.000         176.000
 125753259.14948  97989539.61048  23930060.6134   23930061.5074   23930060.5944
       222.000         173.000
 128004150.22048  99743478.03648  24358390.9914   24358394.5964   24358391.7944
       216.000         159.000
 09  1 13  0 38  0.0000000  0  9G28G26G 9G27G15G18G17G12G10
 122097599.87048  95140978.90448  23234407.0804   23234408.5544   23234407.5714
       229.000         182.000
 108917607.63848  84870838.93048  20726351.2494   20726353.5594   20726351.1244
       251.000         224.000
 111500989.07248  86883869.17048  21217948.1994   21217950.6264   21217948.5054
       242.000         210.000
 128958437.69548 100487070.90648  24539992.9744   24539996.9014   24539992.9804
       204.000         156.000
 106792104.75748  83214621.43548  20321866.2804   20321867.6474   20321866.0814
       254.000         241.000
 120133131.42948  93610220.63348  22860584.7424   22860586.0934   22860585.2354
       231.000         186.000
 124602531.48948  97092878.26048  23711075.9684   23711077.6004   23711075.8154
       220.000         175.000
 125642884.41148  97903533.32548  23909056.5504   23909057.6924   23909056.3514
       221.000         172.000
 128115268.68748  99830063.82148  24379536.6344   24379538.5814   24379536.4254
       219.000         156.000
 09  1 13  0 38 30.0000000  0  9G28G26G 9G27G15G18G17G12G10
 122176938.69248  95202801.38248  23249504.8194   23249506.1864   23249506.0404
       230.000         183.000
 108969243.28748  84911074.49148  20736177.1424   20736179.5644   20736176.9084
       251.000         224.000
 111436485.06448  86833606.31748  21205673.6384   21205676.2094   21205674.1164
       242.000         210.000
 129029614.37548 100542533.24648  24553537.1834   24553541.4604   24553536.9994
       208.000         156.000
 106791347.62048  83214031.45748  20321722.2284   20321723.5184   20321722.0754
       254.000         241.000
 120075829.55448  93565569.83148  22849680.5884   22849682.2314   22849681.1834
       230.000         186.000
 124553564.87448  97054722.43648  23701758.2064   23701759.3784   23701758.2734
       223.000         176.000
 125532663.53948  97817646.94848  23888081.8534   23888084.2334   23888082.1634
       223.000         175.000
 128226406.42048  99916664.66848  24400686.0204   24400687.0394   24400686.4974
       215.000         153.000
 09  1 13  0 39  0.0000000  0  9G28G26G 9G27G15G18G17G12G10
 122256550.67848  95264836.69548  23264654.3794   23264656.2914   23264654.7954
       229.000         183.000
 109021266.18248  84951611.80848  20746076.8954   20746079.0944   20746076.9084
       251.000         224.000
 111372262.94648  86783563.11848  21193452.6284   21193454.9864   21193452.7764
       243.000         210.000
 129100796.54948 100597999.83048  24567083.7404   24567086.0934   24567083.3244
       208.000         155.000
 106791014.71148  83213772.04148  20321658.9864   20321660.1324   20321658.7014
       255.000         241.000
 120019012.71148  93521296.94848  22838868.5374   22838869.9194   22838868.9074
       231.000         186.000
 124504994.67848  97016875.52948  23692516.0154   23692517.1454   23692515.3414
       222.000         177.000
 125422599.47048  97731882.74648  23867137.9584   23867140.4384   23867139.2184
       222.000         175.000
 128337560.84848 100003278.42548  24421836.9564   24421840.4294   24421836.0934
       214.000         157.000
 09  1 13  0 39 30.0000000  0 10G 5G28G26G 9G27G15G18G17G12G10
 141968912.20758  92832904.90158  25112859.9175   25112863.0825   25112859.9915
       203.000         147.000
 122336433.24648  95327082.84548  23279855.6694   23279857.6264   23279856.8234
       230.000         183.000
 109073675.65848  84992450.35948  20756050.0624   20756052.2314   20756050.0814
       250.000         223.000
 111308322.99448  86733739.79048  21181285.2624   21181287.5784   21181285.9144
       243.000         210.000
 129171983.68248 100653470.27848  24580629.4214   24580632.8084   24580629.4034
       210.000         154.000
 106791106.51648  83213843.57148  20321676.4834   20321677.6124   20321676.4024
       255.000         241.000
 119962682.36948  93477403.19148  22828148.9584   22828151.0344   22828149.8104
       231.000         185.000
 124456823.41848  96979339.48148  23683348.5524   23683350.6994   23683348.4024
       222.000         177.000
 125312694.12348  97646242.25148  23846223.4894   23846226.5114   23846223.9944
       223.000         176.000
 128448729.51548 100089903.32148  24442991.8494   24442995.3234   24442991.6264
       218.000         162.000
 09  1 13  0 40  0.0000000  0 10G 5G28G26G 9G27G15G18G17G12G10
 141853096.07848  92742658.57248  25090819.3474   25090823.9954   25090818.8164
       206.000         147.000
 122416584.53048  95389538.38548  23295107.9014   23295109.8514   23295108.9354
       230.000         183.000
 109126471.41048  85033589.89548  20766096.6454   20766099.2184   20766096.3414
       250.000         223.000
 111244666.02548  86684136.97548  21169171.4154   21169174.2134   21169171.8284
       242.000         210.000
 129243176.23148 100708944.95148  24594177.9744   24594179.7104   24594178.6184
       211.000         156.000
 116791633.24858  73214254.99458  20321775.1075   20321776.1525   20321775.0145
       255.000         241.000
 119906840.95248  93433890.39348  22817523.1224   22817524.2854   22817523.6134
       229.000         185.000
 124409053.22248  96942115.98348  23674258.5324   23674260.1924   23674258.7014
       223.000         177.000
 125202949.91148  97560727.28848  23825339.8634   23825342.8294   23825340.0824
       222.000         176.000
 128559909.98248 100176537.41248  24464149.5554   24464151.6094   24464150.3994
       220.000         160.000
 09  1 13  0 40 30.0000000  0 10G 5G28G26G 9G27G15G18G17G12G10
 141737337.17948  92652456.83048  25068791.7204   25068796.0534   25068795.1054
       203.000         146.000
 122497001.81948  95452201.19948  23310411.0154   23310412.4294   23310410.7494
       229.000         183.000
 109179652.56648  85075029.74648  20776216.6414   20776219.3434   20776216.6184
       250.000         223.000
 111181292.01648  86634754.63948  21157111.8244   21157114.4014   21157112.1054
       243.000         211.000
 129314373.58548 100764423.39848  24607726.6424   24607728.4164   24607726.9804
       214.000         157.000
 116792577.39248  73214990.68748  20321954.6164   20321955.7274   20321954.2594
       254.000         241.000
 119851489.80748  93390759.61348  22806990.0674   22806991.4174   22806990.3834
       230.000         184.000
 124361686.40548  96905206.76548  23665244.6424   23665246.9394   23665244.4954
       222.000         176.000
 125093368.42648  97475339.13048  23804487.2894   23804489.9254   23804486.3224
       223.000         177.000
 128671099.41348 100263178.50048  24485308.2894   24485310.4614   24485310.7144
       214.000         155.000
 09  1 13  0 41  0.0000000  0 10G 5G28G26G 9G27G15G18G17G12G10
 141621637.86848  92562301.55048  25046774.0904   25046778.6994   25046775.7664
       206.000         149.000
 122577683.32148  95515069.89248  23325764.3154   23325765.5464   23325764.1954
       229.000         182.000
 109233219.31148  85116770.06048  20786410.1894   20786412.6004   20786410.2614
       250.000         223.000
 111118201.79348  86585593.43348  21145106.6414   21145108.7494   21145106.2704
       244.000         211.000
 129385575.89248 100819905.70348  24621275.4364   24621277.6184   24621276.6164
       212.000         157.000
 116793949.18448  73216059.61048  20322215.5654   20322216.8344   20322215.3124
       255.000         241.000
 119796631.20048  93348012.65148  22796550.8054   22796552.4084   22796552.0384
       230.000         185.000
 124314725.59848  96868613.91648  23656309.0114   23656309.8784   23656308.3984
       222.000         175.000
 124983952.83948  97390080.23748  23783666.6264   23783668.5044   23783666.1874
       222.000         177.000
 128782295.84748 100349825.01548  24506467.4214   24506471.7454   24506467.7534
       212.000         156.000
 09  1 13  0 41 30.0000000  0 10G 5G28G26G 9G27G15G18G17G12G10
 141505999.86548  92472194.02448  25024769.5934   25024774.2184   25024769.5364
       209.000         152.000
 122658626.30448  95578142.35148  23341167.4164   23341168.2444   23341167.9244
       229.000         182.000
 109287170.67948  85158810.08748  20796676.7454   20796679.2284   20796676.6084
       250.000         223.000
 111055395.74848  86536653.66348  21133154.7514   21133157.2464   21133155.0644
       245.000         212.000
 129456782.64448 100875391.46548  24634825.4474   24634827.9124   24634825.9624
       211.000         159.000
 116795749.31448  73217462.29548  20322558.2114   20322559.3514   20322558.0374
       254.000         241.000
 119742267.04148  93305650.94748  22786205.7584   22786206.9854   22786205.5594
       234.000         188.000
 124268172.79248  96832339.01048  23647449.9284   23647451.1394   23647449.7254
       221.000         175.000
 124874704.51048  97304951.70848  23762876.5294   23762878.9114   23762877.1294
       221.000         175.000
 128893496.37048 100436474.72648  24527628.1544   24527632.5874   24527628.3404
       213.000         155.000
 09  1 13  0 42  0.0000000  0 10G 5G28G26G 9G27G15G18G17G12G10
 141390425.93348  92382136.41448  25002777.3434   25002780.9024   25002778.3674
       211.000         154.000
 122739829.66448  95641417.67948  23356619.5834   23356620.8364   23356620.4044
       228.000         182.000
 109341507.05948  85201150.12048  20807016.5274   20807019.0884   20807016.3084
       250.000         223.000
 110992875.37948  86487936.50048  21121257.5994   21121259.9874   21121257.9604
       243.000         212.000
 129527994.68948 100930881.36048  24648376.4774   24648379.4734   24648376.6014
       210.000         160.000
 116797979.45148  73219200.06148  20322982.5334   20322983.6634   20322982.2254
       254.000         241.000
 119688399.21448  93263676.01548  22775955.3734   22775956.6264   22775955.7324
       232.000         188.000
 124222031.29048  96796384.60048  23638669.1374   23638671.3254   23638668.6874
       224.000         176.000
 124765626.26248  97219955.67748  23742119.6984   23742122.0104   23742118.8844
       221.000         176.000
 129004698.99348 100523126.08648  24548788.9954   24548792.8504   24548789.2524
       214.000         150.000
 09  1 13  0 42 30.0000000  0 10G 5G28G26G 9G27G15G18G17G12G10
 141274917.52848  92292129.93248  24980796.6094   24980800.4434   24980798.9004
       213.000         157.000
 122821290.60948  95704893.74348  23372120.9984   23372122.1624   23372121.1674
       229.000         183.000
 109396227.59948  85243789.49348  20817429.6354   20817431.9324   20817429.6664
       249.000         222.000
 110930640.78748  86439442.03848  21109414.3414   21109417.3894   21109414.2264
       243.000         212.000
 129599211.65848 100986375.06148  24661928.9814   24661931.6074   24661929.0744
       213.000         160.000
 116800640.19848  73221273.36248  20323488.9164   20323490.0764   20323488.6324
       255.000         241.000
 119635029.51548  93222089.23248  22765798.9974   22765800.7614   22765799.4754
       232.000         188.000
 124176303.06948  96760752.21548  23629968.0694   23629969.2364   23629968.5524
       225.000         177.000
 124656720.28348  97135093.89348  23721395.4744   23721397.9074   23721395.8894
       224.000         178.000
 129115900.97348 100609776.96348  24569949.9134   24569952.9394   24569950.3964
       212.000         151.000
 09  1 13  0 43  0.0000000  0 10G 5G28G26G 9G27G15G18G17G12G10
 141159476.37448  92202175.86548  24958829.0784   24958832.7834   24958828.4424
       210.000         156.000
 122903006.18748  95768568.21548  23387670.9554   23387672.3764   23387670.8504
       227.000         182.000
 109451331.56348  85286727.63548  20827915.5274   20827917.9414   20827915.4944
       250.000         222.000
 110868691.91648  86391170.18748  21097626.1644   21097628.4724   21097626.0754
       243.000         212.000
 129670433.18848 101041872.34248  24675481.5714   24675484.7984   24675482.4074
       215.000         161.000
 116803732.09848  73223682.63148  20324077.3374   20324078.5314   20324076.9604
       254.000         241.000
 119582159.44448  93180891.76448  22755738.3684   22755739.8654   22755739.1254
       229.000         187.000
 124130989.89848  96725443.26848  23621345.0424   23621346.2714   23621344.8694
       226.000         179.000
 124547988.28348  97050367.66848  23700704.6734   23700706.8324   23700704.9014
       225.000         178.000
 129227099.68648 100696425.31548  24591111.0654   24591114.4984   24591112.2664
       215.000         156.000
 09  1 13  0 43 30.0000000  0 10G 5G28G26G 9G27G15G18G17G12G10
 141044104.27348  92112275.57748  24936874.3004   24936878.0024   24936873.8814
       215.000         156.000
 122984974.31648  95832439.48748  23403268.7584   23403270.1994   23403268.7984
       228.000         180.000
 109506818.06648  85329963.86648  20838474.3464   20838476.6654   20838474.3384
       250.000         222.000
 110807029.00148  86343121.17548  21085892.1764   21085894.7324   21085892.5034
       244.000         213.000
 129741658.84148 101097372.84648  24689035.5324   24689039.1144   24689036.6974
       214.000         162.000
 116807255.57548  73226428.19448  20324747.8134   20324749.0004   20324747.6374
       254.000         241.000
 119529790.67248  93140084.93248  22745772.7994   22745774.5004   22745773.1304
       233.000         188.000
 124086094.03648  96690459.48848  23612801.9644   23612803.0224   23612802.1484
       225.000         177.000
 124439432.64248  96965778.86148  23680048.2804   23680049.3904   23680047.8214
       229.000         180.000
 129338292.05848 100783068.65948  24612271.0524   24612274.7184   24612271.1774
       213.000         157.000
 09  1 13  0 44  0.0000000  0 10G 5G28G26G 9G27G15G18G17G12G10
 140928803.74048  92022431.08148  24914933.9824   24914937.0364   24914934.5004
       210.000         156.000
 123067193.26748  95896506.19848  23418914.6814   23418916.0054   23418915.0914
       228.000         180.000
 109562687.14148  85373498.20948  20849105.7684   20849108.1464   20849105.7274
       250.000         221.000
 110745653.23648  86295295.90048  21074212.8304   21074214.9634   21074213.1384
       245.000         213.000
 129812889.07448 101152876.92248  24702590.3864   24702593.1014   24702590.6094
       216.000         163.000
 116811212.11348  73229511.20948  20325500.6254   20325501.8724   20325500.4014
       254.000         241.000
 119477925.23748  93099670.29548  22735903.4734   22735904.3124   22735904.0814
       231.000         188.000
 124041618.11748  96655802.91948  23604337.4604   23604339.2224   23604337.7704
       223.000         176.000
 124331055.94248  96881329.48348  23659425.1784   23659425.7424   23659425.8634
       227.000         180.000
 129449476.16948 100869705.53048  24633427.6104   24633432.3524   24633428.4734
       208.000         152.000
 09  1 13  0 44 30.0000000  0 10G 5G28G26G 9G27G15G18G17G12G10
 140813576.64848  91932643.83048  24893005.8964   24893010.1254   24893006.1564
       213.000         156.000
 123149660.49148  95960766.37248  23434607.6384   23434609.2894   23434608.1254
       229.000         181.000
 109618938.34448  85417330.30948  20859809.9674   20859812.2404   20859809.9614
       249.000         221.000
 110684565.16948  86247694.82048  21062587.9844   21062590.5254   21062588.3684
       245.000         214.000
 129884123.74348 101208384.41248  24716145.5694   24716148.9714   24716145.6774
       216.000         165.000
 116815602.48848  73232932.27448  20326336.2264   20326337.3644   20326336.0804
       254.000         241.000
 119426565.01448  93059649.34548  22726129.9644   22726131.0304   22726129.8774
       234.000         189.000
 123997564.59448  96621475.52748  23595954.8634   23595956.5384   23595954.7894
       223.000         177.000
 124222860.29648  96797021.21448  23638835.7504   23638837.5644   23638834.9824
       224.000         179.000
 129560649.74548 100956334.21948  24654583.7194   24654586.8994   24654583.3254
       216.000         151.000
 09  1 13  0 45  0.0000000  0 10G 5G28G26G 9G27G15G18G17G12G10
 140698422.39448  91842913.28748  24871092.9444   24871096.1954   24871093.7034
       210.000         155.000
 123232371.23948  96025216.31248  23450346.8644   23450348.9614   23450347.4224
       227.000         181.000
 109675568.54748  85461457.72448  20870586.3234   20870588.7734   20870586.0964
       248.000         221.000
 110623762.45148  86200316.08648  21051017.6744   21051020.2844   21051017.9804
       244.000         214.000
 129955360.45548 101263893.52348  24729702.5344   24729704.8984   24729701.9754
       218.000         166.000
 116820424.72548  73236689.85948  20327253.8244   20327254.9984   20327253.6344
       254.000         241.000
 119375708.92148  93020021.23148  22716451.8194   22716453.5424   22716453.3224
       231.000         186.000
 123953932.95848  96587476.83748  23587651.8924   23587653.9364   23587652.2054
       222.000         178.000
 124114844.93248  96712853.39248  23618280.7984   23618282.6624   23618280.5164
       225.000         178.000
 129671807.30148 101042950.52748  24675736.5304   24675738.2214   24675736.5384
       214.000         150.000
 09  1 13  0 45 30.0000000  0 10G 5G28G26G 9G27G15G18G17G12G10
 140583346.50148  91753243.83248  24849193.8904   24849197.5584   24849194.6494
       212.000         154.000
 123315326.99248  96089857.15448  23466132.7144   23466134.8724   23466133.0844
       229.000         180.000
 109732580.90348  85505882.92348  20881435.4384   20881437.7904   20881435.1784
       248.000         221.000
 110563249.11248  86153162.83748  21039502.3654   21039505.0404   21039502.1894
       245.000         214.000
 130026602.69848 101319406.96448  24743258.3684   24743261.8924   24743258.5554
       215.000         164.000
 116825683.55048  73240787.64448  20328254.4034   20328255.7124   20328254.1334
       254.000         241.000
 119325362.24448  92980790.02448  22706871.0194   22706872.6884   22706871.7344
       232.000         187.000
 123910729.00848  96553811.42948  23579430.6474   23579431.9134   23579430.4194
       222.000         176.000
 124007015.96748  96628830.82848  23597760.9854   23597763.5364   23597761.8214
       225.000         178.000
 129782949.87548 101129555.10248  24696885.9154   24696888.9774   24696886.4534
       213.000         151.000
 09  1 13  0 46  0.0000000  0 10G 5G28G26G 9G27G15G18G17G12G10
 140468351.06248  91663637.05448  24827311.7844   24827313.7624   24827311.3794
       213.000         155.000
 123398525.61548  96154687.24748  23481964.7684   23481966.8224   23481965.9714
       227.000         179.000
 109789974.87248  85550605.49148  20892357.2504   20892359.6244   20892357.2124
       249.000         221.000
 110503025.70448  86106235.51848  21028042.1854   21028044.7664   21028042.4394
       245.000         215.000
 130097850.40848 101374924.64548  24756816.4284   24756820.0094   24756816.9034
       218.000         165.000
 116831379.88748  73245226.34048  20329338.5454   20329339.6814   20329338.2984
       254.000         241.000
 119275526.77148  92941957.18948  22697387.8784   22697389.7914   22697388.1974
       231.000         187.000
 123867955.11248  96520481.12448  23571290.3994   23571293.0384   23571291.0934
       223.000         177.000
 123899375.77548  96544955.36048  23577277.2524   23577280.0224   23577277.6624
       225.000         179.000
 129894075.23848 101216146.17348  24718032.6544   24718035.9544   24718033.4894
       213.000         154.000
 09  1 13  0 46 30.0000000  0 10G 5G28G26G 9G27G15G18G17G12G10
 140353437.35448  91574093.95748  24805444.7094   24805447.1094   24805446.6654
       212.000         154.000
 123481963.80348  96219704.02448  23497842.8524   23497844.3554   23497843.2574
       228.000         179.000
 109847749.14248  85595624.39748  20903351.1464   20903353.8334   20903350.7584
       249.000         221.000
 110443092.05948  86059533.97948  21016637.3084   21016639.7394   21016637.6204
       245.000         214.000
 130169102.89648 101430446.04248  24770375.2964   24770378.5644   24770375.9274
       216.000         164.000
 116837513.42548  73250005.71548  20330505.7064   20330506.8264   20330505.4754
       254.000         240.000
 119226203.59848  92903523.52948  22688002.1444   22688003.3334   22688002.6824
       233.000         187.000
 123825613.01948  96487487.27348  23563233.1864   23563235.1414   23563232.8334
       223.000         179.000
 123791925.72348  96461228.05948  23556830.7774   23556832.3634   23556830.6214
       227.000         180.000
 130005180.42148 101302721.46348  24739175.1294   24739178.5924   24739175.2354
       215.000         155.000
 09  1 13  0 47  0.0000000  0 10G 5G28G26G 9G27G15G18G17G12G10
 140238607.00648  91484615.84848  24783593.1784   24783596.5784   24783594.3114
       207.000         154.000
 123565639.16248  96284905.60248  23513765.6564   23513767.4084   23513766.6504
       228.000         179.000
 109905903.00748  85640939.09448  20914417.5374   20914419.9504   20914417.4714
       249.000         220.000
 110383448.45148  86013058.44948  21005287.2624   21005289.7474   21005287.3294
       245.000         215.000
 130240359.71048 101485970.79948  24783935.0664   24783938.4314   24783935.4174
       216.000         165.000
 116844084.85348  73255126.30448  20331756.1414   20331757.3524   20331755.8824
       253.000         240.000
 119177394.18548  92865490.21948  22678713.9334   22678715.2014   22678714.8734
       231.000         187.000
 123783704.32448  96454831.14448  23555258.5694   23555260.2394   23555258.4484
       222.000         178.000
 123684667.80648  96377650.47948  23536420.6984   23536421.5874   23536420.8644
       227.000         180.000
 130116262.53648 101389278.80648  24760313.7704   24760316.5244   24760314.3434
       217.000         155.000
 09  1 13  0 47 30.0000000  0 10G 5G28G26G 9G27G15G18G17G12G10
 140123862.04348  91395204.25848  24761756.6034   24761760.5774   24761756.2354
       206.000         151.000
 123649549.56248  96350290.34648  23529733.5294   23529735.0144   23529733.4134
       227.000         179.000
 109964435.74648  85686549.00648  20925556.1594   20925558.5034   20925556.2124
       249.000         220.000
 110324095.42848  85966809.34148  20993992.8564   20993995.4544   20993993.1954
       245.000         215.000
 130311620.78348 101541498.90648  24797495.9984   24797498.9264   24797495.9354
       216.000         166.000
 116851095.10048  73260588.82648  20333089.9754   20333091.4164   20333089.6884
       253.000         240.000
 119129100.17948  92827858.51248  22669523.6664   22669525.3444   22669523.8434
       232.000         187.000
 123742231.28848  96422514.50448  23547366.6144   23547368.1454   23547365.8084
       224.000         180.000
 123577604.11948  96294224.25348  23516047.3854   23516047.9064   23516047.3664
       229.000         182.000
 130227319.39348 101475816.49748  24781447.4964   24781450.2794   24781448.3284
       217.000         154.000
 09  1 13  0 48  0.0000000  0 10G 5G28G26G 9G27G15G18G17G12G10
 140009204.42648  91305860.73048  24739937.4534   24739942.1284   24739937.4574
       206.000         152.000
 123733692.89348  96415856.56848  23545745.1514   23545747.2424   23545745.7754
       229.000         181.000
 110023346.93348  85732453.81748  20936766.4924   20936768.9154   20936766.3684
       249.000         220.000
 110265033.49348  85920787.06248  20982753.6814   20982756.1884   20982754.1484
       245.000         214.000
 130382886.29048 101597030.43148  24811057.0894   24811060.4164   24811057.6674
       216.000         167.000
 116858544.79448  73266393.77548  20334507.7764   20334509.1154   20334507.5574
       254.000         241.000
 119081323.22248  92790629.70848  22660432.2274   22660433.8164   22660431.8144
       233.000         188.000
 123701196.37948  96390539.25348  23539557.5224   23539559.3744   23539557.5374
       224.000         178.000
 123470736.60348  96210950.87348  23495711.4534   23495711.8674   23495711.6484
       225.000         181.000
 130338348.40048 101562332.48548  24802576.3144   24802578.9624   24802577.4474
       214.000         151.000
 09  1 13  0 48 30.0000000  0 10G 5G28G26G 9G27G15G18G17G12G10
 139894636.37848  91216586.97548  24718135.9904   24718140.4334   24718136.5994
       214.000         153.000
 123818066.77348  96481602.46148  23561801.3804   23561802.9164   23561802.5054
       227.000         178.000
 110082636.07248  85778653.13348  20948048.7644   20948051.2574   20948048.6964
       248.000         220.000
 110206263.24148  85874992.06748  20971570.0774   20971572.6184   20971570.5604
       246.000         215.000
 130454156.02448 101652565.30348  24824619.5494   24824622.9574   24824619.2994
       214.000         166.000
 116866434.62648  73272541.69148  20336009.2924   20336010.4524   20336009.1464
       254.000         241.000
 119034064.57748  92753804.78148  22651439.2694   22651440.6694   22651439.5964
       231.000         187.000
 123660601.50348  96358906.88248  23531832.8214   23531834.2384   23531832.2404
       222.000         177.000
 123364067.93748  96127832.44448  23475412.2964   23475413.8304   23475411.2254
       226.000         181.000
 130449346.97848 101648824.84248  24823697.8584   24823700.6544   24823699.7004
       205.000         144.000
 09  1 13  0 49  0.0000000  0 10G 5G28G26G 9G27G15G18G17G12G10
 139780159.70448  91127384.43548  24696352.8714   24696355.0214   24696353.7774
       215.000         154.000
 123902668.98548  96547526.25748  23577900.2204   23577902.1494   23577901.0394
       226.000         178.000
 110142302.38448  85825146.35448  20959402.8994   20959405.4884   20959402.6704
       248.000         220.000
 110147785.12348  85829424.71248  20960442.2264   20960444.6344   20960442.5304
       246.000         215.000
 130525430.19448 101708103.61648  24838182.0044   24838185.9344   24838181.3554
       214.000         167.000
 116874765.65648  73279033.39748  20337594.6484   20337595.7854   20337594.4674
       254.000         241.000
 118987326.21448  92717385.26748  22642545.4474   22642546.7744   22642546.3294
       232.000         188.000
 123620448.95448  96327619.19448  23524191.9344   23524193.6204   23524191.0664
       224.000         178.000
 123257599.81948  96044870.29248  23455151.9684   23455154.0204   23455152.2464
       224.000         180.000
 130560312.81548 101735291.65748  24844812.4574   24844816.9584   24844813.0674
       206.000         149.000
 09  1 13  0 49 30.0000000  0 10G 5G28G26G 9G27G15G18G17G12G10
 139665776.12748  91038254.40948  24674586.9414   24674588.2404   24674587.7704
       213.000         154.000
 123987497.16848  96613626.12348  23594042.4044   23594044.5734   23594042.8484
       225.000         178.000
 110202345.02348  85871932.82448  20970828.6584   20970831.1264   20970828.5534
       248.000         220.000
 110089599.49948  85784085.26548  20949369.8564   20949372.2514   20949370.1104
       246.000         216.000
 130596708.51748 101763645.15048  24851745.6684   24851749.7344   24851745.6284
       215.000         166.000
 116883538.15748  73285869.10948  20339264.0164   20339265.1504   20339263.8634
       254.000         241.000
 118941109.23748  92681372.04948  22633750.3604   22633752.0784   22633750.7454
       231.000         187.000
 123580740.53548  96296677.57948  23516635.6364   23516637.2884   23516635.5914
       223.000         177.000
 123151334.43348  95962066.11348  23434930.1384   23434932.9494   23434929.8654
       226.000         183.000
 130671243.02148 101821730.65548  24865923.4144   24865926.5854   24865923.0604
       216.000         160.000
 09  1 13  0 50  0.0000000  0 10G 5G28G26G 9G27G15G18G17G12G10
 139551487.65048  90949198.48448  24652838.5694   24652839.4684   24652838.9224
       209.000         152.000
 124072548.94648  96679900.24048  23610227.6824   23610228.9194   23610228.3204
       228.000         177.000
 110262763.46248  85919012.11948  20982325.9364   20982328.2294   20982326.1114
       249.000         219.000
 110031706.43948  85738973.79948  20938353.2034   20938355.4274   20938353.7124
       247.000         216.000
 130667990.90048 101819189.85448  24865310.5484   24865314.1814   24865310.0734
       215.000         166.000
 116892752.80648  73293049.35148  20341017.4544   20341018.6144   20341017.2674
       254.000         240.000
 118895415.46448  92645766.48948  22625055.0224   22625056.6524   22625055.5984
       231.000         188.000
 123541478.37748  96266083.68448  23509164.3024   23509165.6924   23509163.7004
       224.000         179.000
 123045274.07748  95879421.67748  23414747.7254   23414750.0804   23414747.5264
       226.000         182.000
 130782135.39548 101908140.27148  24887026.4484   24887029.4724   24887027.5074
       216.000         160.000
 09  1 13  0 50 30.0000000  0 10G 5G28G26G 9G27G15G18G17G12G10
 139437296.19548  90860218.17248  24631107.8284   24631110.0844   24631107.0704
       211.000         152.000
 124157822.29448  96746347.00848  23626454.5984   23626455.8684   23626456.2404
       227.000         177.000
 110323557.09948  85966383.77548  20993894.4734   20993897.0524   20993894.5144
       248.000         219.000
 109974106.45048  85694090.69448  20927392.3404   20927394.6214   20927392.7464
       246.000         216.000
 130739277.46348 101874737.80348  24878875.7394   24878879.5434   24878875.7374
       218.000         166.000
 116902410.34948  73300574.70048  20342855.1784   20342856.4224   20342854.9284
       253.000         240.000
 118850246.18048  92610569.64548  22616459.5634   22616461.3724   22616460.2624
       234.000         188.000
 123502664.59048  96235839.16948  23501778.3814   23501780.0354   23501778.0424
       223.000         179.000
 122939420.68048  95796938.52048  23394604.8814   23394606.5684   23394604.7774
       228.000         183.000
 130892987.30448 101994518.26948  24908119.7104   24908125.1944   24908120.1714
       201.000         139.000
 09  1 13  0 51  0.0000000  0 10G 5G28G26G 9G27G15G18G17G12G10
 139323203.80148  90771315.05948  24609396.5834   24609399.6884   24609397.3604
       212.000         155.000
 124243314.56548  96812964.37348  23642723.3274   23642724.5294   23642723.9824
       227.000         176.000
 110384725.44248  86014047.41248  21005534.6384   21005537.0114   21005534.4914
       248.000         219.000
 109916800.66048  85649436.84348  20916487.1894   20916489.9424   20916487.5754
       246.000         216.000
 130810568.15848 101930288.97548  24892441.7444   24892445.6424   24892442.2694
       216.000         167.000
 116912511.24848  73308445.52848  20344777.2884   20344778.6444   20344776.9574
       254.000         240.000
 118805602.99448  92575782.74648  22607964.7834   22607966.2734   22607965.4474
       234.000         188.000
 123464301.38848  96205945.76348  23494477.5534   23494479.4704   23494476.7764
       224.000         179.000
 122833776.56748  95714618.43648  23374501.6134   23374502.6214   23374501.2004
       228.000         183.000
 131003796.49048 102080863.14748  24929205.9974   24929209.0984   24929205.7714
       208.000         138.000
 09  1 13  0 51 30.0000000  0 10G 5G28G26G 9G27G15G18G17G12G10
 139209213.97448  90682491.86048  24587705.5564   24587708.7244   24587705.9174
       215.000         160.000
 124329025.55348  96879752.14448  23659033.2864   23659034.6184   23659033.7864
       225.000         176.000
 110446269.11648  86062003.51548  21017245.9304   21017248.2134   21017245.8314
       249.000         219.000
 109859790.55948  85605013.38948  20905638.6514   20905640.9994   20905638.9324
       246.000         216.000
 130881864.35248 101985844.45548  24906009.6684   24906013.0964   24906010.3374
       218.000         166.000
 116923058.00748  73316663.78148  20346784.2274   20346785.6604   20346783.9724
       255.000         240.000
 118761488.78548  92541408.02948  22599569.8274   22599571.4274   22599570.2884
       233.000         189.000
 123426392.00148  96176405.99848  23487264.0184   23487265.8934   23487263.7744
       226.000         182.000
 122728345.12648  95632464.07848  23354438.3774   23354439.3064   23354439.0694
       227.000         183.000
 131114561.32948 102167173.42848  24950284.9694   24950288.3014   24950286.0534
       217.000         154.000
 09  1 13  0 52  0.0000000  0 10G 5G28G26G 9G27G15G18G17G12G10
 139095327.30748  90593749.05948  24566032.9534   24566037.5454   24566033.2104
       212.000         160.000
 124414951.35748  96946707.33048  23675384.4424   23675386.0984   23675383.8474
       227.000         178.000
 110508186.28848  86110250.65248  21029028.4194   21029030.7324   21029028.4904
       248.000         219.000
 109803075.68148  85560819.98848  20894846.1434   20894848.5804   20894846.3194
       247.000         217.000
 130953164.84648 102041403.27548  24919577.1424   24919580.8664   24919578.4664
       218.000         163.000
 116934049.97548  73325228.94648  20348875.8804   20348877.3444   20348875.7754
       254.000         240.000
 118717904.23048  92507446.03248  22591275.8544   22591277.3344   22591276.3604
       233.000         188.000
 123388937.19648  96147220.42348  23480136.5714   23480138.3294   23480136.6004
       226.000         180.000
 122623127.38948  95550476.23648  23334415.9854   23334417.3314   23334415.5784
       229.000         184.000
 131225278.59448 102253446.55748  24971354.0644   24971357.1164   24971355.8034
       214.000         156.000
 09  1 13  0 52 30.0000000  0 10G 5G28G26G 9G27G15G18G17G12G10
 138981545.24448  90505087.72348  24544380.6414   24544384.7804   24544380.7104
       210.000         160.000
 124501089.17548  97013827.69748  23691776.2844   23691777.8494   23691777.2584
       225.000         176.000
 110570475.69948  86158787.84748  21040881.6194   21040884.2834   21040881.4804
       247.000         219.000
 109746655.75048  85516856.40648  20884109.7364   20884111.9914   20884110.2084
       247.000         216.000
 131024469.12948 102096965.03848  24933146.1044   24933149.2944   24933146.9364
       218.000         164.000
 116945487.23648  73334141.09348  20351052.3434   20351053.8014   20351052.1454
       255.000         240.000
 118674849.67348  92473897.03048  22583082.7894   22583084.3174   22583083.5904
       234.000         189.000
 123351938.54448  96118390.32848  23473096.3204   23473097.8334   23473096.0994
       228.000         182.000
 122518124.89648  95468656.12048  23314434.6374   23314436.2994   23314434.3494
       230.000         184.000
 131335945.72348 102339680.53648  24992411.5514   24992417.3854   24992412.6934
       202.000         147.000
 09  1 13  0 53  0.0000000  0 10G 5G28G26G 9G27G15G18G17G12G10
 138867869.51948  90416509.26248  24522748.9294   24522752.6434   24522749.8134
       213.000         160.000
 124587436.61548  97081111.41348  23708207.4784   23708209.0224   23708207.7344
       226.000         175.000
 110633136.72248  86207614.60448  21052805.5914   21052808.2194   21052805.3914
       248.000         218.000
 109690531.08048  85473122.90348  20873429.6604   20873432.0094   20873429.9044
       247.000         216.000
 131095776.96848 102152529.57848  24946715.6844   24946719.0154   24946716.2354
       218.000         164.000
 116957370.14648  73343400.50248  20353313.5674   20353315.0054   20353313.2434
       255.000         240.000
 118632326.55448  92440762.11648  22574991.1014   22574992.0784   22574991.7554
       234.000         188.000
 123315398.06748  96089917.23848  23466142.2764   23466144.6084   23466142.8704
       225.000         181.000
 122413339.95848  95387005.52348  23294494.6364   23294496.7244   23294494.8834
       228.000         185.000
 131446560.04248 102425873.44148  25013461.0034   25013465.7484   25013460.9574
       213.000         147.000
 09  1 13  0 53 30.0000000  0 10G 5G28G26G 9G27G15G18G17G12G10
 138754300.67148  90328014.07948  24501138.3444   24501141.2724   24501140.7704
       213.000         159.000
 124673990.03548  97148555.64248  23724677.9204   23724679.3464   23724678.7394
       225.000         175.000
 110696167.00848  86256729.10448  21064799.8354   21064802.3634   21064799.6914
       247.000         218.000
 109634700.68848  85429618.70048  20862805.4214   20862807.5154   20862805.7714
       247.000         216.000
 131167087.05848 102208095.87348  24960284.9574   24960288.8004   24960284.9914
       212.000         163.000
 116969698.05648  73353006.65948  20355659.5754   20355660.8514   20355659.3254
       255.000         240.000
 118590334.90648  92408041.33948  22567000.4594   22567001.6654   22567001.1004
       234.000         190.000
 123279316.13048  96061801.46648  23459276.0444   23459277.9494   23459275.6984
       225.000         177.000
 122308772.77248  95305524.61748  23274596.0454   23274598.0914   23274595.8064
       228.000         185.000
 131557117.36048 102512022.05348  25034500.2184   25034502.6544   25034500.7334
       214.000         148.000
 09  1 13  0 54  0.0000000  0 10G 5G28G26G 9G27G15G18G17G12G10
 138640844.13248  90239606.43548  24479548.4754   24479551.4014   24479549.3034
       215.000         161.000
 124760750.76748  97216161.40948  23741187.7764   23741189.5064   23741187.3934
       224.000         175.000
 110759569.36848  86306133.53848  21076864.9744   21076867.2454   21076864.8074
       247.000         218.000
 109579168.32748  85386346.73548  20852237.8684   20852240.2724   20852237.9034
       247.000         217.000
 131238402.82948 102263666.61148  24973856.3564   24973859.7464   24973855.4854
       217.000         165.000
 116982474.89648  73362962.63248  20358090.9854   20358092.2054   20358090.7894
       255.000         240.000
 118548879.49848  92375738.42048  22559111.6744   22559113.0624   22559112.5274
       233.000         190.000
 123243698.20148  96034047.23948  23452498.4944   23452500.4174   23452498.4974
       225.000         179.000
 122204428.85748  95224217.68848  23254740.4054   23254742.1794   23254740.5254
       229.000         185.000
 131667618.78848 102598127.00448  25055527.9054   25055531.9914   25055528.6304
       205.000         148.000
 09  1 13  0 54 30.0000000  0 10G 5G28G26G 9G27G15G18G17G12G10
 138527501.00448  90151287.17048  24457980.0164   24457983.1924   24457980.3824
       212.000         162.000
 124847715.71248  97283926.30548  23757736.5854   23757738.7024   23757736.8734
       225.000         174.000
 110823342.24548  86355826.67948  21089000.3374   21089002.9784   21089000.2464
       247.000         218.000
 109523933.85648  85343306.89548  20841727.0854   20841729.5364   20841726.9114
       246.000         217.000
 131309723.11348 102319240.82848  24987428.5634   24987432.3674   24987428.8254
       216.000         165.000
 116995700.18748  73373268.04648  20360607.6564   20360608.9604   20360607.2704
       255.000         240.000
 118507960.76248  92343853.68448  22551325.1234   22551326.4714   22551325.2064
       234.000         192.000
 123208545.48848  96006655.52648  23445809.1414   23445810.9124   23445809.3634
       224.000         179.000
 122100309.58948  95143085.78048  23234927.4594   23234928.8694   23234927.0344
       229.000         185.000
 131778061.09448 102684185.82048  25076544.1984   25076547.8894   25076544.9794
       209.000         150.000
 09  1 13  0 55  0.0000000  0 10G 5G28G26G 9G27G15G18G17G12G10
 138414272.73148  90063057.36848  24436432.1714   24436436.6434   24436431.5894
       213.000         161.000
 124934882.29448  97351848.30148  23774324.1544   23774326.0394   23774325.6794
       226.000         174.000
 110887484.33148  86405807.51848  21101206.2294   21101208.8904   21101206.0164
       247.000         217.000
 109468997.16248  85300499.08948  20831273.1024   20831275.5014   20831273.3274
       247.000         217.000
 131381047.54248 102374818.30448  25001000.9964   25001004.0864   25001001.1284
       218.000         162.000
 117009374.21848  73383923.12848  20363209.7334   20363211.1384   20363209.4134
       255.000         240.000
 118467579.58548  92312387.83648  22543641.1444   22543642.2254   22543641.7174
       235.000         192.000
 123173859.05248  95979627.13548  23439208.6184   23439210.0434   23439208.3114
       224.000         180.000
 121996416.83748  95062130.41348  23215157.1714   23215158.2904   23215158.0174
       228.000         184.000
 131888441.03848 102770196.05448  25097548.3844   25097552.4614   25097549.7534
       212.000         149.000
 09  1 13  0 55 30.0000000  0 10G 5G28G26G 9G27G15G18G17G12G10
 138301160.71648  89974918.14248  24414907.9674   24414911.9564   24414908.0934
       216.000         161.000
 125022247.67448  97419925.23248  23790949.3804   23790950.7424   23790950.0424
       223.000         169.000
 110951994.34448  86456075.04948  21113482.1034   21113484.6384   21113481.9584
       247.000         217.000
 109414357.78248  85257922.95748  20820875.4834   20820877.9164   20820875.5774
       246.000         217.000
 131452375.77548 102430398.72448  25014573.5394   25014578.2144   25014574.6534
       216.000         162.000
 117023496.99848  73394927.88448  20365897.3254   20365898.6104   20365897.2364
       255.000         240.000
 118427736.93848  92281341.61848  22536059.1814   22536060.5444   22536060.0404
       234.000         193.000
 123139640.57548  95952963.37748  23432696.8954   23432698.4024   23432696.3844
       226.000         180.000
 121892751.86548  94981352.50348  23195430.1014   23195430.9434   23195429.4084
       228.000         184.000
 131998755.53848 102856155.24548  25118540.7294   25118544.5634   25118542.1614
       213.000         147.000
 09  1 13  0 56  0.0000000  0 10G 5G28G26G 9G27G15G18G17G12G10
 138188168.62548  89886872.37248  24393406.7964   24393409.9664   24393408.2984
       216.000         162.000
 125109811.08248  97488156.44848  23807611.7154   23807613.4544   23807611.5114
       224.000         166.000
 111016873.51248  86506630.23648  21125828.2754   21125830.8204   21125828.1154
       248.000         217.000
 109360018.26448  85215580.47748  20810535.1844   20810537.4414   20810535.0864
       247.000         217.000
 131523709.55448 102485983.45448  25028148.8374   25028151.5994   25028148.9474
       218.000         161.000
 117038070.71048  73406284.01848  20368670.5754   20368671.9014   20368670.4674
       255.000         240.000
 118388435.76348  92250717.32648  22528580.2864   22528581.9054   22528580.6824
       234.000         192.000
 123105893.67948  95926667.10148  23426275.0684   23426276.9454   23426274.8764
       227.000         182.000
 121789318.63048  94900755.18048  23175747.0504   23175748.5464   23175746.7614
       229.000         186.000
 132109004.33048 102942063.28748  25139520.2234   25139523.8714   25139521.6774
       204.000         142.000
 09  1 13  0 56 30.0000000  0 10G 5G28G26G 9G27G15G18G17G12G10
 138075296.86748  89798920.40148  24371928.3704   24371931.2424   24371928.8524
       216.000         163.000
 125197569.15848  97556539.38348  23824311.9014   23824312.6814   23824312.6204
       224.000         167.000
 111082119.46348  86557471.22948  21138244.3804   21138246.7164   21138244.3424
       248.000         217.000
 109305977.77948  85173471.01848  20800251.2224   20800253.8694   20800251.6734
       247.000         217.000
 131595047.41948 102541571.37348  25041723.8134   25041727.4284   25041724.1784
       215.000         165.000
 117053094.62348  73417990.96048  20371529.4594   20371530.8404   20371529.1904
       255.000         239.000
 118349675.85048  92220514.80348  22521204.0924   22521206.0954   22521204.7414
       234.000         193.000
 123072618.29648  95900738.24848  23419943.1374   23419945.2044   23419942.6684
       227.000         183.000
 121686117.76948  94820338.94048  23156108.4094   23156110.6154   23156108.2704
       228.000         187.000
 132219183.86448 103027917.29848  25160487.4374   25160491.5634   25160489.0374
       207.000         147.000
 09  1 13  0 57  0.0000000  0 10G 5G28G26G 9G27G15G18G17G12G10
 137962547.90448  89711064.10348  24350473.0614   24350475.8944   24350474.1804
       215.000         162.000
 125285519.91748  97625072.46948  23841048.5344   23841049.1164   23841049.4214
       225.000         167.000
 111147731.73948  86608597.66748  21150729.8794   21150732.2144   21150729.9194
       247.000         216.000
 109252236.91448  85131595.01748  20790024.9524   20790027.3614   20790024.6854
       247.000         218.000
 131666389.63248 102597162.69148  25055299.0804   25055303.8844   25055298.5434
       215.000         162.000
 117068569.62048  73430049.39748  20374474.1704   20374475.5754   20374473.9124
       254.000         239.000
 118311458.84848  92190735.32348  22513931.9494   22513933.5964   22513932.3144
       235.000         194.000
 123039817.23648  95875178.97748  23413701.5084   23413703.1434   23413701.2144
       227.000         184.000
 121583151.65248  94740105.62048  23136514.4484   23136517.1184   23136513.7734
       229.000         188.000
 132329291.65648 103113715.41448  25181439.9564   25181444.1914   25181441.2014
       208.000         147.000
 09  1 13  0 57 30.0000000  0 10G 5G28G26G 9G27G15G18G17G12G10
 137849922.80648  89623304.32948  24329040.7694   24329043.5984   24329042.3014
       217.000         162.000
 125373660.40148  97693753.34248  23857821.3994   23857822.0364   23857822.2284
       224.000         171.000
 111213708.91848  86660008.43948  21163284.8544   21163287.3624   21163284.6834
       247.000         216.000
 109198795.64948  85089952.47448  20779855.5334   20779857.6904   20779855.5364
       248.000         219.000
 131737735.44448 102652756.88548  25068876.2704   25068879.7964   25068875.9224
       217.000         163.000
 117084495.37448  73442459.06648  20377504.8014   20377506.1894   20377504.5894
       254.000         239.000
 118273785.20948  92161379.23748  22506763.3224   22506764.6254   22506763.5774
       236.000         194.000
 123007491.44748  95849990.07448  23407550.2974   23407551.7644   23407549.7234
       229.000         185.000
 121480421.55848  94660056.18748  23116966.0594   23116967.8834   23116966.2854
       229.000         187.000
 132439324.98948 103199455.51248  25202378.2734   25202382.3364   25202378.8024
       210.000         146.000
 09  1 13  0 58  0.0000000  0 10G 5G28G26G 9G27G15G18G17G12G10
 137737424.64848  89535643.40748  24307633.0604   24307636.0954   24307633.2474
       219.000         163.000
 125461989.45648  97762581.17648  23874629.5174   23874630.8524   23874629.8344
       224.000         172.000
 111280051.36048  86711703.84048  21175909.4424   21175911.7604   21175909.3004
       248.000         216.000
 109145655.12048  85048544.27748  20769743.2954   20769745.8164   20769743.4974
       247.000         219.000
 131809086.06648 102708354.70548  25082454.1884   25082457.3194   25082454.4514
       220.000         164.000
 117100873.40748  73455221.16648  20380621.3624   20380622.8654   20380621.1674
       254.000         239.000
 118236657.14748  92132448.27948  22499698.0814   22499699.2394   22499698.4584
       237.000         193.000
 122975643.78848  95825173.73148  23401489.6254   23401491.4524   23401489.1814
       228.000         184.000
 121377930.64948  94580193.14848  23097462.4954   23097464.0474   23097462.5164
       227.000         185.000
 132549282.53248 103285136.57248  25223302.8644   25223307.2994   25223303.9064
       201.000         144.000
 09  1 13  0 58 30.0000000  0 10G 5G28G26G 9G27G15G18G17G12G10
 137625055.35848  89448082.92848  24286249.6474   24286253.1164   24286250.9464
       219.000         167.000
 125550504.90548  97831554.23548  23891473.4184   23891474.6014   23891473.6564
       223.000         169.000
 111346758.40448  86763683.34148  21188603.4774   21188605.7644   21188603.3524
       248.000         216.000
 109092816.03448  85007370.96448  20759688.1204   20759690.7734   20759688.3234
       248.000         219.000
 131880441.75048 102763956.52148  25096032.3124   25096035.7824   25096032.6604
       220.000         166.000
 117117704.42548  73468336.23748  20383824.2444   20383825.6474   20383823.9604
       253.000         238.000
 118200076.06348  92103943.53248  22492736.6824   22492737.9874   22492736.8814
       237.000         195.000
 122944276.18948  95800731.45948  23395520.2464   23395521.9204   23395519.9114
       227.000         182.000
 121275681.14148  94500518.20648  23078005.1524   23078006.3754   23078004.7284
       226.000         186.000
 132659161.61548 103370756.50148  25244213.4824   25244216.4584   25244213.3734
       204.000         142.000
 09  1 13  0 59  0.0000000  0 10G 5G28G26G 9G27G15G18G17G12G10
 137512816.73648  89360624.27848  24264891.6444   24264894.6914   24264892.9984
       218.000         167.000
 125639204.39448  97900670.71748  23908352.3754   23908353.3114   23908352.7134
       222.000         166.000
 111413828.86048  86815946.02648  21201366.4494   21201369.0484   21201366.4104
       246.000         216.000
 109040278.52248  84966432.65148  20749690.5994   20749693.0744   20749691.0184
       247.000         219.000
 131951802.21548 102819562.12148  25109611.5074   25109615.2204   25109612.6254
       215.000         164.000
 117134988.53548  73481804.36748  20387113.2664   20387114.5734   20387112.9544
       254.000         238.000
 118164043.11848  92075865.91448  22485880.0984   22485881.0674   22485881.0964
       237.000         194.000
 122913390.19448  95776664.44848  23389642.8234   23389644.9664   23389642.6384
       230.000         183.000
 121173674.61848  94421032.61948  23058593.9454   23058595.5964   23058593.5474
       226.000         188.000
 132768959.88548 103456313.41648  25265106.8344   25265110.6454   25265107.7644
       206.000         142.000
 09  1 13  0 59 30.0000000  0 10G 5G28G26G 9G27G15G18G17G12G10
 137400710.16948  89273268.57148  24243558.0424   24243561.5434   24243558.0254
       216.000         165.000
 125728085.39248  97969928.63748  23925265.7904   23925266.5284   23925267.2024
       223.000         163.000
 111481261.66548  86868491.05448  21214198.4004   21214201.0614   21214198.3754
       246.000         215.000
 108988042.77448  84925729.47248  20739750.4514   20739752.9014   20739750.6264
       248.000         219.000
 132023167.06048 102875171.06548  25123192.0624   25123196.2324   25123191.6414
       216.000         163.000
 117152726.01848  73495625.77448  20390488.7054   20390489.9624   20390488.4574
       254.000         238.000
 118128558.84648  92048215.82148  22479127.7304   22479128.8804   22479127.8934
       237.000         195.000
 122882987.06648  95752973.69748  23383857.6074   23383859.3764   23383857.7554
       229.000         183.000
 121071913.12248  94341737.96248  23039229.4494   23039231.1844   23039228.9834
       227.000         189.000
 132878674.21748 103541804.96148  25285984.8034   25285989.3584   25285986.0584
       208.000         147.000
 09  1 13  1  0  0.0000000  0 10G 5G28G26G 9G27G15G18G17G12G10
 137288737.97348  89186017.51748  24222250.9134   24222253.6474   24222251.5464
       217.000         164.000
 125817146.05448  98039326.56748  23942213.2544   23942214.0074   23942214.5724
       221.000         162.000
 111549056.08348  86921317.86348  21227099.4584   21227101.7914   21227099.3804
       247.000         216.000
 108936109.13348  84885261.70248  20729867.9344   20729870.1294   20729868.1104
       248.000         219.000
 132094536.49548 102930783.56148  25136773.7034   25136776.6664   25136773.6424
       216.000         165.000
 117170917.35648  73509800.83848  20393950.4674   20393951.7214   20393950.2534
       254.000         238.000
 118093624.52548  92020994.27848  22472480.0674   22472480.8784   22472481.2784
       236.000         195.000
 122853068.93148  95729660.87048  23378164.2464   23378165.6974   23378163.9504
       230.000         182.000
 120970398.60748  94262635.75148  23019912.1314   23019913.8984   23019911.8704
       230.000         190.000
 132988302.94648 103627229.81348  25306846.5744   25306850.9004   25306846.8034
       205.000         145.000
 09  1 13  1  0 30.0000000  0 10G 5G28G26G 9G27G15G18G17G12G10
 137176901.99048  89098872.58248  24200968.7034   24200972.3014   24200969.3404
       215.000         163.000
 125906383.93948  98108862.59748  23959194.4564   23959195.3274   23959194.7144
       222.000         162.000
 111617211.42048  86974425.91448  21240068.9484   21240071.4684   21240068.7794
       247.000         216.000
 108884478.32248  84845029.90448  20720042.7984   20720045.2704   20720042.6214
       247.000         219.000
 132165910.57648 102986399.73248  25150355.6284   25150359.4454   25150355.1084
       216.000         165.000
 117189563.15048  73524330.02348  20397498.4494   20397499.8174   20397498.2004
       254.000         238.000
 118059241.26048  91994202.11148  22465936.9164   22465938.1844   22465936.9754
       238.000         195.000
 122823637.28948  95706727.12048  23372563.6214   23372565.3664   23372563.5494
       229.000         184.000
 120869133.24548  94183727.68248  23000642.6374   23000643.9944   23000643.0704
       231.000         190.000
 133097843.72148 103712586.09348  25327691.4164   25327696.8564   25327690.7524
       206.000         141.000
 09  1 13  1  1  0.0000000  0 10G 5G28G26G 9G27G15G18G17G12G10
 137065205.08248  89011836.04748  24179712.9944   24179716.9204   24179713.0614
       217.000         164.000
 125995797.84748  98178535.76348  23976209.5054   23976210.3934   23976208.3724
       220.000         164.000
 111685727.70448  87027815.21148  21253107.1184   21253109.5814   21253107.0964
       247.000         215.000
 108833151.94248  84805035.32148  20710275.8144   20710278.2324   20710275.7734
       249.000         220.000
 132237290.32748 103042020.31148  25163938.3584   25163942.0774   25163937.7144
       218.000         162.000
 117208664.31648  73539214.04248  20401133.4374   20401134.6984   20401133.3524
       254.000         238.000
 118025411.51748  91967841.27148  22459499.4704   22459500.5284   22459500.6204
       237.000         194.000
 122794694.90248  95684174.62248  23367056.2124   23367057.6544   23367055.7774
       230.000         184.000
 120768120.00448  94105016.05748  22981420.0404   22981421.9334   22981419.7014
       229.000         190.000
 133207295.32148 103797872.96248  25348519.9564   25348524.0414   25348521.0084
       205.000         142.000
 09  1 13  1  1 30.0000000  0 10G 5G28G26G 9G27G15G18G17G12G10
 136953648.12248  88924908.55148  24158484.9694   24158488.0124   24158486.3444
       220.000         167.000
 126085384.61048  98248343.63248  23993257.5744   23993258.4604   23993258.3864
       221.000         165.000
 111754603.03748  87081484.29348  21266213.6654   21266216.0024   21266213.5454
       246.000         215.000
 108782129.12448  84765277.28548  20700566.5014   20700568.8434   20700566.9994
       249.000         220.000
 132308674.83148 103097644.57348  25177522.5424   25177526.4514   25177522.7024
       214.000         157.000
 117228220.67048  73554452.75048  20404854.7074   20404856.1464   20404854.3724
       253.000         238.000
 117992134.71448  91941911.30548  22453166.8744   22453168.2694   22453167.6664
       236.000         194.000
 122766242.50448  95662003.93548  23361641.5424   23361642.9624   23361641.4204
       231.000         184.000
 120667359.91248  94026501.70348  22962246.0184   22962248.0174   22962246.0624
       230.000         191.000
 133316654.33148 103883087.84548  25369329.9444   25369332.2884   25369329.7394
       205.000         137.000
 09  1 13  1  2  0.0000000  0 10G 5G28G26G 9G27G15G18G17G12G10
 136842232.54648  88838091.26448  24137283.7014   24137286.4294   24137284.9314
       221.000         167.000
 126175141.66648  98318284.19148  24010337.8614   24010339.2024   24010338.7724
       219.000         163.000
 111823836.18248  87135432.19048  21279388.3464   21279390.7444   21279388.1744
       248.000         215.000
 108731409.70148  84725755.65448  20690914.8994   20690917.1364   20690915.2034
       249.000         220.000
 132380063.59548 103153272.18348  25191107.7974   25191111.1664   25191108.3654
       214.000         158.000
 117248231.94148  73570045.94048  20408662.7984   20408664.2074   20408662.4294
       253.000         238.000
 117959411.90348  91916413.00148  22446939.8354   22446941.2564   22446940.1344
       236.000         194.000
 122738281.01648  95640215.76248  23356321.2974   23356322.2444   23356321.3924
       230.000         185.000
 120566854.35748  93948185.69048  22943120.2374   22943122.2534   22943119.9754
       229.000         191.000
 133425917.58748 103968228.42448  25390122.7534   25390123.9214   25390122.5724
       207.000         138.000
 09  1 13  1  2 30.0000000  0 10G 5G28G26G 9G27G15G18G17G12G10
 136730961.05448  88751386.21248  24116109.9424   24116112.0914   24116110.4424
       223.000         170.000
 126265067.19948  98388356.03848  24027449.8644   24027451.2784   24027450.8144
       219.000         162.000
 111893427.02248  87189658.81348  21292631.2444   21292633.3874   21292631.4384
       246.000         215.000
 108680995.20148  84686471.63248  20681321.2434   20681323.7434   20681321.0734
       248.000         220.000
 132451457.37648 103208903.68648  25204693.2124   25204696.1614   25204694.1944
       217.000         159.000
 117268699.42748  73585994.62748  20412557.7854   20412559.0924   20412557.6004
       253.000         237.000
 117927244.54248  91891347.52748  22440818.5734   22440820.0514   22440819.3404
       237.000         193.000
 122710812.89848  95618812.04448  23351093.6184   23351095.3954   23351093.6084
       228.000         185.000
 120466606.25348  93870070.27648  22924043.7944   22924045.6044   22924043.4704
       231.000         191.000
 133535083.12348 104053292.37548  25410896.4124   25410899.4254   25410898.6054
       209.000         137.000
 09  1 13  1  3  0.0000000  0 10G 5G28G26G 9G27G15G18G17G12G10
 136619835.82748  88664795.14948  24094963.2084   24094965.8584   24094963.7684
       222.000         169.000
 126355159.60848  98458557.88048  24044593.9634   24044595.6174   24044594.7184
       219.000         162.000
 111963374.85648  87244163.61048  21305941.6454   21305944.2254   21305941.7774
       245.000         215.000
 108630885.99848  84647425.50548  20671785.7864   20671788.0954   20671786.1914
       247.000         220.000
 132522856.45848 103264539.34148  25218279.8034   25218283.8944   25218280.4754
       215.000         160.000
 117289623.58848  73602299.16348  20416539.3984   20416540.7714   20416539.1894
       253.000         237.000
 117895634.07548  91866715.99148  22434803.4674   22434804.5804   22434803.9054
       238.000         193.000
 122683840.08648  95597794.28848  23345960.8524   23345962.4604   23345960.7454
       230.000         186.000
 120366617.80248  93792157.20148  22905016.7394   22905018.1634   22905017.0904
       230.000         191.000
 133644149.56248 104138279.27648  25431651.4924   25431652.9664   25431653.1804
       212.000         144.000
 09  1 13  1  3 30.0000000  0 10G 5G28G26G 9G27G15G18G17G12G10
 136508858.29148  88578319.15648  24073844.4374   24073847.6944   24073845.1134
       219.000         169.000
 126445416.29948  98528887.77748  24061769.1234   24061771.2184   24061770.9334
       216.000         161.000
 112033678.41248  87298945.59148  21319320.3254   21319322.6864   21319320.1044
       247.000         215.000
 108581082.25648  84608617.39848  20662308.5404   20662310.9744   20662308.6824
       249.000         221.000
 132594260.49648 103320178.83048  25231867.8964   25231870.8724   25231867.7804
       211.000         157.000
 117311004.32148  73618959.46648  20420608.0114   20420609.3564   20420607.7714
       253.000         237.000
 117864581.17048  91842518.91148  22428894.3654   22428894.9684   22428895.4144
       235.000         192.000
 122657363.82448  95577163.43148  23340922.5454   23340924.4094   23340922.0684
       230.000         187.000
 120266890.63148  93714447.73248  22886039.0934   22886041.0434   22886039.1304
       229.000         191.000
 133753114.05248 104223186.66348  25452385.6284   25452388.3054   25452387.7884
       203.000         139.000
 09  1 13  1  4  0.0000000  0 10G 5G28G26G 9G27G15G18G17G12G10
 136398031.45448  88491960.59348  24052754.2114   24052758.0554   24052753.9664
       218.000         169.000
 126535836.14448  98599344.81148  24078975.4744   24078977.7194   24078975.0314
       216.000         160.000
 112104337.95348  87354004.96848  21332766.1724   21332768.5844   21332766.1804
       246.000         214.000
 108531585.37448  84570048.39848  20652889.4594   20652891.6904   20652890.0164
       248.000         220.000
 132665670.83248 103375823.21048  25245457.0464   25245459.7624   25245456.8974
       214.000         155.000
 117332843.17348  73635976.74548  20424763.8374   20424765.1984   20424763.6424
       253.000         237.000
 117834087.90448  91818757.92048  22423091.5494   22423092.6094   22423091.9604
       235.000         192.000
 122631386.89848  95556921.67048  23335979.5624   23335981.0724   23335978.9654
       231.000         187.000
 120167427.55648  93636944.05448  22867111.5854   22867113.8824   22867111.0234
       230.000         193.000
 133861974.87148 104308013.27248  25473100.7044   25473102.7754   25473101.1624
       200.000         139.000
 09  1 13  1  4 30.0000000  0 10G 5G28G26G 9G27G15G18G17G12G10
 136287356.59648  88405720.44248  24031693.6104   24031697.3844   24031693.9274
       219.000         171.000
 126626416.53648  98669926.90548  24096212.2104   24096214.3244   24096213.1234
       216.000         157.000
 112175352.07648  87409340.64448  21346279.7174   21346281.9884   21346279.6924
       246.000         214.000
 108482395.35848  84531718.51548  20643529.1604   20643531.2594   20643529.5094
       249.000         221.000
 132737086.91148 103431472.09248  25259046.6944   25259049.3174   25259045.8594
       218.000         158.000
 117355140.03148  73653350.91648  20429006.7354   20429008.1244   20429006.4374
       253.000         237.000
 117804154.43248  91795433.13448  22417395.4164   22417396.7134   22417396.2724
       236.000         193.000
 122605910.03548  95537069.56548  23331131.6094   23331133.1024   23331131.4984
       233.000         187.000
 120068230.21748  93559647.43448  22848235.1064   22848237.0364   22848234.6204
       230.000         192.000
 133970729.35448 104392756.69048  25493795.2834   25493799.5334   25493795.4384
       196.000         135.000
 09  1 13  1  5  0.0000000  0 11G 5G28G26G 9G27G15G18G17G22G12G10
 136176834.06148  88319599.00448  24010662.0514   24010665.8474   24010662.2674
       218.000         171.000
 126717153.48248  98740631.01448  24113479.3804   24113480.9674   24113481.8164
       214.000         157.000
 112246718.12848  87464950.54448  21359860.4474   21359862.7734   21359860.5874
       246.000         214.000
 108433511.07348  84493626.87248  20634226.5004   20634228.8604   20634226.8294
       249.000         221.000
 132808507.10248 103487124.20648  25272637.1484   25272641.1194   25272636.9634
       211.000         155.000
 117377893.34348  73671080.76248  20433336.5954   20433337.9534   20433336.3714
       252.000         236.000
 117774780.10548  91772544.03648  22411805.6214   22411806.9084   22411805.6854
       236.000         193.000
 122580933.31748  95517607.20648  23326378.6694   23326380.1084   23326378.6224
       233.000         188.000
 138249259.74158  89934488.09358  24405023.1745   24405022.9915   24405024.7255
       217.000         159.000
 119969299.23348  93482558.36348  22829409.2034   22829411.2064   22829409.6254
       232.000         193.000
 134079374.01548 104477414.81048  25514469.8894   25514472.1984   25514469.1374
       197.000         133.000
 09  1 13  1  5 30.0000000  0  9G 5G28G26G 9G27G15G18G17G10
 136066465.75848  88233597.76548  23989659.4144   23989663.2784   23989659.9084
       221.000         172.000
 126808044.73248  98811455.34648  24130774.8484   24130777.2284   24130776.2424
       213.000         158.000
 112318435.17448  87520833.95448  21373507.3944   21373510.0884   21373507.3154
       246.000         214.000
 108384933.07048  84455773.88548  20624982.5814   20624984.8694   20624982.5434
       249.000         221.000
 132879931.30048 103542779.38248  25286229.4804   25286232.6614   25286229.1414
       215.000         155.000
 117401103.36448  73689166.49148  20437753.1604   20437754.7744   20437752.8264
       252.000         236.000
 117745965.80748  91750091.33148  22406322.3414   22406323.3334   22406323.2804
       236.000         193.000
 122556458.20348  95498535.69348  23321720.7984   23321722.6924   23321720.5554
       233.000         187.000
 134187906.25248 104561985.24648  25535121.1424   25535130.7284   25535124.2254
       202.000         136.000
 09  1 13  1  6  0.0000000  0 11G 5G28G26G 9G27G15G18G17G22G12G10
 135956255.27648  88147719.48048  23968687.2544   23968690.9874   23968688.9174
       224.000         172.000
 126899090.08548  98882399.79248  24148100.1904   24148102.1884   24148100.2474
       215.000         156.000
 112390504.03648  87576991.49648  21387221.8004   21387224.4074   21387221.7024
       245.000         213.000
 108336662.94148  84418160.79848  20615797.0214   20615799.5924   20615797.5224
       248.000         221.000
 132951361.38348 103598439.12948  25299821.2054   25299825.2134   25299820.9724
       213.000         157.000
 117424772.22648  73707609.75448  20442257.3414   20442258.7024   20442257.1184
       253.000         236.000
 117717714.10548  91728077.01448  22400946.2134   22400947.8624   22400946.4724
       236.000         194.000
 122532487.93948  95479857.57348  23317159.7684   23317161.2494   23317159.5904
       234.000         188.000
 138102889.00748  89820432.90448  24377169.7074   24377169.3184   24377170.5434
       215.000         167.000
 119772244.32548  93329009.08948  22791910.7194   22791912.6774   22791910.5164
       229.000         192.000
 134296325.35448 104646467.49548  25555755.8224   25555757.8894   25555756.3564
       201.000         132.000
 09  1 13  1  6 30.0000000  0 11G 5G28G26G 9G27G15G18G17G22G12G10
 135846204.78348  88061965.86148  23947745.8244   23947748.8664   23947747.1474
       221.000         172.000
 126990287.84948  98953462.97948  24165454.3944   24165456.8024   24165454.6404
       212.000         156.000
 112462924.15948  87633422.76048  21401002.7274   21401005.2634   21401002.4404
       245.000         213.000
 108288701.75648  84380788.44748  20606670.2674   20606672.7214   20606670.1614
       249.000         222.000
 133022797.79048 103654103.85948  25313416.0964   25313419.7934   25313416.2314
       212.000         156.000
 117448900.36948  73726410.89948  20446848.7604   20446850.1264   20446848.5344
       253.000         236.000
 117690026.41848  91706502.18248  22395677.4764   22395678.9614   22395677.9364
       237.000         194.000
 122509024.35648  95461574.26748  23312694.8964   23312696.2484   23312694.8614
       232.000         188.000
 138030277.33248  89763852.44748  24363351.1634   24363352.1834   24363349.4994
       215.000         163.000
 119674126.51548  93252553.65848  22773239.4074   22773241.6704   22773239.5454
       231.000         193.000
 134404630.13848 104730860.73248  25576364.9964   25576367.5964   25576364.2564
       205.000         139.000
 09  1 13  1  7  0.0000000  0 10G 5G28G26G 9G27G15G18G17G22G12
 135736316.67948  87976338.79248  23926834.5464   23926837.8254   23926835.2884
       221.000         172.000
 127081636.06548  99024643.41348  24182837.6954   24182839.9784   24182836.6264
       214.000         156.000
 112535694.93348  87690127.24548  21414850.6774   21414853.2574   21414850.6294
       245.000         213.000
 108241050.48048  84343657.58148  20597602.7974   20597605.1914   20597603.1504
       249.000         222.000
 133094241.09248 103709773.94848  25327010.9244   25327015.0644   25327011.1284
       213.000         154.000
 117473488.56248  73745570.52348  20451527.7894   20451529.2434   20451527.6234
       253.000         236.000
 117662903.83948  91685367.70148  22390516.6694   22390517.7944   22390517.2174
       237.000         194.000
 122486069.30348  95443687.21948  23308326.3664   23308327.9954   23308326.0874
       231.000         187.000
 137958052.16248  89707573.02548  24349607.8564   24349609.0964   24349607.6214
       220.000         166.000
 119576285.28848  93176313.75048  22754620.9254   22754623.0604   22754621.2914
       232.000         194.000
 09  1 13  1  7 30.0000000  0 10G 5G28G26G 9G27G15G18G17G22G12
 135626592.04648  87890839.10748  23905954.9214   23905957.8964   23905955.2254
       221.000         173.000
 127173132.21948  99095939.08148  24200248.8764   24200250.7744   24200250.0454
       215.000         155.000
 112608814.93048  87747103.86248  21428765.0284   21428767.5904   21428765.0284
       245.000         213.000
 108193708.91748  84306768.04548  20588593.7564   20588596.2804   20588593.9494
       248.000         222.000
 133165690.68948 103765448.95148  25340608.7854   25340610.6394   25340609.2104
       214.000         151.000
 117498536.29248  73765088.23048  20456294.1414   20456295.7574   20456294.0044
       252.000         236.000
 117636346.49248  91664673.65848  22385462.7634   22385463.7844   22385463.4574
       237.000         194.000
 122463623.56048  95426197.03848  23304055.0534   23304056.6944   23304054.4074
       231.000         188.000
 137886214.45048  89651595.60648  24335937.7104   24335937.2904   24335937.1834
       217.000         167.000
 119478721.58848  93100290.10248  22736055.2024   22736057.1334   22736055.1144
       232.000         193.000
 09  1 13  1  8  0.0000000  0 10G 5G28G26G 9G27G15G18G17G22G12
 135517032.30848  87805467.92048  23885106.1634   23885109.3984   23885106.8414
       222.000         174.000
 127264773.33748  99167347.74948  24217687.9134   24217689.4894   24217689.3884
       211.000         155.000
 112682282.48448  87804351.30248  21442745.4734   21442747.9404   21442745.4814
       245.000         213.000
 108146676.74048  84270119.59848  20579643.7494   20579646.3204   20579644.2444
       248.000         222.000
 133237146.06048 103821128.41248  25354205.0174   25354207.7444   25354205.6844
       212.000         155.000
 117524043.16048  73784963.70448  20461147.9744   20461149.5404   20461147.7714
       252.000         236.000
 117610354.39348  91644420.06048  22380516.4464   22380517.6524   22380516.5724
       236.000         193.000
 122441688.12248  95409104.48348  23299880.7964   23299882.8984   23299880.3064
       231.000         188.000
 137814765.85148  89595921.38048  24322341.3144   24322341.8624   24322341.4814
       213.000         164.000
 119381436.85148  93024483.81848  22717542.8254   22717543.8434   22717542.7704
       232.000         194.000
 09  1 13  1  8 30.0000000  0 10G 5G28G26G 9G27G15G18G17G22G12
 135407639.57448  87720226.83348  23864289.3334   23864292.4814   23864289.3284
       223.000         175.000
 127356557.80948  99238868.10848  24235153.4544   24235155.1264   24235152.9804
       214.000         155.000
 112756096.80248  87861868.94448  21456791.7414   21456794.2204   21456791.6494
       243.000         212.000
 108099954.76848  84233712.87348  20570752.7274   20570755.5184   20570752.8394
       248.000         222.000
 133308607.75348 103876812.93148  25367803.1824   25367807.1464   25367804.0564
       210.000         153.000
 117550010.01248  73805197.61248  20466089.3254   20466090.8304   20466089.0374
       252.000         236.000
 117584928.78948  91624607.89248  22375677.9634   22375679.2254   22375678.6534
       236.000         194.000
 122420264.49848  95392410.75748  23295804.4514   23295805.5684   23295804.1384
       233.000         190.000
 137743708.73048  89540552.24348  24308820.0014   24308820.3294   24308819.0634
       221.000         175.000
 119284433.43348  92948896.73748  22699083.8234   22699084.5764   22699083.6624
       232.000         194.000
 09  1 13  1  9  0.0000000  0 10G 5G28G26G 9G27G15G18G17G22G12
 135298415.44948  87635117.14548  23843504.6834   23843507.8734   23843505.3574
       220.000         173.000
 127448482.86848  99310498.01948  24252646.7714   24252647.7064   24252648.0494
       216.000         155.000
 112830256.68148  87919655.85848  21470903.8004   21470906.3984   21470903.5564
       244.000         212.000
 108053543.10048  84197547.93948  20561920.9544   20561923.5334   20561921.2414
       250.000         222.000
 133380075.21248 103932501.84448  25381402.2114   25381406.8394   25381402.3834
       211.000         153.000
 117576436.53748  73825789.70848  20471118.2054   20471119.6064   20471117.9944
       253.000         236.000
 117560070.04048  91605237.42748  22370947.8494   22370948.7664   22370948.1384
       237.000         195.000
 122399353.65048  95376116.59448  23291824.7574   23291826.7624   23291825.1334
       232.000         190.000
 137673045.01948  89485489.64648  24295373.0994   24295373.3744   24295373.2774
       221.000         167.000
 119187712.75248  92873529.99448  22680678.0474   22680679.3364   22680678.3034
       233.000         194.000
 09  1 13  1  9 30.0000000  0 10G 5G28G26G 9G27G15G18G17G22G12
 135189362.13048  87550140.58448  23822752.0654   23822756.0174   23822751.4574
       223.000         175.000
 127540546.93748  99382236.27248  24270166.0204   24270166.5114   24270166.5584
       212.000         155.000
 112904761.48848  87977711.54648  21485081.6054   21485084.1564   21485081.4794
       244.000         212.000
 108007442.42448  84161625.33748  20553148.4264   20553150.8624   20553148.3764
       250.000         222.000
 133451548.91448 103988195.59548  25395004.3454   25395007.2284   25395004.4674
       212.000         151.000
 117603323.20148  73846740.34748  20476234.5044   20476235.9314   20476234.2444
       252.000         236.000
 117535779.37848  91586309.62248  22366325.4074   22366326.4574   22366325.9494
       237.000         194.000
 122378957.69648  95360223.64748  23287943.5494   23287945.6374   23287943.7584
       234.000         190.000
 137602776.97048  89430735.31048  24282001.6214   24282000.8504   24282002.4614
       221.000         167.000
 119091277.04448  92798385.29048  22662326.9124   22662328.2234   22662326.8544
       231.000         194.000
 09  1 13  1 10  0.0000000  0 10G 5G28G26G 9G27G15G18G17G22G12
 135080481.45948  87465298.51848  23802033.4694   23802036.5564   23802034.7724
       221.000         174.000
 127632747.83648  99454081.09348  24287710.5274   24287712.3154   24287711.2174
       212.000         154.000
 112979610.25648  88036035.24948  21499324.9014   21499327.6824   21499324.9914
       244.000         212.000
 107961653.14648  84125945.38648  20544434.9954   20544437.4274   20544435.2024
       250.000         223.000
 133523028.94348 104043894.32148  25408606.5124   25408610.4384   25408607.8724
       214.000         156.000
 117630670.15948  73868049.66148  20481438.4864   20481439.8374   20481438.1974
       253.000         236.000
 117512057.42248  91567824.97748  22361811.4144   22361812.2244   22361812.0054
       236.000         193.000
 122359077.61548  95344732.67948  23284160.8004   23284162.2794   23284161.0934
       234.000         191.000
 137532907.24548  89376291.31348  24268705.8244   24268705.1124   24268704.0174
       218.000         166.000
 118995128.37348  92723464.27048  22644029.9154   22644031.6994   22644029.9774
       231.000         193.000
 09  1 13  1 10 30.0000000  0 10G 5G28G26G 9G27G15G18G17G22G12
 134971775.51448  87380592.61648  23781346.9364   23781350.2384   23781347.3474
       222.000         176.000
 127725083.81748  99526031.19748  24305282.0314   24305282.7884   24305281.4134
       210.000         153.000
 113054802.27548  88094626.43248  21513633.3664   21513635.9724   21513633.2584
       244.000         211.000
 107916176.09748  84090508.72648  20535780.9714   20535783.5134   20535780.9434
       250.000         222.000
 133594515.62548 104099598.21048  25422210.2234   25422214.0324   25422210.9114
       216.000         156.000
 117658477.69648  73889717.86448  20486729.9824   20486731.4954   20486729.7014
       253.000         235.000
 117488904.86548  91549784.01248  22357405.3234   22357406.5444   22357405.7384
       236.000         194.000
 122339714.96548  95329644.90748  23280476.2754   23280477.5904   23280476.1124
       232.000         191.000
 137463437.45148  89322158.99148  24255485.3974   24255485.8574   24255486.4614
       221.000         167.000
 118899268.95148  92648768.60848  22625788.8854   22625790.1794   22625788.6504
       232.000         194.000
 09  1 13  1 11  0.0000000  0 10G 5G28G26G 9G27G15G18G17G22G12
 134863245.82148  87296024.04248  23760694.3494   23760697.2624   23760695.9984
       224.000         176.000
 127817552.28448  99598084.56748  24322877.1634   24322879.0354   24322877.7894
       207.000         149.000
 113130336.00948  88153483.86948  21528007.1044   21528009.6194   21528006.9994
       244.000         211.000
 107871011.16248  84055315.27548  20527186.3304   20527188.7014   20527186.6734
       250.000         223.000
 133666008.78348 104155307.15748  25435815.5654   25435818.5474   25435816.0144
       214.000         152.000
 117686745.49448  73911744.71048  20492109.3484   20492110.6694   20492109.0544
       252.000         235.000
 117466322.08948  91532187.03748  22353108.2564   22353109.5004   22353108.9214
       237.000         195.000
 122320870.67448  95314961.05048  23276890.3134   23276891.9094   23276890.1664
       232.000         191.000
 137394370.03448  89268340.25648  24242342.9144   24242343.1924   24242343.4224
       216.000         168.000
 118803699.86648  92574299.20648  22607602.5874   22607604.2404   22607602.3964
       233.000         196.000
 09  1 13  1 11 30.0000000  0 10G 5G28G26G 9G27G15G18G17G22G12
 134754894.51148  87211594.47048  23740076.2134   23740078.9514   23740076.5754
       223.000         177.000
 127910151.39848  99670239.68548  24340498.6434   24340500.3754   24340499.7514
       210.000         151.000
 113206210.94148  88212607.18948  21542445.6264   21542448.0064   21542445.4894
       244.000         211.000
 107826158.87148  84020365.44148  20518651.3374   20518653.6804   20518651.5234
       250.000         223.000
 133737508.85848 104211021.50648  25449421.3194   25449423.4734   25449422.4424
       206.000         142.000
 117715474.13848  73934130.66448  20497576.2444   20497577.4464   20497575.9154
       253.000         235.000
 117444310.11948  91515034.84248  22348919.3664   22348920.2954   22348920.1734
       236.000         195.000
 122302546.15548  95300682.22248  23273402.8514   23273404.8284   23273403.1354
       231.000         190.000
 137325706.54348  89214836.23648  24229276.5294   24229276.4584   24229275.8314
       216.000         166.000
 118708423.53448  92500057.91348  22589472.3734   22589473.9144   22589472.2784
       234.000         196.000
 09  1 13  1 12  0.0000000  0 10G 5G28G26G 9G27G15G18G17G22G12
 134646722.80648  87127304.86448  23719491.5954   23719494.3274   23719492.7794
       225.000         177.000
 128002878.66548  99742494.71748  24358144.6394   24358145.9544   24358145.6124
       208.000         152.000
 113282425.18748  88271994.90148  21556948.7284   21556951.1764   21556948.5724
       244.000         211.000
 107781619.46548  83985659.40848  20510175.8844   20510178.1034   20510176.1184
       250.000         223.000
 133809015.24648 104266740.72948  25463027.8654   25463032.2224   25463027.7924
       204.000         135.000
 117744663.50248  73956875.61548  20503130.7384   20503132.1394   20503130.5944
       253.000         235.000
 117422868.88348  91498327.38548  22344839.0934   22344840.7094   22344839.5744
       237.000         195.000
 122284742.25848  95286809.07348  23270014.9474   23270016.7314   23270014.4294
       233.000         190.000
 137257448.66448  89161648.27848  24216286.7954   24216287.9134   24216289.2594
       215.000         168.000
 118613441.19848  92426045.70548  22571397.7714   22571399.3534   22571397.6024
       234.000         195.000
 09  1 13  1 12 30.0000000  0 10G 5G28G26G 9G27G15G18G17G22G12
 134538733.90248  87043157.68548  23698941.9974   23698944.6844   23698942.3754
       224.000         176.000
 128095733.19848  99814848.87948  24375813.5324   24375815.8064   24375812.3254
       210.000         152.000
 113358979.16348  88331647.34548  21571516.5734   21571519.1734   21571516.6284
       244.000         211.000
 107737394.53848  83951198.43348  20501759.9984   20501762.4154   20501760.2044
       251.000         223.000
 133880529.33448 104322465.98048  25476636.6934   25476641.1894   25476637.2544
       193.000         126.000
 117774314.77948  73979980.49848  20508773.0854   20508774.6234   20508772.8584
       252.000         235.000
 117402000.27448  91482066.11448  22340868.3444   22340869.6424   22340868.2584
       238.000         196.000
 122267461.53648  95273343.59248  23266726.8514   23266728.5024   23266726.2704
       232.000         190.000
 137189599.68348  89108778.93448  24203375.7174   24203377.2194   24203375.2074
       218.000         171.000
 118518755.96848  92352265.00248  22553379.6884   22553381.2584   22553379.7054
       234.000         195.000
 09  1 13  1 13  0.0000000  0  9G 5G28G26G 9G15G18G17G22G12
 134430929.19348  86959154.03648  23678427.1064   23678429.9214   23678428.0514
       222.000         175.000
 128188712.57348  99887300.33648  24393507.5394   24393509.0564   24393508.2904
       213.000         153.000
 113435871.29348  88391563.28348  21586148.5634   21586151.2994   21586148.5054
       244.000         212.000
 107693483.94448  83916982.39548  20493404.1194   20493406.3934   20493404.5854
       250.000         223.000
 117804427.31748  74003444.80948  20514503.2784   20514504.8254   20514502.8684
       252.000         235.000
 117381704.17448  91466250.95748  22337006.0914   22337007.3754   22337007.0024
       237.000         196.000
 122250705.03748  95260286.58848  23263537.7214   23263539.7714   23263536.9914
       232.000         190.000
 137122161.46348  89056229.67548  24190543.2544   24190543.7964   24190542.8654
       218.000         168.000
 118424369.13848  92278716.81348  22535418.3114   22535419.9464   22535418.5064
       234.000         197.000
 09  1 13  1 13 30.0000000  0  9G 5G28G26G 9G15G18G17G22G12
 134323309.83248  86875294.82248  23657947.7384   23657950.8224   23657947.3634
       224.000         176.000
 128281814.13248  99959847.02148  24411224.3274   24411225.9154   24411223.4464
       213.000         156.000
 113513099.93948  88451741.43648  21600844.6324   21600847.3754   21600844.6604
       243.000         211.000
 107649887.53748  83883011.17048  20485107.8314   20485110.3384   20485107.8524
       250.000         223.000
 117835000.43948  74027268.01548  20520321.2144   20520322.7284   20520320.8824
       252.000         235.000
 117361980.63048  91450881.95548  22333252.6214   22333253.9394   22333253.2094
       236.000         195.000
 122234473.07948  95247638.31448  23260449.1304   23260450.7344   23260449.0804
       234.000         190.000
 137055135.61648  89004001.79048  24177788.7234   24177788.8904   24177789.7164
       222.000         168.000
 118330282.18448  92205402.29948  22517514.1254   22517515.9594   22517513.7544
       235.000         198.000
 09  1 13  1 14  0.0000000  0  9G 5G28G26G 9G15G18G17G22G12
 134215877.81348  86791581.57448  23637504.4054   23637507.4774   23637505.7294
       224.000         178.000
 128375035.64948 100032487.15948  24428963.7374   24428965.8134   24428963.8104
       214.000         157.000
 113590664.09548  88512181.03348  21615604.6544   21615607.3204   21615604.4554
       244.000         211.000
 107606605.83648  83849285.17748  20476871.5204   20476874.1714   20476871.7654
       250.000         223.000
 117866034.78948  74051450.62048  20526226.9174   20526228.3094   20526226.7794
       253.000         235.000
 117342830.24648  91435959.58948  22329608.4194   22329609.6404   22329609.3884
       236.000         194.000
 122218766.36348  95235399.31948  23257460.2364   23257462.0554   23257460.7984
       232.000         190.000
 136988523.79148  88952096.43548  24165113.6294   24165113.2724   24165113.4534
       224.000         172.000
 118236496.88848  92132322.84548  22499667.4354   22499669.2934   22499666.9904
       234.000         199.000
 09  1 13  1 14 30.0000000  0  9G 5G28G26G 9G15G18G17G22G12
 134108634.96048  86708015.72148  23617096.7174   23617099.7614   23617097.2704
       225.000         178.000
 128468375.21348 100105219.26448  24446726.2494   24446727.4774   24446725.7024
       214.000         157.000
 113668562.65548  88572881.19548  21630428.4004   21630430.9074   21630428.4974
       243.000         210.000
 107563639.34548  83815804.79548  20468695.4594   20468697.8844   20468695.5614
       249.000         223.000
 117897530.18848  74075992.48248  20532220.3534   20532221.7704   20532220.0664
       252.000         235.000
 117324253.60148  91421484.26648  22326073.5394   22326074.5004   22326073.6334
       236.000         194.000
 122203586.40148  95223570.78648  23254571.5704   23254573.3174   23254571.1414
       233.000         192.000
 136922328.06148  88900515.31848  24152517.1874   24152516.5004   24152518.2814
       221.000         169.000
 118143015.31148  92059480.06848  22481878.6414   22481880.5974   22481878.8564
       234.000         198.000
 09  1 13  1 15  0.0000000  0  9G 5G28G26G 9G15G18G17G22G12
 134001583.29348  86624598.86048  23596725.2734   23596728.4644   23596726.0384
       228.000         180.000
 128561830.73848 100178041.73448  24464509.9644   24464511.4444   24464510.6794
       217.000         157.000
 113746794.87348  88633841.36548  21645315.4454   21645317.9354   21645315.3374
       243.000         210.000
 107520988.58148  83782570.44348  20460579.1884   20460581.8684   20460579.3304
       251.000         224.000
 117929486.81048  74100893.74248  20538301.4644   20538302.9864   20538301.0824
       252.000         235.000
 117306251.29448  91407456.48548  22322647.5834   22322648.7304   22322648.1054
       235.000         193.000
 122188934.91148  95212154.06448  23251783.6414   23251784.9944   23251783.3654
       232.000         192.000
 136856550.52948  88849260.12048  24139999.3364   24139998.5904   24139999.7044
       218.000         162.000
 118049839.28748  91986875.36748  22464147.7124   22464149.3944   22464147.5774
       236.000         198.000
 09  1 13  1 15 30.0000000  0  9G 5G28G26G 9G15G18G17G22G12
 133894724.69748  86541332.42948  23576391.0984   23576394.1794   23576392.4434
       227.000         180.000
 128655400.60048 100250953.31248  24482316.4224   24482317.0454   24482317.0464
       214.000         154.000
 113825359.68548  88695060.68648  21660265.9034   21660268.5034   21660265.8804
       243.000         211.000
 107478654.03648  83749582.48948  20452523.2864   20452525.7874   20452523.6584
       250.000         224.000
 117961904.54048  74126154.30148  20544470.4064   20544471.7624   20544470.1994
       252.000         234.000
 117288823.92048  91393876.71048  22319331.2114   22319332.6864   22319331.6614
       236.000         194.000
 122174812.81348  95201149.83748  23249096.0454   23249097.7784   23249096.0784
       233.000         193.000
 136791193.87348  88798332.85448  24127561.9494   24127561.8104   24127562.3794
       217.000         164.000
 117956970.67548  91914510.20248  22446475.5534   22446477.3624   22446475.3734
       236.000         200.000
 09  1 13  1 16  0.0000000  0  9G 5G28G26G 9G15G18G17G22G12
 133788061.00348  86458217.89448  23556093.3094   23556096.8064   23556093.6184
       225.000         180.000
 128749082.61248 100323952.29148  24500143.1034   24500144.0064   24500143.3754
       213.000         153.000
 113904255.96248  88756538.30448  21675279.2494   21675281.9884   21675278.9494
       243.000         210.000
 107436635.95248  83716841.12148  20444527.5504   20444530.0644   20444527.4174
       250.000         225.000
 117994783.41448  74151774.19748  20550726.9704   20550728.2364   20550726.8484
       252.000         233.000
 117271971.92248  91380745.26848  22316124.4314   22316125.8504   22316124.7884
       235.000         195.000
 122161221.12748  95190558.92848  23246509.7604   23246511.5284   23246509.7494
       234.000         193.000
 136726259.74548  88747734.81848  24115205.3614   24115205.2574   24115206.4454
       218.000         165.000
 117864411.19148  91842385.93248  22428862.3994   22428864.0624   22428862.1744
       238.000         202.000
 09  1 13  1 16 30.0000000  0  9G 5G28G26G 9G15G18G17G22G12
 133681594.28348  86375256.81848  23535833.5884   23535836.5194   23535833.8484
       226.000         180.000
 128842875.09648 100397037.36148  24517991.1114   24517992.1744   24517990.8744
       211.000         151.000
 113983482.75048  88818273.45548  21690355.5054   21690358.2294   21690355.4224
       242.000         210.000
 107394935.04948  83684346.91448  20436592.0594   20436594.5074   20436592.2164
       250.000         224.000
 118028123.99048  74177753.85848  20557071.3664   20557072.7324   20557071.0914
       251.000         233.000
 117255695.49348  91368062.33148  22313027.0134   22313028.5834   22313027.4124
       236.000         195.000
 122148161.28548  95180382.44148  23244024.7824   23244026.1984   23244024.5294
       233.000         194.000
 136661749.54048  88697467.10848  24102929.6284   24102930.1934   24102928.9354
       217.000         165.000
 117772162.82548  91770504.08648  22411308.0154   22411310.0784   22411308.0974
       237.000         203.000
 09  1 13  1 17  0.0000000  0  9G 5G28G26G 9G15G18G17G22G12
 133575326.53848  86292450.80748  23515611.4614   23515614.8124   23515611.8734
       228.000         183.000
 128936776.02148 100470206.90848  24535859.9484   24535860.2884   24535860.8404
       214.000         150.000
 114063039.30948  88880265.56948  21705494.6344   21705497.2994   21705494.3144
       242.000         208.000
 107353552.12648  83652100.48048  20428717.1054   20428719.6494   20428717.2444
       250.000         225.000
 118061926.35648  74204093.35748  20563503.8614   20563505.1154   20563503.4414
       252.000         233.000
 117239995.40348  91355828.48148  22310039.6244   22310041.0574   22310040.4314
       234.000         195.000
 122135634.26048  95170621.11848  23241640.8214   23241642.5394   23241640.2894
       233.000         194.000
 136597666.59248  88647532.30748  24090734.6374   24090735.8104   24090736.0934
       219.000         168.000
 117680227.97648  91698866.54548  22393813.4784   22393815.2964   22393813.2504
       238.000         202.000
 09  1 13  1 17 30.0000000  0  9G 5G28G26G 9G15G18G17G22G12
 133469258.55348  86209800.43948  23495427.8584   23495430.7704   23495428.9894
       228.000         182.000
 129030782.26548 100543458.53848  24553749.0254   24553748.8254   24553750.1224
       214.000         153.000
 114142923.23348  88942512.78048  21720696.1634   21720698.8204   21720696.0534
       242.000         209.000
 107312486.48248  83620101.27948  20420902.4884   20420905.0604   20420902.8144
       250.000         224.000
 118096189.24848  74230791.71148  20570023.8944   20570025.1044   20570023.6614
       252.000         233.000
 117224871.02448  91344043.24848  22307161.2284   22307163.2034   22307161.4064
       235.000         196.000
 122123639.87448  95161274.86348  23239358.5104   23239359.9704   23239358.4184
       234.000         192.000
 136534011.23448  88597930.79748  24078621.9414   24078622.6294   24078622.9004
       222.000         173.000
 117588607.18148  91627473.72048  22376378.5134   22376380.2604   22376378.4624
       238.000         202.000
 09  1 13  1 18  0.0000000  0  9G 5G28G26G 9G15G18G17G22G12
 133363392.96848  86127307.78148  23475282.1724   23475285.3644   23475282.4964
       228.000         181.000
 129124892.92148 100616791.50348  24571657.0754   24571657.6314   24571657.3244
       209.000         151.000
 114223134.62648  89005015.15148  21735959.8144   21735962.5744   21735959.8554
       241.000         208.000
 107271739.37748  83588350.29248  20413148.6614   20413151.1434   20413148.8374
       251.000         225.000
 118130913.48448  74257849.55548  20576631.6744   20576632.9814   20576631.6264
       252.000         233.000
 117210323.49648  91332707.51748  22304393.2194   22304395.0774   22304394.0594
       235.000         198.000
 122112180.62348  95152345.57448  23237177.5994   23237178.9774   23237177.4374
       234.000         191.000
 136470786.05648  88548664.39848  24066591.1854   24066590.5784   24066590.4214
       217.000         168.000
 117497303.11948  91556327.70348  22359004.1034   22359005.7304   22359003.9244
       239.000         203.000
 09  1 13  1 18 30.0000000  0  9G 5G28G26G 9G15G18G17G22G12
 133257731.87748  86044974.47148  23455175.4114   23455178.3914   23455176.3444
       227.000         180.000
 129219106.14148 100690204.40848  24589585.3154   24589585.6674   24589586.0394
       209.000         150.000
 114303672.27748  89067771.75348  21751285.4784   21751288.2094   21751285.1824
       242.000         208.000
 107231311.42548  83556847.99548  20405455.5544   20405458.0234   20405455.7624
       251.000         225.000
 118166099.17748  74285266.97748  20583327.1774   20583328.6594   20583326.7254
       251.000         233.000
 117196353.28548  91321821.62748  22301734.8384   22301736.7744   22301735.1294
       237.000         197.000
 122101257.37848  95143833.95948  23235099.3264   23235100.4924   23235099.3314
       233.000         192.000
 136407993.53448  88499735.16048  24054641.2674   24054641.6184   24054640.8564
       220.000         168.000
 117406317.60148  91485429.89648  22341690.2184   22341691.6824   22341689.9394
       241.000         204.000
 09  1 13  1 19  0.0000000  0  9G 5G28G26G 9G15G18G17G22G12
 133152276.51348  85962801.47148  23435107.7434   23435110.6824   23435108.0504
       227.000         180.000
 129313419.47148 100763695.31848  24607532.7874   24607532.8714   24607532.4834
       208.000         150.000
 114384534.58648  89130781.33548  21766673.3314   21766675.8634   21766673.2884
       242.000         208.000
 107191202.57448  83525594.34948  20397823.1334   20397825.5384   20397823.5134
       251.000         225.000
 118201745.66948  74313043.45748  20590110.4624   20590112.1684   20590110.1764
       251.000         233.000
 117182960.22748  91311385.47548  22299186.1654   22299188.1074   22299186.8144
       237.000         197.000
 122090870.24748  95135740.09748  23233122.6534   23233124.0354   23233122.6934
       233.000         192.000
 136345634.95448  88451144.06848  24042775.1224   24042775.4544   24042775.7554
       222.000         173.000
 117315651.81148  91414781.23148  22324437.2754   22324438.4024   22324437.3014
       241.000         204.000
 09  1 13  1 19 30.0000000  0  9G 5G28G26G 9G15G18G17G22G12
 133047028.40848  85880789.95548  23415079.6764   23415082.5664   23415080.1494
       227.000         181.000
 129407830.23248 100837262.14248  24625497.7294   24625499.6114   24625497.8194
       206.000         150.000
 114465720.15048  89194042.81148  21782122.3684   21782124.8204   21782122.2754
       243.000         207.000
 107151412.80048  83494589.33648  20390251.3434   20390253.7204   20390251.5994
       249.000         225.000
 118237852.60948  74341178.73348  20596981.2774   20596983.1354   20596981.1694
       251.000         233.000
 117170144.30748  91301399.03548  22296747.3024   22296749.0004   22296747.4184
       237.000         197.000
 122081020.20448  95128064.75848  23231247.9994   23231249.6994   23231248.1124
       233.000         191.000
 136283711.99348  88402892.42648  24030992.1614   24030991.6594   24030992.4784
       221.000         171.000
 117225307.35248  91344382.95748  22307245.1104   22307246.5264   22307244.8664
       239.000         204.000
 09  1 13  1 20  0.0000000  0  9G 5G28G26G 9G15G18G17G22G12
 132941990.39148  85798942.16148  23395091.7754   23395094.4374   23395092.8884
       227.000         181.000
 129502337.94348 100910904.50148  24643482.2424   24643483.9144   24643482.0714
       210.000         154.000
 114547228.62748  89257555.90548  21797632.7944   21797635.4054   21797632.6954
       242.000         206.000
 107111943.93548  83463834.38648  20382740.6864   20382743.0624   20382740.5994
       250.000         225.000
 118274420.96548  74369673.55148  20603940.0354   20603941.7324   20603939.8204
       251.000         232.000
 117157906.44848  91291863.03648  22294418.9054   22294420.4644   22294419.5264
       238.000         197.000
 122071709.04148  95120809.33148  23229476.2184   23229477.7344   23229476.1054
       232.000         192.000
 136222227.22948  88354982.23048  24019290.9974   24019291.1924   24019290.5584
       220.000         167.000
 117135286.85548  91274237.12948  22290114.3194   22290115.8964   22290114.2794
       238.000         203.000
 09  1 13  1 20 30.0000000  0  9G 5G28G26G 9G15G18G17G22G12
 132837163.53348  85717258.89748  23375143.9644   23375146.8514   23375145.0234
       225.000         181.000
 129596939.35448 100984619.88948  24661484.3564   24661485.6534   24661486.2894
       207.000         152.000
 114629058.47648  89321319.40848  21813204.6424   21813207.2044   21813204.6924
       242.000         207.000
 107072795.47248  83433329.09348  20375291.0304   20375293.3764   20375291.2224
       250.000         226.000
 118311449.71848  74398527.12148  20610986.3994   20610987.9814   20610985.9524
       251.000         232.000
 117146246.55548  91282777.40148  22292199.7734   22292201.3714   22292200.6874
       237.000         197.000
 122062936.68548  95113973.74548  23227807.1884   23227808.4494   23227807.1164
       233.000         193.000
 136161181.75348  88307414.31948  24007675.4114   24007674.7064   24007676.0374
       220.000         168.000
 117045591.31748  91204344.51648  22273045.6674   22273047.2894   22273045.2544
       240.000         203.000
 09  1 13  1 21  0.0000000  0  9G 5G28G26G 9G15G18G17G22G12
 132732549.55648  85635741.51748  23355236.2064   23355239.2704   23355236.7074
       224.000         182.000
 129691633.36148 101058407.40748  24679503.8164   24679506.3074   24679503.2284
       204.000         153.000
 114711208.47948  89385332.39748  21828837.2924   21828839.6694   21828837.3354
       241.000         205.000
 107033967.55048  83403073.57248  20367902.3994   20367904.7114   20367902.8194
       250.000         225.000
 118348939.08148  74427739.61048  20618120.5044   20618121.9484   20618120.1994
       251.000         232.000
 117135164.59948  91274142.10248  22290090.8334   22290092.5734   22290091.5224
       236.000         195.000
 122054704.65448  95107559.17648  23226240.5134   23226241.9304   23226240.6934
       233.000         193.000
 136100577.87448  88260190.54248  23996141.7894   23996142.5974   23996143.4744
       223.000         163.000
 116956222.74348  91134706.67248  22256039.7064   22256041.2094   22256039.6944
       240.000         204.000
 09  1 13  1 21 30.0000000  0  9G 5G28G26G 9G15G18G17G22G12
 132628151.15648  85554392.12348  23335369.8074   23335373.2324   23335370.3614
       224.000         182.000
 129786418.25948 101132265.77148  24697540.6454   24697543.1464   24697539.7204
       206.000         153.000
 114793678.09348  89449594.42748  21844530.6214   21844533.2274   21844530.6944
       242.000         206.000
 106995461.47248  83373068.84248  20360574.8504   20360577.0744   20360574.7834
       250.000         226.000
 118386889.54548  74457311.40248  20625342.2724   20625343.6564   20625342.0184
       252.000         232.000
 117124661.49148  91265957.84848  22288092.0884   22288093.6904   22288092.8724
       235.000         195.000
 122047014.30748  95101566.70448  23224776.8504   23224778.5524   23224776.5704
       231.000         192.000
 136040418.62348  88213313.12848  23984694.1214   23984694.3334   23984694.3934
       219.000         166.000
 116867183.93048  91065325.78748  22239096.1544   22239097.7094   22239096.1514
       241.000         205.000
 09  1 13  1 22  0.0000000  0  9G 5G28G26G 9G15G18G17G22G12
 132523969.65048  85473211.75848  23315544.3644   23315548.1744   23315545.2734
       226.000         181.000
 129881291.85148 101206193.21748  24715594.9254   24715596.8894   24715595.4834
       210.000         155.000
 114876465.84148  89514104.34848  21860284.5784   21860287.3394   21860284.5294
       241.000         206.000
 106957277.52348  83343315.12348  20353308.6534   20353310.8834   20353308.9564
       251.000         226.000
 118425300.31048  74487241.85948  20632651.6144   20632652.9834   20632651.3764
       251.000         232.000
 117114736.96848  91258224.45448  22286203.3304   22286205.1484   22286203.8104
       235.000         195.000
 122039865.92148  95095996.54048  23223416.6034   23223418.4374   23223416.3784
       231.000         193.000
 135980704.57348  88166782.68848  23973331.0474   23973331.1944   23973330.6274
       219.000         171.000
 116778475.52448  90996202.36748  22222215.6594   22222216.9724   22222215.8124
       241.000         205.000
 09  1 13  1 22 30.0000000  0  9G 5G28G26G 9G15G18G17G22G12
 132420006.28048  85392201.32348  23295761.1954   23295764.3364   23295761.4414
       227.000         182.000
 129976251.17048 101280187.50648  24733665.8774   24733667.3834   24733667.0074
       206.000         153.000
 114959569.84348  89578860.70448  21876098.7944   21876101.4714   21876098.7204
       241.000         206.000
 106919416.01448  83313812.64948  20346103.9254   20346106.1574   20346104.1204
       250.000         226.000
 118464170.82748  74517530.56948  20640048.4554   20640049.8114   20640048.2314
       251.000         231.000
 117105390.48948  91250941.48348  22284425.1814   22284426.7464   22284425.8084
       237.000         197.000
 122033259.96048  95090849.05448  23222159.8234   23222161.2004   23222159.8434
       232.000         193.000
 135921437.21048  88120600.34048  23962053.1654   23962053.7974   23962052.6104
       220.000         167.000
 116690098.50448  90927337.16548  22205398.0354   22205399.4914   22205397.9564
       241.000         205.000
 09  1 13  1 23  0.0000000  0  9G 5G28G26G 9G15G18G17G22G12
 132316262.90448  85311362.34248  23276019.5434   23276022.9754   23276020.2744
       226.000         183.000
 130071294.79548 101354247.46648  24751750.7674   24751753.5554   24751750.0204
       204.000         151.000
 115042989.17048  89643862.77248  21891973.0794   21891975.7064   21891973.0554
       241.000         206.000
 106881876.56748  83284561.13048  20338960.3084   20338962.8984   20338960.1454
       250.000         226.000
 118503500.74348  74548177.25248  20647532.4164   20647533.9754   20647532.1274
       250.000         231.000
 117096622.48348  91244109.26548  22282756.4854   22282758.1784   22282756.9954
       236.000         196.000
 122027196.87948  95086124.57248  23221006.0894   23221007.6034   23221006.4314
       232.000         193.000
 135862618.70148  88074767.73448  23950860.0964   23950860.2294   23950861.8934
       219.000         168.000
 116602054.94548  90858731.80148  22188643.7714   22188645.2794   22188643.8694
       241.000         205.000
 09  1 13  1 23 30.0000000  0  9G 5G28G26G 9G15G18G17G22G12
 132212741.44448  85230696.27048  23256319.8154   23256323.6204   23256320.3214
       226.000         181.000
 130166420.98248 101428371.74248  24769852.9604   24769854.8544   24769853.1784
       205.000         152.000
 115126722.64348  89709109.61948  21907906.9464   21907909.4784   21907906.8014
       240.000         204.000
 106844659.99548  83255561.20648  20331878.1874   20331880.6584   20331878.4294
       250.000         226.000
 118543290.20848  74579182.02248  20655104.0704   20655105.7354   20655103.6854
       251.000         231.000
 117088432.89748  91237727.77048  22281198.0904   22281199.7584   22281198.5374
       238.000         197.000
 122021677.76148  95081823.97448  23219955.5794   23219957.2604   23219955.9644
       228.000         190.000
 135804250.63348  88029286.13648  23939753.5874   23939753.0824   23939754.4714
       222.000         170.000
 116514347.09848  90790388.03448  22171953.3874   22171955.1204   22171953.0144
       241.000         206.000
 09  1 13  1 24  0.0000000  0  9G 5G28G26G 9G15G18G17G22G12
 132109443.55048  85150204.40048  23236663.2064   23236666.4804   23236664.5604
       226.000         182.000
 130261627.65548 101502558.75948  24787971.3084   24787972.6614   24787970.9154
       204.000         151.000
 115210768.97348  89774600.26748  21923900.5014   21923902.7354   21923900.2374
       240.000         204.000
 106807766.70448  83226813.19048  20324857.5904   20324860.1194   20324857.7504
       249.000         226.000
 118583539.08248  74610544.77548  20662763.3234   20662765.0034   20662763.1404
       251.000         232.000
 117080821.54448  91231796.83548  22279750.0954   22279751.4514   22279750.8494
       236.000         196.000
 122016703.16448  95077947.66748  23219008.7494   23219010.3154   23219008.6844
       229.000         191.000
 135746334.91148  87984157.00348  23928732.8764   23928732.6954   23928732.1804
       222.000         173.000
 116426976.24548  90722306.85548  22155327.4304   22155328.8044   22155327.4914
       242.000         206.000
 09  1 13  1 24 30.0000000  0  9G 5G28G26G 9G15G18G17G22G12
 132006371.48548  85069888.51648  23217049.0754   23217052.7334   23217049.7844
       225.000         183.000
 130356913.22048 101576807.22048  24806102.4814   24806104.9564   24806102.3164
       206.000         152.000
 115295127.42348  89840334.10948  21939953.3584   21939955.9974   21939953.2374
       240.000         205.000
 106771197.60648  83198317.78648  20317898.7514   20317901.2734   20317898.7664
       251.000         226.000
 118624247.18248  74642265.36848  20670509.9264   20670511.6054   20670509.6534
       250.000         232.000
 117073789.37148  91226317.22248  22278411.6594   22278413.4724   22278412.0704
       236.000         196.000
 122012274.53348  95074496.79848  23218166.3574   23218167.7234   23218166.3854
       229.000         190.000
 135688873.74848  87939382.06548  23917797.6714   23917797.7014   23917796.7264
       224.000         169.000
 116339944.28848  90654489.75948  22138765.9014   22138767.3574   22138765.9784
       241.000         207.000
 09  1 13  1 25  0.0000000  0  9G 5G28G26G 9G15G18G17G22G12
 131903526.99248  84989749.94748  23197478.3494   23197481.9474   23197478.6464
       227.000         182.000
 130452275.93648 101651115.82148  24824249.9114   24824251.7674   24824250.5284
       206.000         155.000
 115379796.80148  89906310.23248  21956065.6174   21956068.0914   21956065.3604
       242.000         205.000
 106734953.09248  83170075.30848  20311001.7064   20311004.0534   20311002.0974
       250.000         226.000
 118665414.36148  74674343.68148  20678343.9384   20678345.4554   20678343.7034
       251.000         232.000
 117067335.83948  91221288.48248  22277183.5504   22277185.1924   22277184.1294
       236.000         196.000
 122008392.45648  95071471.80948  23217427.2974   23217428.8124   23217427.2954
       231.000         190.000
 135631868.70448  87894962.55848  23906950.0724   23906949.4454   23906952.0184
       222.000         170.000
 116253253.00248  90586938.10848  22122269.0204   22122270.4884   22122268.6714
       241.000         207.000
 09  1 13  1 25 30.0000000  0  9G 5G28G26G 9G15G18G17G22G12
 131800911.01548  84909789.45448  23177951.4464   23177954.6904   23177952.6244
       225.000         183.000
 130547713.18648 101725482.49848  24842410.7774   24842413.0184   24842410.4004
       207.000         157.000
 115464775.08248  89972527.08048  21972236.3964   21972238.9614   21972236.2254
       241.000         204.000
 106699032.76848  83142085.44748  20304166.1894   20304168.6554   20304166.3714
       250.000         226.000
 118707039.54548  74706778.89148  20686264.9984   20686266.3204   20686264.8834
       251.000         231.000
 117061460.36448  91216710.18648  22276065.7034   22276067.0284   22276066.3034
       237.000         196.000
 122005056.65848  95068872.49848  23216792.8574   23216793.7494   23216793.0214
       232.000         191.000
 135575320.66448  87850899.13648  23896189.8344   23896189.3844   23896191.1974
       222.000         171.000
 116166903.35548  90519652.68948  22105836.8034   22105838.6784   22105836.8594
       240.000         206.000
 09  1 13  1 26  0.0000000  0  9G 5G28G26G 9G15G18G17G22G12
 131698526.27448  84830009.14748  23158467.8874   23158471.4724   23158468.2764
       226.000         182.000
 130643223.57948 101799906.17248  24860585.6674   24860587.8554   24860584.8044
       210.000         158.000
 115550062.03448  90038984.42948  21988465.7894   21988468.5794   21988465.8094
       242.000         204.000
 106663437.85448  83114349.15448  20297392.8184   20297395.1764   20297393.1034
       250.000         227.000
 118749123.21848  74739571.36248  20694273.0414   20694274.6894   20694272.8034
       250.000         231.000
 117056163.77248  91212582.96048  22275058.0054   22275059.3354   22275058.3454
       238.000         195.000
 122002268.70348  95066700.07348  23216262.1894   23216263.5284   23216262.2674
       230.000         190.000
 135519232.43948  87807194.01748  23885515.4774   23885516.4004   23885515.2194
       223.000         173.000
 116080897.77048  90452635.35348  22089470.6234   22089472.4424   22089470.3804
       241.000         206.000
 09  1 13  1 26 30.0000000  0  9G 5G28G26G 9G15G18G17G22G12
 131596374.43448  84750410.30348  23139029.2874   23139032.2404   23139029.7144
       225.000         182.000
 130738805.31648 101874385.45648  24878774.3954   24878776.2214   24878774.9584
       212.000         158.000
 115635656.05948  90105681.06748  22004753.8534   22004756.5744   22004753.4544
       241.000         204.000
 106628168.98848  83086866.92648  20290681.2694   20290683.7814   20290681.6294
       251.000         227.000
 118791665.08648  74772720.86348  20702368.3574   20702369.9374   20702368.1804
       250.000         230.000
 117051445.85948  91208906.64848  22274159.7254   22274161.3704   22274160.4444
       237.000         194.000
 122000029.42548  95064955.18748  23215835.5654   23215837.4344   23215835.0154
       230.000         191.000
 135463605.73748  87763848.52148  23874931.1704   23874931.0334   23874931.0474
       224.000         172.000
 115995237.86948  90385887.38648  22073170.0014   22073171.8114   22073169.8564
       240.000         207.000
 09  1 13  1 27  0.0000000  0  9G 5G28G26G 9G15G18G17G22G12
 131494456.58148  84670993.78948  23119634.8034   23119637.7434   23119635.4544
       224.000         180.000
 130834456.23748 101948918.63148  24896976.0534   24896977.4934   24896977.5154
       215.000         159.000
 115721555.58848  90172615.75748  22021100.0004   22021102.4704   22021099.7514
       242.000         203.000
 106593226.03348  83059638.64248  20284031.9094   20284034.2594   20284032.0554
       251.000         227.000
 118834664.43948  74806226.84948  20710550.8064   20710552.3784   20710550.4654
       250.000         230.000
 117047305.99048  91205680.77148  22273371.8714   22273373.3794   22273372.4874
       237.000         194.000
 121998338.44748  95063637.55048  23215514.3364   23215515.5404   23215513.4604
       230.000         192.000
 135408441.78948  87720863.62448  23864433.4934   23864432.7684   23864435.2224
       225.000         171.000
 115909924.59948  90319409.51948  22056935.7334   22056937.0944   22056935.4234
       242.000         207.000
 09  1 13  1 27 30.0000000  0  9G 5G28G26G 9G15G18G17G22G12
 131392773.92748  84591760.53848  23100285.3424   23100287.9874   23100285.6684
       227.000         181.000
 130930173.74048 102023503.68548  24915190.7294   24915191.7034   24915192.9394
       214.000         160.000
 115807758.64048  90239786.96148  22037504.0484   22037506.6544   22037503.8984
       243.000         205.000
 106558608.18848  83032663.70348  20277444.4214   20277446.7194   20277444.6714
       250.000         227.000
 118878120.33148  74840088.57548  20718820.2104   20718821.9674   20718820.0194
       250.000         230.000
 117043743.45248  91202904.75848  22272694.1644   22272695.5174   22272694.5944
       237.000         195.000
 121997195.87648  95062747.24748  23215296.8144   23215298.6444   23215296.1454
       229.000         192.000
 135353741.52148  87678240.04648  23854024.0914   23854024.2954   23854024.6604
       222.000         172.000
 115824959.04848  90253202.60348  22040767.2034   22040768.6474   22040767.1274
       240.000         208.000
 09  1 13  1 28  0.0000000  0  9G 5G28G26G 9G15G18G17G22G12
 131291329.00648  84512712.53648  23080981.1574   23080983.8414   23080982.1514
       226.000         183.000
 131025956.58348 102098139.65748  24933417.5034   24933418.2914   24933418.9074
       215.000         160.000
 115894264.85248  90307194.38548  22053965.6724   22053968.5004   22053965.5614
       241.000         204.000
 106524317.12648  83005943.39548  20270918.8764   20270921.4264   20270918.7294
       251.000         227.000
 118922033.28948  74874306.45748  20727176.6714   20727178.2274   20727176.4214
       250.000         230.000
 117040758.49448  91200578.81448  22272126.0894   22272127.6344   22272126.6054
       237.000         196.000
 121996603.05248  95062285.31448  23215183.8704   23215185.7884   23215183.8264
       232.000         193.000
 135299507.21548  87635979.54248  23843703.7194   23843704.1894   23843703.9184
       219.000         170.000
 115740343.68248  90187268.56248  22024665.3274   22024666.9314   22024664.9854
       241.000         208.000
 09  1 13  1 28 30.0000000  0  9G 5G28G26G 9G15G18G17G22G12
 131190123.34148  84433850.99648  23061722.1864   23061725.3054   23061722.7484
       226.000         183.000
 131121802.77948 102172825.00648  24951656.9154   24951657.0974   24951658.6054
       215.000         160.000
 115981072.64648  90374836.81448  22070484.4544   22070487.2254   22070484.2604
       241.000         202.000
 106490353.49848  82979478.23448  20264455.9794   20264458.3874   20264456.3964
       251.000         227.000
 118966402.48648  74908879.85348  20735619.8344   20735621.3734   20735619.6034
       250.000         230.000
 117038351.12948  91198702.94148  22271668.0204   22271669.5254   22271668.3434
       237.000         195.000
 121996560.21148  95062251.95048  23215175.8684   23215177.4344   23215175.9614
       231.000         192.000
 135245740.47948  87594083.38848  23833472.1064   23833472.3544   23833472.7984
       223.000         172.000
 115656079.60448  90121608.24648  22008630.6334   22008632.0604   22008630.6944
       241.000         208.000
 09  1 13  1 29  0.0000000  0  9G 5G28G26G 9G15G18G17G22G12
 131089159.68248  84355178.00448  23042509.7884   23042512.4264   23042510.5354
       227.000         183.000
 131217711.69148 102247559.23448  24969907.3734   24969908.0404   24969908.7594
       214.000         161.000
 116068181.76448  90442714.04248  22087060.7894   22087063.4824   22087060.8194
       240.000         202.000
 106456718.55148  82953269.18748  20258055.4084   20258057.7654   20258055.6884
       251.000         227.000
 119011228.31748  74943809.06548  20744150.0664   20744151.4464   20744149.8044
       250.000         230.000
 117036522.19948  91197277.79048  22271319.7204   22271321.9064   22271320.6424
       236.000         195.000
 121997069.24748  95062648.62348  23215272.3154   23215274.1684   23215272.0774
       231.000         191.000
 135192444.21148  87552553.82748  23823331.0024   23823330.2694   23823331.2804
       225.000         174.000
 115572169.72448  90056223.93248  21992663.0344   21992664.8084   21992663.0774
       240.000         209.000
 09  1 13  1 29 30.0000000  0  9G 5G28G26G 9G15G18G17G22G12
 130988439.05348  84276694.40048  23023343.1774   23023346.1354   23023343.5654
       227.000         184.000
 131313680.68848 102322340.26548  24988169.8154   24988170.7304   24988170.0644
       213.000         160.000
 116155590.27648  90510824.56348  22103694.0244   22103696.7434   22103694.0064
       240.000         202.000
 106423411.77448  82927315.86048  20251717.2764   20251719.7574   20251717.6444
       251.000         227.000
 119056510.26548  74979093.70048  20752766.9274   20752768.4004   20752766.6914
       250.000         230.000
 117035270.65348  91196302.56248  22271081.8134   22271083.5924   22271082.3404
       237.000         195.000
 121998129.73748  95063474.97148  23215474.2874   23215475.9434   23215474.0304
       232.000         191.000
 135139619.02748  87511391.35648  23813278.2684   23813278.1864   23813279.7934
       222.000         174.000
 115488614.89748  89991116.28648  21976763.1084   21976764.7644   21976762.8004
       241.000         209.000
 09  1 13  1 30  0.0000000  0  9G 5G28G26G 9G15G18G17G22G12
 130887963.05248  84198401.42948  23004223.1214   23004226.4624   23004223.7214
       226.000         183.000
 131409707.57848 102397166.40948  25006442.4794   25006443.7434   25006442.4014
       214.000         161.000
 116243296.57348  90579167.12948  22120384.0314   22120386.5444   22120383.7444
       241.000         201.000
 106390433.20748  82901618.27748  20245441.6494   20245444.0174   20245441.7144
       250.000         227.000
 119102247.61748  75014733.19548  20761470.5204   20761471.9724   20761470.4254
       250.000         230.000
 117034596.07948  91195776.91348  22270953.6354   22270955.1894   22270953.7254
       239.000         196.000
 121999741.85148  95064731.16948  23215781.0254   23215782.6374   23215781.7154
       231.000         190.000
 135087266.13348  87470596.90148  23803315.4844   23803315.7844   23803315.2284
       227.000         178.000
 115405416.28948  89926286.20548  21960931.0154   21960932.5874   21960930.8294
       241.000         209.000
 09  1 13  1 30 30.0000000  0  9G 5G28G26G 9G15G18G17G22G12
 130787733.06148  84120300.12948  22985149.8584   22985153.0994   22985150.6334
       228.000         183.000
 131505790.70348 102472036.37748  25024726.6954   25024728.2934   25024726.9614
       214.000         159.000
 116331299.39648  90647740.75148  22137130.2564   22137132.9554   22137130.4124
       239.000         201.000
 106357783.36348  82876176.84448  20239228.7004   20239230.9854   20239228.9724
       251.000         227.000
 119148439.56448  75050726.91448  20770260.3564   20770262.0494   20770260.1304
       250.000         230.000
 117034498.00848  91195700.48948  22270934.8454   22270936.8624   22270935.6314
       238.000         195.000
 122001905.83548  95066417.40348  23216192.7164   23216194.4624   23216192.7384
       230.000         190.000
 135035387.52448  87430171.97248  23793443.7024   23793443.8084   23793443.2724
       227.000         177.000
 115322575.37548  89861734.84348  21945166.9234   21945168.2964   21945166.9144
       241.000         210.000
 09  1 13  1 31  0.0000000  0  9G 5G28G26G 9G15G18G17G22G12
 130687751.63248  84042392.51848  22966124.1904   22966127.2274   22966124.3244
       228.000         184.000
 131601928.77948 102546949.14948  25043020.9444   25043023.3784   25043021.7184
       216.000         161.000
 116419598.25848  90716545.05148  22153932.9464   22153935.7394   22153932.8704
       239.000         201.000
 106325463.78448  82850992.75948  20233078.3544   20233080.7154   20233078.4624
       251.000         228.000
 119195086.69148  75087075.31748  20779137.0154   20779138.7334   20779136.7894
       250.000         230.000
 117034976.72748  91196073.49848  22271025.5184   22271027.7564   22271025.8244
       238.000         195.000
 122004622.94148  95068534.63548  23216709.9624   23216711.5344   23216709.7264
       230.000         191.000
 134983985.23948  87390118.29548  23783661.6954   23783662.2594   23783661.0734
       226.000         178.000
 115240094.48948  89797464.02848  21929471.3774   21929472.8554   21929471.1194
       240.000         210.000
 09  1 13  1 31 30.0000000  0  9G 5G28G26G 9G15G18G17G22G12
 130588019.62448  83964679.25948  22947145.7954   22947149.0074   22947146.8554
       228.000         184.000
 131698119.16748 102621902.66948  25061325.4674   25061327.6794   25061325.7704
       215.000         159.000
 116508190.71348  90785578.12048  22170791.7204   22170794.3364   22170791.6624
       240.000         200.000
 106293473.57648  82826065.33648  20226990.9084   20226993.3124   20226991.2394
       252.000         228.000
 119242187.41648  75123777.17848  20788100.0374   20788101.8324   20788099.7164
       250.000         229.000
 117036031.16148  91196895.12948  22271226.6524   22271228.1274   22271227.2694
       237.000         195.000
 122007892.73948  95071082.53748  23217332.1864   23217333.9754   23217331.3824
       230.000         192.000
 134933060.34248  87350436.51748  23773971.9254   23773971.3404   23773971.4824
       231.000         181.000
 115157974.28448  89733474.26648  21913844.1484   21913845.8304   21913844.2064
       240.000         210.000
 09  1 13  1 32  0.0000000  0  9G 5G28G26G 9G15G18G17G22G12
 130488538.58048  83887161.56948  22928214.9074   22928218.3974   22928215.5344
       228.000         185.000
 131794360.02748 102696895.52748  25079639.5564   25079641.4954   25079640.6764
       215.000         158.000
 116597075.43748  90854838.94648  22187705.8104   22187708.4374   22187705.7524
       239.000         199.000
 106261813.15548  82801394.88648  20220966.1144   20220968.6034   20220966.3144
       251.000         228.000
 119289741.22448  75160832.08548  20797149.1994   20797150.9064   20797149.1234
       250.000         229.000
 117037660.88748  91198165.04348  22271536.7094   22271537.9814   22271537.7414
       236.000         195.000
 122011715.28748  95074061.16448  23218059.3134   23218061.3744   23218058.9894
       229.000         191.000
 134882613.70248  87311127.44848  23764372.1034   23764371.8714   23764371.9574
       226.000         179.000
 115076215.93548  89669766.46348  21898286.1044   21898287.6574   21898285.8864
       241.000         210.000
 09  1 13  1 32 30.0000000  0  9G 5G28G26G 9G15G18G17G22G12
 130389311.23148  83809841.56848  22909332.3614   22909336.1054   22909332.7794
       227.000         185.000
 131890650.59148 102771927.11148  25097962.8094   25097965.3594   25097964.2804
       213.000         159.000
 116686252.22048  90924327.34248  22204675.6374   22204678.2664   22204675.4424
       240.000         200.000
 106230483.92348  82776982.50548  20215004.3904   20215006.7514   20215004.4164
       252.000         229.000
 119337748.80148  75198240.58548  20806284.6594   20806286.3134   20806284.3884
       250.000         229.000
 117039866.59148  91199883.76148  22271956.2054   22271958.1314   22271956.4254
       237.000         195.000
 122016091.90248  95077471.52648  23218892.1364   23218893.9914   23218891.8694
       229.000         191.000
 134832648.05648  87272193.19148  23754863.2354   23754863.8074   23754861.5414
       227.000         179.000
 114994822.14648  89606342.74348  21882797.1814   21882799.1624   21882797.1144
       239.000         211.000
 09  1 13  1 33  0.0000000  0  9G 5G28G26G 9G15G18G17G22G12
 130290338.51248  83732719.97848  22890498.5004   22890502.1864   22890499.0174
       227.000         185.000
 131986988.37848 102846995.49748  25116295.5884   25116297.5754   25116296.0194
       213.000         157.000
 116775718.97248  90994041.68848  22221700.6924   22221703.3094   22221700.5994
       239.000         201.000
 106199485.52448  82752827.91648  20209105.6714   20209108.1414   20209105.9244
       252.000         229.000
 119386208.44248  75236001.33948  20815506.3194   20815507.7854   20815506.0374
       250.000         229.000
 117042646.94848  91202050.26648  22272485.3364   22272487.1524   22272485.7074
       237.000         196.000
 122021022.37148  95081313.46548  23219830.0824   23219832.2004   23219829.1784
       228.000         190.000
 134783164.11848  87233634.27048  23745447.1904   23745446.6744   23745447.4204
       228.000         177.000
 114913793.40048  89543203.47248  21867378.0374   21867379.8634   21867377.6794
       240.000         211.000
 09  1 13  1 33 30.0000000  0 10G 5G28G30G26G 9G15G18G17G22G12
 130191621.62748  83655797.73948  22871713.5604   22871716.9804   22871714.5644
       229.000         185.000
 132083370.88448 102922098.72548  25134636.1114   25134638.3494   25134636.8244
       213.000         155.000
 142253104.02558  93054353.31158  25166939.1095   25166942.4355   25166944.0395
       209.000         141.000
 116865473.76248  91063980.47248  22238780.5844   22238783.0174   22238780.7204
       238.000         198.000
 106168818.13848  82728931.25348  20203269.8454   20203272.2924   20203270.0204
       253.000         229.000
 119435119.57248  75274113.89948  20824813.9234   20824815.4244   20824813.6734
       250.000         228.000
 117046001.22948  91204663.99048  22273123.9474   22273125.4644   22273124.0404
       237.000         197.000
 122026506.71348  95085586.96448  23220874.0234   23220875.9734   23220873.2504
       231.000         190.000
 134734163.16948  87195451.69948  23736122.3944   23736122.1014   23736122.1344
       226.000         175.000
 114833131.41048  89480349.96648  21852028.7924   21852030.1394   21852028.5964
       241.000         211.000
 09  1 13  1 34  0.0000000  0 10G 5G28G30G26G 9G15G18G17G22G12
 130093162.12548  83579076.05748  22852977.0864   22852980.8584   22852977.3974
       229.000         187.000
 132179796.37648 102997235.45048  25152985.5674   25152987.3634   25152986.2934
       212.000         155.000
 142140342.55948  92966487.23448  25145483.0694   25145484.4084   25145483.6314
       206.000         144.000
 116955515.21648  91134142.64148  22255914.8144   22255917.3334   22255914.5664
       239.000         199.000
 106138481.95248  82705292.67548  20197497.1234   20197499.5694   20197497.5364
       253.000         229.000
 119484481.59948  75312577.81548  20834207.0784   20834208.8314   20834206.9464
       250.000         228.000
 117049928.31348  91207724.04748  22273871.1444   22273872.9654   22273871.7014
       237.000         197.000
 122032544.84148  95090291.99648  23222023.5164   23222024.9364   23222023.7564
       230.000         191.000
 134685646.33548  87157646.34448  23726889.9024   23726889.9364   23726891.0424
       226.000         177.000
 114752837.02148  89417782.91548  21836749.0694   21836750.6064   21836748.9434
       240.000         210.000
 09  1 13  1 34 30.0000000  0 10G 5G28G30G26G 9G15G18G17G22G12
 129994961.55448  83502556.14048  22834290.3104   22834293.7474   22834290.8144
       229.000         186.000
 132276262.97448 103072404.21148  25171342.6174   25171344.5434   25171343.3484
       213.000         156.000
 142027646.99648  92878672.52248  25124036.7984   25124038.8824   25124035.6884
       210.000         146.000
 117045841.72848  91204526.93748  22273103.5764   22273105.9384   22273103.6274
       238.000         199.000
 106108477.31548  82681912.44448  20191787.3504   20191789.7274   20191787.4844
       252.000         229.000
 119534293.97148  75351392.64548  20843686.0294   20843687.6514   20843685.5414
       250.000         228.000
 117054428.17348  91211230.41848  22274727.5274   22274729.1264   22274728.2004
       239.000         197.000
 122039136.43248  95095428.30648  23223277.7844   23223279.1934   23223277.9224
       230.000         190.000
 134637615.19948  87120219.51648  23717749.1704   23717750.6094   23717750.2044
       222.000         174.000
 114672911.57148  89355503.34548  21821539.7134   21821541.1644   21821539.2044
       240.000         210.000
 09  1 13  1 35  0.0000000  0 10G 5G28G30G26G 9G15G18G17G22G12
 129897022.61148  83426240.07848  22815653.4544   22815656.4514   22815653.8234
       230.000         187.000
 132372770.12148 103147604.58648  25189706.8144   25189708.9464   25189707.1464
       211.000         152.000
 141915019.94748  92790911.20848  25102604.6634   25102606.7194   25102604.3404
       214.000         146.000
 117136453.27648  91275133.32248  22290346.0984   22290348.5794   22290345.8634
       238.000         198.000
 106078805.48748  82658791.54548  20186141.0884   20186143.2924   20186141.3064
       252.000         229.000
 119584556.91748  75390558.56848  20853250.7704   20853252.3414   20853250.5564
       250.000         228.000
 117059501.16248  91215183.38848  22275692.9774   22275694.6034   22275693.4964
       238.000         196.000
 122046283.61748  95100997.54148  23224637.2564   23224639.2754   23224637.1304
       229.000         191.000
 134590071.76448  87083172.68348  23708702.2674   23708702.7454   23708702.4534
       227.000         177.000
 114593357.59848  89293513.24348  21806401.0704   21806402.6654   21806401.0514
       241.000         211.000
 09  1 13  1 35 30.0000000  0 10G 5G28G30G26G 9G15G18G17G22G12
 129799346.32948  83350128.70648  22797066.1364   22797069.4114   22797067.2604
       230.000         188.000
 132469315.25648 103222834.52748  25208078.9674   25208080.8034   25208079.2564
       212.000         153.000
 141802462.29048  92703203.95548  25081185.6224   25081187.1894   25081185.7684
       209.000         144.000
 117227347.69248  91345960.14348  22307642.7854   22307645.3154   22307642.7474
       238.000         197.000
 106049466.18048  82635929.75148  20180557.8054   20180560.2144   20180557.7574
       253.000         229.000
 119635269.33948  75430074.74248  20862900.8964   20862902.6814   20862900.6504
       249.000         227.000
 117065146.11248  91219582.03848  22276767.2444   22276768.5624   22276767.7274
       238.000         196.000
 122053985.51048  95106999.01648  23226102.9814   23226105.1274   23226103.0034
       231.000         191.000
 134543017.45948  87046506.96848  23699748.3394   23699748.4404   23699748.4944
       225.000         177.000
 114514175.91948  89231813.23848  21791333.5104   21791335.0394   21791333.3344
       240.000         211.000
 09  1 13  1 36  0.0000000  0 10G 5G28G30G26G 9G15G18G17G22G12
 129701934.58248  83274223.45848  22778529.5014   22778532.7564   22778529.7154
       232.000         189.000
 132565897.06748 103298093.05248  25226458.5194   25226458.7174   25226458.0514
       211.000         149.000
 141689976.28348  92615552.49848  25059779.0114   25059782.2914   25059778.7034
       211.000         147.000
 117318523.71448  91417006.38948  22324993.1944   22324995.4474   22324992.8414
       237.000         197.000
 106020460.25648  82613327.73648  20175038.3004   20175040.4624   20175038.5914
       251.000         229.000
 119686430.32548  75469940.44148  20872636.5984   20872638.1874   20872636.2864
       249.000         227.000
 117071362.56948  91224426.03048  22277950.1834   22277951.8894   22277950.8164
       237.000         196.000
 122062242.47648  95113433.02648  23227674.2684   23227676.2374   23227674.1444
       230.000         191.000
 134496453.57548  87010223.44448  23690887.2214   23690888.2264   23690887.5574
       229.000         180.000
 114435368.20848  89170404.64248  21776336.8914   21776338.2214   21776336.9654
       241.000         212.000
 09  1 13  1 36 30.0000000  0 10G 5G28G30G26G 9G15G18G17G22G12
 129604788.61448  83198525.30448  22760043.4804   22760046.2984   22760044.4784
       232.000         189.000
 132662513.11648 103373378.27648  25244843.9824   25244844.4154   25244845.9634
       213.000         149.000
 141577563.52548  92527958.10348  25038388.6134   25038391.7104   25038389.6494
       212.000         151.000
 117409979.74548  91488270.82548  22342396.4454   22342399.1904   22342396.5804
       238.000         197.000
 105991787.89148  82590985.64248  20169581.9994   20169584.4214   20169582.2094
       253.000         229.000
 119738039.68948  75510155.52148  20882457.7084   20882459.2044   20882457.3604
       250.000         228.000
 117078149.72348  91229714.70948  22279241.3324   22279243.2934   22279241.6944
       237.000         195.000
 122071054.44348  95120299.50348  23229351.2774   23229353.1974   23229350.8744
       230.000         191.000
 134450381.27248  86974322.93548  23682120.7174   23682120.5664   23682121.9804
       229.000         182.000
 114356935.44448  89109288.20148  21761411.7424   21761413.0584   21761411.6784
       242.000         212.000
 09  1 13  1 37  0.0000000  0 10G 5G28G30G26G 9G15G18G17G22G12
 129507910.27548  83123035.68648  22741607.8534   22741610.6454   22741608.6334
       230.000         188.000
 132759162.08648 103448689.18248  25263235.6814   25263235.6974   25263237.1074
       212.000         150.000
 141465225.24448  92440421.74148  25017011.7854   25017014.8104   25017009.3624
       213.000         153.000
 117501714.59248  91559752.50548  22359853.3554   22359855.5854   22359852.9894
       239.000         197.000
 105963449.83848  82568904.04648  20164189.4454   20164191.8644   20164189.6074
       252.000         229.000
 119790096.87948  75550719.56048  20892363.8634   20892365.3154   20892363.6984
       250.000         227.000
 117085507.20948  91235447.81248  22280641.8414   22280643.2814   22280642.4884
       237.000         196.000
 122080421.79148  95127598.72848  23231134.3604   23231135.7044   23231134.2554
       232.000         190.000
 134404802.14848  86938806.72448  23673447.3534   23673447.4544   23673446.8234
       230.000         182.000
 114278879.32748  89048465.26248  21746558.0804   21746559.4614   21746557.9664
       241.000         212.000
 09  1 13  1 37 30.0000000  0 10G 5G28G30G26G 9G15G18G17G22G12
 129411300.99148  83047755.73448  22723223.6814   22723226.6094   22723224.1804
       231.000         189.000
 132855842.08448 103524024.26648  25281633.1764   25281633.3504   25281632.9644
       212.000         148.000
 141352963.39648  92352944.92748  24995648.0434   24995651.7324   24995648.3234
       211.000         154.000
 117593726.53948  91631450.12948  22377362.5794   22377364.7534   22377362.7374
       239.000         196.000
 105935445.95948  82547082.84448  20158860.4564   20158862.8144   20158860.5334
       253.000         229.000
 119842600.76348  75591631.66948  20902355.0584   20902356.5434   20902354.9764
       249.000         227.000
 117093434.26548  91241624.72848  22282150.2234   22282151.8754   22282151.1344
       236.000         195.000
 122090344.19048  95135330.48248  23233022.4094   23233023.6504   23233022.7324
       230.000         190.000
 134359717.16648  86903675.57248  23664867.8994   23664868.0754   23664868.3644
       228.000         182.000
 114201200.90448  88987936.62948  21731776.4134   21731777.7904   21731776.4694
       242.000         213.000
 09  1 13  1 38  0.0000000  0 10G 5G28G30G26G 9G15G18G17G22G12
 129314962.64948  82972686.90748  22704891.3414   22704894.0074   22704892.7284
       232.000         189.000
 132952551.73848 103599382.44648  25300036.7554   25300036.1894   25300036.0784
       208.000         147.000
 141240779.86548  92265529.15248  24974300.0964   24974303.6284   24974300.6104
       211.000         152.000
 117686014.52148  91703362.83848  22394924.4464   22394926.4654   22394924.3464
       237.000         195.000
 105907776.89948  82525522.53948  20153595.2244   20153597.4884   20153595.2614
       253.000         229.000
 119895550.99748  75632891.58548  20912430.8874   20912432.8184   20912430.4864
       249.000         227.000
 117101930.16848  91248244.90448  22283766.9374   22283768.2014   22283767.6544
       237.000         195.000
 122100822.11348  95143495.10348  23235015.8854   23235017.3304   23235015.5934
       231.000         189.000
 134315128.03648  86868930.77948  23656382.4224   23656381.9514   23656382.8834
       228.000         176.000
 114123902.00748  88927703.71548  21717066.8524   21717068.2584   21717066.6414
       242.000         213.000
 09  1 13  1 38 30.0000000  0 10G 5G28G30G26G 9G15G18G17G22G12
 129218896.44648  82897830.13648  22686610.1664   22686612.8614   22686611.0364
       231.000         188.000
 133049288.85148 103674762.01248  25318445.0064   25318445.1164   25318445.4584
       210.000         143.000
 141128676.09148  92178175.54648  24952968.0674   24952970.6464   24952968.2474
       214.000         154.000
 117778576.86848  91775489.33648  22412538.4454   22412540.7744   22412538.6564
       236.000         195.000
 105880443.01948  82504223.41148  20148393.8584   20148396.1364   20148394.1104
       252.000         229.000
 119948946.78448  75674498.68248  20922591.9794   20922593.6304   20922591.6444
       250.000         227.000
 117110994.00048  91255307.61948  22285491.8414   22285493.1284   22285492.8534
       237.000         194.000
 122111855.04548  95152092.18948  23237115.4954   23237116.8984   23237115.4074
       231.000         190.000
 134271035.67548  86834573.09948  23647992.5564   23647991.3944   23647993.0104
       229.000         181.000
 114046983.45548  88867767.19248  21702429.7974   21702431.1274   21702429.8454
       243.000         214.000
 09  1 13  1 39  0.0000000  0 10G 5G28G30G26G 9G15G18G17G22G12
 129123105.15748  82823187.57348  22668381.7334   22668384.4184   22668382.1434
       232.000         190.000
 133146052.80948 103750162.48348  25336858.4124   25336859.1964   25336860.9504
       209.000         145.000
 141016654.38948  92090885.87448  24931650.9834   24931653.9864   24931650.9304
       212.000         154.000
 117871413.05148  91847829.20248  22430204.7444   22430207.0344   22430204.3644
       238.000         198.000
 105853445.70248  82483186.54448  20143256.4134   20143258.8214   20143256.7384
       252.000         229.000
 120002788.00648  75716452.87848  20932837.4274   20932839.2204   20932837.1874
       249.000         226.000
 117120626.15748  91262813.19448  22287324.5864   22287325.9664   22287325.3484
       237.000         195.000
 122123444.45448  95161122.90748  23239320.7164   23239322.2964   23239320.6524
       230.000         190.000
 134227442.38348  86800604.32048  23639696.4744   23639697.4444   23639696.4814
       226.000         181.000
 113970447.62248  88808128.88648  21687865.5334   21687866.9114   21687865.5274
       242.000         214.000
 09  1 13  1 39 30.0000000  0 10G 5G28G30G26G 9G15G18G17G22G12
 129027589.38948  82748759.71348  22650205.5764   22650208.7024   22650205.9714
       231.000         189.000
 133242841.20648 103825581.99348  25355276.4244   25355277.9974   25355277.1664
       205.000         145.000
 140904715.82948  92003660.98248  24910349.6654   24910353.2654   24910348.3034
       211.000         155.000
 117964520.99448  91920380.84048  22447922.5714   22447925.2754   22447922.5784
       237.000         196.000
 105826784.42048  82462411.51448  20138182.8254   20138185.3044   20138182.7244
       252.000         229.000
 120057073.79048  75758753.48148  20943167.7134   20943169.3964   20943167.3834
       250.000         226.000
 117130824.97448  91270760.31448  22289265.1924   22289266.8614   22289265.9764
       237.000         195.000
 122135589.22548  95170586.38848  23241632.0954   23241633.6464   23241632.0244
       231.000         192.000
 134184348.69148  86767024.77148  23631496.2814   23631496.1044   23631496.4174
       225.000         175.000
 113894295.03448  88748789.21548  21673374.1374   21673375.4654   21673374.2064
       243.000         215.000
 09  1 13  1 40  0.0000000  0 10G 5G28G30G26G 9G15G18G17G22G12
 128932351.64248  82674548.50148  22632081.9634   22632085.5314   22632082.5524
       231.000         190.000
 133339653.05748 103901019.78248  25373698.9954   25373701.0694   25373697.5824
       202.000         140.000
 140792862.98948  91916502.90448  24889064.3884   24889068.4704   24889064.4304
       212.000         155.000
 118057899.82548  91993143.55448  22465691.9324   22465694.4544   22465691.8184
       235.000         194.000
 105800460.42748  82441899.31948  20133173.6394   20133175.9804   20133174.0554
       252.000         229.000
 120111804.01348  75801400.40348  20953582.5724   20953584.1454   20953582.3944
       249.000         226.000
 117141590.57248  91279149.09448  22291314.1744   22291315.7974   22291314.5244
       237.000         196.000
 122148290.31748  95180483.33248  23244049.1914   23244050.6334   23244048.7214
       232.000         192.000
 134141756.79548  86733836.25948  23623391.1654   23623391.0344   23623389.2794
       226.000         179.000
 113818527.78948  88689749.81548  21658956.1824   21658957.6114   21658955.9914
       243.000         216.000
 09  1 13  1 40 30.0000000  0 10G 5G28G30G26G 9G15G18G17G22G12
 128837392.73148  82600554.55048  22614012.4214   22614015.1474   22614012.8264
       235.000         192.000
 133436485.88648 103976473.90348  25392126.0434   25392128.3464   25392126.0434
       205.000         141.000
 140681096.50548  91829412.13148  24867796.8854   24867800.2314   24867797.0924
       212.000         157.000
 118151547.44348  92066115.73048  22483512.2184   22483514.9214   22483512.1194
       235.000         194.000
 105774473.43848  82421649.71748  20128228.3884   20128230.7004   20128228.4114
       252.000         229.000
 120166976.82148  75844392.19548  20964081.5824   20964083.2884   20964081.2154
       247.000         226.000
 117152921.21748  91287978.15448  22293470.0294   22293471.8954   22293470.5884
       237.000         194.000
 122161546.83848  95190813.09748  23246571.7184   23246573.2894   23246571.4844
       231.000         192.000
 134099667.16848  86701039.17848  23615381.9824   23615382.0664   23615381.6654
       226.000         178.000
 113743146.41448  88631011.09248  21644611.5114   21644613.0344   21644611.3094
       243.000         215.000
 09  1 13  1 41  0.0000000  0 10G 5G28G30G26G 9G15G18G17G22G12
 128742714.02648  82526778.94548  22595995.8884   22595998.4094   22595996.8914
       234.000         191.000
 133533337.65048 104051942.79948  25410556.1174   25410558.1394   25410557.4694
       207.000         143.000
 140569418.29548  91742390.18348  24846545.7344   24846547.9124   24846545.4824
       215.000         157.000
 118245462.41148  92139296.21748  22501383.7914   22501386.2764   22501383.3124
       235.000         195.000
 105748823.79648  82401662.98148  20123347.4564   20123349.7354   20123347.7344
       253.000         229.000
 120222591.69948  75887728.45848  20974664.8294   20974666.3724   20974664.3684
       248.000         226.000
 117164815.80748  91297246.66248  22295733.4294   22295735.2994   22295734.4614
       235.000         193.000
 122175358.25248  95201575.25248  23249199.9374   23249201.3234   23249199.9244
       232.000         192.000
 134058080.40848  86668633.87548  23607467.8694   23607467.6974   23607466.8374
       224.000         175.000
 113668151.94648  88572573.85548  21630340.4674   21630342.0364   21630340.4394
       243.000         216.000
 09  1 13  1 41 30.0000000  0 10G 5G28G30G26G 9G15G18G17G22G12
 128648317.34648  82453223.09848  22578032.8294   22578035.5704   22578033.8974
       234.000         192.000
 133630207.53648 104127425.80348  25428990.6704   25428992.3124   25428990.2674
       209.000         142.000
 140457830.05248  91655438.34148  24825310.7874   24825313.5514   24825311.4534
       213.000         157.000
 118339643.27848  92212683.90148  22519305.5534   22519308.4284   22519305.6294
       234.000         194.000
 105723511.86548  82381939.39248  20118530.8234   20118533.0724   20118531.0674
       252.000         229.000
 120278647.78048  75931408.51048  20985332.1404   20985333.6064   20985331.8444
       249.000         226.000
 117177274.27248  91306954.54948  22298104.2624   22298106.2304   22298104.6234
       236.000         193.000
 122189725.00148  95212770.11548  23251933.9764   23251935.2434   23251934.0184
       232.000         192.000
 134016998.20948  86636621.78948  23599649.6844   23599650.6574   23599649.7294
       224.000         180.000
 113593546.29548  88514439.59248  21616143.4054   21616144.8994   21616143.1654
       243.000         216.000
 09  1 13  1 42  0.0000000  0 10G 5G28G30G26G 9G15G18G17G22G12
 128554203.39548  82379887.55148  22560123.4234   22560126.3154   22560124.3424
       234.000         191.000
 133727092.83948 104202920.81748  25447426.5114   25447429.4304   25447426.8874
       207.000         144.000
 140346332.73148  91568557.36748  24804093.1374   24804096.1934   24804092.7384
       213.000         158.000
 118434088.05248  92286277.22048  22537277.7564   22537280.4974   22537277.5814
       233.000         193.000
 105698537.48348  82362478.83948  20113778.2774   20113780.7254   20113778.5074
       252.000         229.000
 120335143.90448  75975431.46048  20996082.9724   20996084.4404   20996082.9704
       248.000         226.000
 117190294.84348  91317100.43748  22300582.2004   22300583.6624   22300583.1694
       236.000         193.000
 122204646.20348  95224397.02948  23254773.4294   23254774.5414   23254773.3014
       233.000         192.000
 133976421.69948  86605003.74748  23591928.6414   23591928.6804   23591928.7864
       223.000         175.000
 113519329.73548  88456608.51648  21602020.4874   21602022.1924   21602020.3734
       243.000         217.000
 09  1 13  1 42 30.0000000  0 10G 5G28G30G26G 9G15G18G17G22G12
 128460374.45548  82306774.11048  22542267.9314   22542271.2814   22542269.0884
       233.000         192.000
 133823992.54848 104278427.07248  25465866.8134   25465867.9414   25465866.5224
       206.000         141.000
 140234928.44348  91481748.86848  24782893.5224   24782896.6554   24782893.4984
       211.000         160.000
 118528795.75948  92360075.43348  22555300.4174   22555302.9064   22555300.2334
       233.000         192.000
 105673901.58348  82343282.03648  20109090.1264   20109092.7914   20109090.2134
       252.000         229.000
 120392079.75548  76019797.04648  21006917.3554   21006918.9974   21006917.0504
       248.000         225.000
 117203877.22448  91327684.10548  22303166.7764   22303168.0534   22303167.2194
       236.000         193.000
 122220122.21648  95236456.27648  23257718.0444   23257719.5704   23257718.3374
       231.000         191.000
 133936351.92248  86573780.51748  23584303.5564   23584303.1154   23584302.2214
       229.000         179.000
 113445504.17148  88399082.11748  21587972.1484   21587973.6784   21587972.0944
       243.000         217.000
 09  1 13  1 43  0.0000000  0 10G 5G28G30G26G 9G15G18G17G22G12
 128366831.68848  82233883.64248  22524467.3814   22524470.6014   22524468.1444
       235.000         192.000
 133920904.93848 104353943.14948  25484308.3714   25484309.2744   25484308.5144
       211.000         142.000
 140123618.60448  91395013.98348  24761712.4114   24761714.7194   24761711.3234
       214.000         158.000
 118623764.45948  92434077.01248  22573372.1004   22573374.6524   22573372.2514
       233.000         192.000
 105649604.21148  82324349.01748  20104466.6074   20104469.0924   20104466.8524
       252.000         229.000
 120449454.08148  76064504.30848  21017835.4604   21017836.9834   21017835.3394
       247.000         225.000
 117218019.83648  91338704.31548  22305857.9214   22305859.2894   22305858.1124
       237.000         193.000
 122236152.76748  95248947.62748  23260768.3514   23260770.1314   23260767.9114
       234.000         192.000
 133896789.81848  86542952.88148  23576775.9354   23576776.2084   23576776.6654
       223.000         181.000
 113372070.50748  88341861.09748  21573998.1124   21573999.6674   21573997.7214
       244.000         217.000
 09  1 13  1 43 30.0000000  0 10G 5G28G30G26G 9G15G18G17G22G12
 128273576.78548  82161217.50348  22506721.6124   22506724.7964   22506722.7764
       234.000         191.000
 134017828.07248 104429467.67748  25502752.7424   25502753.5074   25502752.4984
       205.000         139.000
 140012405.31748  91308354.32248  24740550.1984   24740551.4724   24740549.9574
       213.000         156.000
 118718992.97748  92508281.04048  22591493.4624   22591496.1544   22591493.3254
       233.000         192.000
 105625646.07248  82305680.33648  20099907.5794   20099909.9534   20099907.6924
       252.000         229.000
 120507266.56648  76109552.99148  21028836.6964   21028838.2674   21028836.2114
       248.000         225.000
 117232722.25248  91350160.73248  22308655.9834   22308657.0404   22308656.5974
       237.000         193.000
 122252737.97948  95261871.16448  23263925.0734   23263926.4884   23263924.7884
       232.000         193.000
 133857736.91148  86512522.04748  23569343.3754   23569344.2454   23569343.1384
       226.000         180.000
 113299030.02148  88284946.43748  21560099.0244   21560100.6074   21560098.8824
       244.000         217.000
 09  1 13  1 44  0.0000000  0 10G 5G28G30G26G 9G15G18G17G22G12
 128180611.20348  82088776.78848  22489030.6524   22489033.7384   22489031.2824
       235.000         192.000
 134114760.75748 104504999.63548  25521196.9954   25521199.1314   25521197.7914
       209.000         140.000
 139901290.01548  91221771.02348  24719405.0774   24719406.8714   24719405.3834
       216.000         158.000
 118814479.74548  92582686.30148  22609664.3664   22609666.6904   22609664.6944
       232.000         192.000
 105602027.22548  82287276.03748  20095412.9424   20095415.2914   20095413.1634
       252.000         229.000
 120565516.17748  76154942.28548  21039921.3014   21039922.8044   21039921.1524
       247.000         225.000
 117247983.16748  91362052.33848  22311559.9564   22311561.0854   22311560.4794
       238.000         193.000
 122269877.36748  95275226.52848  23267186.4274   23267187.4544   23267186.2634
       233.000         191.000
 133819193.72348  86482488.38048  23562009.7724   23562009.7594   23562009.7834
       225.000         182.000
 113226384.29948  88228339.38548  21546275.0184   21546276.2854   21546275.0774
       244.000         217.000
 09  1 13  1 44 30.0000000  0 10G 5G28G30G26G 9G15G18G17G22G12
 128087935.70748  82016562.12848  22471395.2744   22471398.2494   22471395.9704
       237.000         194.000
 134211700.31048 104580536.98648  25539644.3754   25539645.2134   25539644.5214
       208.000         142.000
 139790273.23448  91135264.50748  24698278.8774   24698281.1494   24698278.7294
       218.000         159.000
 118910222.54448  92657291.06648  22627883.4884   22627885.9204   22627883.2624
       233.000         191.000
 105578747.52648  82269136.01448  20090983.1114   20090985.4454   20090983.3614
       252.000         229.000
 120624201.09948  76200670.79648  21051088.4474   21051090.1384   21051087.9334
       247.000         224.000
 117263800.81048  91374377.77248  22314569.7974   22314571.2454   22314570.4504
       237.000         193.000
 122287569.92248  95289012.95148  23270553.1084   23270554.2294   23270552.9814
       232.000         191.000
 133781160.86248  86452852.39748  23554772.1174   23554772.9414   23554770.8784
       227.000         182.000
 113154133.49548  88172040.06248  21532525.9084   21532527.3284   21532525.7664
       244.000         217.000
 09  1 13  1 45  0.0000000  0  9G 5G30G26G 9G15G18G17G22G12
 127995550.07548  81944573.33248  22453814.8484   22453817.7464   22453815.8974
       236.000         194.000
 139679355.16448  91048834.91348  24677171.8964   24677174.1854   24677172.5234
       216.000         159.000
 119006218.10048  92732092.80048  22646150.8964   22646153.2214   22646150.9564
       233.000         192.000
 105555805.38748  82251259.01948  20086617.2324   20086619.6244   20086617.3764
       252.000         229.000
 120683318.67348  76246736.42148  21062338.2494   21062339.9624   21062337.8814
       247.000         224.000
 117280172.71848  91387135.08848  22317685.4144   22317686.9404   22317686.0034
       236.000         193.000
 122305813.20248  95303228.48848  23274024.4534   23274025.8524   23274024.2964
       231.000         191.000
 133743637.60548  86423613.47748  23547631.5404   23547632.2234   23547633.3384
       224.000         179.000
 113082276.76648  88116047.81348  21518851.9904   21518853.3964   21518851.9844
       244.000         217.000
 09  1 13  1 45 30.0000000  0  9G 5G30G26G 9G15G18G17G22G12
 127903460.35448  81872815.10948  22436290.8354   22436293.9284   22436291.7704
       237.000         195.000
 139568541.89148  90962486.95748  24656084.7684   24656087.3144   24656084.0294
       218.000         159.000
 119102469.38148  92807093.80248  22664466.8344   22664469.2354   22664466.3054
       234.000         191.000
 105533206.00048  82233649.11048  20082316.7344   20082319.1254   20082317.0034
       252.000         229.000
 120742872.76348  76293142.20248  21073671.0594   21073672.7204   21073670.7254
       248.000         224.000
 117297102.23748  91400326.92448  22320907.0094   22320908.5404   22320907.6344
       237.000         193.000
 122324611.81848  95317876.76048  23277602.0244   23277603.1884   23277601.7844
       233.000         192.000
 133706629.35448  86394775.87148  23540588.4674   23540589.2384   23540587.7844
       225.000         179.000
 113010819.98648  88060367.21548  21505254.2084   21505255.7134   21505253.8914
       244.000         217.000
 09  1 13  1 46  0.0000000  0  9G 5G30G26G 9G15G18G17G22G12
 127811667.13248  81801287.92548  22418823.4594   22418826.0734   22418824.5404
       237.000         196.000
 139457834.24548  90876221.29748  24635017.4654   24635020.0934   24635017.3834
       216.000         159.000
 119198974.14548  92882292.30748  22682831.1694   22682833.7194   22682831.4884
       232.000         191.000
 105510948.99848  82216305.99648  20078081.3244   20078083.7444   20078081.4144
       251.000         228.000
 120802861.41148  76339886.59648  21085086.5944   21085088.2404   21085086.4024
       247.000         224.000
 117314587.23248  91413951.59148  22324234.1924   22324235.8774   22324234.8574
       236.000         194.000
 122343964.26548  95332956.61048  23281284.2454   23281286.0804   23281284.4464
       231.000         191.000
 133670136.74748  86366340.07948  23533645.2704   23533644.9564   23533645.0344
       224.000         177.000
 112939763.33148  88004998.40148  21491732.7814   21491733.9044   21491732.6174
       245.000         218.000
 09  1 13  1 46 30.0000000  0  9G 5G30G26G 9G15G18G17G22G12
 127720171.92448  81729992.96148  22401412.3724   22401415.3274   22401413.3634
       238.000         196.000
 139347234.16048  90790039.44848  24613970.5304   24613973.7604   24613970.4584
       217.000         159.000
 119295730.78048  92957687.07448  22701243.1194   22701245.7184   22701242.9844
       230.000         190.000
 105489034.70948  82199229.92448  20073911.1694   20073913.4884   20073911.3234
       252.000         228.000
 120863283.90148  76386969.05748  21096584.7024   21096586.2774   21096584.3874
       248.000         224.000
 117332627.01448  91428008.54848  22327666.9714   22327668.8044   22327667.6014
       236.000         193.000
 122363870.98148  95348468.33348  23285072.6324   23285074.1354   23285072.3724
       234.000         193.000
 133634160.41748  86338306.56548  23526798.0244   23526798.0834   23526797.1224
       222.000         175.000
 112869108.15348  87949942.41948  21478287.4454   21478288.6994   21478287.4424
       244.000         218.000
 09  1 13  1 47  0.0000000  0  9G 5G30G26G 9G15G18G17G22G12
 127628975.48848  81658930.81148  22384058.3084   22384061.2474   22384059.1404
       238.000         198.000
 139236742.26448  90703941.92448  24592944.4554   24592947.4324   24592944.6664
       213.000         157.000
 119392737.01248  93033276.34148  22719702.6814   22719705.3534   22719702.6524
       233.000         191.000
 105467462.55448  82182420.45448  20069805.9884   20069808.4634   20069806.2584
       252.000         229.000
 120924138.40848  76434388.14648  21108164.6984   21108166.5024   21108164.4414
       247.000         224.000
 117351219.19848  91442495.95848  22331205.0644   22331206.5644   22331205.5154
       236.000         193.000
 122384330.53748  95364410.84448  23288966.3564   23288967.5714   23288965.9824
       233.000         193.000
 133598700.56048  86310675.49048  23520050.8284   23520051.2394   23520050.6004
       225.000         178.000
 112798854.89248  87895199.62948  21464918.4204   21464920.1284   21464918.1544
       244.000         218.000
 09  1 13  1 47 30.0000000  0  9G 5G30G26G 9G15G18G17G22G12
 127538078.72648  81588102.15848  22366761.3274   22366764.1994   22366762.2564
       238.000         197.000
 139126359.56148  90617929.48148  24571939.4234   24571942.1294   24571938.7844
       215.000         158.000
 119489990.88148  93109058.57148  22738209.5024   22738212.2414   22738209.6874
       230.000         190.000
 105446232.59048  82165877.62748  20065766.3704   20065768.5064   20065766.5844
       252.000         229.000
 120985423.59248  76482142.82648  21119826.8674   21119828.7434   21119826.4454
       247.000         224.000
 117370362.56948  91457412.86248  22334848.0514   22334849.2744   22334848.3094
       237.000         193.000
 122405341.70448  95380783.18948  23292963.9844   23292965.7844   23292964.2164
       230.000         192.000
 133563757.85148  86283447.40748  23513401.2044   23513402.6514   23513401.3624
       226.000         181.000
 112729004.19848  87840770.52748  21451626.2884   21451627.9934   21451626.1924
       245.000         219.000
 09  1 13  1 48  0.0000000  0  9G 5G30G26G 9G15G18G17G22G12
 127447483.51848  81517508.49748  22349521.1164   22349524.2424   22349521.6294
       235.000         196.000
 139016087.89748  90532003.55948  24550955.7284   24550957.9754   24550956.4214
       216.000         160.000
 119587491.05648  93185032.72948  22756763.1464   22756765.8864   22756762.6764
       231.000         188.000
 105425345.56748  82149602.02448  20061791.7494   20061793.8694   20061791.8964
       252.000         229.000
 121047138.74348  76530232.54548  21131570.9794   21131572.7914   21131570.7214
       247.000         224.000
 117390056.14348  91472758.49948  22338595.6154   22338596.6994   22338596.1094
       237.000         192.000
 122426904.62548  95397585.48048  23297066.8704   23297069.0554   23297066.5104
       230.000         191.000
 133529333.63048  86256623.31348  23506851.6544   23506851.7304   23506851.6964
       225.000         181.000
 112659556.93548  87786655.77948  21438411.0544   21438412.6044   21438410.7994
       245.000         219.000
 09  1 13  1 48 30.0000000  0  9G 5G30G26G 9G15G18G17G22G12
 127357191.51148  81447151.09848  22332338.9664   22332342.2374   22332339.3564
       238.000         198.000
 138905929.72848  90446166.10548  24529992.9244   24529995.8114   24529991.3874
       217.000         160.000
 119685236.36948  93261197.91048  22775363.4754   22775366.0044   22775363.6144
       231.000         187.000
 105404802.02448  82133594.07248  20057882.3984   20057884.6254   20057882.5574
       253.000         229.000
 121109283.23948  76578656.82248  21143396.6514   21143398.3114   21143396.3324
       247.000         223.000
 117410299.17348  91488532.29048  22342447.6154   22342448.8214   22342448.2434
       236.000         191.000
 122449019.15948  95414817.58748  23301275.7094   23301277.4534   23301275.1234
       232.000         192.000
 133495429.01148  86230204.15448  23500399.0834   23500399.7874   23500398.6064
       224.000         179.000
 112590515.21148  87732857.04448  21425272.8594   21425274.4974   21425272.6954
       245.000         220.000
 09  1 13  1 49  0.0000000  0  9G 5G30G26G 9G15G18G17G22G12
 127267203.24548  81377030.38248  22315215.1554   22315218.4154   22315216.0114
       238.000         200.000
 138795885.62348  90360417.48548  24509051.6084   24509055.3354   24509051.2944
       211.000         160.000
 119783224.23948  93337552.09248  22794009.8654   22794012.4224   22794010.2814
       229.000         187.000
 105384601.74048  82117853.58848  20054038.4444   20054040.6324   20054038.6944
       252.000         229.000
 121171855.15148  76627414.14348  21155303.7784   21155305.2894   21155303.5064
       247.000         223.000
 117431089.40548  91504732.45448  22346403.7584   22346405.0694   22346404.3724
       235.000         191.000
 122471684.05548  95432478.55948  23305588.9594   23305590.1044   23305589.0314
       232.000         188.000
 133462044.03648  86204189.85848  23494046.6014   23494046.5744   23494046.7264
       226.000         179.000
 112521878.75248  87679374.09748  21412211.8794   21412213.2784   21412211.7814
       245.000         219.000
 09  1 13  1 49 30.0000000  0  9G 5G30G26G 9G15G18G17G22G12
 127177520.83048  81307147.99148  22298149.1234   22298152.2694   22298149.3274
       237.000         199.000
 138685957.80848  90274759.50048  24488133.2184   24488136.8314   24488131.8764
       216.000         158.000
 119881453.98448  93414094.73648  22812702.5764   22812704.8744   22812702.2744
       231.000         189.000
 105364745.91548  82102381.51948  20050259.8544   20050262.1924   20050260.1204
       252.000         229.000
 121234853.73348  76676503.94548  21167291.9944   21167293.5354   21167291.7814
       247.000         223.000
 117452426.04248  91521358.40248  22350463.9644   22350465.7504   22350464.4944
       236.000         192.000
 122494899.38548  95450568.43348  23310006.0014   23310007.6444   23310005.9054
       232.000         189.000
 133429180.43448  86178581.84348  23487792.6474   23487793.0354   23487793.8274
       228.000         180.000
 112453649.46148  87626208.42548  21399228.2524   21399229.5854   21399227.9624
       246.000         220.000
 09  1 13  1 50  0.0000000  0  9G 5G30G26G 9G15G18G17G22G12
 127088144.88448  81237504.40548  22281141.5284   22281144.5414   22281142.0574
       239.000         199.000
 138576146.85948  90189192.53648  24467236.9084   24467240.5694   24467237.9024
       212.000         157.000
 119979923.18248  93490823.97448  22831440.4994   22831443.1634   22831440.2544
       230.000         190.000
 105345233.65648  82087177.16448  20046546.9274   20046549.0474   20046547.3034
       252.000         229.000
 121298277.64248  76725925.16348  21179361.2314   21179362.8454   21179360.9404
       247.000         223.000
 117474307.24548  91538408.67348  22354627.7014   22354629.5764   22354628.7174
       236.000         193.000
 122518663.73648  95469086.09248  23314529.1554   23314530.0124   23314528.7704
       234.000         191.000
 133396837.50048  86153379.55648  23481638.3574   23481638.1694   23481639.7234
       229.000         180.000
 112385827.60448  87573360.23848  21386322.2074   21386323.6434   21386321.8664
       246.000         221.000
 09  1 13  1 50 30.0000000  0  9G 5G30G26G 9G15G18G17G22G12
 126999076.96448  81168100.82648  22264192.5774   22264195.4744   22264193.1384
       237.000         199.000
 138466454.80248  90103718.24348  24446363.2844   24446366.7704   24446363.0784
       211.000         160.000
 120078630.13748  93567738.47848  22850224.1134   22850226.5504   22850223.6024
       230.000         189.000
 105326065.50448  82072240.94448  20042899.2434   20042901.5674   20042899.4764
       251.000         229.000
 121362126.27048  76775677.33848  21191511.2504   21191512.8494   21191511.1594
       247.000         223.000
 117496732.06048  91555882.55948  22358895.1704   22358897.0454   22358895.7594
       237.000         194.000
 122542976.82848  95488031.37548  23319155.5384   23319156.3604   23319155.4644
       229.000         187.000
 133365016.83148  86128584.24748  23475583.1354   23475582.5534   23475584.1804
       228.000         179.000
 112318414.38748  87520830.46848  21373493.8474   21373495.4544   21373493.7244
       245.000         220.000
 09  1 13  1 51  0.0000000  0  9G 5G30G26G 9G15G18G17G22G12
 126910319.78748  81098939.37948  22247302.5384   22247305.3214   22247303.1724
       238.000         199.000
 138356884.15448  90018338.56648  24425512.8084   24425516.3724   24425511.9754
       213.000         160.000
 120177575.00348  93644838.35948  22869052.4584   22869055.0654   22869051.9104
       229.000         188.000
 105307243.27048  82057574.26748  20039317.5514   20039319.9024   20039317.7944
       252.000         229.000
 121426399.67448  76825760.50548  21203741.9934   21203743.6934   21203741.7164
       246.000         222.000
 117519700.11448  91573779.74048  22363265.9794   22363267.8424   22363267.1964
       235.000         192.000
 122567839.42648  95507404.85948  23323885.3234   23323887.7294   23323884.6784
       232.000         188.000
 133333720.68448  86104197.60248  23469627.7554   23469626.9894   23469626.9734
       230.000         182.000
 112251411.80948  87468620.67448  21360743.5384   21360745.1814   21360743.3524
       244.000         220.000
 09  1 13  1 51 30.0000000  0  9G 5G30G26G 9G15G18G17G22G12
 126821874.10448  81030020.66448  22230471.9164   22230474.8224   22230472.2774
       238.000         200.000
 138247436.09748  89933054.42948  24404685.4014   24404689.0264   24404685.8814
       217.000         163.000
 120276755.14148  93722121.58448  22887926.0974   22887928.7084   22887926.3714
       229.000         186.000
 105288766.50848  82043176.79148  20035801.4104   20035803.9034   20035801.6324
       251.000         229.000
 121491095.85748  76876173.11048  21216053.0694   21216055.0234   21216052.5444
       247.000         222.000
 117543209.66948  91592098.86948  22367739.6764   22367741.3024   22367740.1634
       237.000         192.000
 122593250.30748  95527205.52648  23328722.6584   23328723.4744   23328722.3124
       234.000         191.000
 133302948.28848  86080219.10248  23463771.5164   23463770.9434   23463771.0264
       227.000         178.000
 112184820.56548  87416731.40548  21348071.4204   21348073.2764   21348071.3394
       246.000         221.000
 09  1 13  1 52  0.0000000  0  9G 5G30G26G 9G15G18G17G22G12
 126733740.58548  80961345.18948  22213700.7924   22213703.6424   22213701.5764
       238.000         201.000
 138138111.85048  89847866.73948  24383882.2414   24383885.5034   24383881.3754
       220.000         167.000
 120376168.50448  93799586.52648  22906843.3634   22906846.5854   22906842.8224
       229.000         186.000
 105270635.05548  82029048.38648  20032351.1594   20032353.4514   20032351.2724
       251.000         229.000
 121556213.10648  76926913.81748  21228444.6164   21228446.3594   21228444.4894
       245.000         222.000
 117567258.49948  91610838.20348  22372316.1244   22372317.8014   22372316.3974
       236.000         192.000
 122619208.09848  95547432.41348  23333661.7934   23333663.3464   23333662.8134
       229.000         188.000
 133272700.85048  86056649.65448  23458015.7834   23458015.1654   23458015.1494
       227.000         179.000
 112118640.62748  87365162.62448  21335478.0774   21335479.5464   21335478.0164
       246.000         221.000
 09  1 13  1 52 30.0000000  0  9G 5G30G26G 9G15G18G17G22G12
 126645921.34948  80892914.61748  22196989.0564   22196992.2034   22196989.6234
       239.000         202.000
 138028913.43748  89762777.09648  24363103.0334   24363105.9684   24363101.9884
       223.000         170.000
 120475814.10848  93877232.45148  22925805.7734   22925808.5184   22925805.9404
       231.000         188.000
 105252850.05148  82015189.93848  20028966.8414   20028969.1774   20028967.0664
       251.000         229.000
 121621750.72748  76977982.08848  21240916.0314   21240917.8464   21240915.7504
       246.000         222.000
 117591846.08148  91629997.35648  22376994.9554   22376996.7224   22376995.9434
       236.000         192.000
 122645713.09148  95568085.66948  23338704.2244   23338706.8434   23338703.7824
       231.000         186.000
 133242979.37048  86033490.06848  23452359.2884   23452359.7814   23452359.3024
       226.000         181.000
 112052873.89648  87313915.83348  21322963.1014   21322964.4364   21322962.8784
       246.000         221.000
 09  1 13  1 53  0.0000000  0  9G 5G30G26G 9G15G18G17G22G12
 126558417.48048  80824729.78248  22180337.6684   22180340.7724   22180338.0424
       238.000         202.000
 137919842.24548  89677786.58748  24342347.4674   24342350.4834   24342348.6774
       222.000         167.000
 120575689.98748  93955057.81448  22944811.2914   22944814.1104   22944811.1364
       230.000         188.000
 105235411.32548  82001601.31548  20025648.2774   20025650.7874   20025648.3884
       250.000         229.000
 121687708.12448  77029377.45448  21253467.3074   21253469.0574   21253467.1304
       246.000         221.000
 117616970.60548  91649574.90348  22381775.8844   22381777.5174   22381776.3504
       235.000         191.000
 122672764.30948  95589164.52748  23343853.5024   23343854.3914   23343853.1264
       234.000         189.000
 133213783.40748  86010739.95448  23446804.3904   23446804.6734   23446804.3044
       229.000         184.000
 111987521.24548  87262991.70148  21310526.7754   21310528.2204   21310526.6224
       247.000         221.000
 09  1 13  1 53 30.0000000  0  9G 5G30G26G 9G15G18G17G22G12
 126471229.76848  80756791.30748  22163746.3264   22163749.5604   22163746.9774
       238.000         202.000
 137810898.80248  89592895.60748  24321615.7134   24321618.0834   24321615.1924
       221.000         163.000
 120675794.11448  94033061.02748  22963860.6094   22963863.0694   22963860.5794
       228.000         187.000
 105218318.99048  81988282.61048  20022395.6744   20022398.0644   20022395.8044
       251.000         229.000
 121754083.21348  77081098.30048  21266098.1054   21266099.8204   21266097.7744
       246.000         221.000
 117642630.05048  91669569.25648  22386658.3154   22386660.6634   22386658.8694
       234.000         191.000
 122700360.12748  95610667.76148  23349104.3874   23349105.8374   23349104.7834
       231.000         186.000
 133185114.56348  85988400.59348  23441348.3204   23441349.2924   23441349.6084
       227.000         183.000
 111922582.69148  87212390.24548  21298169.3454   21298170.8454   21298169.1784
       247.000         221.000
 09  1 13  1 54  0.0000000  0  9G 5G30G26G 9G15G18G17G22G12
 126384360.27948  80689100.78348  22147215.8864   22147218.9944   22147216.6784
       240.000         204.000
 137702085.86448  89508106.31248  24300909.0914   24300911.3434   24300908.7384
       216.000         159.000
 120776125.57848  94111241.37048  22982952.6614   22982955.7714   22982951.8194
       227.000         187.000
 105201573.94148  81975234.52048  20019209.1604   20019211.6014   20019209.2334
       251.000         229.000
 121820875.55648  77133144.27348  21278808.1924   21278809.8934   21278807.7104
       246.000         221.000
 117668823.69848  91689979.87948  22391643.2644   22391645.1014   22391643.8054
       234.000         191.000
 122728500.96148  95632595.67648  23354459.0164   23354460.3524   23354459.0224
       230.000         184.000
 133156973.89048  85966472.80348  23435993.3674   23435994.1624   23435993.6864
       227.000         184.000
 111858060.07848  87162112.89648  21285891.3294   21285892.6654   21285891.0344
       247.000         222.000
 09  1 13  1 54 30.0000000  0  9G 5G30G26G 9G15G18G17G22G12
 126297811.02648  80621659.81648  22130746.1034   22130749.2224   22130746.8594
       240.000         204.000
 137593406.06048  89423420.74848  24280227.5744   24280230.2904   24280226.4864
       216.000         158.000
 120876683.55548  94189598.22948  23002088.4824   23002091.3904   23002088.1554
       229.000         187.000
 105185177.24348  81962457.87148  20016089.0564   20016091.4304   20016089.2304
       251.000         229.000
 121888084.48448  77185514.86248  21291597.7814   21291599.2834   21291597.4244
       246.000         221.000
 117695550.73448  91710806.14148  22396729.2774   22396730.7754   22396729.6804
       236.000         190.000
 122757186.88648  95654948.36848  23359917.7474   23359919.4374   23359918.1694
       229.000         183.000
 133129362.21948  85944957.23448  23430738.7584   23430739.6004   23430739.0674
       228.000         184.000
 111793954.96548  87112160.87448  21273692.3134   21273694.0174   21273692.1084
       247.000         222.000
 09  1 13  1 55  0.0000000  0  9G 5G30G26G 9G15G18G17G22G12
 126211582.24748  80554468.55648  22114337.2864   22114340.1964   22114338.0754
       239.000         204.000
 137484859.43448  89338839.00848  24259571.8084   24259574.8784   24259573.1994
       210.000         160.000
 120977465.22348  94268129.38548  23021266.6904   23021269.5114   23021266.8424
       229.000         186.000
 105169128.18448  81949952.11948  20013035.1484   20013037.2574   20013035.3734
       252.000         229.000
 121955708.21048  77238208.67348  21304466.0784   21304467.7444   21304465.5734
       246.000         221.000
 117722808.75548  91732046.14748  22401916.3604   22401917.8874   22401916.4794
       235.000         191.000
 122786415.91048  95677724.26348  23365479.1004   23365481.5354   23365478.7474
       229.000         185.000
 133102279.46348  85923853.78248  23425585.5054   23425586.1024   23425586.8714
       226.000         184.000
 111730267.28248  87062534.11348  21261573.0204   21261574.8174   21261572.9694
       248.000         223.000
 09  1 13  1 55 30.0000000  0  9G 5G30G26G 9G15G18G17G22G12
 126125675.65648  80487528.34948  22097989.9004   22097992.8494   22097990.6554
       240.000         204.000
 137376448.20348  89254362.80048  24238941.4494   24238945.0184   24238941.2014
       214.000         162.000
 121078469.21948  94346833.78448  23040487.2914   23040489.9134   23040487.3914
       229.000         186.000
 105153427.84648  81937718.09048  20010047.4904   20010049.5164   20010047.7464
       251.000         229.000
 122023745.59448  77291224.81248  21317413.0054   21317414.7414   21317412.6044
       245.000         220.000
 117750596.59948  91753699.00248  22407204.3824   22407205.7244   22407204.9444
       236.000         190.000
 122816187.75448  95700923.09848  23371145.5104   23371147.0214   23371144.6214
       233.000         189.000
 133075726.36748  85903163.04448  23420532.2474   23420532.8424   23420532.2084
       228.000         181.000
 111666998.00248  87013233.38548  21249533.2624   21249535.0404   21249532.9584
       248.000         223.000
 09  1 13  1 56  0.0000000  0  9G 5G30G26G 9G15G18G17G22G12
 126040092.37448  80420840.07048  22081703.8624   22081706.7764   22081704.5124
       239.000         204.000
 137268173.51948  89169992.97848  24218337.6754   24218341.0244   24218337.7374
       218.000         166.000
 121179693.78748  94425710.07948  23059749.5744   23059751.8824   23059749.8304
       230.000         184.000
 105138076.15248  81925755.73248  20007126.1254   20007128.3154   20007126.3154
       251.000         229.000
 122092195.18948  77344562.14748  21330438.6154   21330440.4134   21330438.4304
       245.000         220.000
 117778912.43548  91775763.28348  22412592.5634   22412593.9354   22412593.5284
       234.000         189.000
 122846501.33948  95724544.07848  23376914.4844   23376915.2574   23376914.7194
       234.000         187.000
 133049703.33748  85882885.34448  23415580.5584   23415580.4864   23415580.3754
       229.000         181.000
 111604148.07948  86964259.43048  21237573.4744   21237574.8764   21237573.3334
       248.000         223.000
 09  1 13  1 56 30.0000000  0  9G 5G30G26G 9G15G18G17G22G12
 125954833.71648  80354404.75048  22065479.4864   22065482.8174   22065480.0684
       240.000         205.000
 137160037.04548  89085730.80348  24197760.5574   24197763.1764   24197759.9254
       220.000         165.000
 121281137.24548  94504756.91748  23079053.5144   23079056.0974   23079053.5124
       230.000         185.000
 105123073.67748  81914065.49748  20004271.1634   20004273.4854   20004271.4184
       251.000         229.000
 122161055.73748  77398219.71448  21343542.4124   21343544.0744   21343542.3264
       245.000         220.000
 117807754.65748  91798237.72848  22418080.9394   22418082.4784   22418081.3024
       235.000         189.000
 122877355.58848  95748586.37048  23382785.3534   23382787.0494   23382785.3214
       231.000         184.000
 133024210.98648  85863021.17148  23410729.3414   23410729.3364   23410730.4644
       227.000         181.000
 111541718.26448  86915612.83948  21225693.2184   21225694.9794   21225693.0044
       248.000         223.000
 09  1 13  1 57  0.0000000  0  9G 5G30G26G 9G15G18G17G22G12
 125869901.67248  80288223.93048  22049317.7794   22049320.7544   22049318.5454
       241.000         205.000
 137052040.94248  89001578.00848  24177209.3024   24177211.4684   24177209.0584
       218.000         163.000
 121382798.58148  94583973.55448  23098399.1594   23098401.3514   23098398.7594
       229.000         185.000
 105108421.19048  81902647.97448  20001482.8094   20001485.2074   20001483.0604
       251.000         229.000
 122230326.95248  77452197.28048  21356724.2824   21356726.0164   21356723.9944
       246.000         220.000
 117837122.39148  91821121.67248  22423669.5204   22423671.0824   22423670.2344
       233.000         190.000
 122908750.69548  95773050.10548  23388759.1434   23388761.0914   23388758.8564
       227.000         181.000
 132999250.63148  85843571.53348  23405979.3174   23405980.2734   23405978.6214
       227.000         182.000
 111479710.02048  86867294.74048  21213893.4794   21213895.1084   21213893.2874
       248.000         223.000
 09  1 13  1 57 30.0000000  0  9G 5G30G26G 9G15G18G17G22G12
 125785297.76048  80222298.80148  22033217.9594   22033221.0844   22033218.6654
       241.000         206.000
 136944187.02948  88917536.01348  24156685.0814   24156687.5614   24156685.1354
       219.000         164.000
 121484676.58748  94663359.00448  23117786.0324   23117788.0334   23117785.7224
       230.000         185.000
 105094118.96648  81891503.38048  19998761.2934   19998763.5854   19998761.4904
       251.000         229.000
 122300007.66748  77506493.93948  21369984.0754   21369985.8544   21369983.8704
       245.000         220.000
 117867013.96648  91844413.79448  22429357.3204   22429359.7804   22429357.8274
       232.000         191.000
 122940686.02648  95797934.80048  23394835.8954   23394837.9534   23394835.6514
       227.000         183.000
 132974822.85948  85824536.92448  23401330.1534   23401331.7484   23401330.3694
       227.000         183.000
 111418124.18048  86819305.78448  21202174.1454   21202175.4554   21202174.0554
       248.000         223.000
 09  1 13  1 58  0.0000000  0  9G 5G30G26G 9G15G18G17G22G12
 125701021.79648  80156629.22348  22017181.0084   22017183.9134   22017181.8734
       241.000         206.000
 136836475.43748  88833604.88548  24136188.5274   24136190.6154   24136188.0974
       220.000         165.000
 121586768.02648  94742910.78148  23137213.4254   23137215.5324   23137213.8094
       228.000         184.000
 105080166.36948  81880631.22448  19996106.1234   19996108.5904   19996106.2794
       250.000         229.000
 122370095.39748  77561107.74648  21383321.2264   21383323.0634   21383320.8604
       244.000         219.000
 117897426.99648  91868112.26248  22435144.9864   22435147.0994   22435145.5494
       235.000         191.000
 122973159.21448  95823238.58848  23401016.1754   23401017.5454   23401015.9354
       231.000         186.000
 132950927.09948  85805916.86848  23396784.2454   23396784.7144   23396784.1684
       230.000         186.000
 111356960.34348  86771645.66948  21190535.1374   21190536.2014   21190534.8204
       249.000         223.000
 09  1 13  1 58 30.0000000  0  9G 5G30G26G 9G15G18G17G22G12
 125617074.89848  80091216.05448  22001206.2874   22001209.1134   22001207.0474
       242.000         205.000
 136728907.73148  88749785.92048  24115719.0714   24115721.5654   24115719.0314
       220.000         165.000
 121689071.20648  94822627.52948  23156680.6174   23156683.4584   23156680.7494
       227.000         183.000
 105066563.62848  81870031.68648  19993517.5194   19993520.0094   19993517.6814
       251.000         229.000
 122440588.69848  77616037.58348  21396735.6634   21396737.5044   21396735.1664
       244.000         219.000
 117928359.27948  91892215.34148  22441031.2874   22441033.1434   22441031.9574
       234.000         190.000
 123006169.35748  95848960.75548  23407298.3114   23407299.3984   23407298.3054
       230.000         185.000
 132927563.79348  85787711.67848  23392338.6294   23392337.7824   23392338.7294
       231.000         185.000
 111296219.27048  86724314.97248  21178976.5994   21178977.5834   21178976.5644
       250.000         223.000
 09  1 13  1 59  0.0000000  0  9G 5G30G26G 9G15G18G17G22G12
 125533459.10848  80026060.89648  21985294.9744   21985297.4034   21985295.5864
       240.000         206.000
 136621485.72048  88666080.49148  24095277.6234   24095279.8534   24095277.0694
       221.000         164.000
 121791585.10048  94902508.46448  23176188.1954   23176191.2644   23176188.5704
       228.000         185.000
 105053311.83048  81859705.61148  19990995.8624   19990998.2954   19990996.0534
       251.000         229.000
 122511486.95548  77671282.96548  21410227.3044   21410229.0814   21410226.9164
       245.000         219.000
 117959809.69448  91916722.15748  22447015.6934   22447017.7284   22447016.1504
       233.000         188.000
 123039716.16948  95875101.14348  23413681.3354   23413682.9154   23413680.9734
       227.000         182.000
 132904733.57948  85769921.87848  23387994.0384   23387994.0154   23387994.6124
       227.000         184.000
 111235902.59548  86677314.97148  21167498.6334   21167499.8444   21167498.2314
       250.000         224.000
 09  1 13  1 59 30.0000000  0  9G 5G30G26G 9G15G18G17G22G12
 125450176.36048  79961165.25748  21969446.3554   21969449.1274   21969446.8554
       241.000         206.000
 136514212.02048  88582490.62348  24074864.0914   24074866.1774   24074864.4314
       218.000         163.000
 121894308.68848  94982552.80248  23195736.2854   23195739.0694   23195735.8164
       229.000         186.000
 105040411.79548  81849653.62948  19988540.9914   19988543.6034   19988541.2814
       250.000         229.000
 122582789.50448  77726843.39448  21423795.7474   21423797.4194   21423795.5704
       245.000         218.000
 117991777.36048  91941632.02248  22453099.5084   22453100.7484   22453100.1894
       234.000         189.000
 123073799.23748  95901659.39648  23420166.8634   23420168.9254   23420166.6354
       225.000         182.000
 132882437.83248  85752548.55248  23383751.1924   23383751.3714   23383751.0694
       230.000         183.000
 111176011.75748  86630646.79648  21156101.7984   21156103.1944   21156101.8414
       250.000         224.000
 09  1 13  2  0  0.0000000  0  9G 5G30G26G 9G15G18G17G22G12
 125367226.80848  79896529.26148  21953661.5824   21953664.6074   21953662.2724
       241.000         207.000
 136407087.12948  88499016.72148  24054478.5834   24054480.9844   24054478.9594
       221.000         165.000
 121997239.25748  95062758.43848  23215323.4304   23215326.0184   23215323.8034
       230.000         185.000
 105027862.68048  81839875.10048  19986153.0704   19986155.5004   19986153.1934
       250.000         229.000
 122654493.97448  77782717.00348  21437440.5784   21437442.3484   21437440.3294
       244.000         218.000
 118024259.61848  91966942.86148  22459280.5154   22459282.0654   22459281.3794
       234.000         188.000
 123108416.86548  95928634.17448  23426754.1714   23426756.8634   23426753.9314
       225.000         183.000
 132860676.15548  85735591.41548  23379610.1524   23379609.7954   23379611.2934
       228.000         181.000
 111116546.28448  86584310.08148  21144785.7644   21144787.2584   21144785.5494
       250.000         223.000
 09  1 13  2  0 30.0000000  0  9G 5G30G26G 9G15G18G17G22G12
 125284612.38548  79832154.38748  21937940.8254   21937943.7364   21937941.3324
       242.000         208.000
 136300113.20248  88415660.43648  24034122.4464   24034124.7464   24034121.9054
       219.000         165.000
 122100375.80348  95143124.57548  23234949.2094   23234952.3764   23234949.1984
       230.000         185.000
 105015665.90348  81830371.11848  19983832.1784   19983834.3874   19983832.4294
       251.000         229.000
 122726599.89848  77838903.42748  21451161.9564   21451163.6514   21451161.6994
       245.000         218.000
 118057255.51848  91992653.93848  22465559.5364   22465561.0974   22465559.7244
       234.000         187.000
 123143568.39548  95956024.98448  23433443.4374   23433445.6654   23433443.3194
       228.000         182.000
 132839449.23748  85719050.98048  23375570.8224   23375570.7474   23375570.4244
       230.000         183.000
 111057507.59048  86538305.91248  21133550.9864   21133552.5744   21133550.9024
       249.000         223.000
 09  1 13  2  1  0.0000000  0  9G 5G30G26G 9G15G18G17G22G12
 125202334.17148  79768041.49448  21922284.1324   21922286.6944   21922284.7864
       242.000         208.000
 136193291.62148  88332422.85148  24013794.9154   24013797.5634   24013794.3964
       220.000         166.000
 122203716.59648  95223649.86348  23254614.5324   23254617.5224   23254614.1834
       230.000         183.000
 105003821.57948  81821141.77848  19981578.2524   19981580.5794   19981578.5084
       251.000         229.000
 122799105.71348  77895401.45948  21464959.2444   21464960.9634   21464958.9624
       243.000         217.000
 118090763.21648  92018763.83548  22471935.8484   22471937.3744   22471936.6134
       234.000         187.000
 123179253.01448  95983831.17548  23440234.7304   23440235.7394   23440234.4884
       230.000         182.000
 132818757.30548  85702927.38348  23371633.8674   23371633.0284   23371634.0094
       230.000         184.000
 110998896.15948  86492634.68448  21122397.5354   21122399.1084   21122397.3474
       250.000         223.000
 09  1 13  2  1 30.0000000  0  9G 5G30G26G 9G15G18G17G22G12
 125120392.92648  79704191.18048  21906690.9004   21906693.9994   21906691.1884
       242.000         209.000
 136086623.52948  88249304.88548  23993496.2094   23993499.2454   23993495.8104
       219.000         166.000
 122307259.40248  95304332.57748  23274317.9594   23274320.7224   23274318.5024
       230.000         181.000
 104992329.88248  81812187.20448  19979391.5084   19979393.8004   19979391.8004
       251.000         229.000
 122872009.68848  77952209.74148  21478832.5994   21478834.1214   21478832.3714
       245.000         217.000
 118124780.16748  92045270.53648  22478408.9404   22478410.8334   22478409.3634
       233.000         187.000
 123215469.32048  96012051.66448  23447126.3104   23447127.2764   23447126.4364
       228.000         179.000
 132798600.51348  85687220.79848  23367797.7564   23367797.4254   23367798.0324
       229.000         181.000
 110940712.46448  86447296.74848  21111325.6544   21111327.0554   21111325.4764
       250.000         224.000
 09  1 13  2  2  0.0000000  0  9G 5G30G26G 9G15G18G17G22G12
 125038790.33748  79640604.75048  21891162.4674   21891165.3704   21891163.1134
       243.000         209.000
 135980110.92848  88166308.08548  23973227.4244   23973230.4674   23973227.4034
       220.000         168.000
 122411003.07748  95385171.82448  23294059.9114   23294062.1744   23294059.9474
       228.000         180.000
 104981191.29348  81803507.78548  19977271.8174   19977274.2404   19977271.9314
       251.000         229.000
 122945310.62748  78009327.36248  21492781.1304   21492782.6724   21492780.7764
       243.000         217.000
 118159305.20448  92072173.16148  22484978.6424   22484980.7014   22484979.0484
       233.000         187.000
 123252216.54048  96040685.87048  23454118.2514   23454120.2074   23454118.3044
       225.000         179.000
 132778980.24548  85671932.25248  23364063.5314   23364063.1734   23364064.3474
       228.000         179.000
 110882957.59448  86402292.96648  21100335.2354   21100336.6944   21100335.1154
       249.000         224.000
 09  1 13  2  2 30.0000000  0  9G 5G30G26G 9G15G18G17G22G12
 124957528.36348  79577283.73848  21875698.8744   21875701.7884   21875699.5754
       242.000         209.000
 135873756.00348  88083434.13948  23952988.5834   23952991.6604   23952988.2374
       220.000         166.000
 122514946.39448  95466166.60648  23313839.3284   23313842.2554   23313838.4074
       225.000         179.000
 104970406.74248  81795104.23948  19975219.6014   19975221.9934   19975219.8184
       251.000         229.000
 123019008.42248  78066754.19548  21506805.2724   21506807.1714   21506804.9854
       243.000         217.000
 118194337.12948  92099470.76548  22491645.1994   22491646.8904   22491645.7174
       235.000         188.000
 123289494.08848  96069733.34248  23461212.2414   23461213.8614   23461212.1564
       227.000         180.000
 132759896.35248  85657061.70548  23360431.6514   23360431.3894   23360431.0674
       225.000         179.000
 110825633.18248  86357624.60148  21089426.8624   21089428.1704   21089426.6674
       250.000         224.000
 09  1 13  2  3  0.0000000  0  9G 5G30G26G 9G15G18G17G22G12
 124876607.69048  79514228.68148  21860299.8494   21860303.3824   21860300.4774
       242.000         209.000
 135767559.73648  88000683.79348  23932779.8024   23932783.0724   23932780.1404
       217.000         166.000
 122619087.56048  95547315.55848  23333657.1374   23333659.6044   23333656.6794
       225.000         178.000
 104959976.14248  81786976.49948  19973234.7284   19973237.2544   19973234.9914
       250.000         230.000
 123093100.84948  78124488.55248  21520904.5734   21520906.4624   21520904.2884
       243.000         217.000
 118229873.25948  92127161.24448  22498407.7414   22498409.3834   22498408.6034
       233.000         187.000
 123327300.80848  96099193.12948  23468406.4954   23468408.3304   23468406.8434
       230.000         181.000
 132741349.08748  85642609.28148  23356903.1664   23356902.5364   23356902.8004
       229.000         182.000
 110768738.95048  86313291.44248  21078600.3044   21078601.4944   21078600.3724
       250.000         223.000
 09  1 13  2  3 30.0000000  0  9G 5G30G26G 9G15G18G17G22G12
 124796028.92848  79451440.03748  21844966.2434   21844969.5944   21844966.6014
       242.000         209.000
 135661523.04048  87918057.82948  23912601.6724   23912605.2934   23912600.9014
       220.000         168.000
 122723423.91448  95628616.59348  23353511.3794   23353513.9854   23353511.8394
       226.000         179.000
 104949899.47148  81779124.55048  19971317.1624   19971319.7454   19971317.3484
       250.000         229.000
 123167586.08648  78182528.98048  21535078.7244   21535080.4944   21535078.4354
       243.000         216.000
 118265911.72448  92155243.15548  22505265.6914   22505267.0644   22505265.9554
       233.000         187.000
 123365635.10948  96129064.01348  23475701.5534   23475703.3224   23475701.3654
       228.000         180.000
 132723338.24248  85628574.84048  23353475.8174   23353475.4924   23353475.6304
       230.000         182.000
 110712275.26348  86269293.77448  21067855.7034   21067856.6334   21067855.6494
       251.000         223.000
 09  1 13  2  4  0.0000000  0  9G 5G30G26G 9G15G18G17G22G12
 124715792.92648  79388918.48748  21829697.7614   21829701.0404   21829698.5364
       241.000         209.000
 135555647.23248  87835557.23948  23892454.8324   23892457.9254   23892455.0084
       221.000         169.000
 122827953.89148  95710068.54148  23373403.0934   23373405.4414   23373402.5964
       226.000         181.000
 104940176.71948  81771548.38048  19969466.9664   19969469.6004   19969467.0684
       251.000         229.000
 123242462.40148  78240874.16048  21549327.3234   21549329.0674   21549326.8984
       243.000         216.000
 118302450.41748  92183714.84048  22512218.7374   22512220.0194   22512219.4194
       233.000         188.000
 123404495.11248  96159344.55448  23483096.4944   23483098.0494   23483096.2594
       228.000         180.000
 132705863.87648  85614958.44048  23350150.6144   23350150.2364   23350151.1464
       230.000         183.000
 110656242.50448  86225631.89748  21057192.9854   21057193.8244   21057192.9764
       250.000         223.000
 09  1 13  2  4 30.0000000  0  9G 5G30G26G 9G15G18G17G22G12
 124635901.03648  79326665.07448  21814494.9244   21814498.2094   21814495.4594
       242.000         210.000
 135449933.90448  87753183.22448  23872338.6934   23872340.8484   23872338.6684
       221.000         168.000
 122932675.62648  95791669.86648  23393330.6464   23393333.9224   23393330.6494
       227.000         182.000
 104930808.48348  81764248.44848  19967684.3034   19967686.7144   19967684.4954
       251.000         229.000
 123317728.27848  78299522.89248  21563649.9284   21563651.5384   21563649.6124
       243.000         216.000
 118339487.37548  92212574.79348  22519266.8214   22519267.8194   22519267.1824
       235.000         188.000
 123443880.20948  96190034.25248  23490591.2484   23490592.3704   23490590.8374
       229.000         179.000
 132688926.17748  85601760.26548  23346927.2254   23346927.1394   23346928.0254
       228.000         183.000
 110600641.20448  86182306.22648  21046612.0954   21046613.4044   21046611.7674
       251.000         223.000
 09  1 13  2  5  0.0000000  0  9G 5G30G26G 9G15G18G17G22G12
 124556355.07748  79264681.22348  21799358.0864   21799361.0974   21799358.9154
       241.000         209.000
 135344385.53748  87670937.77048  23852253.3574   23852255.4134   23852253.6024
       219.000         165.000
 123037588.15848  95873419.87548  23413294.9804   23413297.9264   23413294.8884
       226.000         183.000
 104921795.48848  81757225.33248  19965969.2494   19965971.6064   19965969.4584
       250.000         229.000
 123393383.16648  78358474.75048  21578046.6274   21578048.2364   21578046.2244
       243.000         216.000
 118377021.34348  92241822.03048  22526408.9304   22526410.2654   22526409.3614
       233.000         187.000
 123483790.06148  96221132.84248  23498185.5664   23498186.8234   23498185.3834
       229.000         178.000
 132672526.16848  85588981.02048  23343805.9534   23343805.8454   23343805.2314
       229.000         182.000
 110545473.19848  86139318.18448  21036114.1284   21036115.4464   21036114.1404
       250.000         224.000
 09  1 13  2  5 30.0000000  0  9G 5G30G26G 9G15G18G17G22G12
 124477155.83248  79202967.53348  21784286.9444   21784289.8254   21784287.4134
       242.000         209.000
 135239003.25248  87588821.71548  23832199.3434   23832201.6694   23832199.4484
       215.000         164.000
 123142689.29148  95955316.85348  23433295.3174   23433298.0504   23433294.9594
       230.000         185.000
 104913137.85048  81750479.11748  19964321.6684   19964324.1564   19964321.9144
       250.000         229.000
 123469425.45448  78417728.47148  21592516.9064   21592518.8094   21592516.4474
       243.000         216.000
 118415050.08248  92271454.79348  22533645.5654   22533647.1104   22533646.0784
       232.000         187.000
 123524222.74948  96252638.85548  23505879.8544   23505880.3414   23505879.2144
       231.000         178.000
 132656663.48048  85576620.50248  23340787.5934   23340787.8124   23340788.7544
       228.000         183.000
 110490738.27648  86096667.60948  21025698.2844   21025699.6504   21025698.0084
       249.000         223.000
 09  1 13  2  6  0.0000000  0  9G 5G30G26G 9G15G18G17G22G12
 124398304.17948  79141524.68748  21769281.9884   21769284.7994   21769282.5224
       243.000         210.000
 135133788.10348  87506835.89648  23812177.4524   23812179.8794   23812176.6074
       218.000         167.000
 123247977.25448  96037359.42048  23453331.1054   23453333.5264   23453331.2274
       229.000         185.000
 104904835.79848  81744009.98248  19962741.7554   19962744.4124   19962741.8424
       250.000         229.000
 123545853.19348  78477282.54848  21607060.7884   21607062.7244   21607060.5844
       242.000         216.000
 118453571.31648  92301471.32148  22540975.9684   22540977.6624   22540976.2374
       234.000         187.000
 123565176.99548  96284551.26948  23513673.3864   23513674.4994   23513673.4844
       232.000         180.000
 132641338.62148  85564679.04648  23337871.3474   23337871.6794   23337872.1774
       229.000         182.000
 110436436.90548  86054354.86848  21015364.9514   21015366.3234   21015364.8214
       249.000         223.000
 09  1 13  2  6 30.0000000  0  9G 5G30G26G 9G15G18G17G22G12
 124319801.26948  79080353.60248  21754343.4854   21754346.3504   21754344.3374
       241.000         209.000
 135028741.79848  87424981.64648  23792188.3114   23792190.1804   23792188.4234
       223.000         169.000
 123353450.34048  96119546.24448  23473401.6574   23473404.3504   23473401.8434
       230.000         187.000
 104896889.87848  81737818.35648  19961229.8254   19961232.2094   19961230.0694
       250.000         229.000
 123622665.21048  78537136.05548  21621677.4644   21621679.6534   21621677.3164
       242.000         215.000
 118492583.30748  92331870.26548  22548399.7974   22548401.0964   22548400.2124
       234.000         186.000
 123606651.63748  96316869.17748  23521565.7824   23521566.5284   23521565.9144
       230.000         181.000
 132626550.59648  85553155.89548  23335057.0984   23335057.6364   23335056.8354
       228.000         181.000
 110382569.77548  86012380.48948  21005114.5484   21005115.6944   21005114.2984
       250.000         224.000
 09  1 13  2  7  0.0000000  0  9G 5G30G26G 9G15G18G17G22G12
 124241648.20648  79019455.12548  21739471.1294   21739474.1424   21739471.7424
       242.000         210.000
 134923865.44948  87343259.85348  23772231.0524   23772233.1994   23772231.2914
       222.000         172.000
 123459106.61148  96201875.79348  23493507.2654   23493510.2234   23493506.9994
       231.000         188.000
 104889300.21848  81731904.33748  19959785.3804   19959787.8394   19959785.4634
       250.000         229.000
 123699859.85948  78597287.73348  21636367.1934   21636368.9944   21636366.8564
       242.000         214.000
 118532083.78048  92362649.85848  22555916.5614   22555917.8544   22555917.4994
       234.000         187.000
 123648645.46548  96349591.65948  23529556.7024   23529557.9714   23529556.8434
       230.000         182.000
 132612300.08148  85542051.58648  23332345.7794   23332345.6634   23332345.4964
       230.000         184.000
 110329137.30548  85970744.80448  20994946.7224   20994947.9534   20994946.6394
       249.000         224.000
 09  1 13  2  7 30.0000000  0  9G 5G30G26G 9G15G18G17G22G12
 124163846.95948  78958830.77348  21724666.2564   21724669.1684   21724666.6164
       241.000         210.000
 134819161.72948  87261672.54148  23752306.6774   23752308.9564   23752305.8834
       222.000         170.000
 123564945.28748  96284347.47548  23513647.8354   23513650.5774   23513647.4294
       231.000         187.000
 104882067.90148  81726268.76248  19958409.1954   19958411.6874   19958409.4124
       251.000         229.000
 123777436.47948  78657737.03948  21651129.4084   21651131.2734   21651129.0744
       241.000         214.000
 118572071.25248  92393808.92248  22563525.6914   22563527.3624   22563526.4374
       232.000         186.000
 123691157.91048  96382718.25748  23537646.4594   23537648.3074   23537646.8324
       229.000         183.000
 132598587.86848  85531366.76348  23329736.3724   23329736.5884   23329736.0494
       231.000         184.000
 110276140.78448  85929448.81548  20984861.6074   20984863.1284   20984861.4474
       248.000         224.000
 09  1 13  2  8  0.0000000  0  9G 5G30G26G 9G15G18G17G22G12
 124086398.31548  78898481.19948  21709928.0784   21709931.2024   21709928.7114
       241.000         209.000
 134714631.49248  87180220.44148  23732414.9584   23732417.4364   23732414.5044
       222.000         171.000
 123670964.42548  96366959.79148  23533822.7054   23533825.2084   23533822.5934
       230.000         185.000
 104875192.74848  81720911.49848  19957100.8414   19957103.4104   19957101.0084
       250.000         229.000
 123855393.55748  78718482.81248  21665964.0564   21665966.0444   21665963.6114
       242.000         214.000
 118612544.20348  92425346.26348  22571227.1414   22571229.3044   22571227.3104
       232.000         186.000
 123734187.40548  96416247.75648  23545834.7584   23545836.5224   23545834.3424
       228.000         182.000
 132585414.35748  85521101.65748  23327229.8104   23327229.1204   23327229.6804
       229.000         180.000
 110223580.86848  85888493.04448  20974859.8934   20974861.2334   20974859.6264
       249.000         224.000
 09  1 13  2  8 30.0000000  0  9G 5G30G26G 9G15G18G17G22G12
 124009303.57848  78838407.37348  21695257.4714   21695260.3184   21695257.9784
       241.000         208.000
 134610276.70148  87098905.00448  23712557.0964   23712558.8984   23712557.0004
       224.000         169.000
 123777162.26648  96449711.35248  23554031.5864   23554033.9204   23554030.9994
       231.000         185.000
 104868675.63048  81715833.22448  19955860.7924   19955863.1644   19955860.9164
       250.000         229.000
 123933729.19148  78779523.56248  21680870.9164   21680872.8134   21680870.6824
       242.000         214.000
 118653499.91348  92457259.79748  22579021.0414   22579022.6964   22579021.9614
       232.000         187.000
 123777732.85648  96450179.30048  23554121.1924   23554122.6344   23554121.2304
       230.000         183.000
 132572779.18748  85511256.07648  23324824.8034   23324824.5994   23324825.0824
       229.000         182.000
 110171457.67648  85847877.57648  20964941.4004   20964942.5164   20964941.3094
       250.000         224.000
 09  1 13  2  9  0.0000000  0  9G 5G30G26G 9G15G18G17G22G12
 123932562.58348  78778609.20948  21680653.9554   21680656.9664   21680654.8164
       240.000         208.000
 134506097.56448  87017726.45848  23692731.9114   23692734.3154   23692732.8504
       220.000         167.000
 123883535.90548  96532599.89848  23574273.9334   23574276.2084   23574274.0444
       229.000         183.000
 104862515.67848  81711033.26048  19954688.5154   19954691.0764   19954688.7084
       251.000         229.000
 124012441.09048  78840857.50648  21695849.4034   21695851.2064   21695849.2674
       242.000         214.000
 118694936.04048  92489547.67848  22586906.0474   22586907.9644   22586906.8844
       233.000         187.000
 123821791.88348  96484511.01848  23562505.2764   23562506.8454   23562505.3534
       229.000         182.000
 132560681.02448  85501828.93648  23322522.8854   23322523.3904   23322523.2724
       229.000         183.000
 110119770.69548  85807602.01048  20955105.7334   20955106.8224   20955105.5314
       249.000         225.000
 09  1 13  2  9 30.0000000  0  9G 5G30G26G 9G15G18G17G22G12
 123856177.91648  78719088.70348  21666118.2704   21666121.6854   21666118.7344
       241.000         209.000
 134402096.97148  86936687.05648  23672940.8914   23672943.6344   23672940.4634
       221.000         166.000
 123990085.20548  96615625.32148  23594549.3714   23594551.9104   23594548.8344
       230.000         182.000
 104856714.58648  81706512.92648  19953584.7324   19953587.1514   19953584.9524
       251.000         229.000
 124091529.33248  78902484.69548  21710899.4744   21710901.2594   21710899.1944
       241.000         214.000
 118736851.68248  92522209.19648  22594882.3404   22594884.4954   22594882.6844
       233.000         188.000
 123866364.60448  96519243.00248  23570986.8164   23570988.3284   23570986.4394
       226.000         180.000
 132549121.69248  85492821.64448  23320322.8634   23320323.3514   23320322.3554
       229.000         183.000
 110068522.00248  85767667.97748  20945353.2514   20945354.6504   20945353.0404
       249.000         225.000
 09  1 13  2 10  0.0000000  0  9G 5G30G26G 9G15G18G17G22G12
 123780150.07348  78659846.21548  21651651.0484   21651654.0954   21651651.8624
       242.000         209.000
 134298275.85948  86855787.48548  23653184.9024   23653187.0234   23653184.6864
       224.000         171.000
 124096807.83248  96698785.80848  23614858.2494   23614860.1054   23614858.3774
       228.000         179.000
 104851272.18048  81702272.08448  19952549.0344   19952551.4124   19952549.2494
       251.000         229.000
 124170991.54948  78964403.29548  21726020.5594   21726022.5674   21726020.0234
       242.000         214.000
 118779243.75648  92555241.97648  22602949.3274   22602951.5554   22602949.9764
       232.000         187.000
 123911449.12448  96554373.79448  23579565.9724   23579567.9154   23579565.7424
       227.000         180.000
 132538100.67448  85484233.81948  23318225.4714   23318226.3894   23318225.6274
       229.000         184.000
 110017711.72748  85728075.55848  20935684.3044   20935685.7244   20935683.9804
       249.000         224.000
 09  1 13  2 10 30.0000000  0  9G 5G30G26G 9G15G18G17G22G12
 123704479.53848  78600882.17148  21637251.3944   21637254.4814   21637252.0684
       242.000         209.000
 134194635.15648  86775028.48948  23633463.2314   23633465.4194   23633463.0414
       225.000         176.000
 124203701.48348  96782079.57348  23635199.0154   23635201.6864   23635199.2564
       223.000         175.000
 104846188.16948  81698310.52048  19951581.6054   19951583.9604   19951581.7634
       251.000         229.000
 124250825.58548  79026611.63048  21741212.5434   21741214.3494   21741212.6034
       241.000         213.000
 118822109.72148  92588644.01748  22611106.4624   22611108.6754   22611107.1964
       231.000         187.000
 123957043.37348  96589901.80948  23588242.5804   23588243.5724   23588242.8204
       227.000         180.000
 132527617.16648  85476064.84848  23316231.2904   23316231.1324   23316231.7804
       229.000         184.000
 109967339.66048  85688824.60548  20926098.7634   20926100.1834   20926098.5724
       248.000         225.000
 09  1 13  2 11  0.0000000  0  9G 5G30G26G 9G15G18G17G22G12
 123629167.75748  78542197.66948  21622920.2754   21622922.9324   21622920.8114
       243.000         209.000
 134091176.64448  86694411.48548  23613775.0464   23613778.3804   23613775.4274
       223.000         174.000
 124310764.75248  96865505.47848  23655572.4184   23655575.3884   23655572.1824
       226.000         175.000
 104841463.25048  81694628.76348  19950682.4034   19950684.8794   19950682.5804
       251.000         228.000
 124331030.30148  79089108.81148  21756474.9554   21756476.6004   21756474.2794
       242.000         213.000
 118865448.09848  92622414.16848  22619353.6274   22619355.5134   22619354.2724
       231.000         186.000
 124003146.73648  96625826.49648  23597015.9994   23597016.7724   23597015.4204
       228.000         181.000
 132517671.66348  85468315.12048  23314338.2334   23314338.5074   23314337.8614
       230.000         185.000
 109917406.55148  85649915.68948  20916596.7584   20916598.2714   20916596.6444
       248.000         225.000
 09  1 13  2 11 30.0000000  0  9G 5G30G26G 9G15G18G17G22G12
 123554215.46148  78483793.28848  21608657.3594   21608659.7394   21608658.1804
       243.000         209.000
 133987901.53648  86613937.37448  23594122.7634   23594125.7844   23594122.1334
       220.000         174.000
 124417995.51848  96949061.92848  23675978.0224   23675980.6624   23675977.7884
       223.000         172.000
 104837097.50948  81691226.88648  19949851.7184   19949853.9894   19949851.8994
       251.000         229.000
 124411603.97548  79151893.49148  21771807.6924   21771809.3714   21771807.6734
       241.000         213.000
 118909256.25048  92656550.38048  22627689.9334   22627692.0894   22627690.6504
       230.000         185.000
 124049757.03748  96662146.22948  23605885.6934   23605887.2704   23605885.9724
       228.000         183.000
 132508263.74948  85460984.25148  23312548.5844   23312548.6454   23312548.4144
       230.000         185.000
 109867912.27648  85611348.72648  20907178.3404   20907179.7374   20907178.2144
       249.000         225.000
 09  1 13  2 12  0.0000000  0  9G 5G30G26G 9G15G18G17G22G12
 123479623.84948  78425669.96048  21594462.9684   21594465.4864   21594463.3914
       242.000         208.000
 133884811.72148  86533607.65748  23574505.3364   23574508.0654   23574504.4654
       223.000         174.000
 124525392.29448  97032747.73348  23696414.9164   23696417.2834   23696414.5794
       221.000         168.000
 104833091.58348  81688105.38348  19949089.4034   19949091.6464   19949089.5804
       251.000         229.000
 124492545.16748  79214964.54048  21787210.1594   21787212.1264   21787209.8054
       241.000         212.000
 118953531.89148  92691050.88548  22636115.3074   22636117.0724   22636115.8404
       231.000         183.000
 124096873.28148  96698860.19548  23614851.4534   23614853.6244   23614851.3494
       228.000         183.000
 132499393.72348  85454072.54248  23310859.9544   23310860.5124   23310860.3794
       228.000         185.000
 109818857.66448  85573124.35948  20897843.6204   20897844.8914   20897843.3784
       249.000         225.000
 09  1 13  2 12 30.0000000  0  9G 5G30G26G 9G15G18G17G22G12
 123405394.11548  78367828.61048  21580337.3924   21580340.0754   21580338.1644
       242.000         208.000
 133781908.40248  86453423.24948  23554923.8244   23554926.1634   23554923.7424
       222.000         174.000
 124632953.49948  97116561.65048  23716882.9224   23716885.9074   23716882.7004
       220.000         168.000
 104829446.03548  81685264.69548  19948395.5724   19948397.9884   19948395.7454
       250.000         229.000
 124573852.42948  79278320.84748  21802682.5224   21802684.1924   21802682.2894
       241.000         211.000
 118998273.55148  92725914.50548  22644628.9214   22644630.9954   22644629.5424
       230.000         181.000
 124144494.13748  96735967.38148  23623913.4574   23623915.2284   23623913.6204
       228.000         183.000
 132491060.97448  85447579.47848  23309274.5734   23309275.4824   23309274.7044
       229.000         186.000
 109770243.17548  85535242.94548  20888592.8104   20888593.8034   20888592.8254
       250.000         226.000
