     2.11           OBSERVATION DATA    G (GPS)             RINEX VERSION / TYPE
teqc  2008Oct2      gpsops              20090124 00:05:56UTCPGM / RUN BY / DATE
    30.0000                                                 INTERVAL
     1     1                                                WAVELENGTH FACT L1/2
     7    L1    L2    P1    P2    C1    S1    S2            # / TYPES OF OBSERV
Linux 2.4.20-8|Pentium IV|gcc -static|Linux|486/DX+         COMMENT
     2.10           OBSERVATION DATA    GPS                 COMMENT
soc2rnx ver 1.20    gpsops              24-Jan-2009 00:05:52COMMENT
S1, if present, is the SNR for the C/A data stream on L1.   COMMENT
 SNR is mapped to RINEX snr flag value [1,4-9]              COMMENT
    SNR:   >316  >100  >31.6  >10  >3.2    >0 bad=0         COMMENT
L1 & L2:      9     8     7     6     5     4     1         COMMENT
                                                            COMMENT
This data is provided as a public service by NASA/JPL.      COMMENT
No warranty is expressed or implied regarding suitability   COMMENT
for use.  For further information, contact:                 COMMENT
Dave Stowers, NASA/JPL m/s 238-600                          COMMENT
4800 Oak Grove Drive, Pasadena CA 91109 USA                 COMMENT
                                                            COMMENT
Forced Modulo Decimation to 30 seconds                      COMMENT
  2009     1    23     0     0    0.0000000     GPS         TIME OF FIRST OBS
DSN                 JPL                                     OBSERVER / AGENCY
451-U               AOAD/M_T        NONE                    ANT # / TYPE
  4849202.3940  -360328.9929  4114913.1862                  APPROX POSITION XYZ
        0.0254        0.0000        0.0000                  ANTENNA: DELTA H/E/N
LP03574             ASHTECH Z-XII3      CC00                REC # / TYPE / VERS
MADR                                                        MARKER NAME
13407S012                                                   MARKER NUMBER
                                                            END OF HEADER
 09  1 23  0  0  0.0000000  0  8G 9G17G26G18G10G27G12G28
 111101598.10648  86572666.67848  21141935.4804   21141938.1494   21141935.7874
       243.000         209.000
 124333741.68548  96883431.42048  23659927.9114   23659929.9124   23659928.2534
       225.000         177.000
 109247590.67048  85127980.11448  20789134.9944   20789137.3184   20789134.9004
       250.000         222.000
 119928231.31848  93450565.27048  22821585.3244   22821587.7574   22821585.3804
       229.000         183.000
 128578579.50648 100191080.33748  24467705.7574   24467711.9704   24467706.6964
       213.000         159.000
 126305179.53248  98419609.09748  24035082.9344   24035087.4714   24035084.4364
       220.000         166.000
 125136212.37348  97508729.99848  23812634.9974   23812637.7854   23812635.9854
       221.000         174.000
 122641237.13348  95564596.57348  23337854.4204   23337855.8334   23337855.0734
       226.000         178.000
 09  1 23  0  0 30.0000000  0  9G 9G17G15G26G18G10G27G12G28
 111038848.11548  86523770.58748  21129994.4664   21129997.0504   21129995.2334
       243.000         210.000
 124287400.92348  96847321.71648  23651109.8074   23651111.8214   23651109.5574
       225.000         179.000
 116816276.75258  73233456.87058  20326466.0015   20326467.3865   20326465.9525
       255.000         240.000
 109301716.45548  85170156.03648  20799434.7874   20799437.2754   20799434.7074
       249.000         222.000
 119873236.18848  93407711.90348  22811120.4324   22811122.2674   22811120.6584
       228.000         184.000
 128689710.30248 100277675.71948  24488853.0044   24488859.4194   24488852.6864
       210.000         156.000
 126373824.30048  98473098.49748  24048146.4354   24048149.5524   24048146.8564
       222.000         166.000
 125026778.12848  97423456.55548  23791811.2764   23791812.5934   23791811.1974
       223.000         176.000
 122722278.17048  95627745.42648  23353276.1384   23353277.4784   23353276.6874
       227.000         177.000
 09  1 23  0  1  0.0000000  0  9G 9G17G15G26G18G10G27G12G28
 110976383.04748  86475096.51648  21118107.7504   21118110.4054   21118107.8604
       242.000         210.000
 124241471.33448  96811532.44148  23642369.9794   23642371.9094   23642370.1124
       226.000         180.000
  96819471.50758  93235947.39758  20327073.0865   20327074.3025   20327072.8145
       255.000         240.000
 109356226.09348  85212631.07548  20809807.4504   20809810.0584   20809807.0714
       249.000         221.000
 119818734.14448  93365242.78048  22800748.8214   22800750.7694   22800749.2394
       232.000         185.000
 128800846.70848 100364275.52648  24510003.1104   24510006.7194   24510004.4044
       213.000         155.000
 126442491.88548  98526605.70748  24061213.6104   24061216.3514   24061213.9574
       221.000         167.000
 124917510.71448  97338313.11648  23771018.2754   23771019.7914   23771017.6964
       220.000         174.000
 122803577.65248  95691095.66448  23368746.6194   23368748.1164   23368747.0714
       226.000         178.000
 09  1 23  0  1 30.0000000  0  9G 9G17G15G26G18G10G27G12G28
 110914203.82248  86426645.19148  21106275.0064   21106278.1454   21106274.5114
       241.000         209.000
 124195955.80448  96776065.81748  23633708.5364   23633710.6344   23633708.9964
       225.000         180.000
 116823090.26858  73238766.76158  20327762.0705   20327763.3205   20327761.7855
       255.000         239.000
 109411119.52348  85255405.17748  20820253.4504   20820255.9604   20820253.4124
       249.000         221.000
 119764727.79748  93323159.91048  22790472.1464   22790473.7184   22790472.3964
       232.000         187.000
 128911986.61348 100450878.06748  24531151.8254   24531155.3454   24531152.3974
       212.000         155.000
 126511182.76448  98580131.04548  24074284.5724   24074288.3414   24074284.9354
       220.000         164.000
 124808413.10648  97253302.00048  23750257.3264   23750259.2434   23750256.5774
       220.000         175.000
 122885133.77748  95754645.88248  23384266.6304   23384267.7664   23384265.8744
       226.000         178.000
 09  1 23  0  2  0.0000000  0  9G 9G17G15G26G18G10G27G12G28
 110852310.93948  86378416.97148  21094497.3434   21094500.0214   21094496.9054
       242.000         210.000
 124150856.21748  96740923.27648  23625126.3474   23625128.6304   23625125.5214
       227.000         180.000
 116827142.32648  73241924.20248  20328533.0844   20328534.4574   20328532.7544
       255.000         239.000
 109466395.90848  85298477.67648  20830772.0254   20830774.8054   20830772.0884
       249.000         221.000
 119711218.88048  93281464.65948  22780289.7954   22780291.5834   22780291.0974
       231.000         186.000
 129023127.24248 100537481.15448  24552301.1414   24552305.0484   24552302.3114
       214.000         154.000
 126579896.57748  98633674.24848  24087360.7484   24087364.1754   24087361.0224
       221.000         164.000
 124699487.08048  97168424.61848  23729529.2904   23729532.1214   23729528.9454
       223.000         177.000
 122966944.06548  95818394.14848  23399833.9204   23399835.7824   23399834.1154
       225.000         176.000
 09  1 23  0  2 30.0000000  0 10G 9G17G 5G15G26G18G10G27G12G28
 110790704.39548  86330411.88248  21082774.2874   21082777.0834   21082774.6584
       244.000         211.000
 124106174.56548  96706106.39348  23616623.5714   23616625.5424   23616624.1514
       225.000         180.000
 141037116.21658  92106827.59858  24935546.3485   24935549.9595   24935547.4245
       217.000         156.000
 116831626.49848  73245418.35948  20329386.3374   20329387.8174   20329386.0184
       255.000         239.000
 109522054.67948  85341848.13148  20841363.6764   20841366.3384   20841363.6944
       248.000         221.000
 119658208.65048  93240157.96648  22770202.4154   22770203.8084   22770202.6214
       233.000         187.000
 129134265.51948 100624082.41348  24573450.8654   24573454.2604   24573451.3924
       215.000         154.000
 126648632.75648  98687234.90848  24100440.5904   24100444.0304   24100439.8774
       220.000         164.000
 124590734.49248  97083682.32248  23708835.2374   23708836.7654   23708834.9854
       226.000         178.000
 123049005.95848  95882338.47248  23415449.7034   23415451.6884   23415449.8114
       225.000         175.000
 09  1 23  0  3  0.0000000  0 10G 9G17G 5G15G26G18G10G27G12G28
 110729384.45748  86282630.12148  21071105.5474   21071107.9844   21071106.0074
       244.000         211.000
 124061912.79648  96671616.73848  23608200.4074   23608202.6944   23608200.5654
       224.000         181.000
 140921842.44148  92017003.89248  24913611.2104   24913614.0134   24913612.7044
       213.000         156.000
  96836541.38458  93249246.69558  20330322.0525   20330323.4235   20330322.0725
       255.000         239.000
 109578095.03148  85385515.92448  20852027.8464   20852030.4394   20852027.6274
       248.000         220.000
 119605698.61948  93199241.07748  22760209.9564   22760211.8894   22760210.7364
       233.000         188.000
 129245399.09848 100710680.03748  24594599.1154   24594602.1704   24594599.1084
       216.000         158.000
 126717391.17048  98740812.89448  24113525.1264   24113528.1944   24113524.9914
       221.000         163.000
 124482157.50048  96999076.89548  23688174.3074   23688175.5284   23688174.2534
       226.000         179.000
 123131316.86548  95946476.82848  23431113.3314   23431114.9654   23431113.6884
       227.000         176.000
 09  1 23  0  3 30.0000000  0 10G 9G17G 5G15G26G18G10G27G12G28
 110668349.68248  86235070.56648  21059490.7894   21059493.7484   21059491.1644
       243.000         212.000
 124018071.24148  96637454.48648  23599858.0004   23599860.6494   23599858.2424
       227.000         181.000
 140806640.62748  91927236.26348  24891688.1074   24891691.6664   24891689.0214
       215.000         156.000
  96841889.56348  93253414.10348  20331339.7594   20331341.1454   20331339.6634
       255.000         239.000
 109634514.16748  85429478.87648  20862764.0714   20862766.6984   20862763.8414
       250.000         220.000
 119553688.46248  93158713.67748  22750312.9334   22750314.6554   22750313.4774
       230.000         187.000
 129356523.25448 100797270.27448  24615744.1204   24615748.2604   24615745.0744
       209.000         156.000
 126786169.50548  98794406.38948  24126613.1744   24126616.5984   24126613.7974
       220.000         160.000
 124373756.20048  96914608.33448  23667546.0264   23667547.7984   23667546.1194
       228.000         180.000
 123213872.62548  96010805.98348  23446823.2194   23446825.1424   23446824.0434
       227.000         176.000
 09  1 23  0  4  0.0000000  0 10G 9G17G 5G15G26G18G10G27G12G28
 110607603.54948  86187735.92148  21047931.3204   21047934.2794   21047931.6184
       243.000         212.000
 123974655.06748  96603623.71348  23591596.1104   23591598.1674   23591595.7554
       228.000         182.000
 140691515.66648  91837528.52148  24869779.9204   24869783.4134   24869780.3344
       213.000         155.000
  96847672.71848  93257920.45248  20332440.2984   20332441.7004   20332440.0054
       255.000         240.000
 109691314.58348  85473738.93848  20873572.7664   20873575.5094   20873572.6934
       249.000         220.000
 119502182.61148  93118579.25748  22740510.8624   22740513.2034   22740511.1354
       233.000         186.000
 129467639.05748 100883853.96448  24636887.9354   24636892.8164   24636887.3474
       208.000         153.000
 126854970.50448  98848017.54548  24139706.1204   24139708.8834   24139706.1954
       219.000         162.000
 124265535.45648  96830280.48948  23646951.7664   23646954.2344   23646951.8884
       224.000         177.000
 123296673.68348  96075326.30648  23462579.5484   23462581.6184   23462580.2714
       228.000         177.000
 09  1 23  0  4 30.0000000  0 10G 9G17G 5G15G26G18G10G27G12G28
 110547147.73848  86140627.50348  21036426.8414   21036429.7934   21036427.1014
       242.000         211.000
 123931667.77848  96570127.14548  23583415.7804   23583418.2404   23583415.7614
       227.000         182.000
 140576470.57848  91747882.98248  24847887.0444   24847890.9974   24847886.9604
       214.000         153.000
  96853892.80248  93262767.27048  20333623.9874   20333625.3764   20333623.7104
       255.000         240.000
 109748496.94548  85518296.62048  20884454.1954   20884456.8424   20884454.0464
       249.000         220.000
 119451184.21348  93078840.23848  22730806.4184   22730808.3784   22730806.8334
       232.000         186.000
 129578743.94448 100970429.22148  24658031.5764   24658034.9934   24658031.5434
       214.000         153.000
 126923795.09348  98901647.09048  24152802.6504   24152805.2694   24152802.5344
       217.000         159.000
 124157498.85748  96746096.11948  23626392.1614   23626395.3064   23626391.4504
       222.000         177.000
 123379718.98548  96140036.90848  23478382.5044   23478384.5664   23478383.6704
       226.000         176.000
 09  1 23  0  5  0.0000000  0  9G 9G17G 5G26G18G10G27G12G28
 110486982.36648  86093745.40348  21024977.7954   21024980.4714   21024977.5254
       244.000         212.000
 123889111.44448  96536966.37048  23575317.5184   23575319.9844   23575317.3894
       228.000         181.000
 140461507.32648  91658301.20948  24826011.2254   24826013.9904   24826012.7334
       210.000         153.000
 109806060.55248  85563151.36148  20895408.0894   20895410.9484   20895408.1574
       247.000         220.000
 119400694.79148  93039497.84948  22721198.3904   22721200.6084   22721199.4134
       230.000         186.000
 129689835.87548 101056994.41648  24679171.0234   24679175.6004   24679172.1054
       217.000         154.000
 126992643.18748  98955294.92748  24165904.1784   24165906.8554   24165904.4414
       216.000         161.000
 124049648.22448  96662056.67548  23605868.8394   23605871.5404   23605868.2044
       222.000         176.000
 123463006.16748  96204935.99948  23494231.6174   23494233.6204   23494231.7014
       226.000         175.000
 09  1 23  0  5 30.0000000  0 10G 9G17G 5G15G26G18G10G27G12G28
 110427106.81248  86047089.12848  21013583.9204   21013586.4924   21013584.0074
       244.000         211.000
 123846987.00448  96504142.14048  23567301.9314   23567303.5964   23567301.8274
       226.000         180.000
 140346626.67048  91568783.83648  24804150.3094   24804153.1044   24804151.2534
       215.000         154.000
 116867645.21358  73273484.41958  20336240.9285   20336242.3075   20336240.6775
       255.000         239.000
 109864003.65448  85608301.81648  20906434.3564   20906437.1644   20906434.0774
       247.000         220.000
 119350715.09248  93000552.61748  22711687.8074   22711689.6094   22711687.8924
       230.000         187.000
 129800911.13148 101143546.58048  24700308.8404   24700313.6924   24700309.7064
       216.000         154.000
 127061513.44548  99008960.05548  24179009.5224   24179013.1464   24179009.5554
       216.000         160.000
 123941984.61448  96578162.95048  23585381.6924   23585383.3384   23585381.7374
       226.000         179.000
 123546531.82448  96270020.92948  23510125.8664   23510128.0764   23510126.8284
       227.000         175.000
 09  1 23  0  6  0.0000000  0 10G 9G17G 5G15G26G18G10G27G12G28
 110367521.58648  86000659.08948  21002244.9834   21002247.6604   21002244.9624
       244.000         212.000
 123805296.41948  96471655.97348  23559368.3334   23559370.2084   23559367.9614
       226.000         182.000
 140231830.36148  91479332.16848  24782306.0714   24782308.9214   24782307.0614
       211.000         154.000
 116875177.76648  73279353.93548  20337674.3214   20337675.7594   20337674.0124
       255.000         239.000
 109922325.54248  85653747.42748  20917532.7324   20917535.3304   20917532.4814
       248.000         219.000
 119301246.85848  92962005.93748  22702274.4424   22702276.2294   22702274.0014
       231.000         188.000
 129911967.30548 101230083.84548  24721442.2084   24721446.8844   24721442.9444
       214.000         156.000
 127130405.52748  99062642.19348  24192119.8934   24192122.3734   24192120.4764
       216.000         159.000
 123834510.39748  96494416.80248  23564930.4194   23564931.5354   23564931.3304
       225.000         177.000
 123630293.41248  96335289.69048  23526065.3774   23526067.1574   23526065.6254
       226.000         175.000
 09  1 23  0  6 30.0000000  0 10G 9G17G 5G15G26G18G10G27G12G28
 110308226.98348  85954455.50848  20990961.8454   20990964.6024   20990962.1014
       245.000         212.000
 123764041.86748  96439509.57448  23551517.7954   23551519.7734   23551517.6434
       225.000         181.000
 140117120.55648  91389947.93248  24760476.6594   24760479.5164   24760477.7224
       209.000         153.000
 116883148.91648  73285565.21748  20339191.2344   20339192.5634   20339190.9474
       255.000         239.000
 109981025.69148  85699487.80648  20928703.0964   20928705.6144   20928703.0234
       249.000         219.000
 119252290.89448  92923858.44648  22692958.2984   22692960.3254   22692958.5394
       233.000         188.000
 130023001.81948 101316604.24348  24742570.9824   24742575.9164   24742572.1744
       216.000         159.000
 127199319.65948  99116341.49748  24205233.0764   24205236.7984   24205233.0174
       215.000         157.000
 123727227.37848  96410819.64748  23544514.9144   23544516.1334   23544514.5164
       225.000         179.000
 123714288.91148  96400740.73548  23542049.2774   23542051.0694   23542048.8494
       226.000         175.000
 09  1 23  0  7  0.0000000  0 10G 9G17G 5G15G26G18G10G27G12G28
 110249224.08348  85908479.22348  20979733.9244   20979736.5584   20979734.6164
       245.000         212.000
 123723226.29448  96407705.26048  23543750.7004   23543752.9904   23543750.2744
       226.000         181.000
 140002499.67048  91300632.97948  24738664.2464   24738668.3554   24738665.8144
       208.000         152.000
 116891559.67248  73292119.04448  20340791.6994   20340793.0884   20340791.4744
       255.000         239.000
 110040104.07248  85745522.90148  20939945.1484   20939947.9344   20939945.0604
       248.000         219.000
 119203849.66248  92886112.03948  22683740.3694   22683742.0874   22683740.9354
       233.000         188.000
 130134012.22348 101403105.87048  24763695.3634   24763700.2514   24763695.6844
       213.000         156.000
 127268255.99348  99170058.11348  24218350.5564   24218354.1794   24218351.3224
       210.000         154.000
 123620138.42648  96327373.71248  23524136.6154   23524138.5644   23524135.9814
       225.000         179.000
 123798516.79248  96466372.84948  23558077.3674   23558079.0684   23558078.1264
       227.000         176.000
 09  1 23  0  7 30.0000000  0 10G 9G17G 5G15G26G18G10G27G12G28
 110190512.51748  85862729.95948  20968561.4434   20968564.2484   20968562.2604
       245.000         213.000
 123682850.87248  96376243.88548  23536067.5634   23536070.0824   23536066.7384
       225.000         181.000
 139887968.96748  91211388.27548  24716869.3474   24716873.8734   24716869.2214
       212.000         153.000
 116900410.35848  73299015.68048  20342475.9084   20342477.3614   20342475.5844
       255.000         239.000
 110099559.29548  85791851.63648  20951259.2334   20951261.7914   20951259.1724
       248.000         219.000
 119155924.40048  92848767.68848  22674620.2264   22674622.1644   22674620.9954
       232.000         187.000
 130244995.58348 101489586.42048  24784815.4904   24784819.2884   24784816.3624
       212.000         153.000
 127337213.87548  99223791.53848  24231473.2304   24231476.8084   24231472.9124
       213.000         158.000
 123513244.99948  96244080.14748  23503795.2354   23503797.7464   23503795.5804
       225.000         181.000
 123882973.77248  96532183.47848  23574148.7964   23574150.8444   23574149.4954
       227.000         176.000
 09  1 23  0  8  0.0000000  0 10G 9G17G 5G15G26G18G10G27G12G28
 110132093.38548  85817208.54948  20957444.9424   20957447.1984   20957445.0354
       245.000         213.000
 123642918.55548  96345127.80648  23528468.8924   23528470.9074   23528468.7414
       227.000         182.000
 139773531.03648  91122215.85548  24695093.4934   24695096.5224   24695093.9924
       212.000         152.000
 116909701.94748  73306255.87648  20344244.0874   20344245.4884   20344243.8974
       255.000         239.000
 110159391.33848  85838473.99648  20962644.9714   20962647.4344   20962644.8154
       248.000         218.000
 119108517.31648  92811827.10048  22665599.2714   22665600.8774   22665599.1974
       232.000         188.000
 130355950.54148 101576044.82448  24805928.5414   24805932.8294   24805929.6464
       209.000         149.000
 127406193.80848  99277542.09548  24244600.1884   24244603.8014   24244600.1404
       213.000         160.000
 123406549.80848  96160941.05348  23483491.6344   23483494.6694   23483491.1964
       226.000         181.000
 123967658.05948  96598171.22148  23590263.5364   23590266.0474   23590264.3884
       224.000         177.000
 09  1 23  0  8 30.0000000  0 10G 9G17G 5G15G26G18G10G27G12G28
 110073966.73848  85771915.06748  20946383.7184   20946386.1264   20946384.0784
       245.000         214.000
 123603430.81248  96314358.13948  23520954.4114   23520956.3084   23520954.2484
       227.000         182.000
 139659187.31548  91033116.83948  24673335.4924   24673337.1614   24673335.3244
       210.000         152.000
 116919435.02548  73313840.08748  20346096.2074   20346097.6614   20346095.9844
       255.000         239.000
 110219599.27848  85885389.25948  20974102.1914   20974104.6144   20974102.1384
       248.000         218.000
 119061629.32148  92775291.00748  22656676.9334   22656678.2824   22656678.0704
       230.000         186.000
 130466873.41548 101662478.25548  24827036.2824   24827039.6754   24827036.6294
       211.000         146.000
 127475195.38048  99331309.53048  24257730.7374   24257734.7504   24257731.2284
       209.000         157.000
 123300054.37148  96077957.59648  23463226.5874   23463229.3174   23463226.1684
       226.000         181.000
 124052567.24148  96664334.21748  23606421.5594   23606423.5754   23606421.8544
       226.000         175.000
 09  1 23  0  9  0.0000000  0 10G 9G17G 5G15G26G18G10G27G12G28
 110016133.05148  85726849.86248  20935378.2164   20935380.6174   20935378.8024
       245.000         213.000
 123564389.41548  96283936.27648  23513525.2484   23513527.3994   23513525.0334
       228.000         183.000
 139544939.53248  90944092.58448  24651594.0584   24651595.7644   24651594.9504
       212.000         151.000
 116929609.86548  73321768.53248  20348032.4104   20348033.8934   20348032.1674
       255.000         239.000
 110280182.20748  85932596.72948  20985630.6214   20985633.1574   20985630.5294
       248.000         218.000
 119015261.75748  92739160.43248  22647853.3664   22647854.8334   22647853.8264
       233.000         187.000
 130577762.11548 101748885.05548  24848138.0354   24848141.6204   24848138.7924
       214.000         153.000
 127544218.06048  99385093.42648  24270864.8164   24270868.2634   24270864.9094
       207.000         154.000
 123193760.57448  95995131.26648  23442999.6434   23443002.1424   23442999.4734
       229.000         183.000
 124137698.59348  96730670.33148  23622621.5414   23622623.3434   23622623.0334
       225.000         175.000
 09  1 23  0  9 30.0000000  0 10G 9G17G 5G15G26G18G10G27G12G28
 109958593.16148  85682013.58948  20924428.7744   20924431.1214   20924428.8964
       245.000         213.000
 123525796.86548  96253864.16848  23506180.7824   23506183.2584   23506180.4244
       227.000         182.000
 139430790.02648  90855144.93348  24629871.8024   24629874.4324   24629873.6474
       210.000         153.000
 116940227.24948  73330041.81448  20350052.8474   20350054.3214   20350052.6194
       254.000         239.000
 110341139.78448  85980096.12948  20997230.5184   20997233.1164   20997230.3824
       248.000         218.000
 118969416.40048  92703436.79248  22639128.9814   22639131.2714   22639130.0744
       232.000         189.000
 130688613.91748 101835263.04648  24869233.3474   24869236.8524   24869233.6274
       216.000         159.000
 127613262.12248  99438893.95048  24284003.8504   24284006.4734   24284003.9754
       210.000         152.000
 123087671.50748  95912464.46548  23422812.1564   23422813.6094   23422812.6554
       228.000         181.000
 124223050.44948  96797178.28148  23638863.6584   23638864.8954   23638863.9654
       225.000         174.000
 09  1 23  0 10  0.0000000  0 10G 9G17G 5G15G26G18G10G27G12G28
 109901347.50748  85637406.59748  20913535.1374   20913537.9084   20913535.5914
       246.000         214.000
 123487655.76848  96224143.83748  23498923.0024   23498925.2384   23498922.9034
       229.000         184.000
 139316741.14148  90766275.69248  24608169.3324   24608172.0624   24608170.5754
       214.000         158.000
 116951288.77448  73338661.18548  20352157.7754   20352159.3284   20352157.5604
       254.000         239.000
 110402471.68248  86027887.21048  21008901.5544   21008904.2174   21008901.4424
       247.000         217.000
 118924095.14548  92668121.53348  22630505.1794   22630506.7164   22630505.9104
       233.000         189.000
 130799427.28648 101921611.13148  24890319.9444   24890323.8024   24890320.6994
       214.000         157.000
 127682327.65848  99492711.19948  24297146.5414   24297149.6444   24297147.6954
       210.000         152.000
 122981789.14948  95829958.75048  23402662.9434   23402664.2844   23402662.8464
       229.000         180.000
 124308620.71548  96863856.39948  23655146.9304   23655148.3324   23655147.5104
       224.000         173.000
 09  1 23  0 10 30.0000000  0 10G 9G17G 5G15G26G18G10G27G12G28
 109844395.70748  85593028.57648  20902697.7194   20902700.1784   20902697.7804
       246.000         214.000
 123449966.87248  96194775.87548  23491751.0854   23491753.2724   23491750.9304
       227.000         182.000
 139202793.76648  90677485.53848  24586486.3594   24586488.9614   24586487.8204
       213.000         160.000
 116962793.73648  73347626.08248  20354347.0444   20354348.6784   20354346.7104
       255.000         239.000
 110464176.30848  86075968.73148  21020643.4744   21020646.1374   21020643.3154
       247.000         217.000
 118879298.53548  92633215.08748  22621980.5274   22621982.4394   22621981.3854
       234.000         190.000
 130910198.56048 102007926.35048  24911398.2274   24911402.3754   24911398.7784
       203.000         142.000
 127751413.94748  99546544.67348  24310293.0714   24310296.1874   24310293.0014
       206.000         155.000
 122876114.90348  95747615.17148  23382554.0794   23382554.9274   23382553.3564
       227.000         181.000
 124394406.46248  96930702.44048  23671471.2804   23671472.9404   23671471.8514
       226.000         176.000
 09  1 23  0 11  0.0000000  0 10G 9G17G 5G15G26G18G10G27G12G28
 109787740.34748  85548881.54748  20891916.5614   20891919.1294   20891916.8884
       247.000         214.000
 123412734.39048  96165763.57048  23484665.9344   23484667.7784   23484665.7554
       227.000         182.000
 139088951.99448  90588777.68248  24564822.3034   24564826.2474   24564823.0034
       213.000         160.000
 116974744.65448  73356938.48348  20356621.3894   20356622.8364   20356621.2164
       254.000         239.000
 110526254.91948  86124341.67248  21032456.7014   21032459.5034   21032456.6364
       247.000         217.000
 118835030.09348  92598720.21548  22613556.2044   22613558.2714   22613556.7114
       233.000         189.000
 131020927.15848 102094208.45448  24932469.0164   24932470.4504   24932468.5104
       211.000         138.000
 127820522.73548  99600395.65148  24323444.8334   24323447.0934   24323444.4594
       210.000         155.000
 122770652.68248  95665436.81948  23362484.8574   23362485.9744   23362484.5984
       227.000         181.000
 124480407.15848  96997715.95748  23687836.9694   23687838.6894   23687837.7654
       225.000         175.000
 09  1 23  0 11 30.0000000  0 10G 9G17G 5G15G26G18G10G27G12G28
 109731380.95648  85504965.14548  20881191.5764   20881194.1974   20881192.0454
       245.000         214.000
 123375959.28248  96137107.65548  23477667.8464   23477670.2164   23477668.1414
       228.000         182.000
 138975216.78048  90500152.83348  24543178.7554   24543182.8294   24543179.5444
       210.000         158.000
 116987141.11548  73366598.05848  20358980.4044   20358981.7494   20358980.1094
       255.000         239.000
 110588706.21448  86173004.99948  21044340.7564   21044343.7404   21044340.5554
       247.000         218.000
 118791290.50548  92564637.41448  22605232.9204   22605234.3174   22605233.2884
       232.000         189.000
 131131609.74748 102180454.69748  24953531.3814   24953534.8104   24953532.5984
       217.000         152.000
 127889653.19548  99654263.52248  24336599.2554   24336602.0784   24336599.3664
       209.000         156.000
 122665403.60848  95583424.56248  23342457.0064   23342458.1994   23342456.5154
       229.000         184.000
 124566619.97748  97064894.77948  23704242.3614   23704244.1484   23704242.8724
       225.000         173.000
 09  1 23  0 12  0.0000000  0 10G 9G17G 5G15G26G18G10G27G12G28
 109675318.28148  85461279.94548  20870523.3534   20870525.8144   20870523.3034
       247.000         215.000
 123339643.85848  96108809.93448  23470756.9434   23470759.3114   23470756.6704
       226.000         180.000
 138861590.44248  90411612.81548  24521556.4384   24521560.3704   24521556.7414
       212.000         159.000
 116999984.30648  73376605.73448  20361424.4064   20361425.6414   20361424.2564
       255.000         239.000
 110651529.67048  86221958.33048  21056295.8154   21056298.4004   21056295.7424
       247.000         217.000
 118748081.56448  92530968.10248  22597010.5894   22597012.0444   22597010.7564
       234.000         189.000
 131242244.60448 102266663.66948  24974584.7734   24974589.3664   24974585.7474
       214.000         156.000
 127958805.95848  99708148.79448  24349758.4194   24349762.1634   24349758.1304
       205.000         155.000
 122560370.52948  95501580.60348  23322469.8424   23322471.6574   23322469.6644
       229.000         184.000
 124653042.86948  97132237.28448  23720688.4804   23720689.8054   23720689.3304
       225.000         173.000
 09  1 23  0 12 30.0000000  0 10G 9G17G 5G15G26G18G10G27G12G28
 109619552.15248  85417825.82548  20859911.4524   20859913.7854   20859911.7114
       246.000         215.000
 123303789.91548  96080871.81648  23463934.4304   23463936.4794   23463933.7864
       230.000         182.000
 138748074.22948  90323158.63648  24499955.5524   24499959.2894   24499955.6224
       210.000         160.000
 117013274.15648  73386961.46048  20363953.2864   20363954.6794   20363953.0944
       254.000         239.000
 110714723.76648  86271200.47648  21068321.2644   21068323.7304   21068321.0974
       248.000         216.000
 118705403.89548  92497712.77948  22588889.5084   22588891.1774   22588890.1484
       234.000         191.000
 131352828.29648 102352832.73648  24995628.5584   24995632.7214   24995629.1294
       209.000         150.000
 128027979.90648  99762050.52148  24362921.6964   24362925.8524   24362920.9554
       203.000         153.000
 122455554.58248  95419905.85148  23302523.6324   23302526.0304   23302523.4314
       227.000         184.000
 124739672.66348  97199741.03148  23737173.4124   23737175.0864   23737173.3284
       224.000         174.000
 09  1 23  0 13  0.0000000  0 10G 9G17G 5G15G26G18G10G27G12G28
 109564082.60848  85374602.80848  20849355.7864   20849358.3244   20849355.8394
       246.000         215.000
 123268398.57348  96053294.15648  23457199.7804   23457202.1404   23457199.7774
       230.000         182.000
 138634669.54548  90234791.36548  24478375.6104   24478378.8174   24478375.6524
       219.000         164.000
 117027010.49948  73397665.09448  20366567.1114   20366568.6784   20366566.7794
       254.000         238.000
 110778287.45048  86320730.61248  21080417.0734   21080419.4414   21080417.0924
       247.000         216.000
 118663258.48748  92464872.19348  22580869.6494   22580871.3034   22580869.9344
       234.000         191.000
 131463357.76348 102438959.55148  25016661.3774   25016664.1254   25016663.2284
       212.000         147.000
 128097174.53448  99815968.39248  24376088.6164   24376092.6674   24376088.6664
       206.000         153.000
 122350957.81048  95338401.86548  23282619.6554   23282621.6444   23282619.3204
       226.000         183.000
 124826506.77748  97267403.96848  23753697.4914   23753699.3604   23753697.6724
       225.000         176.000
 09  1 23  0 13 30.0000000  0 10G 9G17G 5G15G26G18G10G27G12G28
 109508910.04948  85331611.21948  20838856.8454   20838859.3984   20838856.5254
       246.000         216.000
 123233471.75248  96026078.46048  23450553.5554   23450555.9144   23450552.9744
       229.000         183.000
 138521378.55148  90146512.69148  24456817.3714   24456820.5594   24456819.1864
       216.000         162.000
 117041194.13848  73408717.27248  20369266.3124   20369267.7074   20369265.9344
       254.000         239.000
 110842220.06048  86370548.22048  21092582.8924   21092585.4554   21092582.6574
       247.000         215.000
 118621646.69848  92432447.42748  22572950.5744   22572952.6134   22572951.1654
       233.000         190.000
 131573830.79948 102525042.49948  25037684.7604   25037685.9634   25037684.9744
       216.000         147.000
 128166389.67348  99869902.24748  24389260.5064   24389263.9404   24389260.9074
       207.000         156.000
 122246581.75148  95257069.87748  23262757.4314   23262759.5084   23262757.6084
       227.000         183.000
 124913543.11348  97335224.47048  23770259.7964   23770261.7604   23770260.2924
       226.000         173.000
 09  1 23  0 14  0.0000000  0 10G 9G17G 5G15G26G18G10G27G12G28
 109454035.19348  85288851.59648  20828414.5944   20828417.2394   20828414.9094
       246.000         216.000
 123199011.44948  95999226.27148  23443995.9674   23443997.9244   23443996.0144
       230.000         181.000
 138408203.24048  90058324.10448  24435279.7834   24435283.7514   24435280.8254
       214.000         158.000
 117055825.85948  73420118.61148  20372050.6254   20372052.0594   20372050.4414
       254.000         238.000
 110906520.97548  86420652.81748  21104818.9394   21104821.4974   21104818.7074
       246.000         215.000
 118580570.12848  92400439.70548  22565134.2874   22565135.7464   22565134.7044
       235.000         191.000
 131684245.28948 102611079.80448  25058695.8734   25058698.6794   25058697.0294
       211.000         148.000
 128235625.73748  99923852.42248  24402436.1784   24402439.4834   24402435.8324
       210.000         158.000
 122142428.85848  95175911.79448  23242937.9924   23242940.3784   23242937.7434
       226.000         184.000
 125000779.70348  97403201.04148  23786860.5234   23786862.2254   23786861.0184
       224.000         173.000
 09  1 23  0 14 30.0000000  0 10G 9G17G 5G15G26G18G10G27G12G28
 109399458.73848  85246324.49048  20818028.8774   20818031.6424   20818028.8904
       246.000         216.000
 123165019.77348  95972739.25448  23437527.5444   23437529.3654   23437527.6814
       230.000         183.000
 138295146.06048  89970227.58848  24413765.7844   24413769.0484   24413766.1124
       210.000         156.000
 117070906.51148  73431869.75748  20374920.2774   20374921.7664   20374919.9914
       254.000         238.000
 110971189.92248  86471044.19748  21117125.0324   21117127.5334   21117124.8954
       247.000         216.000
 118540030.39848  92368850.30448  22557420.0594   22557421.3034   22557420.7124
       234.000         191.000
 131794599.52548 102697070.08548  25079694.5404   25079698.9164   25079695.4274
       206.000         146.000
 128304883.07148  99977819.16448  24415614.5344   24415618.9564   24415615.1184
       207.000         157.000
 122038501.72548  95094929.62148  23223161.0584   23223163.4514   23223161.3354
       229.000         184.000
 125088214.70748  97471332.22048  23803498.4834   23803500.5164   23803498.2704
       224.000         171.000
 09  1 23  0 15  0.0000000  0 10G 9G17G 5G15G26G18G10G27G12G28
 109345181.53148  85204030.56948  20807700.3964   20807702.7524   20807700.5894
       246.000         216.000
 123131499.34048  95946619.43448  23431148.6614   23431151.0894   23431148.4644
       231.000         184.000
 138182209.06248  89882224.71948  24392274.3294   24392277.7004   24392274.5254
       214.000         158.000
 117086436.90648  73443971.35948  20377875.5324   20377877.1264   20377875.2644
       254.000         238.000
 111036226.25548  86521721.85548  21129501.0324   21129503.7414   21129500.8424
       247.000         215.000
 118500029.26248  92337680.58048  22549808.1554   22549809.0594   22549808.7264
       234.000         190.000
 131904890.73848 102783011.27448  25100682.3614   25100686.0304   25100681.7924
       211.000         149.000
 128374161.55448 100031802.38748  24428797.8254   24428801.8754   24428797.8354
       205.000         155.000
 121934802.67548  95014125.16048  23203428.0634   23203429.5344   23203427.9724
       227.000         182.000
 125175845.88448  97539616.26548  23820174.4104   23820176.2524   23820174.8914
       224.000         169.000
 09  1 23  0 15 30.0000000  0 10G 9G17G 5G15G26G18G10G27G12G28
 109291203.97848  85161970.14748  20797428.5914   20797431.3314   20797428.8384
       246.000         216.000
 123098451.90548  95920868.20048  23424860.0894   23424862.3554   23424860.1794
       231.000         183.000
 138069394.26348  89794317.09048  24370807.2034   24370810.4334   24370808.7004
       215.000         159.000
 117102417.55348  73456423.80348  20380916.6014   20380918.2514   20380916.2574
       254.000         238.000
 111101629.49148  86572685.40448  21141946.9824   21141949.5494   21141946.7934
       246.000         215.000
 118460568.04248  92306931.56948  22542298.2064   22542300.3724   22542299.0614
       233.000         189.000
 132015116.94348 102868901.89348  25121657.6134   25121660.9744   25121658.6704
       210.000         148.000
 128443461.39948 100085802.25248  24441984.8514   24441988.6474   24441984.7364
       209.000         156.000
 121831333.82448  94933500.08748  23183738.0824   23183739.9714   23183737.7344
       228.000         184.000
 125263671.07048  97608051.48248  23836887.1394   23836888.6894   23836887.2494
       225.000         171.000
 09  1 23  0 16  0.0000000  0 10G 9G17G 5G15G26G18G10G27G12G28
 109237525.84348  85120143.03148  20787213.9694   20787216.8614   20787214.0794
       248.000         216.000
 123065878.64948  95895486.44548  23418661.7794   23418663.7094   23418661.6064
       230.000         183.000
 137956702.95248  89706505.68348  24349363.4364   24349365.5464   24349364.0944
       220.000         160.000
 117118848.35248  73469227.01748  20384043.3464   20384044.9444   20384043.0614
       254.000         238.000
 111167398.09248  86623933.66348  21154462.1454   21154464.8214   21154462.1834
       246.000         215.000
 118421647.01648  92276603.48848  22534891.8634   22534893.9274   22534892.2304
       235.000         190.000
 132125274.56048 102954738.98248  25142620.1634   25142623.6674   25142620.7874
       212.000         146.000
 128512782.09348 100139818.35848  24455177.1394   24455180.3944   24455177.2874
       206.000         157.000
 121728096.62848  94853055.51648  23164092.7474   23164095.0944   23164092.8334
       228.000         185.000
 125351687.81848  97676635.94648  23853636.3574   23853638.0244   23853637.0984
       225.000         173.000
 09  1 23  0 16 30.0000000  0 10G 9G17G 5G15G26G18G10G27G12G28
 109184147.73348  85078549.70048  20777056.7784   20777059.2204   20777057.0114
       247.000         217.000
 123033781.36448  95870475.57248  23412553.8514   23412555.9044   23412553.4294
       231.000         184.000
 137844137.10648  89618792.05048  24327942.5074   24327945.3154   24327942.7924
       218.000         163.000
 117135729.42248  73482381.09848  20387255.6714   20387257.2094   20387255.4454
       254.000         238.000
 111233531.32948  86675466.04448  21167046.8204   21167049.8034   21167046.6734
       246.000         215.000
 118383267.75348  92246697.56948  22527588.8224   22527590.4194   22527589.8344
       234.000         191.000
 132235361.84948 103040521.28148  25163568.9774   25163571.9524   25163572.2114
       210.000         145.000
 128582123.47748 100193850.59748  24468372.5624   24468375.3194   24468373.1294
       212.000         159.000
 121625093.34248  94772793.23248  23144491.9824   23144494.4634   23144491.4794
       227.000         185.000
 125439893.60148  97745367.72848  23870421.4854   23870422.9934   23870421.7744
       226.000         175.000
 09  1 23  0 17  0.0000000  0 10G 9G17G 5G15G26G18G10G27G12G28
 109131070.50148  85037190.82348  20766956.4154   20766959.1914   20766956.6644
       246.000         217.000
 123002162.30048  95845837.35548  23406536.7054   23406538.8254   23406536.8834
       230.000         183.000
 137731699.19548  89531178.06448  24306546.1144   24306548.8984   24306546.3594
       217.000         164.000
 117153062.35148  73495887.27048  20390553.9844   20390555.4834   20390553.6674
       254.000         237.000
 111300028.94148  86727282.34748  21179701.0584   21179703.6874   21179701.0354
       246.000         215.000
 118345432.12548  92217215.26248  22520388.8274   22520390.4644   22520389.6614
       234.000         191.000
 132345376.68248 103126247.10448  25184503.2374   25184507.9044   25184505.9554
       209.000         147.000
 128651486.14148 100247899.44048  24481570.9494   24481575.2394   24481571.7484
       207.000         158.000
 121522326.39148  94692715.08548  23124936.3814   23124938.1024   23124936.6104
       229.000         187.000
 125528287.01848  97814245.70048  23887242.2304   23887243.7124   23887242.7554
       225.000         174.000
 09  1 23  0 17 30.0000000  0 10G 9G17G 5G15G26G18G10G27G12G28
 109078294.59548  84996066.75148  20756913.4384   20756916.1164   20756913.6194
       247.000         217.000
 122971022.97648  95821572.96448  23400610.9624   23400612.8824   23400610.7604
       228.000         183.000
 137619390.92848  89443665.13448  24285173.9394   24285177.4704   24285173.5994
       213.000         163.000
 117170847.36848  73509745.72348  20393938.3424   20393939.8124   20393937.9894
       253.000         237.000
 111366890.00048  86779381.87648  21192424.3914   21192426.9754   21192424.3284
       245.000         214.000
 118308141.30148  92188157.46848  22513292.4714   22513294.5324   22513293.0454
       234.000         190.000
 132455316.29048 103211914.35848  25205425.2344   25205428.4394   25205425.8264
       208.000         147.000
 128720869.89248 100301964.68148  24494774.4904   24494777.8614   24494774.0614
       211.000         160.000
 121419797.44648  94612822.40748  23105425.6674   23105427.0204   23105425.5564
       227.000         184.000
 125616865.13448  97883267.61648  23904097.7414   23904099.2274   23904098.2014
       224.000         171.000
 09  1 23  0 18  0.0000000  0 10G 9G17G 5G15G26G18G10G27G12G28
 109025821.42548  84955178.57048  20746928.0894   20746930.8404   20746928.2304
       247.000         217.000
 122940366.36248  95797684.69148  23394777.3454   23394779.5854   23394777.6364
       227.000         183.000
 137507215.31548  89356255.58548  24263827.2684   24263830.9524   24263828.1444
       218.000         163.000
 117189085.53148  73523957.26748  20397409.0534   20397410.5374   20397408.6174
       254.000         237.000
 111434114.77648  86831764.81048  21205216.7474   21205219.5134   21205216.5284
       246.000         215.000
 118271397.12748  92159525.63148  22506300.3184   22506301.8954   22506300.5264
       235.000         191.000
 132565179.46048 103297522.01648  25226330.7614   25226334.5754   25226331.8904
       207.000         144.000
 128790275.89748 100356047.26648  24507982.2274   24507985.3324   24507982.6084
       212.000         162.000
 121317509.83048  94533117.77448  23085960.8964   23085962.5544   23085960.8414
       229.000         185.000
 125705627.17648  97952432.82348  23920988.5334   23920989.7304   23920988.5194
       221.000         166.000
 09  1 23  0 18 30.0000000  0 10G 9G17G 5G15G26G18G10G27G12G28
 108973650.27248  84914525.72848  20737000.2404   20737002.8184   20737000.5334
       247.000         217.000
 122910193.37148  95774173.28848  23389035.6844   23389037.3234   23389035.2414
       231.000         183.000
 137395173.02248  89268949.89248  24242507.2424   24242510.2004   24242508.8624
       218.000         164.000
 117207776.41648  73538521.59048  20400965.8524   20400967.2544   20400965.6864
       254.000         237.000
 111501701.25948  86884429.59448  21218078.0664   21218080.5414   21218077.9414
       246.000         214.000
 118235199.67848  92131319.82248  22499412.2314   22499414.3004   22499413.1734
       234.000         192.000
 132674962.88648 103383067.57748  25247222.8114   25247224.9444   25247224.0814
       207.000         143.000
 128859702.81748 100410146.14948  24521194.0694   24521197.3224   24521194.3974
       211.000         163.000
 121215464.15648  94453601.67848  23066542.4914   23066543.5584   23066542.5894
       230.000         186.000
 125794569.83148  98021738.80648  23937913.6874   23937914.6924   23937914.5204
       222.000         165.000
 09  1 23  0 19  0.0000000  0 10G 9G17G 5G15G26G18G10G27G12G28
 108921780.93648  84874108.05748  20727130.0374   20727132.3524   20727129.8444
       247.000         218.000
 122880504.97548  95751039.46648  23383386.2264   23383388.1074   23383386.3904
       230.000         185.000
 137283265.65848  89181749.35248  24221212.3014   24221215.1334   24221213.2394
       215.000         164.000
 117226920.02248  73553438.67448  20404608.7214   20404610.1234   20404608.4614
       254.000         237.000
 111569648.18248  86937375.24248  21231008.0954   21231010.5354   21231007.8434
       245.000         214.000
 118199549.94948  92103540.81048  22492628.3614   22492630.5104   22492628.6584
       234.000         192.000
 132784663.40348 103468548.51348  25268097.4884   25268100.6194   25268098.7314
       206.000         142.000
 128929150.05148 100464260.88548  24534409.6944   24534412.5454   24534410.1344
       212.000         162.000
 121113662.62048  94374275.81748  23047170.2044   23047171.4564   23047169.8184
       230.000         187.000
 125883690.42748  98091183.42748  23954872.4174   23954873.6034   23954873.5194
       221.000         163.000
 09  1 23  0 19 30.0000000  0 10G 9G17G 5G15G26G18G10G27G12G28
 108870215.61648  84833927.30048  20717317.3254   20717319.9134   20717317.3354
       247.000         218.000
 122851304.23848  95728285.66448  23377829.4004   23377831.4474   23377829.1204
       231.000         185.000
 137171496.64048  89094656.60248  24199942.4334   24199946.3684   24199942.3764
       217.000         162.000
 117246518.17848  73568709.95848  20408338.1194   20408339.5994   20408337.8334
       253.000         237.000
 111637956.22748  86990602.28448  21244006.5744   21244009.1564   21244006.5894
       246.000         214.000
 118164450.54548  92076190.63048  22485949.1504   22485951.2634   22485949.6964
       236.000         192.000
 132894280.40748 103553964.36848  25288957.6294   25288960.0474   25288958.4534
       208.000         145.000
 128998619.20848 100518392.67348  24547628.8084   24547632.2834   24547628.1974
       214.000         162.000
 121012108.30148  94295142.60548  23027844.8024   23027846.6984   23027844.9624
       230.000         188.000
 125972988.25448  98160766.16948  23971865.4744   23971866.6734   23971865.2084
       220.000         164.000
 09  1 23  0 20  0.0000000  0 10G 9G17G 5G15G26G18G10G27G12G28
 108818953.61848  84793982.88648  20707562.4824   20707565.1614   20707562.8254
       246.000         218.000
 122822592.14148  95705912.60648  23372365.6214   23372367.6884   23372365.3684
       230.000         186.000
 137059866.90648  89007672.39048  24178700.1614   24178703.9174   24178700.4984
       217.000         164.000
 117266570.23648  73584334.93448  20412153.8684   20412155.4824   20412153.5644
       253.000         237.000
 111706623.59948  87044109.31648  21257073.5304   21257075.9684   21257073.4434
       245.000         213.000
 118129901.84948  92049269.55748  22479375.0514   22479376.4674   22479376.2834
       236.000         193.000
 133003810.24548 103639312.25448  25309800.4384   25309803.5724   25309801.5214
       211.000         144.000
 129068109.46548 100572540.93448  24560852.6014   24560855.5654   24560853.1984
       209.000         161.000
 120910802.30048  94216202.86148  23008567.5344   23008568.7374   23008567.4414
       230.000         188.000
 126062460.06948  98230484.45648  23988891.5724   23988892.5384   23988891.5694
       222.000         165.000
 09  1 23  0 20 30.0000000  0  9G17G 5G15G26G18G10G27G12G28
 122794370.34048  95683921.58048  23366995.2824   23366997.3354   23366994.8564
       230.000         187.000
 136948378.55948  88920798.36248  24157484.4644   24157487.8954   24157484.8734
       219.000         164.000
 117287076.71348  73600314.00048  20416056.1714   20416057.8134   20416056.0034
       253.000         237.000
 111775649.54548  87097895.76348  21270208.5774   21270211.0614   21270208.3344
       244.000         213.000
 118095904.39848  92022778.02948  22472905.6054   22472907.2154   22472905.6134
       235.000         192.000
 133113251.07848 103724590.84748  25330626.4304   25330628.9674   25330628.2204
       203.000         143.000
 129137621.11548 100626705.83548  24574079.6274   24574083.7424   24574080.1564
       211.000         162.000
 120809746.99848  94137458.47248  22989337.1504   22989338.8124   22989337.1144
       229.000         186.000
 126152103.86648  98300336.75248  24005950.2054   24005951.5374   24005952.3174
       221.000         166.000
 09  1 23  0 21  0.0000000  0 10G 9G17G 5G15G26G18G10G27G12G28
 118717319.85558  74714783.88858  20688226.4475   20688229.0295   20688226.7215
       247.000         218.000
 122766640.70448  95662314.08348  23361718.5354   23361720.6754   23361718.5344
       230.000         185.000
 136837033.36648  88834035.88048  24136296.7404   24136299.5904   24136297.0954
       221.000         167.000
 117308037.81448  73616647.32248  20420044.9024   20420046.5444   20420044.7044
       253.000         237.000
 111845033.26048  87151960.98548  21283412.0714   21283414.5834   21283412.0194
       245.000         213.000
 118062459.37048  91996716.97048  22466541.3834   22466542.6524   22466542.2114
       235.000         192.000
 133222600.57448 103809798.24148  25351434.3914   25351436.9034   25351433.5614
       206.000         138.000
 129207153.89448 100680887.23048  24587311.8434   24587314.9724   24587311.9264
       212.000         161.000
 120708944.28248  94058910.90748  22970154.8524   22970156.7924   22970154.6804
       228.000         188.000
 126241917.58548  98370321.47048  24023041.4924   24023042.8104   24023042.1894
       221.000         166.000
 09  1 23  0 21 30.0000000  0 10G 9G17G 5G15G26G18G10G27G12G28
 118666970.66248  74675550.75348  20678645.1554   20678647.9544   20678645.2214
       248.000         218.000
 122739404.32448  95641090.94148  23356535.4084   23356537.5234   23356535.3674
       229.000         186.000
 136725832.99648  88747386.24248  24115136.3724   24115138.8634   24115137.6674
       220.000         168.000
 117329453.97648  73633335.23248  20424120.2654   20424121.7934   20424119.9704
       253.000         236.000
 111914773.38148  87206303.92748  21296683.2024   21296685.7344   21296683.2734
       245.000         213.000
 118029567.90848  91971087.24648  22460282.3964   22460283.4404   22460282.5974
       235.000         193.000
 133331855.86848 103894932.27648  25372224.7644   25372227.0774   25372226.4124
       211.000         141.000
 129276707.35248 100735084.70848  24600546.7704   24600550.1304   24600546.2774
       214.000         162.000
 120608395.54748  93980561.25348  22951020.6214   22951022.7384   22951020.1834
       229.000         189.000
 126331898.68448  98440436.59348  24040163.7174   24040166.1144   24040164.6124
       219.000         164.000
 09  1 23  0 22  0.0000000  0 10G 9G17G 5G15G26G18G10G27G12G28
 118616927.11848  74636555.78148  20669122.1304   20669124.8544   20669122.4244
       248.000         218.000
 122712664.08648  95620254.39148  23351446.6294   23351448.8524   23351446.7164
       229.000         185.000
 136614780.51248  88660851.84348  24094003.3254   24094006.4284   24094003.6854
       221.000         168.000
 117351326.49948  73650378.75148  20428282.4824   20428284.0064   20428282.3064
       253.000         236.000
 111984870.46448  87260925.01848  21310022.1274   21310024.9764   21310022.0204
       245.000         213.000
 117997232.12148  91945890.53748  22454128.9064   22454130.5454   22454129.2534
       235.000         192.000
 133441015.97848 103979992.12548  25392996.5274   25393000.2594   25392999.6064
       208.000         138.000
 129346282.83548 100789299.35648  24613786.1074   24613790.0014   24613785.7954
       212.000         162.000
 120508104.36948  93902412.30048  22931935.6794   22931938.0084   22931935.5614
       231.000         189.000
 126422046.00848  98510681.26348  24057318.3944   24057320.4864   24057319.7874
       220.000         162.000
 09  1 23  0 22 30.0000000  0 10G 9G17G 5G15G26G18G10G27G12G28
 118567189.20548  74597798.96548  20659657.3924   20659660.2124   20659657.8194
       250.000         218.000
 122686420.25348  95599804.65848  23346452.6974   23346454.7444   23346453.0674
       230.000         186.000
 136503876.87148  88574433.42248  24072899.5014   24072902.5514   24072900.0354
       221.000         168.000
 117373654.68848  73667777.33448  20432531.2774   20432532.9524   20432531.0464
       253.000         236.000
 112055322.53348  87315822.72248  21323429.0014   21323431.5784   21323428.9484
       245.000         213.000
 117965452.11348  91921126.88248  22448081.6084   22448082.6624   22448082.1994
       235.000         192.000
 133550077.39448 104064975.06548  25413751.0964   25413755.9844   25413752.2204
       204.000         137.000
 129415879.25748 100843530.34748  24627030.3674   24627034.2184   24627030.2424
       209.000         162.000
 120408071.70148  93824464.76248  22912900.6214   22912902.0244   22912900.7484
       230.000         188.000
 126512356.59548  98581053.15348  24074503.4494   24074506.1934   24074503.7834
       217.000         161.000
 09  1 23  0 23  0.0000000  0 10G 9G17G 5G15G26G18G10G27G12G28
 118517757.76748  74559280.96948  20650250.8394   20650253.5044   20650251.5214
       249.000         219.000
 122660675.00448  95579743.44848  23341553.8814   23341555.5164   23341554.0174
       230.000         186.000
 136393124.06848  88488132.55248  24051823.5984   24051826.8094   24051824.9144
       218.000         168.000
 117396439.08748  73685531.40648  20436867.1244   20436868.7374   20436866.6964
       253.000         236.000
 112126128.99848  87370996.59348  21336902.8154   21336905.4204   21336902.8344
       245.000         212.000
 117934229.02648  91896797.20648  22442139.7674   22442141.2504   22442140.6004
       235.000         192.000
 133659038.08048 104149879.48648  25434485.7864   25434489.1334   25434487.2404
       207.000         141.000
 129485497.05048 100897777.93148  24640277.9344   24640281.6444   24640277.5104
       214.000         161.000
 120308299.77048  93746720.40748  22893914.6204   22893916.3094   22893914.8544
       229.000         189.000
 126602828.28948  98651550.55848  24091720.1964   24091722.4534   24091720.5804
       218.000         160.000
 09  1 23  0 23 30.0000000  0 10G 9G17G 5G15G26G18G10G27G12G28
 118468633.43948  74521002.26748  20640903.0484   20640905.6224   20640903.1924
       249.000         219.000
 122635430.48748  95560072.40048  23336749.9064   23336751.9534   23336749.9494
       231.000         186.000
 136282524.59748  88401951.14448  24030777.2454   24030780.4634   24030777.5494
       219.000         170.000
 117419680.47148  73703641.56548  20441289.8464   20441291.4734   20441289.6314
       253.000         236.000
 112197289.16848  87426446.06448  21350444.1804   21350446.7284   21350444.2424
       245.000         213.000
 117903564.48648  91872902.76548  22436304.2154   22436305.9074   22436304.3824
       236.000         193.000
 133767896.03648 104234703.88048  25455200.7314   25455203.8254   25455201.9574
       206.000         142.000
 129555136.49348 100952042.44548  24653529.8204   24653533.9614   24653530.9614
       211.000         160.000
 120208790.66448  93669180.84948  22874978.5244   22874980.5534   22874978.0284
       229.000         190.000
 126693459.56648  98722172.33248  24108966.5274   24108968.2894   24108968.2164
       215.000         158.000
 09  1 23  0 24  0.0000000  0 10G 9G17G 5G15G26G18G10G27G12G28
 118419815.96548  74482962.67948  20631613.1624   20631615.9044   20631613.1364
       249.000         219.000
 122610687.12148  95540791.86948  23332041.3284   23332043.3224   23332040.5684
       230.000         187.000
 136172079.52248  88315890.05948  24009760.3464   24009763.6174   24009761.1254
       221.000         171.000
 117443378.27548  73722107.38448  20445799.3544   20445800.9504   20445799.1224
       253.000         236.000
 112268801.62248  87482170.05048  21364052.7264   21364055.2864   21364052.8384
       245.000         212.000
 117873457.85548  91849443.04648  22430575.4434   22430577.0674   22430576.2194
       234.000         192.000
 133876648.35848 104319445.96548  25475896.5424   25475899.6444   25475896.0304
       205.000         142.000
 129624797.07148 101006323.39648  24666786.4164   24666789.3844   24666786.7404
       215.000         162.000
 120109545.70548  93591847.12048  22856092.8384   22856095.0614   22856092.5564
       230.000         191.000
 126784247.31548  98792916.02548  24126242.0764   24126245.0034   24126242.2484
       211.000         155.000
 09  1 23  0 24 30.0000000  0 11G 9G17G 5G15G26G18G10G27G12G22G28
 118371305.55948  74445162.37048  20622382.0064   20622384.7454   20622382.0434
       250.000         219.000
 122586446.63748  95521903.18748  23327428.2344   23327430.3964   23327427.8404
       231.000         187.000
 136061790.67748  88229950.69548  23988773.0304   23988776.4244   23988773.5414
       220.000         171.000
 117467532.79848  73740929.08548  20450395.7904   20450397.3004   20450395.5164
       252.000         235.000
 112340665.27148  87538167.69348  21377727.6994   21377730.4914   21377727.5304
       245.000         212.000
 117843910.47148  91826419.11748  22424952.5074   22424954.0334   22424952.6154
       236.000         193.000
 133985292.94248 104404104.07148  25496570.1374   25496573.9364   25496569.2944
       204.000         140.000
 129694478.83048 101060620.86548  24680046.7764   24680049.4784   24680046.6634
       216.000         164.000
 120010566.90048  93514720.79648  22837257.7474   22837259.7604   22837257.3904
       230.000         190.000
 138176580.50258  89877855.25658  24391190.3345   24391190.4925   24391191.2255
       221.000         161.000
 126875189.54748  98863780.12348  24143548.2234   24143550.5574   24143547.2284
       217.000         157.000
 09  1 23  0 25  0.0000000  0 11G 9G17G 5G15G26G18G10G27G12G22G28
 118323102.45248  74407601.51248  20613209.3854   20613212.1094   20613209.9544
       249.000         220.000
 122562710.11648  95503407.20548  23322911.8854   23322913.8714   23322911.8394
       232.000         190.000
 135951659.76148  88144134.40048  23967815.4594   23967819.0444   23967816.3154
       218.000         170.000
 117492144.00548  73760106.64248  20455079.0804   20455080.6104   20455078.7334
       253.000         235.000
 112412879.00748  87594438.12648  21391469.5444   21391472.1924   21391469.4564
       243.000         211.000
 117814923.18348  91803831.61748  22419436.2824   22419438.1734   22419436.9234
       233.000         192.000
 134093826.71348 104488675.85848  25517223.1914   25517226.3594   25517223.4164
       199.000         137.000
 129764181.26248 101114934.48748  24693310.6234   24693313.2504   24693310.7974
       212.000         161.000
 119911856.43448  93437803.54148  22818474.0914   22818475.8604   22818473.9734
       232.000         192.000
 138103579.08648  89820971.02748  24377298.4754   24377298.6584   24377298.1554
       214.000         165.000
 126966283.76848  98934762.61048  24160883.0094   24160885.5804   24160884.8894
       216.000         157.000
 09  1 23  0 25 30.0000000  0 11G 9G17G 5G15G26G18G10G27G12G22G28
 118275208.60248  74370281.62748  20604095.4414   20604098.0994   20604095.0834
       250.000         220.000
 122539480.66348  95485306.33748  23318491.3714   23318493.3494   23318491.6714
       229.000         187.000
 135841690.32548  88058443.92848  23946889.1844   23946892.6674   23946889.1584
       223.000         171.000
 117517213.52948  73779641.32648  20459849.7774   20459851.3504   20459849.6124
       253.000         235.000
 112485443.42748  87650981.82448  21405277.9894   21405280.7604   21405277.6944
       243.000         211.000
 117786498.37048  91781682.41648  22414027.1694   22414029.2774   22414027.6484
       235.000         192.000
 134202249.22148 104573160.92948  25537854.7884   25537857.6664   25537855.7194
       200.000         135.000
 129833906.20548 101169265.57548  24706577.6874   24706582.1004   24706578.0444
       215.000         163.000
 119813417.23548  93361097.67448  22799741.4664   22799743.5984   22799741.8514
       231.000         192.000
 138030961.16948  89764385.70448  24363479.3944   24363480.6484   24363477.9454
       217.000         163.000
 127057529.41448  99005863.10248  24178246.9374   24178248.9014   24178246.5624
       215.000         157.000
 09  1 23  0 26  0.0000000  0 11G 9G17G 5G15G26G18G10G27G12G22G28
 118227624.08748  74333202.78548  20595040.5254   20595043.1734   20595041.0334
       250.000         220.000
 122516759.35448  95467601.44948  23314167.2684   23314169.3814   23314166.7344
       229.000         188.000
 135731883.64448  87972880.31048  23925993.8344   23925997.2284   23925995.0744
       220.000         171.000
 117542741.52048  73799533.26248  20464707.5764   20464709.2034   20464707.3374
       252.000         235.000
 112558357.19548  87707797.73748  21419153.1554   21419155.8974   21419153.1474
       244.000         211.000
 117758636.54748  91759971.88648  22408725.4604   22408726.9704   22408726.1624
       235.000         192.000
 134310557.94448 104657557.39048  25558465.7454   25558469.4424   25558466.1194
       200.000         133.000
 129903653.10048 101223613.81048  24719851.4584   24719853.9554   24719852.6914
       215.000         162.000
 119715250.97048  93284604.48048  22781061.0284   22781063.2364   22781060.3414
       231.000         192.000
 137958728.73348  89708100.60648  24349734.7634   24349735.3774   24349734.9014
       220.000         161.000
 127148923.94748  99077079.63348  24195638.7764   24195640.8814   24195639.2744
       217.000         157.000
 09  1 23  0 26 30.0000000  0 11G 9G17G 5G15G26G18G10G27G12G22G28
 118180349.05548  74296365.10448  20586044.1374   20586046.9814   20586044.3034
       249.000         220.000
 122494547.28848  95450293.36648  23309940.4924   23309943.0494   23309940.2114
       229.000         188.000
 135622241.43948  87887444.83648  23905129.7934   23905133.0604   23905129.6554
       223.000         172.000
 117568727.98148  73819782.44348  20469652.5954   20469654.1864   20469652.3344
       252.000         235.000
 112631619.13748  87764884.95248  21433094.4144   21433097.2184   21433094.3434
       243.000         211.000
 117731338.22348  91738700.47348  22403530.7694   22403532.4114   22403531.6324
       234.000         192.000
 134418750.17248 104741863.05748  25579054.2864   25579058.2054   25579052.3004
       203.000         138.000
 129973421.81948 101277979.04548  24733127.9544   24733130.7934   24733128.4904
       215.000         165.000
 119617359.37348  93208325.32848  22762432.8264   22762435.2204   22762432.4274
       230.000         193.000
 137886883.35948  89652117.21848  24336063.0904   24336061.9944   24336063.2134
       217.000         164.000
 127240464.95348  99148410.27648  24213058.6704   24213060.5454   24213059.3424
       213.000         156.000
 09  1 23  0 27  0.0000000  0 10G 9G17G 5G15G26G18G27G12G22G28
 118133384.33848  74259769.22648  20577107.0474   20577109.6934   20577107.3194
       249.000         220.000
 122472846.06348  95433383.32348  23305810.9284   23305812.9244   23305810.6594
       230.000         189.000
 135512766.11748  87802139.37548  23884297.7824   23884300.4434   23884299.3034
       225.000         173.000
 117595172.83548  73840388.81748  20474684.9514   20474686.4644   20474684.7534
       253.000         234.000
 112705228.66348  87822243.01948  21447101.9484   21447104.4904   21447101.7924
       244.000         210.000
 117704604.49248  91717868.99748  22398443.1454   22398445.1424   22398443.5434
       233.000         192.000
 130043212.88848 101332361.71548  24746408.1754   24746411.1984   24746408.0794
       216.000         162.000
 119519744.72848  93132261.98748  22743857.6174   22743859.8534   22743857.6114
       232.000         194.000
 137815427.75848  89596437.55148  24322465.3664   24322466.0444   24322465.5024
       213.000         162.000
 127332150.73148  99219853.75048  24230505.2994   24230507.7364   24230504.9894
       215.000         156.000
 09  1 23  0 27 30.0000000  0 10G 9G17G 5G15G26G18G27G12G22G28
 118086729.96048  74223415.17048  20568228.8604   20568231.8534   20568229.0384
       249.000         220.000
 122451656.63848  95416872.09948  23301778.8544   23301780.6434   23301778.7264
       231.000         189.000
 135403458.79048  87716964.84048  23863496.6264   23863500.0174   23863496.4814
       220.000         172.000
 117622076.36848  73861352.60648  20479804.3744   20479806.0464   20479804.1654
       252.000         234.000
 112779184.23148  87879870.72748  21461175.0424   21461177.7954   21461174.9724
       243.000         211.000
 117678435.47348  91697477.54848  22393463.4834   22393465.3494   22393463.8324
       234.000         192.000
 130113025.64048 101386761.24748  24759693.4434   24759695.8084   24759693.4434
       214.000         163.000
 119422408.46748  93056415.54648  22725335.3004   22725337.2424   22725335.0534
       233.000         194.000
 137744363.50848  89541062.84448  24308942.5104   24308943.3184   24308941.1134
       219.000         171.000
 127423978.58048  99291407.91148  24247979.8724   24247981.9914   24247981.7044
       216.000         154.000
 09  1 23  0 28  0.0000000  0 10G 9G17G 5G15G26G18G27G12G22G28
 118040386.67748  74187303.52348  20559410.1644   20559412.8464   20559410.4264
       250.000         220.000
 122430981.00348  95400761.21548  23297844.1614   23297846.5944   23297843.9414
       231.000         189.000
 135294321.68848  87631922.96648  23842728.1204   23842731.8684   23842728.4754
       224.000         173.000
 117649439.10348  73882674.21148  20485011.5174   20485013.0474   20485011.2034
       252.000         234.000
 112853485.14248  87937767.52548  21475314.0644   21475316.7814   21475313.8454
       243.000         210.000
 117652832.42648  91677527.10848  22388591.3594   22388593.2364   22388592.1854
       234.000         192.000
 130182860.28148 101441177.89948  24772982.5824   24772985.6804   24772982.5344
       215.000         164.000
 119325352.91648  92980787.83748  22706866.5024   22706867.7704   22706866.3054
       234.000         193.000
 137673692.93448  89485994.90448  24295493.9734   24295494.6774   24295494.0224
       223.000         164.000
 127515946.72748  99363071.41148  24265480.9204   24265482.8024   24265483.6684
       217.000         157.000
 09  1 23  0 28 30.0000000  0 10G 9G17G 5G15G26G18G27G12G22G28
 117994354.46748  74151434.27048  20550650.6434   20550653.3234   20550650.6484
       250.000         221.000
 122410820.06948  95385051.40348  23294007.8284   23294009.8914   23294007.4474
       231.000         189.000
 135185356.43748  87547014.98748  23821993.2794   23821996.6714   23821993.9544
       221.000         174.000
 117677260.58948  73904353.28148  20490305.7684   20490307.2464   20490305.6814
       252.000         234.000
 112928130.09248  87995932.42048  21489518.5484   21489521.2634   21489518.6964
       243.000         210.000
 117627795.85348  91658018.09848  22383827.5664   22383828.6444   22383828.1164
       236.000         193.000
 130252716.91248 101495611.62348  24786275.6854   24786278.6204   24786275.7054
       215.000         164.000
 119228579.63548  92905380.08448  22688450.8144   22688452.1904   22688450.8934
       232.000         193.000
 137603417.93748  89431235.14748  24282121.2944   24282120.7874   24282122.5304
       217.000         164.000
 127608052.64248  99434842.24448  24283007.8414   24283010.3044   24283008.7534
       214.000         156.000
 09  1 23  0 29  0.0000000  0 10G 9G17G 5G15G26G18G27G12G22G28
 117948634.09848  74115808.01948  20541950.3464   20541953.0554   20541950.4624
       249.000         221.000
 122391175.71148  95369744.10748  23290269.5674   23290271.6784   23290269.3094
       233.000         190.000
 135076565.37248  87462242.73648  23801290.7714   23801294.0134   23801291.2094
       224.000         174.000
 117705541.62448  73926390.44848  20495687.4314   20495688.9334   20495687.1014
       252.000         234.000
 113003118.50748  88054364.94148  21503788.4154   21503791.1844   21503788.4064
       243.000         209.000
 117603326.97248  91638951.44348  22379170.8874   22379172.6744   22379171.5574
       234.000         193.000
 130322596.11748 101550062.92948  24799572.9354   24799576.6964   24799573.6384
       216.000         164.000
 119132090.94448  92830194.10248  22670089.5904   22670090.9714   22670088.7924
       234.000         195.000
 137533541.18048  89376785.65448  24268823.8504   24268824.5754   24268822.2154
       217.000         165.000
 127700294.96848  99506719.37848  24300560.4024   24300563.0694   24300562.1494
       209.000         156.000
 09  1 23  0 29 30.0000000  0 10G 9G17G 5G15G26G18G27G12G22G28
 117903226.21048  74080425.25148  20533309.5194   20533312.0494   20533309.5824
       249.000         221.000
 122372048.83448  95354840.06148  23286630.1254   23286631.8384   23286629.9684
       232.000         190.000
 134967950.34448  87377607.65048  23780622.2444   23780625.4054   23780623.5014
       223.000         174.000
 117734282.17948  73948785.67848  20501156.6404   20501158.0604   20501156.5344
       252.000         234.000
 113078449.40848  88113064.33548  21518123.4384   21518126.0754   21518123.4054
       243.000         210.000
 117579426.16048  91620327.43148  22374622.7504   22374624.4244   22374623.3044
       235.000         193.000
 130392497.67448 101604531.63448  24812875.5944   24812878.1074   24812876.1604
       216.000         162.000
 119035888.65948  92755231.27948  22651782.9204   22651784.5714   22651782.9634
       234.000         195.000
 137464064.56748  89322648.03348  24255603.1224   24255603.6694   24255605.0044
       222.000         164.000
 127792671.32748  99578700.97848  24318139.0324   24318141.5784   24318138.1734
       213.000         156.000
 09  1 23  0 30  0.0000000  0 10G 9G17G 5G15G26G18G27G12G22G28
 117858130.58448  74045285.80248  20524728.0664   20524730.6814   20524728.2824
       250.000         221.000
 122353439.92048  95340339.62748  23283088.6874   23283090.6274   23283088.3514
       232.000         190.000
 134859512.64948  87293110.76848  23759986.8254   23759990.5764   23759987.4684
       223.000         176.000
 117763481.74248  73971538.57748  20506713.0014   20506714.5364   20506712.6684
       252.000         233.000
 113154121.31548  88172029.44748  21532523.3624   21532525.9424   21532523.1214
       243.000         209.000
 117556093.64748  91602146.25448  22370182.7244   22370184.3374   22370183.3894
       235.000         193.000
 130462421.10348 101659017.46548  24826180.8914   24826183.5084   24826181.4544
       216.000         164.000
 118939974.14648  92680492.70448  22633531.0684   22633532.6954   22633531.0614
       234.000         195.000
 137394989.45248  89268823.30548  24242458.4144   24242459.1604   24242459.4634
       215.000         167.000
 127885179.17148  99650784.99348  24335742.9264   24335744.6394   24335744.2884
       213.000         153.000
 09  1 23  0 30 30.0000000  0 10G 9G17G 5G15G26G18G27G12G22G28
 117813348.39148  74010390.59548  20516206.2204   20516208.8654   20516206.4094
       250.000         221.000
 122335351.70948  95326244.92748  23279646.5024   23279648.6904   23279646.4084
       232.000         190.000
 134751254.92648  87208754.10348  23739386.0814   23739389.5654   23739386.1954
       225.000         175.000
 117793141.39148  73994649.99248  20512356.9774   20512358.6834   20512356.6584
       252.000         233.000
 113230133.90948  88231260.03248  21546987.9094   21546990.6444   21546987.8594
       242.000         209.000
 117533331.13848  91584409.22348  22365851.5674   22365852.9014   22365852.0474
       236.000         194.000
 130532367.40748 101713521.07648  24839491.6784   24839494.4104   24839492.1064
       218.000         164.000
 118844350.26948  92605980.59948  22615334.5794   22615336.3234   22615334.0204
       234.000         196.000
 137326319.10348  89215313.92348  24229391.0924   24229391.1544   24229389.7004
       216.000         164.000
 127977817.31448  99722970.56648  24353371.1914   24353373.5004   24353371.3464
       207.000         153.000
 09  1 23  0 31  0.0000000  0 10G 9G17G 5G15G26G18G27G12G22G28
 117768879.51148  73975739.52348  20507744.2294   20507746.7704   20507744.5294
       250.000         222.000
 122317784.96548  95312556.56748  23276303.7334   23276305.7854   23276303.4844
       233.000         191.000
 134643178.63548  87124538.81648  23718819.7174   23718823.2904   23718820.4374
       225.000         174.000
 117823260.67948  74018119.55548  20518088.5304   20518090.2124   20518088.2954
       252.000         233.000
 113306485.85748  88290755.04748  21561517.3584   21561520.1144   21561517.2594
       243.000         209.000
 117511138.65148  91567116.36748  22361628.3684   22361629.6284   22361628.6734
       235.000         194.000
 130602336.32148 101768042.34148  24852806.2494   24852808.7214   24852806.1104
       214.000         161.000
 118749018.36448  92531696.00248  22597193.4974   22597195.3164   22597193.5004
       234.000         196.000
 137258054.95948  89162121.09648  24216399.7584   24216401.9044   24216402.5494
       216.000         168.000
 128070583.02748  99795255.54348  24371023.8974   24371026.3414   24371023.1494
       210.000         151.000
 09  1 23  0 31 30.0000000  0 10G 9G17G 5G15G26G18G27G12G22G28
 117724724.13948  73941332.74248  20499341.6254   20499344.3524   20499341.6854
       249.000         222.000
 122300740.86048  95299275.43748  23273060.3724   23273062.5554   23273059.9124
       230.000         191.000
 134535285.28448  87040466.07948  23698288.4954   23698291.7904   23698289.8404
       225.000         174.000
 117853839.33148  74041947.07348  20523907.4884   20523909.1284   20523907.2834
       251.000         233.000
 113383175.66948  88350513.33448  21576110.9004   21576113.7904   21576110.8094
       242.000         209.000
 117489516.67048  91550268.07748  22357513.5954   22357515.4784   22357514.3634
       235.000         194.000
 130672327.41648 101822580.84348  24866125.0804   24866128.1084   24866125.1724
       217.000         163.000
 118653979.76548  92457639.95748  22579107.9504   22579110.1844   22579107.8994
       235.000         197.000
 137190198.89548  89109246.21948  24203487.9134   24203489.2984   24203488.5044
       219.000         169.000
 128163474.22748  99867638.27448  24388701.4394   24388702.6124   24388701.8954
       212.000         150.000
 09  1 23  0 32  0.0000000  0 10G 9G17G 5G15G26G18G27G12G22G28
 117680882.92248  73907170.76548  20490998.8904   20491001.5744   20490999.3234
       247.000         222.000
 122284220.14948  95286402.17248  23269916.6334   23269918.8904   23269916.2654
       230.000         191.000
 134427576.96348  86956537.53948  23677792.1474   23677795.4894   23677792.6284
       226.000         175.000
 117884877.62348  74066132.75148  20529813.9554   20529815.4654   20529813.5964
       252.000         233.000
 113460202.71448  88410534.40548  21590768.6274   21590771.4824   21590768.5414
       243.000         209.000
 117468465.73548  91533864.73548  22353508.1004   22353509.9814   22353508.1684
       237.000         195.000
 130742341.00248 101877136.88848  24879448.8774   24879451.0584   24879449.6254
       217.000         164.000
 118559236.82748  92383814.29548  22561078.6834   22561080.9124   22561078.4254
       234.000         195.000
 137122752.76948  89056690.81148  24190653.9694   24190654.2534   24190654.0034
       220.000         168.000
 128256489.10948  99940117.41148  24406401.5204   24406403.0674   24406403.3664
       213.000         153.000
 09  1 23  0 32 30.0000000  0 10G 9G17G 5G15G26G18G27G12G22G28
 117637355.56348  73873253.34848  20482715.9304   20482718.7554   20482715.9354
       248.000         222.000
 122268223.85448  95273937.54048  23266872.4584   23266874.9134   23266872.4384
       231.000         192.000
 134320054.97748  86872754.18448  23657331.4464   23657334.7354   23657331.9834
       225.000         177.000
 117916375.20448  74090676.31448  20535807.7584   20535809.2084   20535807.5584
       251.000         233.000
 113537565.30348  88470816.92748  21605490.3444   21605492.9184   21605490.6014
       242.000         208.000
 117447986.01248  91517906.50848  22349611.0464   22349612.6834   22349612.0444
       236.000         195.000
 130812376.51448 101931709.98348  24892775.2774   24892778.4744   24892775.9124
       215.000         162.000
 118464790.85848  92310220.03548  22543106.1654   22543108.3424   22543105.8584
       236.000         196.000
 137055718.28348  89004456.19048  24177897.6064   24177897.9534   24177898.6314
       222.000         168.000
 128349624.02948 100012690.07648  24424124.8634   24424125.9984   24424124.9994
       212.000         155.000
 09  1 23  0 33  0.0000000  0 10G 9G17G 5G15G26G18G27G12G22G28
 117594144.37748  73839582.30648  20474492.9664   20474495.8954   20474493.1174
       249.000         222.000
 122252754.57448  95261883.57048  23263928.7514   23263931.1214   23263928.6284
       230.000         192.000
 134212722.60448  86789118.58548  23636906.7864   23636909.8454   23636907.0544
       224.000         176.000
 117948333.35648  74115578.77048  20541889.0274   20541890.6554   20541888.7444
       251.000         233.000
 113615263.82348  88531361.21948  21620275.8214   21620278.5604   21620275.4414
       242.000         208.000
 117428079.41048  91502394.86948  22345822.7054   22345824.6304   22345823.3834
       234.000         194.000
 130882435.63648 101986301.52348  24906107.0554   24906110.3414   24906106.9934
       216.000         163.000
 118370645.24448  92236859.82348  22525191.0824   22525192.8104   22525190.8844
       235.000         197.000
 136989099.28848  88952545.25148  24165220.5614   24165221.0754   24165220.3044
       223.000         171.000
 128442879.52348 100085356.69248  24441870.4484   24441872.4904   24441869.9864
       210.000         155.000
 09  1 23  0 33 30.0000000  0 10G 9G17G 5G15G26G18G27G12G22G28
 117551248.52248  73806156.96848  20466330.2774   20466333.0964   20466330.3574
       248.000         222.000
 122237812.14148  95250240.13248  23261085.1804   23261087.4694   23261084.7684
       231.000         192.000
 134105580.77648  86705631.44248  23616518.4594   23616521.4514   23616519.1444
       227.000         177.000
 117980751.21548  74140839.42848  20548058.1104   20548059.7124   20548057.9024
       251.000         233.000
 113693296.28248  88592165.72748  21635125.0154   21635127.5424   21635124.9784
       242.000         208.000
 117408745.57748  91487329.52348  22342143.4164   22342145.5094   22342143.6024
       234.000         194.000
 130952517.49148 102040910.73948  24919443.7904   24919446.9484   24919444.0914
       216.000         166.000
 118276800.61748  92163734.14248  22507333.5074   22507335.0594   22507333.5704
       236.000         199.000
 136922896.35148  88900958.54348  24152622.4084   24152622.7244   24152624.0924
       221.000         167.000
 128536252.55248 100158114.86648  24459639.5234   24459640.8254   24459638.5794
       213.000         155.000
 09  1 23  0 34  0.0000000  0 10G 9G17G 5G15G26G18G27G12G22G28
 117508668.54948  73772977.77248  20458227.6854   20458230.4644   20458227.7924
       249.000         223.000
 122223397.94948  95239008.30148  23258342.4434   23258344.5794   23258342.2754
       231.000         192.000
 133998631.42248  86622294.28548  23596166.9994   23596169.5984   23596167.4434
       228.000         178.000
 118013628.68048  74166458.22948  20554314.4864   20554316.0224   20554314.1344
       251.000         232.000
 113771661.39048  88653229.44148  21650037.4184   21650039.9004   21650037.2024
       242.000         208.000
 117389984.95348  91472710.84548  22338573.4554   22338575.6214   22338573.6734
       237.000         194.000
 131022622.31748 102095537.88448  24932784.5204   24932787.2484   24932784.3104
       219.000         165.000
 118183258.96148  92090844.55548  22489532.8124   22489534.7524   22489532.6614
       236.000         199.000
 136857111.78148  88849697.84948  24140103.5164   24140103.7284   24140104.1994
       218.000         163.000
 128629740.85248 100230962.88448  24477429.3904   24477431.3344   24477430.4934
       213.000         155.000
 09  1 23  0 34 30.0000000  0 10G 9G17G 5G15G26G18G27G12G22G28
 117466405.61048  73740045.62448  20450185.2664   20450187.9154   20450185.6774
       249.000         223.000
 122209513.59348  95228189.33348  23255700.3264   23255702.6204   23255700.0764
       232.000         192.000
 133891876.77948  86539108.87448  23575852.0324   23575854.8594   23575852.8484
       226.000         178.000
 118046966.59248  74192435.81848  20560658.5504   20560659.9514   20560658.3954
       251.000         232.000
 113850358.90348  88714552.16848  21665013.2284   21665015.7564   21665013.3284
       242.000         208.000
 117371798.43448  91458539.52648  22335112.7214   22335114.6484   22335113.6694
       236.000         195.000
 131092750.57948 102150183.27948  24946128.6804   24946131.3494   24946129.2564
       216.000         164.000
 118090022.69448  92018192.92348  22471790.4294   22471792.7564   22471790.3864
       235.000         198.000
 136791748.12048  88798765.14148  24127665.6744   24127665.3514   24127665.9634
       219.000         164.000
 128723342.78948 100303899.43848  24495241.7084   24495242.7384   24495241.8244
       211.000         155.000
 09  1 23  0 35  0.0000000  0 10G 9G17G 5G15G26G18G27G12G22G28
 117424459.02848  73707359.97548  20442203.2394   20442205.6924   20442203.1504
       249.000         223.000
 122196159.33048  95217783.42748  23253158.9074   23253161.3144   23253158.8154
       231.000         192.000
 133785317.70348  86456075.83848  23555574.4664   23555577.4774   23555575.2284
       225.000         177.000
 118080763.63148  74218771.17248  20567089.7114   20567091.3454   20567089.4184
       251.000         232.000
 113929386.58248  88776132.16948  21680051.4934   21680054.1254   21680051.4824
       242.000         207.000
 117354185.46448  91444815.13148  22331761.1324   22331762.8994   22331761.8244
       235.000         194.000
 131162901.43048 102204846.29048  24959478.0134   24959481.4994   24959478.4664
       217.000         162.000
 117997092.37748  91945779.70448  22454106.3264   22454108.3894   22454105.6984
       237.000         198.000
 136726806.18348  88748161.03148  24115307.3684   24115307.4724   24115308.2424
       218.000         166.000
 128817055.28348 100376922.15848  24513074.0294   24513075.2844   24513075.5314
       212.000         151.000
 09  1 23  0 35 30.0000000  0 10G 9G17G 5G15G26G18G27G12G22G28
  97382833.97258  93674924.75658  20434281.4715   20434283.9005   20434281.6075
       249.000         223.000
 132183341.02258  85207794.03158  23250719.9155   23250720.9035   23250719.2005
       234.000         193.000
 113678960.93158 106373203.33658  23535334.4005   23535338.1115   23535335.5435
       225.000         179.000
 118115020.95348  74245465.18148  20573608.7274   20573610.2664   20573608.4524
       251.000         232.000
 114008744.33048  88837969.36848  21695152.6834   21695155.3034   21695152.4804
       242.000         207.000
 117337147.40948  91431538.71548  22328518.9594   22328520.6784   22328519.3614
       237.000         194.000
 131233075.85948 102259527.68048  24972831.9684   24972834.6104   24972832.9464
       215.000         162.000
 117904471.03148  91873607.23048  22436481.2764   22436482.8274   22436481.4734
       237.000         199.000
 136662288.75248  88697887.68948  24103030.1204   24103030.9404   24103029.1954
       218.000         168.000
 138910852.51858  90450005.37658  24530927.3225   24530929.5605   24530927.8315
       209.000         149.000
 09  1 23  0 36  0.0000000  0 10G 9G17G 5G15G26G18G27G12G22G28
 117341519.97958  73642732.37858  20426420.0875   20426422.7095   20426420.2205
       249.000         223.000
 132171051.61648  85198217.88848  23248380.7064   23248382.6334   23248380.8154
       230.000         192.000
 113572800.43748 106290480.90348  23515132.8564   23515136.3894   23515133.2134
       226.000         179.000
 118149738.53548  74272517.83648  20580215.3064   20580216.8684   20580214.8964
       251.000         231.000
 114088431.13148  88900062.96948  21710316.6434   21710319.1924   21710316.3714
       242.000         207.000
 117320684.96648  91418710.82648  22325386.4714   22325387.9494   22325387.1794
       236.000         194.000
 131303273.96848 102314227.47248  24986190.4514   24986193.1314   24986191.7604
       217.000         161.000
 117812160.52648  91801676.97748  22418915.1204   22418916.9044   22418915.0464
       239.000         201.000
 136598198.06948  88647946.87248  24090834.1364   24090834.6524   24090834.7424
       219.000         170.000
 139004782.36848  90523197.48348  24548802.2794   24548802.4784   24548802.6724
       210.000         149.000
 09  1 23  0 36 30.0000000  0 10G 9G17G 5G15G26G18G27G12G22G28
 117300526.82648  73610789.66048  20418619.3984   20418622.0564   20418619.5584
       249.000         223.000
 132159295.73348  85189057.48348  23246143.1764   23246145.1704   23246142.5114
       232.000         191.000
 113466841.43748 106207915.44948  23494969.5704   23494972.9064   23494970.1414
       224.000         179.000
 118184915.52548  74299928.47148  20586909.1654   20586910.8364   20586909.0224
       251.000         231.000
 114168445.17948  88962411.57548  21725543.0354   21725545.5804   21725543.1404
       242.000         207.000
 117304797.80348  91406331.21748  22322362.9914   22322364.7974   22322363.7944
       235.000         193.000
 131373495.14648 102368945.27848  24999553.1724   24999555.7704   24999553.7294
       219.000         164.000
 117720161.82448  91729989.68048  22401408.2814   22401410.0624   22401408.4124
       237.000         201.000
 136534535.38948  88598339.68048  24078719.6464   24078720.2504   24078720.8434
       221.000         171.000
 139098817.34348  90596471.50448  24566696.3034   24566697.4034   24566695.9874
       207.000         148.000
 09  1 23  0 37  0.0000000  0 10G 9G17G 5G15G26G18G27G12G22G28
 117259852.56248  73579095.43548  20410879.2374   20410881.9894   20410879.3524
       249.000         224.000
 132148074.84748  85180313.93448  23244008.3834   23244009.8874   23244008.1744
       232.000         192.000
 113361086.19148 106125508.76948  23474844.9654   23474848.3544   23474845.0944
       225.000         177.000
 118220552.46948  74327697.50948  20593690.5604   20593692.3394   20593690.3974
       250.000         231.000
 114248785.99348  89025014.79248  21740831.1914   21740833.9504   21740831.1724
       241.000         206.000
 117289486.76848  91394400.53548  22319449.0584   22319451.0754   22319449.7624
       235.000         194.000
 131443740.37648 102423681.83348  25012920.0804   25012923.4814   25012920.0364
       214.000         162.000
 117628477.21448  91658547.13148  22383961.1244   22383963.1844   22383960.7024
       237.000         201.000
 136471303.20948  88549067.82448  24066686.9184   24066687.2624   24066686.3734
       217.000         168.000
 139192955.76548  90669826.10348  24584609.1924   24584610.6304   24584609.3814
       209.000         147.000
 09  1 23  0 37 30.0000000  0 10G 9G17G 5G15G26G18G27G12G22G28
 117219497.51348  73547649.94748  20403200.0284   20403202.6924   20403200.2914
       249.000         224.000
 132137389.67348  85171987.83448  23241975.0414   23241976.9534   23241974.8404
       232.000         192.000
 113255536.42648 106043262.21248  23454759.3674   23454763.1184   23454760.2054
       228.000         179.000
 118256648.94248  74355824.62848  20600559.4184   20600561.3054   20600558.8944
       251.000         231.000
 114329452.10248  89087871.49548  21756181.4054   21756184.0284   21756181.2064
       242.000         206.000
 117274751.94048  91382918.84048  22316645.5884   22316646.9334   22316645.5954
       237.000         194.000
 131514009.47048 102478436.95248  25026291.7664   25026294.2514   25026290.8214
       216.000         160.000
 117537108.55848  91587350.79148  22366574.2934   22366576.2434   22366574.4174
       238.000         201.000
 136408503.49448  88500132.98248  24054736.4984   24054736.9734   24054736.8414
       219.000         171.000
 139287195.45948  90743259.64448  24602543.4284   24602544.1624   24602543.5764
       208.000         149.000
 09  1 23  0 38  0.0000000  0 10G 9G17G 5G15G26G18G27G12G22G28
 117179461.53748  73516453.08848  20395581.3574   20395584.0874   20395581.6964
       249.000         223.000
 132127240.57948  85164079.45248  23240043.6604   23240045.5044   23240043.3934
       229.000         192.000
 113150193.48248 105961176.81248  23434713.6994   23434716.6364   23434714.7684
       225.000         179.000
 118293204.55848  74384309.52048  20607515.9994   20607517.6114   20607515.7744
       251.000         231.000
 114410441.99648  89150980.49348  21771593.3324   21771595.9584   21771593.2624
       241.000         206.000
 117260593.07748  91371885.95148  22313950.8994   22313952.8164   22313951.7384
       236.000         192.000
 131584302.14148 102533210.47648  25039667.9484   25039671.3354   25039667.9874
       218.000         163.000
 117446057.32348  91516401.78448  22349247.9524   22349249.6774   22349247.3574
       239.000         202.000
 136346137.24148  88451535.92448  24042869.0254   24042869.5124   24042869.5664
       223.000         172.000
 139381534.14548  90816770.32448  24620494.8114   24620496.5734   24620494.8304
       206.000         148.000
 09  1 23  0 38 30.0000000  0 10G 9G17G 5G15G26G18G27G12G22G28
 117139745.38448  73485505.43848  20388023.6994   20388026.2454   20388023.8424
       248.000         223.000
 132117629.19148  85156590.07048  23238214.7794   23238216.6244   23238214.6194
       231.000         193.000
 113045059.52148 105879254.23348  23414707.2404   23414710.1594   23414707.6614
       226.000         179.000
 118330219.45348  74413152.29148  20614559.7214   20614561.2764   20614559.5324
       251.000         231.000
 114491754.87648  89214341.16948  21787066.7304   21787069.2724   21787066.6844
       241.000         205.000
 117247010.97748  91361302.50048  22311366.0964   22311367.9294   22311366.3524
       236.000         193.000
 131654618.85248 102588002.70348  25053049.2414   25053052.7744   25053049.6074
       218.000         163.000
 117355325.31148  91445701.51848  22331982.4674   22331983.7474   22331982.4284
       241.000         203.000
 136284207.04048  88403278.63648  24031083.9194   24031084.2454   24031084.3944
       220.000         169.000
 139475970.18948  90890356.81248  24638465.5854   24638467.6654   24638466.3564
       206.000         148.000
 09  1 23  0 39  0.0000000  0 10G 9G17G 5G15G26G18G27G12G22G28
 117100349.38548  73454807.25948  20380526.8864   20380529.4884   20380526.7384
       249.000         223.000
 132108556.10048  85149520.14248  23236488.3144   23236490.0534   23236488.2924
       232.000         193.000
 112940136.18648 105797495.80048  23394740.7544   23394744.2764   23394741.2424
       224.000         180.000
 118367693.51048  74442352.85248  20621690.8294   20621692.3984   20621690.4504
       251.000         231.000
 114573389.38948  89277952.47248  21802601.0934   21802603.8164   21802601.1194
       242.000         205.000
 117234005.94048  91351168.68048  22308891.5864   22308893.4404   22308892.3074
       236.000         193.000
 131724959.62648 102642813.69348  25066433.9964   25066437.0564   25066434.2404
       216.000         158.000
 117264914.07148  91375251.19248  22314777.7404   22314779.2534   22314777.7374
       241.000         203.000
 136222714.58848  88355362.45948  24019381.9734   24019382.3274   24019381.7844
       222.000         170.000
 139570501.47948  90964017.54148  24656454.9604   24656456.4454   24656455.3484
       206.000         150.000
 09  1 23  0 39 30.0000000  0 10G 9G17G 5G15G26G18G27G12G22G28
 117061273.96848  73424358.88448  20373091.1234   20373093.6274   20373091.3524
       250.000         224.000
 132100022.10448  85142870.26848  23234864.3194   23234865.9724   23234864.1764
       232.000         193.000
 112835425.31048 105715902.90948  23374814.8454   23374818.2804   23374815.3684
       224.000         178.000
 118405626.43248  74471910.96348  20628909.2534   20628910.8234   20628909.1334
       250.000         231.000
 114655344.53548  89341813.61448  21818196.8764   21818199.4384   21818196.8734
       242.000         205.000
 117221577.91848  91341484.50248  22306526.9554   22306528.3574   22306527.7584
       237.000         194.000
 131795324.28448 102697643.29848  25079824.8614   25079827.3654   25079825.1954
       216.000         160.000
 117174825.47648  91305052.28548  22297634.2834   22297635.9904   22297634.1734
       239.000         202.000
 136161661.67648  88307788.75248  24007764.7654   24007764.6514   24007765.3884
       218.000         168.000
 139665125.93748  91037750.89548  24674460.5634   24674462.7964   24674461.0354
       201.000         150.000
 09  1 23  0 40  0.0000000  0 10G 9G17G 5G15G26G18G27G12G22G28
 117022519.95048  73394160.95248  20365716.4854   20365718.9494   20365716.8944
       249.000         224.000
 132092028.36448  85136641.40548  23233342.9844   23233344.9714   23233342.7914
       231.000         193.000
 112730928.89848 105634477.14048  23354929.7394   23354933.3574   23354930.5114
       223.000         178.000
 118444018.24848  74501826.66348  20636214.6704   20636216.5704   20636214.2764
       250.000         231.000
 114737619.43948  89405923.93248  21833853.0204   21833855.6754   21833852.9624
       241.000         204.000
 117209727.48348  91332250.37848  22304272.0034   22304273.3164   22304272.5384
       236.000         194.000
 131865713.41048 102752491.96448  25093218.7454   25093222.7464   25093219.9454
       215.000         160.000
 117085061.43648  91235106.31148  22280552.0764   22280554.5154   22280552.1254
       238.000         202.000
 136101050.40048  88260559.20748  23996229.3974   23996230.9384   23996230.3454
       220.000         164.000
 139759842.19748  91111555.74748  24692484.3684   24692487.7734   24692484.2824
       208.000         152.000
 09  1 23  0 40 30.0000000  0 10G 9G17G 5G15G26G18G27G12G22G28
 116984087.66748  73364213.71948  20358403.1194   20358405.4704   20358403.1104
       250.000         224.000
 132084575.50448  85130833.99148  23231924.8424   23231926.7234   23231924.2354
       231.000         193.000
 112626648.91048 105553220.02148  23335085.7054   23335089.3804   23335086.3794
       225.000         179.000
 118482868.86948  74532099.86548  20643607.6764   20643609.6834   20643607.3154
       249.000         230.000
 114820212.82448  89470282.39848  21849570.0874   21849572.8224   21849569.9244
       242.000         205.000
 117198454.87348  91323466.51548  22302126.5054   22302128.0964   22302126.9954
       235.000         193.000
 131936126.96648 102807359.67648  25106618.3294   25106621.2264   25106619.7174
       213.000         157.000
 116995623.77348  91165414.63648  22263533.0534   22263535.3704   22263532.8934
       240.000         204.000
 136040882.67748  88213675.20248  23984779.9204   23984780.6384   23984779.8534
       220.000         169.000
 139854648.14148  91185430.48148  24710525.9144   24710527.8014   24710528.0684
       208.000         151.000
 09  1 23  0 41  0.0000000  0 10G 9G17G 5G15G26G18G27G12G22G28
 116945977.44648  73334517.44448  20351150.8924   20351153.4074   20351151.2684
       250.000         224.000
 132077664.67948  85125448.95048  23230609.8354   23230611.4994   23230609.6804
       233.000         193.000
 112522587.01148 105472132.81548  23315283.6104   23315286.9474   23315284.2194
       226.000         179.000
 118522178.19948  74562730.50248  20651087.9974   20651089.9894   20651087.7144
       250.000         230.000
 114903123.58448  89534888.17748  21865347.5544   21865350.3274   21865347.3914
       241.000         204.000
 117187760.05148  91315132.86748  22300091.2974   22300093.1024   22300091.6224
       236.000         192.000
 132006565.24148 102862246.65048  25120022.2454   25120024.9654   25120022.4484
       214.000         157.000
 116906514.38048  91095978.75048  22246576.5994   22246578.5394   22246576.4024
       241.000         204.000
 135981160.35948  88167138.34948  23973416.1044   23973416.4584   23973415.4644
       219.000         172.000
 139949541.63148  91259373.46548  24728584.1624   24728585.6434   24728584.0324
       207.000         154.000
 09  1 23  0 41 30.0000000  0 10G 9G17G 5G15G26G18G27G12G22G28
 116908189.38448  73305072.19848  20343960.0744   20343962.6314   20343960.1904
       249.000         224.000
 132071296.22248  85120486.52148  23229397.7824   23229399.8584   23229398.1304
       234.000         194.000
 112418744.41848 105391216.51148  23295523.1574   23295526.6724   23295523.6074
       225.000         180.000
 118561945.22348  74593717.78848  20658655.4954   20658657.3584   20658655.2454
       250.000         230.000
 114986349.86148  89599739.81448  21881184.9454   21881187.6644   21881184.6834
       241.000         204.000
 117177642.72748  91307249.23248  22298166.2054   22298167.8434   22298166.6574
       236.000         193.000
 132077027.90648 102917152.61548  25133429.9084   25133433.5434   25133430.3184
       214.000         155.000
 116817734.24348  91026799.43048  22229682.3774   22229684.0144   22229682.3334
       242.000         206.000
 135921884.64848  88120949.49648  23962135.9484   23962136.8224   23962135.7724
       218.000         168.000
 140044520.29348  91333382.82648  24746657.5404   24746659.9324   24746657.5204
       206.000         154.000
 09  1 23  0 42  0.0000000  0 10G 9G17G 5G15G26G18G27G12G22G28
 116870723.87548  73275878.29348  20336830.5974   20336833.3364   20336830.4574
       249.000         224.000
 132065470.86248  85115947.28048  23228289.5274   23228291.0714   23228289.2494
       232.000         192.000
 112315123.22648 105310472.73648  23275804.5104   23275808.1344   23275805.1214
       224.000         179.000
 118602170.20448  74625061.92748  20666310.2514   20666311.8234   20666310.0014
       250.000         230.000
 115069890.87948  89664836.70748  21897082.3044   21897084.9814   21897082.4454
       241.000         203.000
 117168103.21848  91299815.84048  22296351.0344   22296352.7284   22296351.3124
       236.000         194.000
 132147515.56248 102972078.06248  25146844.0464   25146847.4134   25146844.8184
       213.000         158.000
 116729285.29948  90957878.17948  22212851.0634   22212852.8124   22212850.7454
       241.000         205.000
 135863057.65248  88075110.27448  23950941.8574   23950941.9874   23950942.8324
       221.000         172.000
 140139582.41248  91407457.20248  24764746.7534   24764749.8154   24764746.9684
       206.000         153.000
 09  1 23  0 42 30.0000000  0 10G 9G17G 5G15G26G18G27G12G22G28
 116833581.39248  73246936.10148  20329762.5224   20329765.2104   20329762.8084
       249.000         224.000
 132060189.35148  85111831.84248  23227284.1024   23227285.8414   23227283.7084
       231.000         193.000
 112211725.19148 105229902.83748  23256128.7134   23256132.0044   23256128.5764
       225.000         180.000
 118642852.89148  74656762.71948  20674051.8794   20674053.5224   20674051.7924
       250.000         229.000
 115153745.37748  89730177.85948  21913039.2744   21913041.6884   21913039.1264
       241.000         203.000
 117159141.80748  91292832.91548  22294645.4974   22294647.1674   22294645.9534
       235.000         193.000
 132218027.87248 103027022.71448  25160261.8264   25160264.6104   25160261.8994
       215.000         158.000
 116641169.44748  90889216.48548  22196082.9424   22196084.8464   22196082.7984
       241.000         205.000
 135804681.18548  88029622.15948  23939833.6264   23939833.3564   23939834.9704
       222.000         171.000
 140234726.12448  91481595.14348  24782852.3124   24782854.7144   24782852.7714
       210.000         156.000
 09  1 23  0 43  0.0000000  0 10G 9G17G 5G15G26G18G27G12G22G28
 116796762.99048  73218246.43948  20322756.1074   20322758.7654   20322756.3524
       249.000         224.000
 132055453.44148  85108141.53348  23226383.0814   23226385.0224   23226383.0994
       231.000         193.000
 112108552.68448 105149508.67548  23236495.8544   23236499.3614   23236496.6564
       225.000         181.000
 118683993.51748  74688820.34048  20681880.7354   20681882.3714   20681880.5864
       250.000         230.000
 115237912.72948  89795762.80248  21929055.9054   21929058.3534   21929055.5884
       241.000         203.000
 117150758.94248  91286300.79948  22293050.3744   22293052.2394   22293050.8564
       237.000         195.000
 132288565.75348 103081987.29548  25173684.7884   25173688.2214   25173683.9604
       214.000         153.000
 116553388.51348  90820815.77648  22179378.3624   22179380.4414   22179378.4204
       240.000         204.000
 135746757.74448  87984487.01548  23928810.7504   23928811.2754   23928810.0074
       223.000         174.000
 140329950.24948  91555795.76448  24800972.8034   24800975.3404   24800973.1884
       205.000         155.000
 09  1 23  0 43 30.0000000  0 10G 9G17G 5G15G26G18G27G12G22G28
 116760268.52048  73189809.18848  20315811.6164   20315814.2684   20315811.6464
       249.000         224.000
 132051262.86848  85104876.15448  23225585.4214   23225587.6094   23225585.1754
       229.000         192.000
 112005606.82948 105069291.13948  23216905.8014   23216909.2784   23216906.5034
       225.000         181.000
 118725591.04048  74721233.98948  20689796.4314   20689798.1154   20689796.1374
       250.000         229.000
 115322391.03648  89861590.04248  21945131.5384   21945134.3444   21945131.6964
       240.000         204.000
 117142954.14448  91280219.13048  22291565.4124   22291567.2724   22291566.2014
       237.000         194.000
 132359128.59548 103136971.31748  25187112.5534   25187116.0404   25187113.9944
       213.000         152.000
 116465943.98948  90752677.18848  22162738.3484   22162740.2814   22162737.9934
       240.000         204.000
 135689288.34648  87939705.66948  23917874.6054   23917874.7424   23917873.6734
       224.000         175.000
 140425252.18648  91630056.98748  24819107.7204   24819110.9594   24819106.8454
       204.000         155.000
 09  1 23  0 44  0.0000000  0 10G 9G17G 5G15G26G18G27G12G22G28
 116724098.14148  73161624.48348  20308928.5074   20308931.0904   20308928.8524
       250.000         225.000
 132047617.89048  85102035.92248  23224891.9114   23224893.6544   23224891.7784
       232.000         192.000
 111902889.13948 104989251.40048  23197358.8634   23197362.7764   23197358.8644
       224.000         181.000
 118767645.24448  74754003.48948  20697798.9624   20697800.7774   20697798.6614
       249.000         229.000
 115407178.90448  89927658.51048  21961266.1894   21961268.9154   21961265.9784
       241.000         202.000
 117135727.12648  91274587.67448  22290190.1044   22290191.8754   22290190.4104
       237.000         194.000
 132429716.42848 103191974.84048  25200544.8604   25200547.5964   25200545.1674
       216.000         154.000
 116378836.92348  90684801.55748  22146162.7164   22146164.2284   22146162.6364
       240.000         206.000
 135632274.37548  87895279.21048  23907025.5334   23907025.3244   23907027.6314
       225.000         172.000
 140520629.56748  91704377.01948  24837257.7964   24837260.6964   24837256.9514
       208.000         159.000
 09  1 23  0 44 30.0000000  0 10G 9G17G 5G15G26G18G27G12G22G28
 116688253.31048  73133693.45148  20302107.4504   20302110.3044   20302107.4784
       250.000         225.000
 132044519.87948  85099621.90248  23224302.5094   23224304.1074   23224302.8904
       230.000         192.000
 111800401.87448 104909391.20548  23177856.4194   23177860.2224   23177856.7474
       227.000         182.000
 118810156.20248  74787128.90348  20705888.4074   20705890.4624   20705888.0934
       249.000         228.000
 115492275.54548  89993967.57748  21977459.5244   21977462.2274   21977459.6444
       239.000         202.000
 117129078.39348  91269406.82848  22288924.8244   22288926.4694   22288925.5494
       235.000         193.000
 132500329.96748 103246998.36548  25213982.2794   25213985.6854   25213982.2384
       217.000         160.000
 116292069.66948  90617190.72148  22129651.3004   22129653.1024   22129651.0354
       240.000         206.000
 135575718.24748  87851209.50748  23896262.4054   23896263.3064   23896264.2774
       221.000         172.000
 140616081.33748  91778755.00948  24855420.9804   24855424.6364   24855420.3694
       206.000         159.000
 09  1 23  0 45  0.0000000  0 10G 9G17G 5G15G26G18G27G12G22G28
 116652733.44448  73106015.63248  20295348.4394   20295351.0374   20295348.8524
       250.000         225.000
 132041968.99748  85097634.21048  23223816.7524   23223818.8094   23223816.6224
       230.000         192.000
 111698146.45148 104829711.66748  23158397.8034   23158401.3914   23158398.6904
       226.000         181.000
 118853123.43448  74820609.85348  20714064.8454   20714066.7634   20714064.5894
       249.000         228.000
 115577679.42548  90060516.04048  21993711.3734   21993714.1794   21993711.2704
       241.000         203.000
 117123007.36048  91264676.12548  22287769.1564   22287771.3984   22287769.4344
       234.000         193.000
 132570968.82348 103302041.57748  25227424.2824   25227428.2444   25227424.7934
       213.000         155.000
 116205643.43948  90549845.62348  22113204.7524   22113206.8374   22113204.5884
       239.000         205.000
 135519621.38348  87807497.67748  23885587.5774   23885588.3824   23885587.0684
       225.000         175.000
 140711605.06648  91853189.06648  24873599.3994   24873602.1184   24873598.5674
       211.000         160.000
 09  1 23  0 45 30.0000000  0 10G 9G17G 5G15G26G18G27G12G22G28
 116617540.03448  73078592.19648  20288651.2424   20288653.9524   20288651.4034
       250.000         225.000
 132039966.91648  85096074.16948  23223435.7134   23223437.7454   23223435.3574
       231.000         192.000
 111596125.59348 104750214.89148  23138983.7884   23138987.3144   23138984.3104
       225.000         180.000
 118896547.14748  74854446.50448  20722328.1454   20722330.0394   20722327.8614
       249.000         228.000
 115663390.31748  90127303.74148  22010021.5344   22010024.2314   22010021.4334
       240.000         201.000
 117117515.21448  91260396.51448  22286724.5424   22286726.1884   22286725.0044
       237.000         194.000
 132641634.40848 103357105.71348  25240871.5514   25240874.5674   25240871.5734
       212.000         149.000
 116119561.02748  90482768.43048  22096823.7804   22096825.5624   22096823.3954
       239.000         204.000
 135463986.34448  87764145.69948  23875000.8594   23875001.2254   23875001.0354
       224.000         170.000
 140807200.14248  91927678.71948  24891790.1894   24891792.5284   24891791.3514
       211.000         159.000
 09  1 23  0 46  0.0000000  0 10G 9G17G 5G15G26G18G27G12G22G28
 116582672.06948  73051422.35648  20282016.1554   20282018.6904   20282016.2524
       250.000         225.000
 132038512.61448  85094940.96948  23223159.1034   23223161.2364   23223158.8834
       231.000         193.000
 111494339.49348 104670901.06148  23119614.3974   23119617.9944   23119614.9214
       226.000         181.000
 118940425.60248  74888637.50848  20730678.0694   20730679.8434   20730677.8424
       249.000         228.000
 115749405.29048  90194328.39548  22026389.8244   22026392.1254   22026389.4814
       241.000         202.000
 117112600.11248  91256566.55648  22285788.9924   22285791.0774   22285789.5504
       236.000         193.000
 132712325.00148 103412189.25348  25254322.8344   25254325.5824   25254323.4054
       213.000         152.000
 116033822.47848  90415959.18648  22080508.5064   22080509.9084   22080508.5004
       240.000         204.000
 135408813.31448  87721153.73848  23864501.7814   23864501.6734   23864502.8474
       226.000         172.000
 140902862.55748  92002220.84648  24909994.7334   24909996.2484   24909995.4854
       210.000         160.000
 09  1 23  0 46 30.0000000  0 10G 9G17G 5G15G26G18G27G12G22G28
 116548130.32848  73024506.70848  20275443.2194   20275445.7024   20275443.4374
       250.000         225.000
 132037607.35048  85094235.57248  23222986.7674   23222989.1714   23222986.7404
       230.000         193.000
 111392790.43748 104591771.93648  23100290.6404   23100294.0604   23100291.6284
       225.000         182.000
 118984759.21248  74923183.17648  20739114.4894   20739116.1834   20739114.2544
       249.000         228.000
 115835723.66448  90261589.46148  22042815.7074   22042818.3174   22042815.8954
       240.000         202.000
 117108262.57348  91253186.64648  22284963.2994   22284965.7124   22284963.9704
       236.000         193.000
 132783041.27548 103467292.88948  25267780.1804   25267783.8144   25267780.1314
       210.000         150.000
 115948429.80748  90349419.42648  22064258.8964   22064260.1634   22064258.8224
       240.000         205.000
 135354104.47448  87678523.48148  23854090.6014   23854091.3734   23854091.1454
       222.000         174.000
 140998591.08748  92076814.49748  24928211.2044   24928212.6554   24928212.0244
       213.000         161.000
 09  1 23  0 47  0.0000000  0 10G 9G17G 5G15G26G18G27G12G22G28
 116513914.79848  72997845.26148  20268932.1024   20268934.6944   20268932.2544
       251.000         226.000
 132037251.27048  85093958.12648  23222919.0464   23222921.2754   23222918.8554
       228.000         192.000
 111291479.77248 104512828.56448  23081011.6644   23081015.4544   23081012.1494
       226.000         182.000
 119029547.07048  74958082.79548  20747637.1834   20747639.0904   20747636.7514
       249.000         228.000
 115922343.97948  90329085.79448  22059298.7844   22059301.8624   22059298.7394
       240.000         201.000
 117104502.12548  91250256.41448  22284247.8244   22284249.8144   22284247.9104
       235.000         193.000
 132853783.29148 103522416.54848  25281242.5374   25281244.7764   25281242.0884
       208.000         146.000
 115863384.25448  90283150.16948  22048075.1644   22048076.7934   22048074.9114
       240.000         206.000
 135299861.25848  87636256.04648  23843768.9634   23843769.7114   23843768.5344
       220.000         171.000
 141094383.74848  92151458.13848  24946439.9304   24946440.7674   24946440.3364
       215.000         160.000
 09  1 23  0 47 30.0000000  0 10G 9G17G 5G15G26G18G27G12G22G28
 116480027.42148  72971439.51348  20262483.6354   20262486.2094   20262483.9064
       251.000         225.000
 132037445.98448  85094109.87548  23222955.6914   23222958.1334   23222955.3504
       228.000         191.000
 111190410.59748 104434073.37848  23061778.6044   23061782.8514   23061779.6134
       226.000         183.000
 119074790.17648  74993337.15948  20756246.7114   20756248.4984   20756246.6014
       248.000         227.000
 116009266.12148  90396817.33248  22075839.5884   22075842.2024   22075839.4894
       239.000         200.000
 117101319.81848  91247776.68348  22283642.5644   22283644.1324   22283643.2794
       236.000         194.000
 132924552.30748 103577561.18848  25294708.5464   25294712.3084   25294709.1384
       216.000         156.000
 115778688.90048  90217153.80948  22031958.1504   22031959.9014   22031957.9524
       240.000         206.000
 135246086.62348  87594353.76748  23833535.7434   23833536.1464   23833536.2244
       224.000         173.000
 141190239.85248  92226151.23248  24964680.6454   24964681.7514   24964681.2054
       216.000         161.000
 09  1 23  0 48  0.0000000  0 10G 9G17G 5G15G26G18G27G12G22G28
 116446469.01048  72945290.10648  20256097.6524   20256100.1914   20256097.8734
       250.000         226.000
 132038192.59348  85094691.64348  23223097.7584   23223099.9944   23223097.5814
       227.000         190.000
 111089584.98848 104355507.98648  23042592.0084   23042596.4604   23042592.2424
       227.000         184.000
 119120488.39748  75028946.15548  20764942.7124   20764944.5024   20764942.3344
       249.000         227.000
 116096489.09648  90464783.28048  22092437.4074   22092440.2514   22092437.4334
       239.000         200.000
 117098715.99548  91245747.71848  22283147.3514   22283148.6124   22283147.7614
       238.000         194.000
 132995349.03748 103632727.49548  25308181.3284   25308184.7844   25308181.5944
       213.000         157.000
 115694345.54748  90151431.72148  22015908.0994   22015909.8534   22015907.9794
       240.000         207.000
 135192782.46348  87552818.05648  23823393.0624   23823392.4224   23823393.5804
       225.000         174.000
 141286158.26848  92300892.85248  24982933.3874   24982934.3404   24982934.7884
       215.000         160.000
 09  1 23  0 48 30.0000000  0 10G 9G17G 5G15G26G18G27G12G22G28
 116413238.23348  72919395.99748  20249773.8144   20249776.5514   20249774.0014
       251.000         225.000
 132039489.42048  85095702.18448  23223344.7344   23223346.6844   23223344.9134
       230.000         191.000
 110989002.68848 104277132.18548  23023452.1914   23023456.2054   23023452.8804
       226.000         183.000
 119166639.38848  75064907.95448  20773725.1874   20773726.7384   20773724.9694
       249.000         227.000
 116184009.96148  90532981.33648  22109092.0424   22109095.0664   22109091.7974
       239.000         200.000
 117096688.50548  91244167.84248  22282761.3894   22282763.0844   22282762.0424
       236.000         194.000
 133066171.57948 103687913.90548  25321658.4484   25321662.1734   25321658.7954
       213.000         152.000
 115610353.77948  90085983.59848  21999924.9094   21999926.6404   21999925.0924
       239.000         207.000
 135139948.66248  87511648.86148  23813338.3644   23813339.1434   23813339.5884
       222.000         171.000
 141382135.02648  92375679.91048  25001196.9104   25001198.3034   25001198.1614
       213.000         160.000
 09  1 23  0 49  0.0000000  0 10G 9G17G 5G15G26G18G27G12G22G28
 116380336.08848  72893757.96448  20243512.8164   20243515.3994   20243512.8944
       251.000         225.000
 132041337.59348  85097142.32448  23223696.0594   23223698.4114   23223696.1964
       229.000         190.000
 110888666.01948 104198947.79248  23004358.4294   23004362.3614   23004359.4904
       226.000         182.000
 119213243.33548  75101222.70848  20782593.4944   20782595.3424   20782593.1994
       249.000         227.000
 116271827.76848  90601410.81148  22125803.2434   22125806.1184   22125803.2914
       238.000         199.000
 117095237.58748  91243037.23348  22282485.3304   22282486.7884   22282485.7044
       237.000         194.000
 133137020.82948 103743121.11348  25335140.1744   25335143.7574   25335140.2764
       209.000         142.000
 115526715.85748  90020811.21248  21984008.9454   21984010.9794   21984008.5634
       239.000         206.000
 135087587.30248  87470847.83148  23803374.3654   23803374.7554   23803374.2364
       226.000         176.000
 141478168.75648  92450511.39848  25019471.7154   25019472.6994   25019472.2164
       211.000         159.000
 09  1 23  0 49 30.0000000  0 10G 9G17G 5G15G26G18G27G12G22G28
 116347762.87448  72868376.23848  20237314.3994   20237316.9844   20237314.7444
       250.000         225.000
 132043737.68248  85099012.53148  23224153.2464   23224155.2244   23224152.7874
       231.000         191.000
 110788576.86848 104120956.25448  22985312.1324   22985315.7994   22985312.5314
       228.000         182.000
 119260300.27048  75137890.43848  20791548.1744   20791550.1204   20791547.9024
       249.000         227.000
 116359941.63348  90670070.95848  22142570.6154   22142573.8134   22142570.4514
       237.000         199.000
 117094363.23148  91242355.91548  22282319.2294   22282320.4634   22282319.6274
       239.000         195.000
 133207897.08748 103798349.39948  25348628.8364   25348630.1664   25348628.9114
       200.000         135.000
 115443433.58148  89955915.93048  21968160.9704   21968162.8334   21968160.8364
       240.000         207.000
 135035699.97748  87430416.12648  23793500.6594   23793500.9824   23793500.5564
       225.000         175.000
 141574257.97748  92525386.10348  25037756.6054   25037758.8564   25037757.1324
       213.000         160.000
 09  1 23  0 50  0.0000000  0 10G 9G17G 5G15G26G18G27G12G22G28
 116315519.53148  72843251.55748  20231178.7124   20231181.2304   20231178.7154
       250.000         226.000
 132046690.49848  85101313.44248  23224715.1304   23224717.2634   23224714.9854
       230.000         193.000
 110688737.29848 104043159.19648  22966313.8724   22966316.8544   22966314.5694
       228.000         183.000
 119307810.02648  75174911.02148  20800588.9194   20800590.8864   20800588.5224
       248.000         227.000
 116448350.40048  90738960.89248  22159394.3904   22159397.4064   22159394.1914
       239.000         200.000
 117094065.71648  91242124.08948  22282262.4944   22282264.0354   22282263.1714
       238.000         194.000
 133278800.69948 103853598.96248  25362119.9774   25362124.8934   25362119.1904
       195.000         126.000
 115360508.68948  89891299.13948  21952380.8634   21952382.6974   21952380.7514
       239.000         207.000
 134984288.48548  87390355.26648  23783716.6834   23783717.6994   23783715.4274
       225.000         176.000
 141670401.05548  92600302.80148  25056051.9934   25056054.5764   25056053.3194
       213.000         159.000
 09  1 23  0 50 30.0000000  0  9G 9G17G 5G15G26G18G12G22G28
 116283605.70548  72818383.65048  20225105.5654   20225108.3144   20225105.8914
       250.000         226.000
 132050195.83348  85104044.87848  23225382.0534   23225384.4354   23225382.4044
       230.000         192.000
 110589148.34448 103965557.41948  22947362.5874   22947365.8484   22947362.8054
       229.000         184.000
 119355771.08148  75212283.26448  20809715.6654   20809717.5184   20809715.2574
       249.000         227.000
 116537052.00248  90808079.02348  22176274.0704   22176276.6354   22176274.2104
       238.000         198.000
 117094343.72648  91242340.71448  22282314.9374   22282316.9804   22282315.7394
       236.000         192.000
 115277942.02648  89826961.49548  21936668.9924   21936670.6844   21936668.4474
       240.000         208.000
 134933354.41648  87350666.37248  23774025.3174   23774025.0814   23774024.8244
       228.000         179.000
 141766595.75648  92675259.69748  25074356.9064   25074359.7164   25074357.8034
       214.000         158.000
 09  1 23  0 51  0.0000000  0  9G 9G17G 5G15G26G18G12G22G28
 116252021.82348  72793772.83248  20219095.4554   20219098.1714   20219095.3234
       251.000         226.000
 132054253.98948  85107207.09548  23226154.0544   23226156.6164   23226153.7414
       228.000         191.000
 110489811.67548 103888152.23048  22928458.9614   22928462.6464   22928459.8424
       227.000         184.000
 119404182.81448  75250006.69048  20818928.2664   20818929.8674   20818928.1404
       249.000         227.000
 116626045.28848  90877424.44048  22193208.7534   22193211.3944   22193208.3034
       238.000         198.000
 117095196.98648  91243005.58148  22282477.1934   22282479.1944   22282477.4434
       236.000         193.000
 115195735.20948  89762904.23948  21921025.4844   21921027.1354   21921025.3964
       240.000         208.000
 134882898.61648  87311350.19348  23764423.5384   23764424.0084   23764423.0814
       223.000         175.000
 141862840.26648  92750255.41248  25092672.0584   25092674.6374   25092673.7964
       214.000         159.000
 09  1 23  0 51 30.0000000  0  9G 9G17G 5G15G26G18G12G22G28
 116220769.73248  72769420.55748  20213148.3464   20213150.9374   20213148.5874
       251.000         226.000
 132058866.29348  85110801.12248  23227031.2694   23227034.1704   23227030.9284
       227.000         190.000
 110390730.16548 103810945.86448  22909604.5264   22909608.0224   22909604.8004
       227.000         184.000
 119453046.29448  75288082.12248  20828226.4514   20828228.3344   20828226.2174
       248.000         226.000
 116715330.08148  90946997.00048  22210198.9924   22210201.6914   22210198.8284
       239.000         198.000
 117096626.30248  91244119.33748  22282749.3774   22282751.2344   22282749.8514
       237.000         193.000
 115113891.05148  89699129.59048  21905451.0254   21905452.7634   21905450.8204
       240.000         208.000
 134832924.06848  87272409.00148  23754913.2594   23754914.0204   23754911.4884
       225.000         176.000
 141959133.80948  92825289.33448  25110995.8954   25110998.3724   25110998.7504
       214.000         157.000
 09  1 23  0 52  0.0000000  0  9G 9G17G 5G15G26G18G12G22G28
 116189848.02948  72745325.72048  20207264.1994   20207266.8504   20207264.3634
       251.000         226.000
 132064031.53748  85114825.99648  23228014.3374   23228016.8674   23228013.6924
       230.000         190.000
 110291903.83948 103733938.35448  22890798.9204   22890801.6724   22890798.9704
       229.000         186.000
 119502359.12648  75326507.69648  20837610.3624   20837612.2624   20837610.0374
       248.000         226.000
 116804903.43648  91016794.41248  22227244.2934   22227246.9094   22227244.1634
       237.000         197.000
 117098629.70148  91245680.42548  22283130.8694   22283132.6314   22283131.8654
       238.000         194.000
 115032409.32748  89635637.34948  21889945.5174   21889947.5194   21889945.3964
       238.000         208.000
 134783430.53748  87233842.61248  23745495.5154   23745495.5564   23745495.5864
       223.000         175.000
 142055473.03448  92900358.86148  25129328.6304   25129331.5554   25129330.2834
       212.000         155.000
 09  1 23  0 52 30.0000000  0  9G 9G17G 5G15G26G18G12G22G28
 116159257.88948  72721489.24548  20201443.2294   20201445.7354   20201443.3504
       251.000         226.000
 132069750.63748  85119282.46548  23229103.3594   23229105.4054   23229103.2154
       228.000         190.000
 110193335.10348 103657131.54748  22872041.9224   22872044.7314   22872042.8494
       231.000         186.000
 119552121.83948  75365283.83148  20847079.8924   20847081.6714   20847079.6764
       248.000         226.000
 116894764.66748  91086816.14348  22244344.3314   22244346.7064   22244344.1234
       236.000         197.000
 117101207.60748  91247689.17148  22283621.3124   22283622.8944   22283621.5014
       236.000         193.000
 114951291.88948  89572428.97348  21874509.4824   21874511.5764   21874509.2054
       240.000         210.000
 134734420.52848  87195652.99648  23736168.8084   23736168.9274   23736168.1244
       224.000         173.000
 142151856.76948  92975463.06548  25147669.7304   25147672.1854   25147669.0154
       210.000         155.000
 09  1 23  0 53  0.0000000  0  9G 9G17G 5G15G26G18G12G22G28
 116128998.69348  72697910.65248  20195685.0044   20195687.6674   20195685.3324
       251.000         226.000
 132076022.98648  85124170.00948  23230297.0944   23230298.9264   23230296.5424
       230.000         188.000
 110095024.69648 103580526.05148  22853334.0474   22853337.0424   22853334.3274
       230.000         185.000
 119602332.46748  75404408.98148  20856634.7134   20856636.5804   20856634.3834
       248.000         226.000
 116984911.50748  91157060.43348  22261498.9404   22261501.2804   22261498.7404
       239.000         197.000
 117104358.49548  91250144.40148  22284220.9734   22284222.7524   22284221.4474
       236.000         194.000
 114870539.56948  89509505.09048  21859143.0924   21859144.7184   21859143.1974
       240.000         210.000
 134685894.57948  87157840.54748  23726934.6724   23726934.5624   23726935.9184
       222.000         174.000
 142248282.40148  93050599.93148  25166018.9504   25166021.5224   25166018.3754
       207.000         154.000
 09  1 23  0 53 30.0000000  0 10G 9G17G 5G15G26G30G18G12G22G28
 116099071.28848  72674590.60248  20189990.0544   20189992.5904   20189990.2394
       251.000         227.000
 132082849.26348  85129489.20148  23231595.6614   23231597.3964   23231595.4914
       229.000         188.000
 109996974.61648 103504123.39848  22834675.6604   22834678.7794   22834676.7614
       231.000         185.000
 119652990.99248  75443883.15048  20866274.8244   20866276.6184   20866274.6284
       248.000         226.000
 117075342.96948  91227526.50648  22278707.3294   22278709.8244   22278707.4914
       238.000         197.000
 131983193.23158 102844042.35958  25115569.8255   25115570.7415   25115568.5335
       210.000         147.000
 117108082.13748  91253045.93348  22284929.4104   22284931.2764   22284929.9724
       237.000         193.000
 114790154.14848  89446867.10048  21843846.1494   21843847.8674   21843845.9884
       240.000         209.000
 134637854.13348  87120406.47648  23717792.2864   23717793.6404   23717792.6934
       221.000         172.000
 142344748.57448  93125768.37148  25184376.0094   25184378.7584   25184375.7544
       209.000         153.000
 09  1 23  0 54  0.0000000  0 10G 9G17G 5G15G26G30G18G12G22G28
 116069476.90248  72651530.04348  20184358.4514   20184360.9134   20184358.5234
       251.000         227.000
 132090230.48148  85135240.81148  23233000.2404   23233002.2654   23232999.6224
       228.000         190.000
 109899187.38448 103427925.57248  22816066.8854   22816070.6814   22816067.3584
       229.000         186.000
 119704097.76048  75483706.60548  20876000.1044   20876001.7244   20875999.8744
       248.000         226.000
 117166058.54248  91298213.95648  22295969.7674   22295972.4484   22295969.4554
       237.000         196.000
 131870575.89748 102756288.61948  25094138.6984   25094140.4334   25094137.8254
       212.000         147.000
 117112379.03248  91256394.15348  22285747.1144   22285748.8374   22285747.5004
       235.000         192.000
 114710138.07048  89384516.90948  21828619.4304   21828621.2574   21828619.5004
       240.000         208.000
 134590301.73548  87083352.67648  23708743.5594   23708744.3164   23708743.7814
       224.000         174.000
 142441254.70048  93200967.92848  25202740.2704   25202742.8854   25202740.3084
       209.000         152.000
 09  1 23  0 54 30.0000000  0 10G 9G17G 5G15G26G30G18G12G22G28
 116040216.05248  72628729.37448  20178790.2354   20178792.8354   20178790.2404
       252.000         227.000
 132098166.77348  85141424.95748  23234510.1904   23234512.6344   23234510.3744
       228.000         189.000
 109801664.64548 103351933.84748  22797508.9734   22797512.7194   22797509.6904
       230.000         186.000
 119755652.15548  75523878.85248  20885810.5884   20885812.4354   20885810.2164
       248.000         226.000
 117257056.81448  91369121.69648  22313286.2884   22313288.8504   22313286.0664
       239.000         195.000
 131758029.60048 102668590.22048  25072722.1964   25072722.7384   25072722.4014
       211.000         145.000
 117117248.40848  91260188.46248  22286673.5804   22286675.5564   22286674.0454
       235.000         193.000
 114630492.47148  89322455.40248  21813463.5214   21813465.3834   21813463.4844
       239.000         209.000
 134543238.78548  87046680.21248  23699788.0454   23699788.2824   23699788.3514
       224.000         175.000
 142537798.53148  93276196.90748  25221112.2064   25221114.4904   25221112.5714
       208.000         148.000
 09  1 23  0 55  0.0000000  0 10G 9G17G 5G15G26G30G18G12G22G28
 116011287.99648  72606188.03448  20173285.4604   20173287.8804   20173285.7214
       252.000         227.000
 132106657.45648  85148041.10548  23236126.1204   23236128.1654   23236125.7844
       230.000         189.000
 109704406.97948 103276148.65948  22779001.4544   22779005.5844   22779001.9154
       232.000         188.000
 119807652.72948  75564398.77748  20895705.8934   20895707.8734   20895705.5274
       248.000         226.000
 117348335.41748  91440247.88748  22330655.9784   22330658.8954   22330656.4074
       237.000         196.000
 131645554.64348 102580947.42548  25051318.1964   25051320.2974   25051318.9694
       207.000         147.000
 117122689.10648  91264427.95548  22287708.8094   22287711.0774   22287709.2324
       236.000         193.000
 114551218.21148  89260683.25848  21798378.0434   21798379.8994   21798377.8364
       240.000         210.000
 134496665.52948  87010389.38748  23690925.1734   23690926.0164   23690925.6174
       227.000         178.000
 142634377.49548  93351453.25448  25239490.9784   25239491.6744   25239488.8864
       204.000         147.000
 09  1 23  0 55 30.0000000  0 10G 9G17G 5G15G26G30G18G12G22G28
 115982693.63148  72583906.70948  20167844.0794   20167846.7174   20167844.4264
       250.000         227.000
 132115702.74648  85155089.40048  23237847.6994   23237849.7434   23237847.4624
       230.000         191.000
 109607416.50948 103200571.66048  22760544.9584   22760548.6924   22760546.0474
       230.000         187.000
 119860098.91948  75605265.93448  20905686.0404   20905688.0914   20905685.7374
       249.000         226.000
 117439893.54048  91511591.86448  22348079.0434   22348081.8084   22348078.6804
       236.000         195.000
 131533153.14648 102493361.84348  25029928.1674   25029931.0424   25029928.0674
       215.000         150.000
 117128701.01648  91269112.55548  22288853.0994   22288855.3794   22288853.6514
       236.000         194.000
 114472316.67048  89199201.52848  21783363.7134   21783365.3874   21783363.6914
       240.000         209.000
 134450583.68648  86974481.44848  23682156.6484   23682157.2314   23682157.8664
       227.000         179.000
 142730990.20048  93426735.88048  25257875.2014   25257876.3394   25257873.7224
       206.000         145.000
 09  1 23  0 56  0.0000000  0 10G 9G17G 5G15G26G30G18G12G22G28
 115954433.18148  72561885.58248  20162466.1204   20162468.9214   20162466.1244
       251.000         227.000
 132125302.62648  85162569.82848  23239674.6674   23239676.4624   23239674.7814
       230.000         190.000
 109510694.42048 103125203.80748  22742139.0094   22742142.9634   22742139.9064
       229.000         188.000
 119912989.87848  75646479.65648  20915750.9884   20915753.0214   20915750.7314
       248.000         226.000
 117531729.18148  91583152.09748  22365554.8934   22365557.4624   22365554.8114
       238.000         195.000
 131420826.47148 102405834.55648  25008554.0084   25008556.9214   25008555.1994
       211.000         151.000
 117135283.03248  91274241.37748  22290105.7514   22290107.7984   22290106.1034
       237.000         194.000
 114393788.94848  89138011.09948  21768420.4564   21768421.9924   21768420.5404
       240.000         210.000
 134404994.49948  86938957.39348  23673481.6334   23673481.5094   23673481.3854
       227.000         178.000
 142827634.61448  93502043.26348  25276266.5424   25276266.9514   25276267.1864
       209.000         147.000
 09  1 23  0 56 30.0000000  0 10G 9G17G 5G15G26G30G18G12G22G28
 115926507.83648  72540125.57148  20157152.2364   20157154.7724   20157152.3684
       252.000         227.000
 132135457.86248  85170483.00148  23241606.9824   23241608.7044   23241606.6554
       229.000         189.000
 109414243.25348 103050047.06648  22723785.2084   22723788.9984   22723785.7124
       231.000         189.000
 119966325.62848  75688039.97648  20925900.4434   20925902.3034   20925900.1674
       249.000         226.000
 117623841.85648  91654928.22248  22383083.2824   22383085.6764   22383083.2604
       238.000         193.000
 131308577.04148 102318367.46248  24987193.1044   24987196.4354   24987191.0374
       211.000         151.000
 117142435.44648  91279814.65748  22291467.2594   22291468.6014   22291468.2554
       236.000         194.000
 114315637.55548  89077113.92648  21753548.3844   21753550.2474   21753548.3554
       240.000         209.000
 134359900.14748  86903818.94148  23664900.1324   23664900.3074   23664900.4644
       224.000         178.000
 142924309.84148  93577374.61848  25294663.0654   25294664.5824   25294665.4144
       209.000         144.000
 09  1 23  0 57  0.0000000  0 10G 9G17G 5G15G26G30G18G12G22G28
 115898917.21848  72518626.38948  20151901.9424   20151904.3504   20151901.9794
       252.000         227.000
 132146167.98348  85178828.57848  23243644.8294   23243646.4534   23243644.6034
       230.000         188.000
 109318063.95148 102975102.17048  22705483.1634   22705486.5934   22705483.6944
       231.000         189.000
 120020105.06648  75729946.02548  20936134.3094   20936136.2024   20936134.0924
       247.000         225.000
 117716229.66648  91726918.71948  22400664.0204   22400666.7434   22400664.0544
       236.000         193.000
 131196406.09548 102230961.53348  24965847.6694   24965850.7964   24965847.7974
       214.000         151.000
 117150156.96148  91285831.40348  22292936.2804   22292938.1534   22292936.8984
       236.000         193.000
 114237863.15548  89016510.50648  21738748.2904   21738750.0604   21738748.0164
       240.000         210.000
 134315301.30348  86869066.58548  23656413.0434   23656412.2734   23656413.2574
       226.000         174.000
 143021013.87548  93652728.41148  25313065.2124   25313065.6644   25313066.4424
       207.000         145.000
 09  1 23  0 57 30.0000000  0 10G 9G17G 5G15G26G30G18G12G22G28
 115871662.23648  72497388.74048  20146715.5384   20146718.0024   20146715.8574
       251.000         227.000
 132157433.66248  85187607.04848  23245788.4434   23245790.2864   23245788.3364
       232.000         190.000
 109222158.63648 102900370.76348  22687232.7554   22687236.2574   22687233.2174
       230.000         188.000
 120074327.92948  75772197.60048  20946452.4214   20946454.4654   20946452.0584
       248.000         225.000
 117808891.50848  91799122.73948  22418296.7844   22418299.6034   22418296.6074
       236.000         194.000
 131084315.93048 102143618.53248  24944517.8024   24944520.7904   24944517.6984
       214.000         154.000
 117158447.31648  91292291.41148  22294513.6504   22294515.2354   22294514.0634
       234.000         192.000
 114160467.66848  88956202.34548  21724020.7204   21724022.2954   21724020.7734
       240.000         211.000
 134271199.76648  86834701.76248  23648021.3504   23648020.7714   23648022.0574
       223.000         179.000
 143117745.04448  93728103.41948  25331472.3964   25331473.4154   25331472.9604
       208.000         144.000
 09  1 23  0 58  0.0000000  0 10G 9G17G 5G15G26G30G18G12G22G28
 115844743.87748  72476413.39948  20141593.1664   20141595.8264   20141593.5064
       251.000         227.000
 132169255.02648  85196818.50048  23248038.2124   23248040.0304   23248038.1294
       230.000         189.000
 109126529.08848 102825854.24848  22669035.0674   22669038.8934   22669035.1944
       231.000         190.000
 120128993.92748  75814794.47548  20956855.0974   20956856.8694   20956854.7414
       248.000         225.000
 117901826.33348  91871539.47848  22435982.1424   22435984.8134   22435982.1564
       237.000         196.000
 130972308.40748 102056339.91048  24923204.1084   24923205.9834   24923203.3824
       216.000         156.000
 117167305.89648  91299194.19148  22296199.5844   22296200.9994   22296200.1844
       235.000         192.000
 114083452.43248  88896190.49248  21709365.3344   21709367.0214   21709365.2434
       240.000         211.000
 134227596.98848  86800725.59648  23639723.1864   23639724.8614   23639723.3214
       224.000         178.000
 143214501.93348  93803498.36848  25349885.1934   25349886.6824   25349885.3714
       207.000         145.000
 09  1 23  0 58 30.0000000  0 10G 9G17G 5G15G26G30G18G12G22G28
 115818161.55248  72455699.90148  20136534.6054   20136537.2504   20136534.5774
       252.000         227.000
 132181631.11148  85206462.21148  23250393.4894   23250395.2654   23250393.3424
       230.000         189.000
 109031176.20048 102751553.32348  22650889.7574   22650893.8224   22650890.3954
       231.000         189.000
 120184101.54648  75857735.46948  20967341.7394   20967343.5534   20967341.5124
       248.000         225.000
 117995031.74548  91944167.06748  22453718.4994   22453721.1784   22453718.4974
       236.000         194.000
 130860384.47248 101969126.43448  24901904.9654   24901908.3884   24901904.9144
       212.000         155.000
 117176731.71348  91306538.97548  22297993.2404   22297995.0614   22297993.8604
       236.000         193.000
 114006818.01748  88836475.37648  21694782.1924   21694783.9584   21694782.3534
       240.000         212.000
 134184493.60548  86767138.51348  23631521.0144   23631520.9394   23631521.3714
       223.000         173.000
 143311282.25448  93878911.59448  25368301.7564   25368303.0844   25368302.5094
       205.000         144.000
 09  1 23  0 59  0.0000000  0 10G 9G17G 5G15G26G30G18G12G22G28
 115791916.57448  72435249.26948  20131540.3534   20131542.9044   20131540.6344
       251.000         227.000
 132194562.92948  85216538.96648  23252854.5644   23252855.8474   23252854.5324
       230.000         188.000
 108936102.25948 102677469.73448  22632798.1484   22632801.4734   22632798.5504
       235.000         191.000
 120239650.81948  75901020.61348  20977912.4944   20977914.3024   20977912.2504
       248.000         225.000
 118088507.34748  92017005.19648  22471505.9444   22471508.9424   22471505.9394
       236.000         192.000
 130748546.49348 101881979.95548  24880622.4184   24880626.9524   24880621.5544
       211.000         156.000
 117186724.42748  91314325.48748  22299894.5104   22299896.2904   22299895.4884
       236.000         193.000
 113930566.75848  88777058.82648  21680271.8584   21680273.8054   21680271.4544
       240.000         212.000
 134141891.81648  86733942.30348  23623414.0454   23623414.6264   23623411.7704
       224.000         179.000
 143408085.14548  93954342.41748  25386722.0794   25386724.1284   25386722.2694
       206.000         141.000
 09  1 23  0 59 30.0000000  0 10G 9G17G 5G15G26G30G18G12G22G28
 115766008.96048  72415061.52248  20126610.2814   20126612.6984   20126610.5454
       251.000         226.000
 132208050.35748  85227048.65248  23255420.7264   23255422.4914   23255420.3304
       232.000         189.000
 108841308.76348 102603604.67348  22614759.5124   22614762.6934   22614760.0444
       234.000         190.000
 120295640.57448  75944648.98648  20988566.9834   20988568.8134   20988566.8474
       248.000         224.000
 118182251.45348  92090052.55348  22489345.0834   22489347.7564   22489344.9804
       235.000         192.000
 130636796.09848 101794901.69748  24859357.3064   24859361.4014   24859357.1944
       215.000         156.000
 117197283.24748  91322553.14148  22301904.1034   22301905.8314   22301904.7464
       236.000         193.000
 113854699.83848  88717941.76448  21665834.7794   21665836.9734   21665834.6984
       242.000         213.000
 134099792.47748  86701137.65448  23615403.0204   23615403.8874   23615402.6854
       224.000         177.000
 143504909.01648  94029789.58348  25405147.5224   25405148.1314   25405147.2254
       205.000         137.000
 09  1 23  1  0  0.0000000  0 10G 9G17G 5G15G26G30G18G12G22G28
 115740438.22648  72395136.27848  20121744.3084   20121746.7804   20121744.5244
       251.000         227.000
 132222092.14548  85237990.29648  23258093.2844   23258094.5174   23258093.1434
       232.000         189.000
 108746796.44648 102529958.72348  22596774.4114   22596777.7054   22596774.9964
       235.000         191.000
 120352069.37548  75988619.47048  20999304.9464   20999306.9494   20999304.6544
       247.000         225.000
 118276261.83548  92163307.39248  22507234.6824   22507237.2944   22507234.8434
       236.000         193.000
 130525133.78348 101707892.06748  24838109.6994   24838112.6794   24838108.5714
       214.000         158.000
 117208406.63448  91331220.70248  22304020.8344   22304022.5214   22304021.5644
       237.000         191.000
 113779217.45748  88659124.33548  21651471.2844   21651473.0184   21651471.4124
       241.000         213.000
 134058196.22048  86668724.94548  23607487.1154   23607487.2014   23607485.7164
       222.000         172.000
 143601751.03748  94105250.92148  25423575.6974   25423577.2924   25423576.2794
       206.000         139.000
 09  1 23  1  0 30.0000000  0 10G 9G17G 5G15G26G30G18G12G22G28
 115715205.27648  72375474.23548  20116942.7964   20116945.1434   20116943.0274
       251.000         227.000
 132236688.56848  85249364.15148  23260871.0524   23260872.0784   23260870.9854
       230.000         189.000
 108652567.12148 102456533.28448  22578843.3884   22578846.4424   22578843.7224
       235.000         191.000
 120408936.47448  76032931.49248  21010126.5244   21010128.3804   21010126.3024
       247.000         224.000
 118370537.35648  92236768.83148  22525174.3974   22525177.5444   22525174.7114
       234.000         192.000
 130413561.72948 101620952.80248  24816878.1564   24816880.8354   24816877.8174
       213.000         159.000
 117220093.67548  91340327.47648  22306244.5984   22306246.3324   22306245.5804
       234.000         191.000
 113704121.16948  88600607.75848  21637180.9184   21637182.6254   21637180.8744
       242.000         213.000
 134017104.27048  86636705.26648  23599667.0214   23599668.0974   23599666.5284
       224.000         177.000
 143698609.79448  94180725.27248  25442007.1034   25442010.4354   25442007.5814
       205.000         141.000
 09  1 23  1  1  0.0000000  0 10G 9G17G 5G15G26G30G18G12G22G28
 115690310.31148  72356075.57048  20112205.3304   20112207.9814   20112205.5294
       251.000         227.000
 132251839.14648  85261169.81048  23263753.5994   23263755.2394   23263753.6964
       229.000         189.000
 108558622.04948 102383329.33548  22560966.3494   22560969.4024   22560966.6264
       235.000         192.000
 120466241.06748  76077584.41248  21021031.2994   21021033.0774   21021030.9074
       248.000         225.000
 118465075.99648  92310435.28748  22543164.7294   22543167.6914   22543164.1354
       233.000         190.000
 130302081.46748 101534085.06648  24795663.4284   24795666.3424   24795663.6544
       211.000         157.000
 117232343.58348  91349872.85048  22308575.6134   22308577.5854   22308576.0304
       235.000         192.000
 113629412.24448  88542393.02248  21622964.3234   21622965.8824   21622964.0614
       241.000         213.000
 133976517.35348  86605079.12348  23591944.1234   23591944.8474   23591944.4364
       220.000         174.000
 143795483.20448  94256211.03948  25460442.2154   25460444.2894   25460443.1724
       207.000         141.000
 09  1 23  1  1 30.0000000  0 10G 9G17G 5G15G26G30G18G12G22G28
 115665754.57448  72336941.23248  20107532.5064   20107535.3114   20107532.5954
       251.000         227.000
 132267544.88248  85273408.06848  23266742.1684   23266743.8434   23266741.8564
       231.000         189.000
 108464963.73548 102310348.82948  22543143.6604   22543146.7584   22543144.2094
       235.000         192.000
 120523983.25548  76122578.32748  21032019.1794   21032021.2064   21032018.9914
       247.000         224.000
 118559877.32748  92384306.45548  22561205.0174   22561207.7104   22561204.4484
       235.000         191.000
 130190695.52348 101447290.82148  24774467.3334   24774470.8814   24774466.2584
       210.000         156.000
 117245156.48948  91359856.92248  22311014.0994   22311015.7924   22311014.7234
       236.000         192.000
 113555092.65148  88484481.67048  21608821.5314   21608823.2614   21608821.4234
       241.000         213.000
 133936438.01848  86573848.45148  23584317.5274   23584317.4684   23584315.9484
       228.000         178.000
 143892371.03348  94331708.03548  25478879.5714   25478881.8504   25478880.5664
       208.000         143.000
 09  1 23  1  2  0.0000000  0 10G 9G17G 5G15G26G30G18G12G22G28
 115641536.90348  72318070.31948  20102924.0924   20102926.7484   20102924.3184
       251.000         227.000
 132283804.33348  85286077.76648  23269836.3804   23269838.3054   23269836.0974
       232.000         190.000
 108371592.25348 102237591.84448  22525375.3614   22525378.6794   22525375.3974
       234.000         192.000
 120582160.92348  76167911.55448  21043089.8014   21043092.1534   21043089.1464
       248.000         224.000
 118654938.51548  92458380.11348  22579294.4694   22579297.0334   22579294.9464
       235.000         191.000
 130079403.87548 101360570.03648  24753289.4694   24753293.0974   24753289.5434
       212.000         155.000
 117258530.27448  91370278.04648  22313558.8914   22313560.6694   22313559.8474
       234.000         191.000
 113481162.50048  88426873.77748  21594753.2884   21594754.9864   21594753.0434
       243.000         214.000
 133896866.21048  86543013.25948  23576787.7644   23576788.3814   23576787.7784
       222.000         179.000
 143989270.17948  94407213.84148  25497318.7154   25497320.2264   25497319.3384
       207.000         139.000
 09  1 23  1  2 30.0000000  0 10G 9G17G 5G15G26G30G18G12G22G28
 115617658.81248  72299464.01148  20098380.2694   20098382.8044   20098380.3534
       251.000         226.000
 132300618.61448  85299179.81448  23273036.2494   23273037.7874   23273035.7704
       231.000         190.000
 108278510.35948 102165060.49948  22507662.0494   22507665.6974   22507661.7874
       236.000         191.000
 120640774.12648  76213584.17648  21054243.7784   21054245.7344   21054243.7104
       247.000         223.000
 118750259.36148  92532656.07648  22597433.2654   22597436.2404   22597433.3014
       233.000         190.000
 129968209.59248 101273925.11248  24732130.6814   24732133.1574   24732130.8784
       214.000         155.000
 117272464.64448  91381135.98948  22316210.2964   22316212.1674   22316210.4954
       234.000         192.000
 113407624.00148  88369571.05848  21580759.2444   21580761.0244   21580759.1904
       243.000         214.000
 133857803.52648  86512574.81548  23569353.7784   23569354.8204   23569353.5194
       227.000         181.000
 144086180.09448  94482728.09848  25515759.2244   25515761.2444   25515759.1764
       206.000         138.000
 09  1 23  1  3  0.0000000  0 10G 9G17G 5G15G26G30G18G12G22G28
 115594119.96248  72281122.05348  20093900.7994   20093903.3564   20093900.9164
       251.000         227.000
 132317985.77048  85312712.67448  23276341.2174   23276342.2494   23276341.1804
       231.000         189.000
 108185718.57148 102092755.20848  22490004.7024   22490007.7744   22490005.1564
       236.000         192.000
 120699821.13348  76259594.82548  21065479.9004   21065481.9084   21065479.3964
       248.000         223.000
 118845837.41748  92607132.46648  22615621.2584   22615624.1464   22615621.0214
       232.000         190.000
 129857113.53748 101187356.73048  24710990.0344   24710991.3094   24710990.3794
       217.000         156.000
 117286957.74948  91392429.32148  22318968.6164   22318970.0864   22318969.0994
       235.000         192.000
 113334477.42648  88312573.73948  21566839.7584   21566841.7674   21566839.5434
       242.000         215.000
 133819250.57648  86482533.54048  23562018.2194   23562018.4834   23562018.0824
       226.000         180.000
 144183097.97448  94558248.52848  25534202.2454   25534203.1664   25534202.9554
       205.000         137.000
 09  1 23  1  3 30.0000000  0 10G 9G17G 5G15G26G30G18G12G22G28
 115570917.23648  72263042.00648  20089485.6364   20089488.1324   20089485.8674
       251.000         227.000
 132335902.50348  85326673.76848  23279750.3054   23279751.6264   23279750.2484
       231.000         188.000
 108093214.88148 102020674.41648  22472401.9504   22472405.2444   22472402.0224
       237.000         194.000
 120759297.85748  76305940.31948  21076798.0704   21076799.8874   21076797.8324
       247.000         223.000
 118941667.40848  92681805.17848  22633857.2294   22633859.8484   22633856.9254
       233.000         190.000
 129746113.66548 101100863.32148  24689867.1664   24689869.2694   24689866.6694
       216.000         159.000
 117302005.39448  91404154.74948  22321831.9164   22321833.6314   22321832.1664
       235.000         192.000
 113261720.69848  88255880.19148  21552994.8894   21552996.7114   21552994.6684
       242.000         214.000
 133781204.59448  86452887.33448  23554777.7704   23554778.8434   23554776.4984
       226.000         182.000
 144280018.95048  94633771.44348  25552645.3864   25552647.9664   25552646.9084
       204.000         136.000
 09  1 23  1  4  0.0000000  0  9G 9G17G 5G15G26G30G18G12G22
 115548055.16548  72245227.40648  20085135.0884   20085137.5834   20085135.2634
       251.000         227.000
 132354372.96548  85341066.35048  23283265.0284   23283266.4104   23283264.8894
       232.000         188.000
 108001005.25448 101948822.77248  22454855.1964   22454858.4214   22454855.9594
       236.000         195.000
 120819207.56848  76352623.19948  21088198.4764   21088200.3334   21088198.0834
       248.000         223.000
 119037752.29148  92756676.51748  22652141.5074   22652144.3094   22652141.5584
       233.000         190.000
 129635215.98248 101014449.53348  24668763.7864   24668766.2044   24668763.8824
       218.000         159.000
 117317610.87248  91416314.86448  22324801.5124   22324803.3334   22324802.0704
       234.000         192.000
 113189359.16648  88199494.59148  21539224.8054   21539226.6024   21539224.5494
       243.000         214.000
 133743671.54048  86423640.77048  23547635.5854   23547636.5204   23547636.8634
       224.000         180.000
 09  1 23  1  4 30.0000000  0  9G 9G17G 5G15G26G30G18G12G22
 115525535.22548  72227679.40848  20080849.6754   20080852.3074   20080849.8044
       251.000         227.000
 132373397.70248  85355890.83148  23286885.2584   23286886.7134   23286885.1014
       230.000         188.000
 107909092.20348 101877202.22148  22437364.6904   22437367.9564   22437364.6854
       238.000         196.000
 120879550.18948  76399643.41548  21099681.4544   21099683.3034   21099681.4294
       247.000         223.000
 119134091.80148  92831746.27148  22670474.3034   22670477.2154   22670474.2574
       233.000         189.000
 129524423.19748 100928117.48448  24647680.7174   24647683.1894   24647680.7084
       218.000         158.000
 117333774.11148  91428909.57648  22327877.3324   22327879.2994   22327877.8614
       234.000         192.000
 113117395.12348  88143418.72248  21525530.4224   21525532.0584   21525530.1774
       242.000         214.000
 133706652.85848  86394795.04648  23540590.5434   23540591.4744   23540589.8844
       226.000         179.000
 09  1 23  1  5  0.0000000  0  9G 9G17G 5G15G26G30G18G12G22
 115503358.35548  72210398.73348  20076629.5564   20076632.2024   20076629.7534
       250.000         227.000
 132392976.66048  85371147.17348  23290610.7384   23290612.4814   23290610.1444
       230.000         188.000
 107817477.46448 101805814.10948  22419931.2404   22419934.3724   22419932.1164
       238.000         196.000
 120940325.04048  76447000.43848  21111246.3844   21111248.3504   21111245.8834
       248.000         223.000
 119230684.53448  92907013.32248  22688855.2154   22688858.1104   22688855.3444
       229.000         188.000
 129413736.81948 100841868.34048  24626617.6834   24626620.2224   24626617.1034
       215.000         157.000
 117350494.45548  91441938.40548  22331059.1404   22331060.9624   22331059.5854
       234.000         191.000
 113045829.83248  88087653.58048  21511912.1004   21511913.6474   21511912.1284
       244.000         215.000
 133670149.93748  86366351.22548  23533644.9744   23533645.4464   23533645.6124
       221.000         177.000
 09  1 23  1  5 30.0000000  0  9G 9G17G 5G15G26G30G18G12G22
 115481524.13348  72193385.05348  20072474.5074   20072477.1554   20072474.7154
       250.000         227.000
 132413108.61648  85386834.40448  23294442.5544   23294443.6794   23294441.9504
       233.000         190.000
 107726161.48648 101734658.81948  22402554.2124   22402557.4184   22402554.9104
       236.000         196.000
 121001530.74648  76494693.18748  21122893.4974   21122895.4324   21122893.0544
       247.000         223.000
 119327528.09148  92982475.82248  22707283.6944   22707286.6604   22707282.9284
       230.000         188.000
 129303158.13648 100755703.10848  24605574.4304   24605577.5564   24605574.7324
       218.000         158.000
 117367769.62748  91455399.56348  22334346.5144   22334348.2054   22334347.3774
       235.000         192.000
 112974663.49448  88032199.30948  21498369.5634   21498371.1584   21498369.5844
       243.000         215.000
 133634162.82948  86338309.32248  23526796.1084   23526796.7604   23526794.5014
       223.000         176.000
 09  1 23  1  6  0.0000000  0  9G 9G17G 5G15G26G30G18G12G22
 115460032.48148  72176638.31548  20068384.7554   20068387.4664   20068384.9044
       251.000         227.000
 132433792.96748  85402952.09548  23298378.4514   23298379.8414   23298378.6744
       231.000         189.000
 107635145.64748 101663737.39148  22385234.4664   22385237.7574   22385235.1504
       236.000         197.000
 121063165.74448  76542720.44648  21134622.2734   21134624.3074   21134622.0994
       246.000         222.000
 119424620.73048  93058132.41248  22725760.2204   22725762.6514   22725760.1064
       231.000         187.000
 129192688.36448 100669622.76048  24584553.1154   24584555.5464   24584553.9284
       215.000         157.000
 117385598.86048  91469292.45848  22337739.2444   22337741.0044   22337740.0164
       235.000         192.000
 112903897.37348  87977056.88548  21484903.3954   21484904.9824   21484903.2834
       244.000         216.000
 133598692.33348  86310669.95848  23520046.7374   23520047.8124   23520046.6724
       222.000         179.000
 09  1 23  1  6 30.0000000  0  9G 9G17G 5G15G26G30G18G12G22
 115438883.30248  72160158.43448  20064360.3684   20064362.9304   20064360.5764
       251.000         227.000
 132455028.96648  85419499.62548  23302418.9964   23302420.7674   23302418.8944
       228.000         188.000
 107544430.91948 101593050.60548  22367971.7664   22367975.1904   22367972.5244
       235.000         196.000
 121125228.36248  76591080.92048  21146432.2764   21146434.5514   21146431.7974
       247.000         223.000
 119521960.35648  93133981.47148  22744283.0274   22744286.0454   22744282.8004
       232.000         188.000
 129082328.63948 100583628.20448  24563552.3324   24563554.9384   24563552.2734
       218.000         159.000
 117403980.34148  91483615.67748  22341237.3404   22341239.0984   22341237.5774
       236.000         192.000
 112833531.94248  87922226.69248  21471513.1544   21471514.9284   21471513.1774
       243.000         216.000
 133563739.09848  86283433.66748  23513394.9434   23513396.7314   23513395.0194
       226.000         180.000
 09  1 23  1  7  0.0000000  0  9G 9G17G 5G15G26G30G18G12G22
 115418076.53248  72143945.37248  20060401.0594   20060403.4704   20060401.1504
       251.000         227.000
 132476815.76148  85436476.37248  23306564.7634   23306566.6214   23306564.2724
       230.000         190.000
 107454018.23948 101522599.19148  22350766.4644   22350770.2094   22350767.2094
       235.000         196.000
 121187717.74548  76639773.93848  21158323.6514   21158325.7844   21158323.3934
       247.000         222.000
 119619545.02448  93210021.47148  22762852.8384   22762855.5904   22762853.4164
       229.000         185.000
 128972080.06848 100497720.21248  24542573.5314   24542575.3304   24542574.4024
       218.000         160.000
 117422912.26248  91498367.80848  22344840.0194   22344841.5544   22344840.5854
       234.000         191.000
 112763567.56748  87867709.01548  21458199.1734   21458201.2444   21458199.0794
       244.000         216.000
 133529303.87248  86256601.01448  23506843.5224   23506843.4604   23506843.3114
       226.000         182.000
 09  1 23  1  7 30.0000000  0  9G 9G17G 5G15G26G30G18G12G22
 115397613.29648  72127999.99448  20056507.1004   20056509.4474   20056507.3124
       251.000         227.000
 132499153.49648  85453882.40148  23310816.2094   23310817.3764   23310816.0534
       231.000         189.000
 107363909.83648 101452384.87348  22333619.6944   22333623.4214   22333620.0824
       237.000         198.000
 121250633.66248  76688799.32548  21170296.1264   21170298.2604   21170296.0434
       246.000         222.000
 119717374.04348  93286251.87448  22781469.1734   22781471.7724   22781468.8724
       228.000         185.000
 128861944.98648 100411900.69248  24521615.4514   24521617.1434   24521614.9354
       215.000         160.000
 117442394.36148  91513548.66048  22348547.4114   22348548.9274   22348547.6674
       236.000         192.000
 112694006.48648  87813505.57948  21444962.4614   21444964.2274   21444962.4824
       245.000         217.000
 133495388.26248  86230173.29248  23500389.0114   23500389.4364   23500388.3614
       224.000         178.000
 09  1 23  1  8  0.0000000  0  9G 9G17G 5G15G26G30G18G12G22
 115377493.73748  72112322.41848  20052678.4224   20052680.8084   20052678.5414
       251.000         227.000
 132522041.42848  85471717.16648  23315170.8694   23315172.7874   23315171.2854
       229.000         187.000
 107274106.91648 101382408.58648  22316530.7844   22316534.3334   22316531.4944
       236.000         198.000
 121313974.52848  76738155.84348  21182349.5024   21182351.4904   21182348.9874
       247.000         222.000
 119815445.51248  93362671.18648  22800131.3254   22800134.2354   22800130.7884
       228.000         186.000
 128751925.13548 100326170.93848  24500678.7404   24500681.3174   24500678.0074
       212.000         156.000
 117462425.19548  91529157.08748  22352358.9524   22352360.9554   22352359.4584
       235.000         191.000
 112624849.44048  87759616.98948  21431802.2524   21431803.8954   21431802.1594
       244.000         217.000
 133461992.72148  86204150.75448  23494034.3734   23494034.1594   23494034.3154
       227.000         179.000
 09  1 23  1  8 30.0000000  0  9G 9G17G 5G15G26G30G18G12G22
 115357718.32348  72096913.01048  20048915.1154   20048917.6264   20048915.4224
       251.000         226.000
 132545479.28148  85489980.43048  23319631.1694   23319632.7434   23319630.6804
       232.000         189.000
 107184611.20348 101312671.69948  22299500.1134   22299503.7794   22299500.5494
       237.000         198.000
 121377739.16148  76787842.56248  21194483.5874   21194485.6824   21194483.4044
       246.000         222.000
 119913758.21848  93439278.50648  22818839.8024   22818842.4254   22818840.1184
       229.000         187.000
 128642022.38148 100240532.41348  24479765.3474   24479767.4774   24479764.5954
       211.000         156.000
 117483003.85548  91545192.38048  22356274.9474   22356277.1354   22356275.6514
       234.000         192.000
 112556097.78648  87706044.30148  21418719.1884   21418720.9704   21418719.0194
       244.000         217.000
 133429117.83748  86178533.97348  23487778.3334   23487778.5194   23487779.5234
       228.000         180.000
 09  1 23  1  9  0.0000000  0  9G 9G17G 5G15G26G30G18G12G22
 115338286.23848  72081771.12948  20045217.3054   20045219.7524   20045217.5784
       250.000         226.000
 132569465.59748  85508671.05548  23324196.6154   23324197.0944   23324196.2324
       232.000         189.000
 107095422.75648 101243174.20548  22282528.4234   22282531.5494   22282529.2064
       238.000         198.000
 121441925.81048  76837858.13048  21206697.9554   21206699.8504   21206697.5144
       247.000         221.000
 120012309.18948  93516071.46248  22837593.3524   22837596.4534   22837593.0124
       229.000         188.000
 128532236.80148 100154985.18248  24458873.6294   24458876.6744   24458873.8534
       211.000         156.000
 117504127.75248  91561652.54548  22360294.7574   22360296.9424   22360295.1274
       236.000         193.000
 112487751.14548  87652787.20748  21405712.9494   21405714.6894   21405712.7804
       244.000         216.000
 133396764.13648  86153323.28148  23481621.6644   23481621.3434   23481623.3354
       229.000         179.000
 09  1 23  1  9 30.0000000  0  9G 9G17G 5G15G26G30G18G12G22
 115319198.12148  72066897.27348  20041584.9694   20041587.4754   20041585.1564
       250.000         226.000
 132593999.61048  85527788.48848  23328863.6694   23328865.8984   23328863.5124
       227.000         186.000
 107006543.16248 101173917.38148  22265615.1164   22265618.0254   22265615.9304
       237.000         197.000
 121506533.81048  76888202.02048  21218992.5144   21218994.2554   21218992.1244
       247.000         221.000
 120111096.92148  93593048.90848  22856391.9854   22856394.9464   22856391.8264
       227.000         186.000
 128422570.05748 100069530.57248  24438004.3244   24438007.6904   24438004.5234
       214.000         158.000
 117525795.77048  91578536.68748  22364418.1164   22364419.9144   22364419.1304
       235.000         192.000
 112419810.69148  87599846.61748  21392784.4044   21392786.0144   21392784.0744
       245.000         217.000
 133364932.51748  86128519.43448  23475564.2934   23475564.5504   23475565.5814
       228.000         180.000
 09  1 23  1 10  0.0000000  0  9G 9G17G 5G15G26G30G18G12G22
 115300457.23848  72052293.98948  20038018.7714   20038021.2054   20038018.9864
       250.000         227.000
 132619083.97548  85547334.74848  23333637.6694   23333639.5404   23333636.8644
       233.000         190.000
 106917976.66548 101104904.52248  22248761.4574   22248764.3314   22248761.9024
       238.000         198.000
 121571564.53448  76938875.30148  21231367.4874   21231369.0954   21231367.1514
       247.000         221.000
 120210122.82648  93670211.94148  22875236.0404   22875238.8644   22875235.9134
       228.000         185.000
 128313026.73148  99984172.16448  24417158.4824   24417162.2594   24417158.4254
       215.000         159.000
 117548009.41448  91595846.00648  22368645.1764   22368646.9674   22368645.7584
       235.000         190.000
 112352280.50448  87547225.71548  21379934.0094   21379935.5544   21379933.9244
       245.000         217.000
 133333625.77048  86104124.53148  23469607.2264   23469606.7554   23469606.8174
       228.000         181.000
 09  1 23  1 10 30.0000000  0  9G 9G17G 5G15G26G30G18G12G22
 115282060.56748  72037958.92648  20034517.9874   20034520.4884   20034518.1414
       250.000         226.000
 132644714.61948  85567306.66648  23338516.1114   23338517.0764   23338516.6244
       231.000         191.000
 106829721.43848 101036134.22648  22231967.2164   22231970.1924   22231967.9324
       238.000         200.000
 121637013.61548  76989874.57948  21243821.9564   21243823.7074   21243821.9324
       246.000         220.000
 120309382.20148  93747556.89648  22894124.5114   22894127.5804   22894124.4554
       227.000         184.000
 128203605.24648  99898908.66648  24396336.5604   24396340.2334   24396337.1674
       216.000         162.000
 117570764.31248  91613577.08248  22372975.1464   22372976.9634   22372975.4894
       233.000         188.000
 112285158.27248  87494922.70848  21367160.8884   21367162.6034   21367160.7604
       244.000         217.000
 133302841.92848  86080137.13348  23463748.5564   23463748.6874   23463747.8644
       226.000         179.000
 09  1 23  1 11  0.0000000  0  9G 9G17G 5G15G26G30G18G12G22
 115264010.45948  72023893.91148  20031083.0894   20031085.5694   20031083.2884
       250.000         226.000
 132670892.85748  85587705.31948  23343495.9814   23343498.5964   23343495.9064
       228.000         186.000
 106741780.53348 100967608.85348  22215232.4674   22215235.5674   22215233.0674
       238.000         200.000
 121702881.85048  77041200.46648  21256356.2394   21256358.0674   21256355.8674
       247.000         220.000
 120408874.94948  93825083.71248  22913057.3324   22913060.3304   22913057.1724
       229.000         186.000
 128094308.90148  99813742.69648  24375538.6664   24375542.1034   24375538.7724
       221.000         166.000
 117594060.86948  91631730.22948  22377408.3704   22377410.0404   22377409.0634
       233.000         189.000
 112218446.66848  87442939.65548  21354465.8664   21354467.8404   21354465.7254
       245.000         217.000
 133272583.80548  86056559.35048  23457990.9194   23457990.8104   23457990.3494
       228.000         180.000
 09  1 23  1 11 30.0000000  0  9G 9G17G 5G15G26G30G18G12G22
 115246306.26548  72010098.43648  20027714.2174   20027716.6644   20027714.3154
       250.000         227.000
 132697617.03748  85608529.35548  23348581.6464   23348584.0114   23348580.7794
       231.000         188.000
 106654154.39948 100899328.75348  22198557.6984   22198561.0794   22198558.3064
       238.000         201.000
 121769167.11548  77092851.31848  21268969.9764   21268971.7654   21268969.9594
       246.000         220.000
 120508598.52448  93902790.38648  22932034.3624   22932037.1294   22932034.2184
       229.000         186.000
 127985138.28448  99728674.68848  24354764.8994   24354767.7164   24354764.3284
       223.000         166.000
 117617896.37548  91650303.33248  22381944.1514   22381946.0864   22381944.8604
       235.000         191.000
 112152145.74148  87391276.62348  21341849.4384   21341851.2394   21341849.3214
       246.000         218.000
 133242850.94548  86033390.89448  23452332.6784   23452333.4094   23452332.8664
       229.000         182.000
 09  1 23  1 12  0.0000000  0  9G 9G17G 5G15G26G30G18G12G22
 115228948.99148  71996573.28948  20024411.1164   20024413.8054   20024411.3374
       249.000         226.000
 132724886.86848  85629778.56648  23353771.8154   23353772.8774   23353771.8734
       231.000         188.000
 106566845.38148 100831295.76748  22181943.2934   22181946.4694   22181943.9414
       238.000         200.000
 121835869.27048  77144827.02548  21281663.0304   21281664.6204   21281662.7224
       247.000         220.000
 120608552.27348  93980676.43048  22951055.0904   22951057.6864   22951054.7604
       231.000         185.000
 127876095.86348  99643706.54748  24334015.1034   24334017.1724   24334015.4034
       221.000         164.000
 117642270.80048  91669296.37648  22386582.7204   22386584.7044   22386583.4624
       236.000         192.000
 112086257.41648  87339935.09148  21329311.3344   21329313.0954   21329311.1314
       246.000         218.000
 133213645.03448  86010633.03348  23446775.6594   23446776.1404   23446775.7514
       228.000         183.000
 09  1 23  1 12 30.0000000  0  9G 9G17G 5G15G26G30G18G12G22
 115211937.25248  71983317.39448  20021173.8324   20021176.3944   20021173.8914
       250.000         226.000
 132752700.58848  85651451.60848  23359063.8994   23359065.6324   23359063.8914
       229.000         186.000
 106479852.95048 100763509.47848  22165389.0984   22165392.3714   22165389.9744
       238.000         201.000
 121902985.13848  77197125.08848  21294434.7274   21294436.5004   21294434.5844
       246.000         220.000
 120708732.81448  94058739.19148  22970118.2534   22970121.1374   22970119.2014
       228.000         184.000
 127767181.50048  99558838.19148  24313288.6504   24313291.5284   24313288.0854
       222.000         162.000
 117667180.79448  91688706.75648  22391323.0744   22391324.6824   22391323.7384
       235.000         191.000
 112020780.90348  87288914.45348  21316851.5794   21316853.2874   21316851.6354
       245.000         218.000
 133184964.85748  85988284.84948  23441317.3424   23441318.1274   23441318.5394
       228.000         184.000
 09  1 23  1 13  0.0000000  0  9G 9G17G 5G15G26G30G18G12G22
 115195273.41148  71970332.58148  20018002.7764   20018005.4284   20018002.8594
       249.000         226.000
 132781058.88048  85673548.96048  23364460.7404   23364462.0884   23364460.4624
       229.000         185.000
 106393180.13348 100695972.23148  22148895.9544   22148899.3764   22148896.3374
       239.000         202.000
 121970515.24148  77249745.94948  21307285.2924   21307287.1504   21307284.9234
       246.000         220.000
 120809140.19348  94136978.69048  22989224.9834   22989228.2684   22989225.1594
       227.000         184.000
 127658398.42948  99474072.15748  24292588.3294   24292590.6174   24292588.9164
       220.000         160.000
 117692626.59248  91708534.64048  22396164.7934   22396167.1264   22396165.7244
       233.000         190.000
 111955718.52748  87238216.51248  21304470.6234   21304472.0634   21304470.3024
       247.000         218.000
 133156812.85248  85966348.23848  23435960.1084   23435961.0124   23435960.8974
       226.000         183.000
 09  1 23  1 13 30.0000000  0  9G 9G17G 5G15G26G30G18G12G22
 115178957.84048  71957619.15448  20014898.0594   20014900.7064   20014898.1184
       250.000         227.000
 132809961.34348  85696070.40848  23369959.9654   23369962.0834   23369960.0784
       229.000         184.000
 106306828.47148 100628685.22448  22132463.8794   22132467.0344   22132464.7584
       239.000         202.000
 122038458.84048  77302688.99848  21320214.4774   21320216.4874   21320214.0764
       245.000         220.000
 120909773.05748  94215393.90148  23008375.4724   23008378.2584   23008375.4364
       226.000         184.000
 127549748.49648  99389409.87248  24271912.6464   24271915.3724   24271911.7264
       216.000         162.000
 117718607.13848  91728779.21548  22401109.0804   22401110.9684   22401109.4564
       232.000         189.000
 111891071.80548  87187842.46048  21292168.7794   21292170.1774   21292168.7754
       247.000         219.000
 133129189.75448  85944823.77148  23430703.4594   23430704.4234   23430703.4204
       229.000         183.000
 09  1 23  1 14  0.0000000  0  9G 9G17G 5G15G26G30G18G12G22
 115162990.46548  71945177.04748  20011859.7344   20011862.1374   20011859.9604
       250.000         227.000
 132839406.89948  85719015.00448  23375563.0234   23375565.8684   23375563.0114
       231.000         188.000
 106220798.97248 100561649.25848  22116093.0944   22116096.3114   22116093.6084
       240.000         203.000
 122106814.32248  77355953.00748  21333221.9814   21333223.9724   21333221.4804
       245.000         219.000
 121010629.45348  94293983.28048  23027567.3344   23027570.6554   23027567.4004
       226.000         184.000
 127441232.86548  99304852.28248  24251262.0624   24251265.4414   24251262.0884
       216.000         160.000
 117745120.36248  91749438.86148  22406154.1574   22406156.0704   22406154.3274
       234.000         189.000
 111826841.05448  87137792.53548  21279946.1604   21279947.6044   21279946.1794
       246.000         218.000
 133102096.40348  85923712.06948  23425548.0484   23425548.7894   23425549.5904
       228.000         183.000
 09  1 23  1 14 30.0000000  0  9G 9G17G 5G15G26G30G18G12G22
 115147371.59848  71933006.50348  20008887.6334   20008889.9444   20008887.9444
       250.000         227.000
 132869394.46148  85742381.93648  23381270.6324   23381272.1484   23381270.4314
       232.000         191.000
 106135092.72548 100494865.17548  22099783.8314   22099786.8784   22099784.5294
       239.000         203.000
 122175580.44348  77409536.99748  21346307.9334   21346309.7104   21346307.6604
       245.000         219.000
 121111707.39748  94372745.32948  23046802.1544   23046804.7924   23046801.9674
       226.000         182.000
 127332852.93248  99220400.41948  24230638.1374   24230641.2704   24230638.4144
       216.000         161.000
 117772164.64048  91770512.30048  22411300.4854   22411302.4564   22411300.7594
       234.000         190.000
 111763026.89948  87088067.23848  21267802.4134   21267804.1794   21267802.2024
       246.000         218.000
 133075532.46248  85903012.89748  23420492.9084   23420493.4204   23420492.9044
       229.000         182.000
 09  1 23  1 15  0.0000000  0  9G 9G17G 5G15G26G30G18G12G22
 115132101.79148  71921107.95048  20005981.7334   20005984.1864   20005981.9794
       250.000         227.000
 132899923.22248  85766170.57148  23387080.1164   23387081.5254   23387080.0894
       231.000         188.000
 106049711.23648 100428334.15948  22083535.9164   22083539.4694   22083536.4154
       240.000         203.000
 122244756.09948  77463440.09648  21359471.5144   21359473.3614   21359471.2114
       246.000         218.000
 121213005.54348  94451678.93548  23066078.3384   23066081.0874   23066077.5094
       228.000         183.000
 127224610.70848  99136055.86248  24210040.1624   24210043.1114   24210039.8104
       219.000         162.000
 117799738.50648  91791998.41348  22416547.7674   22416549.6584   22416548.4684
       234.000         188.000
 111699630.75648  87038667.66248  21255738.5004   21255740.2364   21255738.2024
       247.000         219.000
 133049498.74348  85882726.86348  23415539.3774   23415539.2364   23415539.5324
       228.000         182.000
 09  1 23  1 15 30.0000000  0  9G 9G17G 5G15G26G30G18G12G22
 115117180.68548  71909481.12148  20003142.3174   20003144.9024   20003142.5274
       250.000         227.000
 132930992.14248  85790380.13448  23392991.3874   23392993.8674   23392991.5894
       229.000         185.000
 105964655.31548 100362056.82448  22067350.5044   22067353.9444   22067351.1944
       239.000         204.000
 122314339.53948  77517660.95648  21372712.9014   21372714.6904   21372712.7694
       244.000         218.000
 121314521.64548  94530782.40848  23085396.4884   23085398.8264   23085396.8444
       228.000         182.000
 127116506.92948  99051819.14848  24189469.2454   24189471.2224   24189469.1224
       219.000         160.000
 117827840.13548  91813895.78048  22421895.0704   22421897.0984   22421895.6214
       232.000         188.000
 111636652.53948  86989593.74148  21243754.2234   21243756.0214   21243754.1744
       247.000         220.000
 133023995.51848  85862854.22548  23410685.9194   23410685.8264   23410686.8614
       228.000         181.000
 09  1 23  1 16  0.0000000  0  9G 9G17G 5G15G26G30G18G12G22
 115102609.18448  71898126.70648  20000369.4484   20000371.9034   20000369.6814
       250.000         227.000
 132962601.00748  85815010.43348  23399006.1294   23399008.5084   23399006.0554
       228.000         183.000
 105879926.78348 100296034.59648  22051226.9144   22051230.5584   22051227.4994
       241.000         204.000
 122384330.09648  77572199.03648  21386031.5544   21386033.5204   21386031.3314
       245.000         218.000
 121416254.76948  94610054.96548  23104755.3444   23104757.9484   23104755.2384
       228.000         182.000
 127008543.87948  98967692.09348  24168924.3814   24168926.1704   24168924.1264
       221.000         163.000
 117856468.46748  91836203.55548  22427342.7384   22427344.8464   22427343.0814
       233.000         188.000
 111574094.08348  86940846.89948  21231849.8704   21231851.5614   21231849.6904
       248.000         220.000
 132999024.13548  85843396.00448  23405933.7774   23405934.4984   23405933.4034
       226.000         180.000
 09  1 23  1 16 30.0000000  0  9G 9G17G 5G15G26G30G18G12G22
 115088388.24348  71887045.45648  19997663.3384   19997665.8274   19997663.5854
       250.000         227.000
 132994749.47648  85840061.19248  23405123.9784   23405126.1664   23405123.5394
       229.000         187.000
 105795527.49648 100230268.91248  22035166.6094   22035169.8924   22035167.2364
       241.000         205.000
 122454726.68648  77627053.52148  21399427.5004   21399429.4394   21399427.3054
       244.000         217.000
 121518203.54548  94689495.56548  23124155.7924   23124158.2924   23124156.2414
       226.000         182.000
 126900723.25948  98883676.03648  24148406.8994   24148408.8854   24148406.0154
       221.000         164.000
 117885622.48548  91858920.95048  22432891.0414   22432892.6654   22432891.2524
       234.000         189.000
 111511956.68548  86892428.15848  21220025.5104   21220027.2734   21220025.2444
       247.000         220.000
 132974585.43648  85824352.88048  23401282.6284   23401283.9094   23401282.8734
       226.000         182.000
 09  1 23  1 17  0.0000000  0  9G 9G17G 5G15G26G30G18G12G22
 115074517.24948  71876236.88548  19995023.7724   19995026.2994   19995023.9854
       250.000         227.000
 133027435.33748  85865530.67948  23411344.4474   23411346.6204   23411343.9094
       231.000         189.000
 105711457.51248 100164759.85248  22019168.6604   22019171.6384   22019169.3044
       241.000         204.000
 122525527.18948  77682222.72648  21412900.4514   21412902.3634   21412899.8874
       244.000         217.000
 121620365.50748  94769102.29448  23143596.4914   23143598.8954   23143596.2754
       225.000         182.000
 126793045.98848  98799771.67648  24127916.7054   24127919.2454   24127916.6434
       221.000         165.000
 117915298.97048  91882045.47348  22438538.1064   22438540.1654   22438538.8954
       232.000         190.000
 111450239.80148  86844337.08448  21208281.1034   21208282.7144   21208280.8994
       247.000         220.000
 132950678.64948  85805724.24548  23396734.1664   23396734.7674   23396734.1054
       230.000         185.000
 09  1 23  1 17 30.0000000  0  9G 9G17G 5G15G26G30G18G12G22
 115060996.71348  71865701.41148  19992450.8244   19992453.3944   19992451.0034
       249.000         227.000
 133060657.75648  85891418.25848  23417666.6504   23417668.1844   23417666.2774
       231.000         186.000
 105627718.24048 100099508.48348  22003233.5104   22003236.4704   22003234.0504
       240.000         205.000
 122596730.43448  77737705.77148  21426450.1544   21426451.8814   21426450.1024
       244.000         218.000
 121722738.74748  94848873.62248  23163077.1834   23163080.0614   23163076.8004
       225.000         181.000
 126685513.37448  98715980.04648  24107453.6784   24107456.6014   24107453.7934
       222.000         165.000
 117945496.85548  91905576.27948  22444284.4824   22444286.6524   22444285.1644
       233.000         189.000
 111388944.25248  86796574.32848  21196616.9384   21196618.4234   21196616.7994
       248.000         220.000
 132927304.45148  85787510.57048  23392286.8714   23392286.2504   23392287.1354
       230.000         184.000
 09  1 23  1 18  0.0000000  0  9G 9G17G 5G15G26G30G18G12G22
 115047826.52348  71855438.92748  19989944.5724   19989947.2194   19989944.6954
       249.000         227.000
 133094415.94948  85917723.34548  23424090.2344   23424092.1184   23424090.2634
       229.000         185.000
 105544310.80048 100034515.68848  21987361.4124   21987364.6114   21987362.4324
       239.000         204.000
 122668334.83148  77793501.40048  21440076.0784   21440077.7514   21440075.6914
       244.000         217.000
 121825321.62648  94928808.31048  23182598.2374   23182601.1874   23182597.8584
       227.000         183.000
 126578126.93548  98632302.31348  24087018.9274   24087021.4764   24087018.7244
       218.000         164.000
 117976214.42548  91929512.04948  22450130.2344   22450131.9504   22450130.8684
       233.000         188.000
 111328070.82348  86749140.49648  21185033.1524   21185034.7424   21185032.8774
       248.000         221.000
 132904463.14348  85769712.13148  23387939.7444   23387939.9504   23387940.5614
       228.000         184.000
 09  1 23  1 18 30.0000000  0  9G 9G17G 5G15G26G30G18G12G22
 115035007.99448  71845450.46348  19987505.2924   19987508.0774   19987505.4444
       250.000         227.000
 133128709.73048  85944445.78948  23430615.8754   23430618.4514   23430615.7134
       226.000         185.000
 105461237.27748  99969783.10948  21971552.8464   21971556.3214   21971553.2064
       240.000         205.000
 122740340.26248  77849609.52048  21453778.0214   21453779.9324   21453777.7734
       244.000         217.000
 121928113.26248  95008905.68348  23202158.8054   23202161.7364   23202158.9884
       227.000         182.000
 126470888.98648  98548740.29648  24066611.9414   24066614.7654   24066611.4684
       217.000         163.000
 118007450.68148  91953851.98648  22456074.1054   22456075.8004   22456074.5174
       233.000         188.000
 111267621.25648  86702036.94348  21173530.0444   21173531.6444   21173529.8864
       249.000         221.000
 132882155.75948  85752329.73448  23383695.1114   23383694.9014   23383694.9684
       228.000         181.000
 09  1 23  1 19  0.0000000  0  9G 9G17G 5G15G26G30G18G12G22
 115022541.50648  71835736.31448  19985133.0364   19985135.7734   19985133.1274
       250.000         227.000
 133163537.60948  85971584.41048  23437243.3404   23437246.2304   23437243.2494
       228.000         187.000
 105378498.60848  99905311.44648  21955808.2134   21955811.6344   21955809.0204
       240.000         206.000
 122812744.61048  77906028.47848  21467556.1484   21467558.1264   21467555.7264
       244.000         217.000
 122031111.69548  95089164.20948  23221758.6304   23221761.9094   23221758.7004
       228.000         183.000
 126363800.93148  98465295.07548  24046234.4484   24046236.7664   24046234.3884
       221.000         164.000
 118039203.62048  91978594.52648  22462116.5534   22462118.1374   22462117.0264
       233.000         186.000
 111207595.90348  86655263.94848  21162107.4824   21162109.1024   21162107.4414
       248.000         221.000
 132860383.20848  85735364.11848  23379551.3494   23379551.3514   23379552.1014
       229.000         181.000
 09  1 23  1 19 30.0000000  0  9G 9G17G 5G15G26G30G18G12G22
 115010426.56148  71826296.09748  19982827.6224   19982830.1724   19982827.8794
       250.000         227.000
 133198897.99648  85999137.95748  23443972.7814   23443974.3634   23443972.5634
       230.000         185.000
 105296095.38748  99841101.16348  21940127.6074   21940130.9614   21940128.1774
       241.000         207.000
 122885546.03548  77962756.85948  21481409.8364   21481411.7264   21481409.6194
       243.000         216.000
 122134314.73748  95169582.15648  23241397.6664   23241400.8064   23241397.7034
       227.000         182.000
 126256863.79348  98381967.43948  24025884.9384   24025887.4954   24025884.7824
       216.000         163.000
 118071470.92348  92003737.86448  22468256.9644   22468258.8714   22468257.7544
       231.000         186.000
 111147994.94248  86608821.65448  21150765.7834   21150767.5174   21150765.5954
       249.000         222.000
 132839144.79648  85718814.70848  23375510.5234   23375510.5894   23375510.3124
       230.000         183.000
 09  1 23  1 20  0.0000000  0  9G 9G17G 5G15G26G30G18G12G22
 114998664.04948  71817130.51148  19980589.3494   19980591.9014   19980589.5584
       250.000         227.000
 133234791.12048  86027106.60948  23450803.0894   23450804.4564   23450802.8894
       230.000         184.000
 105214029.62048  99777153.82248  21924511.1514   21924514.2164   21924511.5224
       240.000         207.000
 122958744.41348  78019794.55548  21495339.0324   21495340.7454   21495338.8014
       243.000         216.000
 122237721.33748  95250158.74048  23261075.3694   23261078.0544   23261074.7074
       228.000         180.000
 126150079.75348  98298759.10548  24005563.8704   24005567.0914   24005563.3204
       217.000         162.000
 118104251.55348  92029281.19548  22474494.5514   22474496.4444   22474494.8524
       231.000         186.000
 111088820.08348  86562711.36948  21139505.3814   21139506.7924   21139505.3014
       248.000         221.000
 132818441.62548  85702682.36248  23371571.0444   23371570.6344   23371571.2724
       232.000         185.000
 09  1 23  1 20 30.0000000  0  9G 9G17G 5G15G26G30G18G12G22
 114987253.96848  71808239.53148  19978418.0664   19978420.6514   19978418.2854
       250.000         227.000
 133271215.38148  86055489.16348  23457734.1074   23457735.8874   23457734.3584
       229.000         182.000
 105132302.10748  99713470.05048  21908958.6214   21908961.6414   21908959.2774
       241.000         206.000
 123032338.05248  78077140.23548  21509343.4524   21509345.4174   21509343.1034
       243.000         216.000
 122341329.48848  95330892.37248  23280791.4294   23280793.9324   23280791.1404
       227.000         179.000
 126043450.11748  98215671.07148  23985273.2324   23985275.8934   23985273.1054
       218.000         165.000
 118137543.44948  92055222.90548  22480829.9274   22480831.8714   22480830.0364
       233.000         186.000
 111030071.59048  86516933.33748  21128325.6504   21128327.2944   21128325.4754
       248.000         222.000
 132798273.74948  85686967.13148  23367732.8964   23367732.8814   23367733.1844
       230.000         181.000
 09  1 23  1 21  0.0000000  0  9G 9G17G 5G15G26G30G18G12G22
 114976197.10548  71799623.80048  19976313.9934   19976316.5534   19976314.0494
       250.000         227.000
 133308169.86448  86084284.86548  23464766.2604   23464768.1004   23464765.6954
       226.000         180.000
 105050914.46548  99650051.11248  21893471.1474   21893474.0554   21893471.6704
       241.000         206.000
 123106325.55148  78134792.83148  21523422.8534   21523424.8224   21523422.5264
       243.000         216.000
 122445137.78848  95411781.97048  23300545.4614   23300547.9404   23300545.7814
       227.000         177.000
 125936976.25248  98132704.43848  23965012.0424   23965014.7474   23965011.6004
       220.000         166.000
 118171345.27748  92081561.97048  22487262.2324   22487264.3474   22487263.1014
       232.000         186.000
 110971750.36148  86471488.23748  21117227.5184   21117229.2314   21117227.3164
       249.000         222.000
 132778641.60548  85671669.34048  23363996.6714   23363996.1744   23363997.8974
       227.000         180.000
 09  1 23  1 21 30.0000000  0  9G 9G17G 5G15G26G30G18G12G22
 114965494.36048  71791284.00048  19974277.3614   19974279.9284   19974277.5094
       250.000         228.000
 133345653.93048  86113493.24548  23471898.9374   23471900.8374   23471898.4534
       226.000         181.000
 104969868.17948  99586898.17848  21878048.4764   21878051.5784   21878049.0464
       240.000         207.000
 123180705.70548  78192751.38148  21537576.9984   21537578.8524   21537576.6594
       244.000         216.000
 122549144.91648  95492826.48248  23320337.1004   23320339.8974   23320336.6924
       225.000         177.000
 125830660.41448  98049860.90848  23944780.5434   23944783.6464   23944780.3334
       219.000         166.000
 118205655.46348  92108297.16548  22493791.3074   22493793.2094   22493791.8534
       233.000         186.000
 110913857.43848  86426376.88448  21106210.8844   21106212.5684   21106210.7714
       248.000         223.000
 132759545.62548  85656789.36748  23360362.5884   23360362.9744   23360361.5314
       225.000         181.000
 09  1 23  1 22  0.0000000  0  9G 9G17G 5G15G26G30G18G12G22
 114955145.93048  71783220.29048  19972308.1414   19972310.7384   19972308.3604
       250.000         228.000
 133383666.44048  86143113.39048  23479132.7034   23479134.6484   23479132.6364
       226.000         180.000
 104889164.42848  99524012.15048  21862690.8624   21862694.1964   21862691.6094
       241.000         207.000
 123255477.50448  78251015.11748  21551805.5634   21551807.1694   21551805.4374
       243.000         214.000
 122653349.07848  95574024.52848  23340166.4654   23340169.2624   23340166.5974
       223.000         175.000
 125724504.27048  97967141.83448  23924579.1454   23924582.9294   23924579.1494
       217.000         165.000
 118240472.27448  92135427.12548  22500417.1114   22500418.7014   22500417.3814
       234.000         188.000
 110856393.48748  86381599.79148  21095275.8244   21095277.5544   21095275.7384
       248.000         223.000
 132740986.92248  85642328.03448  23356831.4324   23356831.5034   23356831.1794
       230.000         183.000
 09  1 23  1 22 30.0000000  0  9G 9G17G 5G15G26G30G18G12G22
 114945150.86948  71775431.93148  19970406.1094   19970408.8374   19970406.2484
       250.000         227.000
 133422205.12548  86173143.53848  23486466.6094   23486468.3714   23486466.2714
       226.000         180.000
 104808803.22948  99461393.03648  21847398.5694   21847402.0094   21847399.3444
       241.000         207.000
 123330638.00648  78309581.73848  21566107.9464   21566109.9144   21566107.6154
       243.000         214.000
 122757747.56748  95655374.00248  23360032.8144   23360035.6204   23360032.8004
       223.000         176.000
 125618508.02048  97884547.35548  23904408.7914   23904412.4814   23904407.9224
       219.000         167.000
 118275792.45648  92162949.33248  22507138.5044   22507139.8324   22507139.4914
       233.000         188.000
 110799358.21748  86337156.73048  21084422.4344   21084424.1884   21084422.3154
       248.000         223.000
 132722963.98148  85628284.16948  23353402.0424   23353402.1264   23353401.8524
       231.000         184.000
 09  1 23  1 23  0.0000000  0  9G 9G17G 5G15G26G30G18G12G22
 114935509.97248  71767919.54348  19968571.5364   19968574.1884   19968571.6984
       250.000         228.000
 133461269.16448  86203583.05748  23493900.2534   23493901.6864   23493899.9184
       226.000         178.000
 104728785.93448  99399041.88648  21832172.0934   21832175.3544   21832172.5724
       242.000         208.000
 123406186.46048  78368450.64948  21580484.3444   21580486.3664   21580484.1974
       242.000         213.000
 122862338.79748  95736873.65448  23379936.0784   23379938.8004   23379935.8864
       223.000         178.000
 125512673.25748  97802078.70148  23884269.2614   23884272.6274   23884269.3614
       221.000         167.000
 118311614.53848  92190862.62848  22513954.7814   22513956.4674   22513955.5664
       232.000         186.000
 110742752.27048  86293048.21348  21073650.6204   21073652.3374   21073650.4334
       248.000         223.000
 132705477.40548  85614658.25648  23350074.8734   23350074.4744   23350075.4044
       231.000         184.000
 09  1 23  1 23 30.0000000  0  9G 9G17G 5G15G26G30G18G12G22
 114926224.09748  71760683.79348  19966804.4454   19966807.0164   19966804.6324
       250.000         227.000
 133500858.12448  86234431.61448  23501433.3084   23501434.8434   23501433.1194
       225.000         177.000
 104649114.54548  99336960.28648  21817011.4724   21817014.6114   21817012.1564
       242.000         208.000
 123482122.01448  78427621.21048  21594934.3514   21594936.2324   21594933.9514
       242.000         214.000
 122967121.96648  95818522.86448  23399875.5234   23399878.8004   23399874.8664
       225.000         180.000
 125407002.10948  97719737.53948  23864161.0004   23864163.6294   23864161.2434
       221.000         166.000
 118347937.59748  92219166.28548  22520866.4704   22520868.6594   22520866.9044
       231.000         185.000
 110686577.19348  86249275.42748  21062960.8244   21062962.5094   21062960.7324
       248.000         223.000
 132688528.32348  85601451.19748  23346848.5944   23346849.1874   23346849.3064
       228.000         183.000
 09  1 23  1 24  0.0000000  0  9G 9G17G 5G15G26G30G18G12G22
 114917293.78648  71753725.10448  19965105.1514   19965107.6464   19965105.3134
       250.000         227.000
 133540971.09948  86265688.49548  23509066.8154   23509067.9854   23509066.1754
       227.000         179.000
 104569790.39148  99275149.27248  21801916.3864   21801919.4744   21801917.0144
       242.000         208.000
 123558443.27048  78487092.31148  21609457.8774   21609459.8584   21609457.6384
       242.000         214.000
 123072095.43248  95900320.35848  23419851.6664   23419854.4304   23419850.6734
       228.000         181.000
 125301496.53048  97637525.38548  23844083.9994   23844086.2954   23844083.5554
       217.000         164.000
 118384759.90948  92247858.96048  22527873.7784   22527875.7024   22527874.5184
       231.000         185.000
 110630833.98948  86205839.17748  21052353.1074   21052354.7704   21052353.0704
       249.000         223.000
 132672117.21048  85588663.29448  23343725.8534   23343726.1814   23343725.3844
       231.000         182.000
 09  1 23  1 24 30.0000000  0  9G 9G17G 5G15G26G30G18G12G22
 114908718.30648  71747042.91048  19963473.2364   19963475.8014   19963473.4614
       250.000         227.000
 133581605.72948  86297351.86348  23516799.3364   23516801.2464   23516799.2564
       230.000         180.000
 104490813.33748  99213608.71448  21786887.5374   21786890.6824   21786888.4054
       243.000         209.000
 123635147.82848  78546862.09248  21624054.3094   21624056.3754   21624053.9514
       242.000         214.000
 123177256.23648  95982263.84648  23439863.3634   23439865.8344   23439863.5254
       228.000         183.000
 125196157.03448  97555442.65848  23824038.1774   23824040.5494   23824037.9864
       220.000         164.000
 118422078.39748  92276938.30148  22534975.3024   22534977.0824   22534976.0854
       231.000         185.000
 110575521.83248  86162738.79748  21041827.6874   21041829.2384   21041827.5054
       248.000         223.000
 132656242.60848  85576293.49048  23340705.3364   23340705.0554   23340706.6784
       230.000         181.000
 09  1 23  1 25  0.0000000  0  9G 9G17G 5G15G26G30G18G12G22
 114900498.32348  71740637.72248  19961908.9994   19961911.6874   19961909.1724
       250.000         227.000
 133622761.10748  86329420.97748  23524631.2414   23524632.9084   23524631.2404
       229.000         181.000
 104412184.95148  99152339.84748  21771925.2864   21771928.4454   21771925.9274
       242.000         209.000
 123712233.82548  78606929.09648  21638723.2664   21638725.2324   21638722.8434
       242.000         213.000
 123282602.93048  96064352.16848  23459909.7324   23459912.5364   23459909.7164
       228.000         182.000
 125090985.15348  97473490.55348  23804025.0034   23804027.2694   23804024.8964
       215.000         166.000
 118459891.23048  92306402.82648  22542170.7084   22542172.7064   22542171.0914
       231.000         185.000
 110520641.57048  86119974.96248  21031384.3244   21031385.7694   21031384.2704
       248.000         224.000
 132640904.93948  85564342.04848  23337786.0514   23337786.5014   23337786.7904
       228.000         182.000
 09  1 23  1 25 30.0000000  0  9G 9G17G 5G15G26G30G18G12G22
 114892635.24648  71734510.65348  19960412.6634   19960415.3214   19960412.8474
       251.000         227.000
 133664436.94748  86361895.65548  23532561.7534   23532563.2404   23532561.6154
       228.000         180.000
 104333907.31148  99091344.29848  21757029.3164   21757032.4834   21757029.9594
       242.000         209.000
 123789701.84048  78667293.77548  21653465.1084   21653467.0364   21653464.8294
       243.000         213.000
 123388134.83448  96146584.82448  23479991.8424   23479994.7184   23479991.9504
       229.000         184.000
 124985983.31048  97391670.94648  23784043.7134   23784046.2694   23784042.4144
       222.000         169.000
 118498197.44248  92336251.81248  22549460.2444   22549462.5044   22549460.4434
       232.000         186.000
 110466195.02748  86077549.09848  21021023.4504   21021025.0174   21021023.1374
       249.000         224.000
 132626105.81548  85552810.22348  23334970.1694   23334970.5064   23334969.9564
       228.000         182.000
 09  1 23  1 26  0.0000000  0  9G 9G17G 5G15G26G30G18G12G22
 114885128.59848  71728661.31148  19958984.1424   19958986.8464   19958984.2214
       251.000         227.000
 133706630.92348  86394774.09148  23540590.6994   23540592.7194   23540590.2184
       227.000         181.000
 104255980.86948  99030622.41048  21742200.5424   21742203.5264   21742201.0494
       242.000         210.000
 123867549.66348  78727954.41648  21668279.0314   21668280.8284   21668278.9854
       241.000         212.000
 123493849.54348  96228959.91248  23500108.6004   23500111.7674   23500108.3884
       228.000         184.000
 124881152.40848  97309984.50848  23764095.6284   23764097.9334   23764096.3194
       223.000         171.000
 118536994.41248  92366483.19848  22556843.1694   22556845.0624   22556844.2444
       231.000         185.000
 110412181.87048  86035460.92648  21010745.2514   21010746.8124   21010745.2034
       249.000         225.000
 132611844.39648  85541697.41348  23332256.1464   23332256.9744   23332255.9244
       230.000         182.000
 09  1 23  1 26 30.0000000  0  9G 9G17G 5G15G26G30G18G12G22
 114877978.69548  71723089.96148  19957623.6254   19957626.3374   19957623.8164
       252.000         227.000
 133749342.83448  86428056.11448  23548718.6134   23548720.8214   23548718.0184
       225.000         180.000
 104178406.71348  98970175.04748  21727438.3844   21727441.7074   21727439.0274
       241.000         209.000
 123945775.38448  78788909.52048  21683164.8174   21683166.6924   21683164.3304
       241.000         213.000
 123599745.46048  96311476.21748  23520260.1374   23520262.7844   23520260.3094
       229.000         183.000
 124776493.90748  97228432.43448  23744179.9104   23744182.3634   23744179.9664
       223.000         171.000
 118576280.05848  92397095.36448  22564319.0404   22564320.9134   22564319.5194
       232.000         185.000
 110358602.62348  85993710.87448  21000549.4334   21000551.1294   21000549.2344
       249.000         225.000
 132598120.91148  85531003.80448  23329644.9284   23329645.5834   23329644.4574
       229.000         182.000
 09  1 23  1 27  0.0000000  0  9G 9G17G 5G15G26G30G18G12G22
 114871185.92648  71717796.89348  19956330.9204   19956333.6074   19956331.0204
       251.000         228.000
 133792570.82048  86461740.28548  23556944.7724   23556946.1414   23556945.1084
       226.000         178.000
 104101185.77448  98910002.91548  21712743.6494   21712746.7994   21712743.9824
       241.000         209.000
 124024377.12348  78850157.62548  21698122.2244   21698124.3304   21698121.9354
       241.000         212.000
 123705820.73848  96394132.27048  23540445.3294   23540447.9794   23540445.4684
       229.000         182.000
 124672009.40648  97147015.95648  23724297.2524   23724299.2604   23724297.1034
       225.000         171.000
 118616052.41548  92428086.79648  22571887.7574   22571889.4294   22571888.1444
       232.000         186.000
 110305458.06048  85952299.53648  20990436.5054   20990437.8994   20990436.3954
       249.000         225.000
 132584935.27248  85520729.26448  23327136.0574   23327135.3224   23327135.8754
       229.000         182.000
 09  1 23  1 27 30.0000000  0  9G 9G17G 5G15G26G30G18G12G22
 114864750.43048  71712782.22048  19955106.3804   19955108.9904   19955106.4534
       252.000         227.000
 133836313.20448  86495825.25548  23565268.4734   23565270.5234   23565268.5304
       225.000         178.000
 104024319.14348  98850106.86648  21698116.4354   21698119.5294   21698117.1274
       242.000         209.000
 124103353.52148  78911697.67348  21713150.9884   21713152.9234   21713150.7194
       240.000         212.000
 123812073.48548  96476926.62648  23560664.9014   23560667.4664   23560664.9544
       229.000         182.000
 124567700.18548  97065736.03648  23704447.2104   23704449.7214   23704446.8424
       222.000         168.000
 118656309.66948  92459456.05348  22579547.7924   22579550.1224   22579548.5144
       229.000         184.000
 110252748.44248  85911227.11248  20980406.0034   20980407.5084   20980405.8804
       249.000         225.000
 132572287.53948  85510873.89148  23324728.7434   23324729.6784   23324729.1944
       230.000         184.000
 09  1 23  1 28  0.0000000  0  9G 9G17G 5G15G26G30G18G12G22
 114858673.02648  71708046.58448  19953949.8704   19953952.5154   19953950.0464
       253.000         228.000
 133880569.12548  86530310.38148  23573689.9974   23573691.5004   23573689.7574
       225.000         177.000
 103947808.24848  98790488.02248  21683556.7674   21683560.0524   21683557.3354
       242.000         209.000
 124182703.08348  78973528.48848  21728250.5474   21728252.6434   21728250.2854
       240.000         211.000
 123918502.22648  96559858.10948  23580917.4974   23580920.3474   23580917.6544
       228.000         181.000
 124463567.96648  96984594.02048  23684631.7384   23684633.9414   23684631.8744
       221.000         167.000
 118697049.65148  92491201.48348  22587300.2574   22587302.5544   22587300.5144
       230.000         185.000
 110200474.76348  85870494.38848  20970458.5354   20970460.1064   20970458.3794
       248.000         225.000
 132560177.77748  85501437.69648  23322424.6044   23322425.5294   23322424.9144
       228.000         183.000
 09  1 23  1 28 30.0000000  0  9G 9G17G 5G15G26G30G18G12G22
 114852953.95748  71703590.16448  19952861.6434   19952864.3414   19952861.8924
       252.000         228.000
 133925337.26348  86565194.66148  23582209.0214   23582211.0144   23582208.7404
       224.000         176.000
 103871654.17848  98731147.21848  21669065.1954   21669068.5184   21669065.6054
       243.000         210.000
 124262424.95248  79035649.41048  21743421.0654   21743423.2464   21743420.7604
       240.000         210.000
 124025105.37648  96642925.49748  23601203.1244   23601205.9844   23601202.9544
       225.000         177.000
 124359614.57548  96903591.38948  23664849.8204   23664852.2764   23664849.4734
       221.000         167.000
 118738270.70648  92523321.78048  22595144.5544   22595146.8664   22595145.4614
       230.000         184.000
 110148637.48748  85830101.70848  20960594.2094   20960595.8384   20960593.9204
       249.000         225.000
 132548606.38448  85492420.98948  23320222.2884   23320223.3294   23320222.0084
       230.000         184.000
 09  1 23  1 29  0.0000000  0  9G 9G17G 5G15G26G30G18G12G22
 114847593.78248  71699413.40048  19951841.5374   19951844.2774   19951841.6454
       252.000         228.000
 133970616.42648  86600477.13548  23590825.0334   23590826.9494   23590825.0264
       223.000         174.000
 103795858.03548  98672085.30548  21654641.7914   21654645.0444   21654642.5584
       242.000         210.000
 124342517.55248  79098059.23148  21758662.4004   21758664.1294   21758662.0574
       240.000         211.000
 124131881.33648  96726127.54648  23621521.8864   23621524.6684   23621521.7584
       224.000         173.000
 124255841.47748  96822729.22248  23645102.4304   23645104.9874   23645102.2634
       225.000         172.000
 118779970.62048  92555815.19148  22603080.0794   22603082.0794   22603080.2924
       230.000         185.000
 110097236.98848  85790049.37848  20950813.2354   20950814.5804   20950813.2404
       249.000         225.000
 132537573.12948  85483823.63948  23318122.6824   23318123.6774   23318122.6074
       229.000         183.000
 09  1 23  1 29 30.0000000  0  9G 9G17G 5G15G26G30G18G12G22
 114842592.23948  71695516.09348  19950889.8564   19950892.4414   19950890.0454
       252.000         228.000
 134016404.99548  86636156.53348  23599538.0904   23599539.7234   23599537.7994
       224.000         176.000
 103720420.64148  98613302.92848  21640286.5594   21640289.8104   21640286.9924
       243.000         210.000
 124422978.91448  79160756.39048  21773973.6414   21773975.4384   21773973.3854
       240.000         211.000
 124238827.95548  96809462.57648  23641872.8654   23641875.8824   23641873.3434
       222.000         171.000
 124152249.60548  96742008.29348  23625389.7474   23625392.5924   23625390.1704
       223.000         173.000
 118822147.00248  92588679.88448  22611106.0254   22611108.3544   22611106.5514
       231.000         184.000
 110046273.69248  85750337.72748  20941115.1634   20941116.5924   20941114.9004
       249.000         225.000
 132527077.95848  85475645.58948  23316125.9294   23316126.3354   23316126.6104
       229.000         182.000
 09  1 23  1 30  0.0000000  0  9G 9G17G 5G15G26G30G18G12G22
 114837949.49748  71691898.37248  19950006.2534   19950009.0864   19950006.3754
       252.000         228.000
 134062701.55548  86672231.77248  23608348.7104   23608350.3694   23608348.9154
       224.000         179.000
 103645342.84248  98554800.75648  21625999.8054   21626002.6124   21626000.5844
       242.000         210.000
 124503807.15948  79223739.43748  21789354.8604   21789356.5874   21789354.3224
       241.000         210.000
 124345943.36048  96892929.11248  23662256.4744   23662259.4244   23662256.3664
       220.000         169.000
 124048840.19048  96661429.53448  23605711.2304   23605714.5374   23605710.7184
       224.000         171.000
 118864797.86448  92621914.31048  22619222.1094   22619224.3554   22619222.9614
       231.000         183.000
 109995747.97248  85710967.04148  20931500.3534   20931501.8564   20931500.2174
       250.000         225.000
 132517120.39248  85467886.44948  23314230.8584   23314231.2204   23314230.6184
       231.000         183.000
 09  1 23  1 30 30.0000000  0  9G 9G17G 5G15G26G30G18G12G22
 114833666.24148  71688560.76848  19949191.2934   19949193.7954   19949191.5114
       252.000         228.000
 134109504.55048  86708701.64148  23617255.0984   23617257.5794   23617254.4924
       225.000         180.000
 103570625.69248  98496579.60948  21611781.4414   21611784.5204   21611781.9834
       243.000         210.000
 124585000.95048  79287007.32048  21804805.3784   21804807.3264   21804805.0004
       240.000         209.000
 124453225.78148  96976525.80048  23682671.7504   23682674.5934   23682671.6014
       221.000         167.000
 123945615.16448  96580994.44448  23586068.1394   23586071.2164   23586068.0774
       222.000         171.000
 118907920.93548  92655516.68948  22627428.0594   22627430.1104   22627428.7154
       230.000         182.000
 109945660.05848  85671937.49848  20921968.9914   20921970.4904   20921968.9334
       249.000         226.000
 132507700.36448  85460546.13348  23312439.0304   23312438.9394   23312438.8704
       229.000         183.000
 09  1 23  1 31  0.0000000  0  9G 9G17G 5G15G26G30G18G12G22
 114829742.61448  71685503.39448  19948444.7334   19948447.1574   19948444.9094
       252.000         228.000
 134156812.41748  86745564.92848  23626257.5854   23626259.8434   23626257.9874
       225.000         182.000
 103496270.13548  98438640.22848  21597632.0684   21597635.1174   21597632.6874
       242.000         210.000
 124666558.30648  79350558.50348  21820325.0674   21820327.2174   21820325.0164
       240.000         210.000
 124560673.32748  97060251.16648  23703118.1954   23703120.6244   23703119.3864
       219.000         164.000
 123842575.59848  96500703.87248  23566460.5194   23566463.3484   23566459.7424
       224.000         172.000
 118951513.68448  92689485.03948  22635723.3284   22635725.5484   22635723.8914
       228.000         180.000
 109896010.49448  85633249.52748  20912521.1704   20912522.5894   20912521.1874
       250.000         227.000
 132498817.91448  85453624.73948  23310747.9474   23310748.5644   23310748.3424
       229.000         183.000
 09  1 23  1 31 30.0000000  0  9G 9G17G 5G15G26G30G18G12G22
 114826178.64348  71682726.27548  19947766.4184   19947769.0514   19947766.6034
       251.000         228.000
 134204623.69348  86782820.46848  23635355.7254   23635357.8374   23635355.9454
       226.000         183.000
 103422276.96548  98380983.23448  21583551.3014   21583554.7144   21583551.6894
       241.000         210.000
 124748477.56748  79414391.69048  21835913.9624   21835915.6734   21835913.7784
       239.000         208.000
 124668284.09848  97144103.72348  23723596.2584   23723598.9894   23723596.1224
       217.000         164.000
 123739722.70548  96420558.76448  23546888.5394   23546890.8544   23546888.6294
       223.000         169.000
 118995574.11948  92723817.83248  22644107.8934   22644109.6104   22644108.0724
       228.000         180.000
 109846799.48948  85594903.29648  20903156.6744   20903158.0054   20903156.5924
       249.000         227.000
 132490473.10648  85447122.27648  23309160.1844   23309161.2234   23309160.6574
       228.000         184.000
 09  1 23  1 32  0.0000000  0  9G 9G17G 5G15G26G30G18G12G22
 114822975.03948  71680229.95448  19947156.8084   19947159.4314   19947156.8744
       252.000         228.000
 134252936.97248  86820467.18148  23644549.5224   23644551.3634   23644548.9944
       226.000         181.000
 103348647.61848  98323609.73248  21569540.1554   21569543.5334   21569540.6984
       241.000         210.000
 124830757.61448  79478506.01748  21851571.3484   21851573.0364   21851571.1174
       240.000         209.000
 124776056.69648  97228082.38248  23744104.5154   23744107.3054   23744104.3194
       218.000         161.000
 123637058.57948  96340560.75448  23527352.0644   23527354.4864   23527351.4164
       227.000         172.000
 119040100.65048  92758513.82848  22652580.8744   22652582.6774   22652581.7874
       227.000         179.000
 109798027.41648  85556899.09448  20893875.3154   20893876.9014   20893875.2724
       250.000         226.000
 132482665.11148  85441038.11848  23307674.4144   23307675.2044   23307673.7604
       230.000         184.000
 09  1 23  1 32 30.0000000  0  9G 9G17G 5G15G26G30G18G12G22
 114820132.73848  71678015.17548  19946616.0154   19946618.5364   19946616.2554
       253.000         228.000
 134301751.69748  86858504.65748  23653838.3534   23653840.4604   23653838.0544
       226.000         181.000
 103275383.62448  98266520.90948  21555598.4244   21555601.7164   21555598.7964
       242.000         210.000
 124913397.50848  79542900.73048  21867297.1774   21867299.1654   21867296.6524
       239.000         209.000
 124883989.89148  97312186.18648  23764643.9394   23764646.6084   23764643.6784
       215.000         159.000
 123534585.26148  96260711.42248  23507852.3404   23507854.5694   23507852.2214
       224.000         172.000
 119085091.14748  92793571.32948  22661142.4954   22661144.2494   22661143.0244
       227.000         179.000
 109749696.00348  85519238.25248  20884678.3344   20884679.7734   20884678.2204
       249.000         226.000
 132475394.93748  85435373.02548  23306291.2654   23306291.4764   23306291.3354
       230.000         185.000
 09  1 23  1 33  0.0000000  0  9G 9G17G 5G15G26G30G18G12G22
 114817650.60748  71676081.04548  19946143.7274   19946146.2264   19946143.9684
       252.000         228.000
 134351065.11548  86896930.70048  23663222.5634   23663224.5114   23663222.4584
       223.000         178.000
 103202484.66248  98209716.53148  21541726.4854   21541729.5094   21541727.0364
       244.000         211.000
 124996393.96848  79607573.28248  21883090.8924   21883093.0544   21883090.5094
       239.000         209.000
 124992080.85848  97396412.89248  23785212.3824   23785215.4754   23785210.8714
       210.000         154.000
 123432302.52548  96181010.59748  23488388.4904   23488390.8884   23488388.5914
       224.000         174.000
 119130541.96348  92828987.52048  22669791.6914   22669793.7304   22669792.0464
       228.000         179.000
 109701803.85648  85481919.71048  20875564.6244   20875566.2364   20875564.5104
       249.000         227.000
 132468661.09048  85430125.87248  23305009.6894   23305009.9584   23305010.4264
       231.000         184.000
 09  1 23  1 33 30.0000000  0  9G 9G17G 5G15G26G30G18G12G22
 114815529.87948  71674428.52648  19945740.0704   19945742.7144   19945740.1494
       252.000         228.000
 134400876.50948  86935744.75548  23672701.1674   23672702.0904   23672700.8814
       224.000         177.000
 103129952.73948  98153198.16748  21527924.1534   21527927.2904   21527924.6844
       243.000         211.000
 125079746.55948  79672523.35148  21898952.4344   21898954.5514   21898952.1724
       240.000         209.000
 125100328.44848  97480761.65048  23805811.3844   23805814.5064   23805811.1424
       212.000         151.000
 123330212.99048  96101460.33148  23468961.3794   23468964.0164   23468961.2674
       224.000         175.000
 119176452.43748  92864761.89048  22678528.1354   22678530.1024   22678528.8594
       226.000         179.000
 109654352.45848  85444944.59048  20866535.0814   20866536.5104   20866534.7884
       250.000         227.000
 132462463.95648  85425296.91848  23303830.5124   23303830.7274   23303831.0304
       228.000         183.000
 09  1 23  1 34  0.0000000  0  9G 9G17G 5G15G26G30G18G12G22
 114813770.48448  71673057.57348  19945405.3074   19945407.8624   19945405.6264
       252.000         228.000
 134451183.74848  86974945.20448  23682273.9054   23682275.9584   23682273.9434
       223.000         180.000
 103057788.09748  98096965.99848  21514191.7814   21514194.8814   21514192.6054
       243.000         212.000
 125163453.11348  79737749.23648  21914881.2044   21914882.9904   21914880.7994
       238.000         208.000
 125208730.41548  97565230.71548  23826440.0374   23826442.8534   23826440.6294
       209.000         148.000
 123228317.31548  96022061.12848  23449571.0564   23449574.1814   23449571.0234
       222.000         176.000
 119222819.46748  92900892.02148  22687351.3124   22687353.5174   22687351.7854
       227.000         179.000
 109607341.54948  85408312.72048  20857589.0904   20857590.5444   20857589.0164
       250.000         227.000
 132456802.90648  85420885.70048  23302753.1144   23302753.6544   23302753.2114
       229.000         183.000
 09  1 23  1 34 30.0000000  0  9G 9G17G 5G15G26G30G18G12G22
 114812373.68248  71671969.15448  19945139.4604   19945142.1654   19945139.6814
       251.000         228.000
 134501985.82548  87014531.26148  23691941.9434   23691944.5914   23691941.3624
       226.000         182.000
 102985992.52548  98041021.41148  21500529.2394   21500532.5634   21500529.8794
       244.000         211.000
 125247512.39048  79803249.96648  21930877.2184   21930878.9994   21930876.6284
       240.000         208.000
 125317285.89548  97649819.39548  23847096.9184   23847100.5084   23847097.0754
       209.000         147.000
 123126618.10548  95942815.02548  23430217.9814   23430221.4744   23430217.8324
       223.000         174.000
 119269641.04548  92937376.35648  22696261.4424   22696263.4304   22696261.7284
       227.000         179.000
 109560771.99648  85372024.75948  20848727.2264   20848728.4834   20848727.0864
       249.000         226.000
 132451678.23148  85416892.43648  23301777.9834   23301778.6094   23301777.9304
       228.000         183.000
 09  1 23  1 35  0.0000000  0  9G 9G17G 5G15G26G30G18G12G22
 114811338.78648  71671162.73948  19944942.5394   19944945.1644   19944942.7454
       252.000         228.000
 134553280.53948  87054501.19748  23701703.0984   23701705.1764   23701703.2674
       226.000         178.000
 102914566.16648  97985364.53148  21486937.0494   21486940.5224   21486937.4334
       243.000         211.000
 125331922.07248  79869023.74048  21946939.8234   21946941.6724   21946939.7034
       239.000         207.000
 125425992.10848  97734525.54448  23867783.0644   23867785.7404   23867781.8884
       203.000         145.000
 123025115.66048  95863722.20748  23410902.7734   23410905.4834   23410902.6104
       225.000         174.000
 119316915.12648  92974213.29348  22705257.1514   22705258.9174   22705257.7624
       227.000         178.000
 109514643.50748  85336080.48848  20839949.2864   20839950.5444   20839949.1024
       249.000         227.000
 132447089.22648  85413316.58548  23300904.1614   23300905.2614   23300904.4904
       228.000         183.000
 09  1 23  1 35 30.0000000  0  9G 9G17G 5G15G26G30G18G12G22
 114810667.05948  71670639.30848  19944814.8014   19944817.3144   19944815.0244
       252.000         228.000
 134605067.47348  87094854.63448  23711557.5684   23711557.7714   23711557.2814
       222.000         176.000
 102843510.72248  97929996.65948  21473415.9334   21473419.0984   21473416.7224
       243.000         211.000
 125416681.25648  79935069.85048  21963068.8134   21963070.7424   21963068.5004
       238.000         207.000
 125534848.14548  97819348.39748  23888497.4124   23888500.4144   23888497.0964
       205.000         141.000
 122923812.13248  95784784.42748  23391625.9744   23391628.2194   23391625.6014
       227.000         175.000
 119364639.65548  93011401.23348  22714338.8524   22714340.6894   22714339.3474
       230.000         181.000
 109468957.14948  85300480.73348  20831255.4514   20831256.9364   20831255.1994
       250.000         228.000
 132443036.08248  85410158.30248  23300133.1524   23300134.0664   23300133.1574
       228.000         183.000
 09  1 23  1 36  0.0000000  0  9G 9G17G 5G15G26G30G18G12G22
 114810357.58248  71670398.15948  19944755.9434   19944758.4654   19944756.1684
       251.000         228.000
 134657343.74548  87135589.40548  23721505.1384   23721507.3724   23721504.8354
       221.000         179.000
 102772826.09348  97874917.73548  21459964.9784   21459968.0674   21459965.3834
       244.000         211.000
 125501787.11648  80001386.09748  21979263.8844   21979266.1094   21979263.6104
       238.000         207.000
 125643851.26448  97904285.92548  23909240.7664   23909243.0774   23909240.4444
       202.000         137.000
 122822708.01348  95706002.02948  23372386.4634   23372388.6294   23372386.3264
       224.000         174.000
 119412811.00848  93048937.34248  22723505.7624   22723507.6044   22723506.2224
       228.000         182.000
 109423712.27048  85265224.99348  20822645.5064   20822646.9804   20822645.3014
       249.000         227.000
 132439517.58548  85407416.59148  23299463.5914   23299464.2054   23299464.0364
       228.000         183.000
 09  1 23  1 36 30.0000000  0  9G 9G17G 5G15G26G30G18G12G22
 114810410.83248  71670439.64848  19944765.9134   19944768.6244   19944766.0354
       251.000         227.000
 134710107.74848  87176704.25248  23731545.6904   23731549.9464   23731545.5514
       222.000         178.000
 102702513.34748  97820128.59748  21446584.9294   21446588.1924   21446585.4944
       243.000         211.000
 125587238.56448  80067971.63848  21995524.8654   21995527.0354   21995524.6074
       238.000         207.000
 125752999.81448  97989336.76448  23930011.1384   23930012.4174   23930010.4334
       193.000         134.000
 122721804.66848  95627376.05548  23353184.9744   23353187.1494   23353184.2594
       227.000         175.000
 119461427.53248  93086820.32848  22732757.2164   22732759.1654   22732757.7914
       229.000         181.000
 109378909.11548  85230313.44648  20814119.8064   20814121.2084   20814119.5774
       249.000         228.000
 132436533.90848  85405091.63648  23298896.4404   23298896.6064   23298895.7394
       230.000         184.000
 09  1 23  1 37  0.0000000  0  9G 9G17G 5G15G26G30G18G12G22
 114810827.81748  71670764.56948  19944845.2624   19944847.9914   19944845.4214
       252.000         228.000
 134763358.78148  87218198.59948  23741678.9834   23741682.2914   23741679.0034
       223.000         174.000
 102632574.22248  97765630.58648  21433276.0184   21433279.2844   21433276.4534
       243.000         211.000
 125673034.34548  80134825.48748  22011851.4334   22011853.4814   22011851.2854
       239.000         208.000
 135862318.54358  88074526.88858  23950807.3375   23950810.6475   23950807.6775
       193.000         132.000
 122621104.49548  95548908.41748  23334022.3454   23334024.5344   23334022.2074
       224.000         174.000
 119510487.28848  93125048.69248  22742093.1624   22742094.9214   22742093.6224
       230.000         182.000
 109334548.81048  85195746.97848  20805678.4114   20805679.9144   20805678.2864
       249.000         228.000
 132434084.95148  85403183.34348  23298429.9164   23298431.0474   23298430.6274
       227.000         184.000
 09  1 23  1 37 30.0000000  0  9G 9G17G 5G15G26G30G18G12G22
 114811607.93148  71671372.45648  19944993.8764   19944996.2184   19944994.0964
       252.000         227.000
 134817093.95448  87260070.16148  23751904.5024   23751905.1704   23751904.0434
       222.000         171.000
 102563008.46848  97711423.51648  21420038.1364   21420041.2574   21420038.7224
       244.000         211.000
 125759171.67848  80201945.48048  22028242.7734   22028244.8424   22028242.4414
       238.000         207.000
 135971752.86048  88159800.36448  23971631.1534   23971636.0824   23971633.8334
       190.000         131.000
 122520608.07448  95470599.53648  23314898.1294   23314901.0924   23314897.9574
       226.000         177.000
 119559986.83648  93163619.74648  22751512.6654   22751514.3344   22751513.0884
       228.000         180.000
 109290630.83948  85161525.19448  20797321.0484   20797322.5874   20797320.8264
       249.000         228.000
 132432169.38848  85401690.68448  23298065.8354   23298065.8664   23298065.2214
       230.000         183.000
 09  1 23  1 38  0.0000000  0  9G 9G17G 5G15G26G30G18G12G22
 114812752.50848  71672264.33048  19945211.6154   19945214.1224   19945211.7364
       251.000         228.000
 134871312.68048  87302318.51048  23762222.2534   23762222.1144   23762222.3254
       223.000         171.000
 102493818.01248  97657508.87648  21406871.6674   21406874.7554   21406872.6324
       243.000         211.000
 125845649.64048  80269330.89948  22044698.6674   22044700.8294   22044698.2054
       238.000         205.000
 136081327.79748  88245183.42348  23992483.3804   23992485.7114   23992483.7554
       203.000         130.000
 122420317.61148  95392451.15448  23295813.5794   23295816.8574   23295813.4794
       226.000         178.000
 119609925.10448  93202532.67648  22761015.1714   22761017.3274   22761015.8404
       229.000         180.000
 109247156.08948  85127648.77448  20789047.9894   20789049.4544   20789047.8714
       250.000         228.000
 132430787.49548  85400613.88848  23297802.2074   23297803.5214   23297803.2264
       228.000         183.000
 09  1 23  1 38 30.0000000  0  9G 9G17G 5G15G26G30G18G12G22
 114814261.30948  71673440.01848  19945498.6944   19945501.2604   19945498.7914
       252.000         228.000
 134926012.69048  87344941.89248  23772630.9404   23772632.4544   23772630.3534
       220.000         173.000
 102425003.09648  97603886.87048  21393776.3894   21393779.7004   21393776.7214
       244.000         211.000
 125932466.29048  80336980.23748  22061219.6314   22061221.3424   22061219.4014
       238.000         206.000
 136191040.96648  88330674.22748  24013363.5234   24013362.0524   24013362.6744
       202.000         130.000
 122320233.96248  95314463.91448  23276768.6184   23276771.5244   23276769.0774
       225.000         177.000
 119660299.06848  93241785.10848  22770600.7404   22770603.3694   22770601.7154
       226.000         180.000
 109204124.39148  85094117.58748  20780859.3114   20780860.7684   20780859.0894
       249.000         228.000
 132429938.47648  85399952.29648  23297640.9594   23297641.4544   23297640.5694
       230.000         184.000
 09  1 23  1 39  0.0000000  0  9G 9G17G 5G15G26G30G18G12G22
 114816134.97948  71674900.01948  19945855.3114   19945857.7794   19945855.5184
       251.000         227.000
 134981193.05648  87387939.60348  23783131.4564   23783133.6254   23783131.1374
       220.000         175.000
 102356565.21248  97550558.65848  21380753.1034   21380756.3834   21380753.7814
       245.000         211.000
 126019619.99148  80404892.20048  22077804.4554   22077806.4964   22077804.0684
       237.000         206.000
 136300891.37848  88416272.01648  24034267.8524   24034268.2634   24034265.4654
       196.000         124.000
 122220358.96048  95236639.27148  23257762.7764   23257765.7494   23257762.3844
       226.000         178.000
 119711106.60148  93281375.37248  22780269.2384   22780271.8504   22780269.4424
       227.000         179.000
 109161536.50648  85060932.22548  20772755.1654   20772756.5654   20772754.8834
       250.000         228.000
 132429622.82248  85399706.32548  23297581.0674   23297581.5234   23297581.3684
       229.000         183.000
 09  1 23  1 39 30.0000000  0  9G 9G17G 5G15G26G30G18G12G22
 114818373.04348  71676643.96448  19946281.1924   19946283.6804   19946281.3084
       252.000         227.000
 135036851.19348  87431309.60648  23793722.2924   23793726.3394   23793721.2704
       218.000         176.000
 102288504.19448  97497524.11448  21367801.7434   21367804.7844   21367802.4734
       244.000         211.000
 126107108.11548  80473064.75448  22094452.8754   22094455.0914   22094452.3944
       238.000         206.000
 136410875.88648  88501974.21348  24055198.9594   24055197.3894   24055196.9694
       191.000         121.000
 122120692.91348  95158977.43248  23238797.2404   23238799.9594   23238796.7464
       228.000         179.000
 119762344.50548  93321301.00448  22790019.8914   22790021.7254   22790020.3074
       226.000         179.000
 109119391.41748  85028091.90248  20764735.1574   20764736.6824   20764735.0604
       249.000         228.000
 132429838.60548  85399874.45748  23297622.1574   23297622.6614   23297622.6554
       229.000         183.000
 09  1 23  1 40  0.0000000  0  8G 9G17G 5G15G30G18G12G22
 114820976.41248  71678672.56548  19946776.5334   19946779.1654   19946776.8484
       251.000         227.000
 135092985.82148  87475050.91648  23804404.5334   23804408.5164   23804404.2374
       220.000         173.000
 102220821.72648  97444784.53548  21354922.0614   21354925.1514   21354922.6454
       245.000         211.000
 126194930.11548  80541497.47548  22111164.6564   22111166.7294   22111164.5194
       238.000         205.000
 122021238.10248  95081480.17248  23219871.6744   23219873.5774   23219871.8134
       228.000         177.000
 119814011.31748  93361560.85548  22799851.8234   22799853.6524   22799852.5234
       229.000         179.000
 109077690.24648  84995597.48648  20756799.7854   20756801.1624   20756799.6774
       250.000         229.000
 132430586.10748  85400456.92848  23297764.3964   23297764.9864   23297764.7444
       230.000         182.000
 09  1 23  1 40 30.0000000  0  8G 9G17G 5G15G30G18G12G22
 114823943.79648  71680984.81148  19947341.2124   19947343.8504   19947341.3904
       250.000         227.000
 135149593.61648  87519160.90148  23815176.6524   23815179.8874   23815176.2544
       220.000         171.000
 102153516.98848  97392339.28048  21342114.4324   21342117.3854   21342115.2304
       244.000         211.000
 126283082.02548  80610187.27348  22127939.6164   22127941.2614   22127939.2274
       237.000         204.000
 121921993.96948  95004147.10348  23200985.3764   23200988.0414   23200984.8144
       223.000         175.000
 119866102.66148  93402151.50848  22809764.2454   22809766.1754   22809764.6344
       229.000         180.000
 109036431.14748  84963447.54048  20748948.5914   20748949.8154   20748948.5644
       250.000         229.000
 132431862.77448  85401451.72648  23298007.4914   23298007.7974   23298008.0094
       230.000         183.000
 09  1 23  1 41  0.0000000  0  8G 9G17G 5G15G30G18G12G22
 114827278.81148  71683583.52648  19947975.7434   19947978.3354   19947975.8094
       251.000         227.000
 135206676.06048  87563640.71648  23826039.7934   23826040.9744   23826039.7354
       221.000         169.000
 102086594.05348  97340191.54748  21329379.1774   21329382.6084   21329379.8484
       243.000         211.000
 126371566.06648  80679135.87748  22144777.6574   22144779.3914   22144777.6234
       238.000         204.000
 121822965.75548  94926982.27848  23182141.0254   23182143.7054   23182140.9404
       226.000         178.000
 119918619.43448  93443073.67548  22819758.0864   22819759.6894   22819758.2674
       230.000         180.000
 108995618.27548  84931645.30948  20741181.9774   20741183.4684   20741181.6084
       250.000         229.000
 132433672.05648  85402861.55848  23298351.5234   23298351.7474   23298351.6494
       230.000         182.000
 09  1 23  1 41 30.0000000  0  8G 9G17G 5G15G30G18G12G22
 114830979.11548  71686466.88348  19948679.9434   19948682.4734   19948680.1704
       251.000         227.000
 135264228.98248  87608487.16048  23836991.9344   23836992.2094   23836992.0144
       220.000         166.000
 102020051.04848  97288339.86648  21316716.2274   21316719.8834   21316716.7474
       243.000         211.000
 126460377.23148  80748339.36448  22161677.5664   22161679.6544   22161677.3354
       238.000         204.000
 121724151.77948  94849984.38048  23163337.6074   23163340.1884   23163337.2704
       225.000         178.000
 119971556.59748  93484323.39848  22829831.6964   22829833.6054   22829832.5764
       231.000         180.000
 108955248.79848  84900188.57648  20733499.9574   20733501.3284   20733499.9824
       249.000         229.000
 132436010.31248  85404683.57748  23298796.5294   23298796.8804   23298796.5774
       229.000         180.000
 09  1 23  1 42  0.0000000  0  8G 9G17G 5G15G30G18G12G22
 114835044.90148  71689635.02248  19949453.7074   19949456.2264   19949453.8564
       251.000         227.000
 135322250.54248  87653698.75048  23848032.7934   23848033.6724   23848033.0264
       219.000         167.000
 101953888.89348  97236784.95748  21304126.2004   21304129.5684   21304126.5784
       243.000         211.000
 126549513.79648  80817796.42848  22178639.8504   22178641.7044   22178639.7594
       238.000         203.000
 121625553.52548  94773154.57448  23144575.1374   23144577.8024   23144574.9044
       228.000         178.000
 120024911.74748  93525898.81748  22839984.5234   22839986.3614   22839984.9504
       227.000         179.000
 108915322.84148  84869077.45148  20725902.3114   20725903.6644   20725902.0664
       250.000         230.000
 132438877.01648  85406917.34948  23299341.5024   23299341.9454   23299341.7414
       230.000         182.000
 09  1 23  1 42 30.0000000  0  8G 9G17G 5G15G30G18G12G22
 114839477.67348  71693089.13048  19950297.3064   19950299.7224   19950297.4934
       252.000         227.000
 135380739.56448  87699274.61648  23859163.1534   23859164.5924   23859162.7204
       218.000         168.000
 101888109.22348  97185528.08648  21291608.9904   21291612.0924   21291609.3404
       245.000         211.000
 126638974.87648  80887506.35848  22195663.8294   22195665.6464   22195663.8464
       236.000         204.000
 121527173.37048  94696494.72048  23125853.7024   23125856.4134   23125853.7254
       228.000         178.000
 120078683.10348  93567798.55948  22850216.8514   22850218.8834   22850217.1144
       226.000         178.000
 108875841.51248  84838312.78448  20718389.2434   20718390.6194   20718389.1794
       250.000         230.000
 132442272.37148  85409563.09748  23299988.1314   23299988.5204   23299988.6524
       231.000         181.000
 09  1 23  1 43  0.0000000  0  8G 9G17G 5G15G30G18G12G22
 114844276.89648  71696828.78648  19951210.5114   19951212.9394   19951210.7234
       251.000         227.000
 135439693.77548  87745212.98348  23870381.3914   23870383.8374   23870381.8204
       217.000         169.000
 101822712.24348  97134569.41348  21279164.4704   21279167.3174   21279165.2174
       244.000         212.000
 126728757.86148  80957467.12148  22212748.7384   22212750.6404   22212748.5514
       237.000         204.000
 121429011.74548  94620005.15248  23107174.4384   23107176.9294   23107173.6584
       227.000         179.000
 120132867.71148  93610020.32448  22860528.5154   22860530.0874   22860529.0264
       229.000         179.000
 108836804.12748  84807894.04648  20710960.7264   20710961.9934   20710960.5364
       250.000         230.000
 132446195.13848  85412619.77948  23300734.5594   23300734.4614   23300735.0474
       229.000         181.000
 09  1 23  1 43 30.0000000  0  8G 9G17G 5G15G30G18G12G22
 114849443.73248  71700854.88948  19952193.7084   19952196.1814   19952193.8984
       251.000         227.000
 135499112.45248  87791513.27048  23881688.5094   23881691.4494   23881687.9914
       218.000         168.000
 101757699.65148  97083910.25348  21266792.9774   21266795.9214   21266793.4804
       244.000         212.000
 126818862.22848  81027678.31348  22229895.1874   22229897.2264   22229894.9244
       236.000         203.000
 121331071.13848  94543687.79048  23088536.8904   23088539.7254   23088536.6364
       229.000         179.000
 120187463.98448  93652562.87148  22870917.7194   22870919.6164   22870918.5894
       228.000         179.000
 108798212.06148  84777822.32348  20703616.8474   20703618.2624   20703616.8344
       249.000         230.000
 132450645.81448  85416087.79648  23301581.4124   23301581.3624   23301581.4164
       228.000         179.000
 09  1 23  1 44  0.0000000  0  8G 9G17G 5G15G30G18G12G22
 114854977.43248  71705166.86148  19953246.6924   19953249.1614   19953246.9364
       251.000         227.000
 135558992.82948  87838173.34248  23893082.8564   23893085.7914   23893083.1904
       219.000         168.000
 101693071.38948  97033550.56348  21254494.4614   21254497.4174   21254495.2184
       244.000         212.000
 126909285.09048  81098137.67448  22247101.9314   22247103.9134   22247101.2834
       236.000         202.000
 121233351.87448  94467542.92348  23069941.2954   23069944.4104   23069941.3284
       226.000         180.000
 120242468.43348  93695423.46848  22881384.5484   22881386.6654   22881384.5704
       226.000         178.000
 108760064.06648  84748096.61748  20696357.4524   20696358.9084   20696357.4224
       250.000         230.000
 132455622.50248  85419965.72748  23302528.4634   23302528.1244   23302528.6714
       230.000         181.000
 09  1 23  1 44 30.0000000  0  8G 9G17G 5G15G30G18G12G22
 114860878.87548  71709765.39248  19954369.7144   19954372.1544   19954369.7864
       251.000         226.000
 135619333.73848  87885192.21748  23904566.4354   23904567.2994   23904565.8494
       220.000         168.000
 101628828.56048  96983491.22848  21242269.4544   21242272.6834   21242270.1104
       244.000         213.000
 127000024.98348  81168844.09348  22264369.3114   22264371.4984   22264369.3554
       237.000         204.000
 121135856.13448  94391572.21548  23051388.7504   23051391.4644   23051387.7154
       231.000         181.000
 120297878.96848  93738600.48848  22891928.6754   22891930.8054   22891928.7684
       227.000         179.000
 108722360.87148  84718717.51048  20689182.8814   20689184.2514   20689182.7144
       250.000         230.000
 132461125.03448  85424253.41648  23303575.6944   23303575.6374   23303576.0174
       229.000         182.000
 09  1 23  1 45  0.0000000  0  8G 9G17G 5G15G30G18G12G22
 114867147.65148  71714650.15348  19955562.6774   19955565.0814   19955563.0154
       252.000         227.000
 135680132.18848  87932567.64148  23916135.1834   23916136.6994   23916135.0694
       220.000         167.000
 101564971.21648  96933732.26648  21230117.7984   21230121.0614   21230118.2364
       243.000         213.000
 127091079.53848  81239795.68748  22281696.3034   22281698.6404   22281695.9174
       235.000         203.000
 121038584.22348  94315775.93648  23032878.3294   23032881.0994   23032878.6144
       229.000         180.000
 120353692.33248  93782091.40548  22902549.4994   22902551.8204   22902549.9074
       227.000         180.000
 108685101.76248  84689684.44248  20682092.6124   20682094.0654   20682092.3864
       249.000         231.000
 132467152.11048  85428949.82448  23304722.4794   23304722.4434   23304721.8154
       229.000         182.000
 09  1 23  1 45 30.0000000  0  8G 9G17G 5G15G30G18G12G22
 114873784.45948  71719821.69048  19956825.5864   19956828.1644   19956825.8024
       251.000         227.000
 135741386.84148  87980298.54848  23927792.3424   23927793.1504   23927792.2354
       219.000         167.000
 101501500.52148  96884274.58348  21218039.6924   21218042.8114   21218040.4164
       244.000         212.000
 127182447.03548  81310991.13048  22299082.9224   22299085.0544   22299082.2424
       236.000         202.000
 120941537.64248  94240155.22748  23014411.2084   23014413.7214   23014410.7144
       230.000         181.000
 120409906.16448  93825894.36548  22913246.9214   22913249.2194   22913247.7774
       229.000         180.000
 108648287.20048  84660997.78448  20675086.9384   20675088.5334   20675086.5694
       250.000         231.000
 132473703.33348  85434054.67348  23305969.0024   23305969.5384   23305969.5454
       228.000         185.000
 09  1 23  1 46  0.0000000  0  8G 9G17G 5G15G30G18G12G22
 114880788.96448  71725279.74748  19958158.5534   19958161.0564   19958158.6634
       252.000         227.000
 135803094.90848  88028382.77848  23939534.6444   23939536.1754   23939534.5904
       220.000         168.000
 101438416.39548  96835118.13548  21206035.0634   21206038.1684   21206035.5714
       243.000         212.000
 127274124.67248  81382428.25848  22316528.6844   22316530.6084   22316528.7894
       235.000         201.000
 120844717.19148  94164710.74048  22995986.9744   22995989.4484   22995986.7374
       230.000         181.000
 120466516.96248  93870006.66648  22924019.7354   22924021.6884   22924020.2224
       231.000         178.000
 108611916.47048  84632656.96548  20668165.9784   20668167.2694   20668165.9224
       250.000         230.000
 132480777.28748  85439566.83248  23307315.0084   23307315.5014   23307315.3884
       230.000         183.000
 09  1 23  1 46 30.0000000  0  8G 9G17G 5G15G30G18G12G22
 114888162.16948  71731025.10148  19959561.6194   19959564.0454   19959561.8234
       252.000         227.000
 135865255.57148  88076819.66048  23951362.9964   23951364.9984   23951362.8324
       216.000         166.000
 101375720.51448  96786264.21348  21194104.2794   21194107.6704   21194104.6424
       244.000         212.000
 127366111.99348  81454106.69248  22334033.2454   22334035.1194   22334032.7054
       236.000         201.000
 120748125.40648  94089444.41948  22977606.4544   22977608.2764   22977606.7384
       230.000         182.000
 120523523.66048  93914427.46648  22934867.6174   22934869.4354   22934868.4884
       230.000         178.000
 108575990.50048  84604662.70648  20661329.4064   20661330.8274   20661329.2374
       250.000         231.000
 132488373.93848  85445486.28948  23308761.1194   23308761.2864   23308760.9884
       227.000         179.000
 09  1 23  1 47  0.0000000  0  8G 9G17G 5G15G30G18G12G22
 114895904.06848  71737057.74948  19961034.7744   19961037.3674   19961034.9844
       252.000         227.000
 135927866.80448  88125607.64348  23963278.0254   23963278.9774   23963278.0444
       218.000         169.000
 101313413.46748  96737713.28048  21182247.8154   21182251.0094   21182248.4074
       244.000         213.000
 127458406.96648  81526024.84448  22351596.5104   22351598.7934   22351596.4694
       234.000         202.000
 120651763.22648  94014357.02448  22959269.1394   22959271.5824   22959269.1594
       229.000         181.000
 120580923.28148  93959154.42148  22945790.0254   22945792.0684   22945790.4724
       227.000         177.000
 108540508.92548  84577014.73648  20654577.4364   20654578.9424   20654577.2614
       250.000         231.000
 132496492.09848  85451812.12148  23310305.5694   23310305.8904   23310305.7344
       228.000         179.000
 09  1 23  1 47 30.0000000  0  8G 9G17G 5G15G30G18G12G22
 114904014.53948  71743377.59348  19962578.1984   19962580.7514   19962578.3674
       251.000         227.000
 135990925.76448  88174744.49548  23975277.9674   23975278.5584   23975278.2944
       221.000         166.000
 101251495.18248  96689465.27848  21170465.2494   21170468.4854   21170465.6904
       245.000         214.000
 127551006.59548  81598180.38848  22369217.7344   22369219.7774   22369217.4904
       236.000         202.000
 120555631.01648  93939448.81748  22940975.7144   22940978.2564   22940975.6934
       229.000         180.000
 120638711.94548  94004184.53648  22956787.0254   22956789.0334   22956787.2724
       228.000         178.000
 108505471.13148  84549712.56748  20647909.8684   20647911.5094   20647909.6544
       249.000         231.000
 132505130.30448  85458543.17848  23311949.7674   23311949.5404   23311949.7004
       228.000         181.000
 09  1 23  1 48  0.0000000  0  8G 9G17G 5G15G30G18G12G22
 114912494.25148  71749985.15948  19964191.8754   19964194.3864   19964192.0194
       252.000         227.000
 136054431.23448  88224229.29248  23987361.8814   23987363.6434   23987362.1714
       219.000         166.000
 101189966.95348  96641521.20748  21158756.9134   21158759.8664   21158757.3184
       245.000         213.000
 127643909.79348  81670572.48848  22386896.6134   22386898.5084   22386896.6764
       236.000         201.000
 120459731.05148  93864721.59148  22922726.0634   22922729.0744   22922726.2264
       227.000         179.000
 120696888.36548  94049516.79148  22967857.7314   22967859.8954   22967858.3844
       229.000         179.000
 108470877.83848  84522756.76348  20641326.9554   20641328.5444   20641326.6404
       250.000         231.000
 132514288.53748  85465679.46948  23313692.5794   23313692.8764   23313692.8594
       229.000         182.000
 09  1 23  1 48 30.0000000  0  8G 9G17G 5G15G30G18G12G22
 114921342.93148  71756880.23348  19965875.6754   19965878.1774   19965875.8884
       252.000         227.000
 136118380.76148  88274060.10748  23999531.2364   23999533.2094   23999531.3384
       218.000         168.000
 101128829.07848  96593881.32248  21147122.7244   21147125.6234   21147123.1014
       244.000         213.000
 127737114.17148  81743199.28148  22404632.6644   22404634.4914   22404632.3654
       235.000         201.000
 120364063.82748  93790175.70648  22904521.3124   22904524.0564   22904521.2284
       228.000         181.000
 120755449.24948  94095148.62148  22979001.9894   22979003.8384   22979002.5234
       227.000         177.000
 108436728.50048  84496146.89448  20634828.7544   20634830.1314   20634828.7364
       250.000         231.000
 132523965.51248  85473219.92848  23315533.6414   23315534.2384   23315534.2174
       227.000         182.000
 09  1 23  1 49  0.0000000  0  8G 9G17G 5G15G30G18G12G22
 114930560.99148  71764063.13848  19967629.7384   19967632.3014   19967630.0574
       251.000         227.000
 136182772.80648  88324235.71248  24011784.9354   24011786.4494   24011783.8204
       220.000         170.000
 101068082.44848  96546546.28748  21135562.9754   21135565.9194   21135563.3204
       244.000         213.000
 127830617.96648  81816059.36848  22422426.0174   22422427.7564   22422425.2944
       234.000         200.000
 120268630.95348  93715812.45348  22886361.3034   22886363.9114   22886361.1674
       231.000         184.000
 120814392.20348  94141078.16848  22990218.6764   22990220.1664   22990219.4814
       227.000         176.000
 108403023.36448  84469883.15448  20628414.8674   20628416.2404   20628414.4674
       251.000         232.000
 132534159.97248  85481163.65748  23317473.6104   23317474.4794   23317473.9854
       228.000         182.000
 09  1 23  1 49 30.0000000  0  9G 9G17G 5G15G30G18G14G12G22
 114940149.00048  71771534.30948  19969454.2964   19969456.9694   19969454.2694
       251.000         227.000
 136247605.21348  88374754.50648  24024121.6064   24024123.3464   24024121.7004
       217.000         167.000
 101007727.57848  96499516.53148  21124077.6114   21124080.7094   21124078.4274
       244.000         213.000
 127924419.42348  81889151.41348  22440275.9504   22440277.7334   22440275.5174
       235.000         201.000
 120173434.09548  93641633.08548  22868245.6634   22868248.2864   22868245.8104
       227.000         182.000
 120873714.31648  94187303.17648  23001506.6964   23001508.7684   23001506.8884
       227.000         176.000
 138951257.37058  90481487.64758  24538617.0735   24538620.1705   24538617.5275
       205.000         151.000
 108369762.04548  84443965.25148  20622085.5164   20622086.7074   20622085.4004
       250.000         231.000
 132544871.60448  85489510.37748  23319511.9314   23319512.5124   23319512.2454
       227.000         181.000
 09  1 23  1 50  0.0000000  0  9G 9G17G 5G15G30G18G14G12G22
 114950107.52848  71779294.19448  19971349.5414   19971352.1404   19971349.8524
       252.000         227.000
 136312876.16548  88425614.98748  24036542.5384   24036543.6684   24036541.5474
       218.000         169.000
 100947765.34748  96452792.71748  21112667.1804   21112670.3344   21112667.4664
       244.000         214.000
 128018516.71248  81962473.97048  22458181.8564   22458183.7504   22458181.9374
       235.000         200.000
 120078474.35748  93567638.50248  22850175.2534   22850178.2484   22850174.5804
       228.000         182.000
 120933413.09848  94233821.68848  23012867.0474   23012869.0044   23012867.8864
       225.000         175.000
 138847038.09148  90400277.81548  24518784.4034   24518787.9684   24518785.3904
       210.000         151.000
 108336944.83048  84418393.39948  20615840.5484   20615841.8434   20615840.3294
       250.000         231.000
 132556099.33248  85498259.25448  23321648.4814   23321648.8874   23321648.5494
       228.000         181.000
 09  1 23  1 50 30.0000000  0  9G 9G17G 5G15G30G18G14G12G22
 114960436.49548  71787342.74248  19973314.9724   19973317.7454   19973315.1554
       252.000         227.000
 136378583.47548  88476815.48248  24049046.2894   24049047.7184   24049046.1944
       217.000         169.000
 100888196.23148  96406375.23348  21101331.4814   21101334.7054   21101332.0634
       245.000         214.000
 128112907.85048  82036025.50848  22476143.8774   22476146.0534   22476143.2254
       233.000         199.000
 119983752.65148  93493829.38748  22832150.4964   22832153.0194   22832150.5004
       230.000         182.000
 120993485.98648  94280631.71448  23024298.2084   23024300.3404   23024298.3924
       225.000         173.000
 138742924.63048  90319150.42348  24498972.3344   24498975.6274   24498972.9394
       212.000         152.000
 108304571.20848  84393167.21048  20609679.9754   20609681.3924   20609679.7714
       250.000         232.000
 132567841.98148  85507409.35448  23323882.9424   23323883.6574   23323883.3884
       227.000         180.000
 09  1 23  1 51  0.0000000  0 10G 9G17G 5G15G26G30G18G14G12G22
  94971134.08258  91795678.07758  19975351.1695   19975353.6115   19975351.4495
       251.000         227.000
 136444725.34848  88528354.61248  24061632.5604   24061634.1324   24061632.9554
       216.000         167.000
 100829020.84848  96360264.54348  21090070.9764   21090074.0104   21090071.3614
       245.000         215.000
 128207590.75248  82109804.38648  22494161.4614   22494163.2394   22494160.9954
       233.000         198.000
 118973509.09058 110498829.68658  24542849.5205   24542851.3995   24542849.1675
       217.000         152.000
 119889270.53248  93420206.97148  22814171.3344   22814173.7324   22814171.2744
       229.000         183.000
 121053930.20148  94327731.08548  23035800.4314   23035802.5664   23035800.7474
       226.000         175.000
 138638919.05548  90238107.12948  24479181.5694   24479182.9034   24479183.2374
       211.000         153.000
 108272641.54748  84368286.95648  20603603.8614   20603605.3794   20603603.8324
       250.000         232.000
 132580098.53948  85516959.90248  23326215.6314   23326216.1284   23326215.4274
       227.000         182.000
 09  1 23  1 51 30.0000000  0 10G 9G17G 5G15G26G30G18G14G12G22
  94982203.69548  91804303.74548  19977457.5794   19977460.0734   19977457.7694
       252.000         227.000
 136511298.94248  88580230.10548  24074301.2294   24074302.2214   24074300.9454
       216.000         166.000
 100770239.28448  96314460.72448  21078885.4234   21078888.3704   21078886.0124
       245.000         215.000
 128302562.88648  82183808.64648  22512234.1354   22512236.1414   22512233.7624
       235.000         199.000
 119086176.83948 110586622.74348  24564288.9314   24564291.0144   24564288.7884
       216.000         154.000
 119795028.34848  93346771.53048  22796237.6274   22796239.9794   22796237.2814
       229.000         184.000
 121114741.98548  94375116.88848  23047372.7784   23047374.6624   23047373.6124
       227.000         175.000
 138535023.31748  90157149.44348  24459411.0994   24459411.7134   24459411.2994
       215.000         153.000
 108241154.97348  84343751.96748  20597612.2394   20597613.6984   20597611.9824
       250.000         232.000
 132592867.78448  85526909.95048  23328645.2874   23328645.9614   23328645.3404
       226.000         180.000
 09  1 23  1 52  0.0000000  0 10G 9G17G 5G15G26G30G18G14G12G22
  94993644.88348  91813218.96148  19979634.7344   19979637.1614   19979634.9674
       250.000         226.000
 136578303.15548  88632441.20848  24087052.0204   24087052.6944   24087052.2334
       220.000         167.000
 100711853.15748  96268965.05348  21067774.7784   21067777.9464   21067775.5794
       245.000         215.000
 128397823.19348  82258037.45748  22530361.3034   22530363.7954   22530361.2444
       232.000         200.000
 119198933.68248 110674485.23048  24585745.7874   24585747.7614   24585745.9644
       220.000         160.000
 119701028.71248  93273525.07848  22778350.1464   22778352.5494   22778350.1854
       229.000         183.000
 121175920.09848  94422788.13248  23059014.6384   23059016.8574   23059015.2084
       229.000         175.000
 138431240.80148  90076279.88848  24439661.9954   24439663.7264   24439661.9714
       211.000         156.000
 108210112.24148  84319562.83248  20591704.9284   20591706.5294   20591704.8474
       250.000         232.000
 132606149.49248  85537259.32448  23331172.7714   23331173.3224   23331173.0964
       228.000         182.000
 09  1 23  1 52 30.0000000  0 10G 9G17G 5G15G26G30G18G14G12G22
  95005456.49548  91822422.80348  19981882.4054   19981884.8684   19981882.5564
       249.000         227.000
 136645734.61548  88684985.23348  24099883.8564   24099885.1474   24099884.3094
       217.000         166.000
 100653861.54448  96223776.79448  21056739.2494   21056742.4414   21056739.8004
       245.000         215.000
 128493368.48748  82332488.32548  22548543.0804   22548545.2704   22548542.4294
       233.000         199.000
 119311776.60048 110762414.79548  24607219.6024   24607221.2214   24607220.3234
       220.000         160.000
 119607271.49048  93200467.52448  22760508.5724   22760511.2404   22760508.1364
       229.000         183.000
 121237460.53848  94470741.68848  23070725.5564   23070727.6044   23070726.1994
       228.000         176.000
 138327572.30148  89995499.32848  24419934.1014   24419936.0184   24419934.8824
       209.000         155.000
 108179511.68548  84295718.24748  20585881.9264   20585883.5144   20585881.8504
       250.000         232.000
 132619941.09048  85548006.01248  23333797.5714   23333797.6624   23333797.2984
       230.000         181.000
 09  1 23  1 53  0.0000000  0 10G 9G17G 5G15G26G30G18G14G12G22
  95017639.81348  91831916.29348  19984200.6784   19984203.3554   19984200.7514
       249.000         227.000
 136713592.32248  88737861.38148  24112796.3994   24112798.8544   24112795.8604
       215.000         164.000
 100596266.17248  96178897.29648  21045779.3174   21045782.2334   21045779.7604
       246.000         215.000
 128589197.93448  82407160.61248  22566778.9904   22566780.8574   22566778.5314
       235.000         198.000
 119424704.73848 110850410.74648  24628708.1644   24628711.1134   24628709.0044
       219.000         162.000
 119513759.06448  93127600.71548  22742713.7054   22742716.2144   22742714.0034
       229.000         184.000
 121299361.41648  94518976.12348  23082504.7574   23082506.9504   23082505.4444
       227.000         176.000
 138224021.68248  89914810.57448  24400229.0614   24400231.0544   24400230.0544
       209.000         155.000
 108149354.39248  84272219.06148  20580143.1234   20580144.6454   20580143.0754
       250.000         233.000
 132634242.65348  85559150.07848  23336519.2084   23336518.7954   23336520.0444
       228.000         180.000
 09  1 23  1 53 30.0000000  0 10G 9G17G 5G15G26G30G18G14G12G22
  95030194.70948  91841699.33748  19986589.7914   19986592.5574   19986589.9094
       250.000         227.000
 136781873.89348  88791067.81248  24125789.9674   24125792.1074   24125789.6014
       216.000         163.000
 100539067.13748  96134326.63348  21034894.6094   21034897.5624   21034895.2084
       245.000         215.000
 128685308.90448  82482052.28748  22585068.3794   22585070.2154   22585068.5034
       233.000         198.000
 119537715.96648 110938471.40848  24650213.5774   24650217.1984   24650213.8494
       216.000         161.000
 119420492.14448  93054925.21848  22724965.4704   22724968.4654   22724964.8194
       228.000         185.000
 121361619.28248  94567488.74148  23094352.2544   23094354.5804   23094352.9334
       227.000         176.000
 138120590.86148  89834215.13348  24380546.5544   24380548.3344   24380546.1944
       213.000         153.000
 108119639.77548  84249064.82548  20574488.6704   20574490.0954   20574488.4014
       250.000         233.000
 132649052.61048  85570690.29648  23339337.1014   23339337.7024   23339337.4354
       228.000         180.000
 09  1 23  1 54  0.0000000  0 10G 9G17G 5G15G26G30G18G14G12G22
  95043121.91448  91851772.47848  19989049.8424   19989052.5394   19989049.9644
       249.000         227.000
 136850577.93448  88844603.45348  24138863.8794   24138864.9324   24138863.5474
       215.000         160.000
 100482265.63148  96090065.72948  21024085.4774   21024088.7304   21024086.0384
       245.000         216.000
 128781700.44548  82557162.58248  22603411.0144   22603412.7084   22603410.8484
       233.000         197.000
 119650808.80348 111026595.69448  24671734.7384   24671737.3184   24671734.9454
       219.000         162.000
 119327472.59448  92982442.46848  22707264.3184   22707267.5704   22707263.9984
       230.000         186.000
 121424232.66148  94616278.37348  23106266.9134   23106269.3874   23106267.5164
       226.000         173.000
 138017282.93548  89753715.41448  24360888.1854   24360888.8454   24360887.8354
       209.000         151.000
 108090368.28148  84226255.86148  20568918.6844   20568919.9854   20568918.4874
       251.000         233.000
 132664370.57348  85582626.35648  23342252.0954   23342252.4874   23342252.0884
       229.000         181.000
 09  1 23  1 54 30.0000000  0 10G 9G17G 5G15G26G30G18G14G12G22
  95056421.10648  91862135.48048  19991580.6864   19991583.3994   19991580.8234
       249.000         227.000
 136919701.76248  88898466.14048  24152018.4494   24152018.6144   24152018.8524
       218.000         165.000
 100425861.79148  96046114.69248  21013352.4354   21013355.4564   21013352.8074
       246.000         216.000
 128878369.85348  82632489.40048  22621806.4714   22621808.3044   22621806.0084
       234.000         198.000
 119763981.12548 111114781.92948  24693270.6784   24693273.1064   24693271.4414
       217.000         160.000
 119234701.07648  92910152.98648  22689610.9114   22689613.7084   22689610.6864
       229.000         185.000
 121487198.05148  94665342.31148  23118248.3244   23118250.8794   23118248.8894
       224.000         171.000
 137914099.65748  89673312.84248  24341252.5644   24341254.0294   24341252.5924
       206.000         151.000
 108061539.01948  84203791.51448  20563432.4604   20563433.9484   20563432.3124
       250.000         233.000
 132680194.60448  85594956.77048  23345263.3234   23345263.7254   23345263.4384
       227.000         182.000
 09  1 23  1 55  0.0000000  0 10G 9G17G 5G15G26G30G18G14G12G22
  95070091.33948  91872787.60848  19994182.0564   19994184.6314   19994182.1544
       249.000         226.000
 136989241.95348  88952653.31648  24165251.1164   24165252.2364   24165252.1434
       219.000         165.000
 100369854.94548  96002472.99348  21002694.7854   21002697.7404   21002695.3124
       246.000         216.000
 128975313.74048  82708030.06948  22640254.3444   22640256.3404   22640253.8414
       233.000         196.000
 119877229.65148 111203027.52348  24714820.7414   24714823.7084   24714821.7604
       212.000         156.000
 119142177.88048  92838056.99248  22672004.5874   22672007.1754   22672004.6964
       230.000         186.000
 121550511.24748  94714677.24348  23130296.7944   23130299.0424   23130297.0394
       224.000         171.000
 137811042.43948  89593008.55948  24321641.2884   24321643.5344   24321639.8994
       207.000         153.000
 108033150.80948  84181670.83848  20558030.4284   20558031.8064   20558030.2054
       251.000         233.000
 132696522.79448  85607679.99248  23348370.5194   23348371.2214   23348370.0524
       226.000         180.000
 09  1 23  1 55 30.0000000  0 10G 9G17G 5G15G26G30G18G14G12G22
  95084134.60448  91883730.40948  19996854.3184   19996856.7944   19996854.4384
       249.000         226.000
 137059198.11848  89007164.61948  24178563.5284   24178565.0524   24178562.9504
       217.000         165.000
 100314247.33848  95959142.40348  20992112.6554   20992116.0294   20992113.0904
       246.000         216.000
 129072531.97548  82783784.53548  22658754.7034   22658756.3924   22658754.6914
       233.000         197.000
 119990554.68348 111291332.72748  24736386.2214   24736389.0424   24736384.8904
       212.000         159.000
 119049905.52448  92766156.48848  22654445.2584   22654448.0464   22654444.8434
       231.000         186.000
 121614171.28648  94764282.44548  23142410.9314   23142413.1014   23142411.6144
       224.000         172.000
 137708115.33448  89512805.67648  24302054.7764   24302056.7244   24302054.9034
       205.000         156.000
 108005205.09948  84159894.96248  20552712.5164   20552713.8134   20552712.4454
       251.000         233.000
 132713355.39248  85620796.28448  23351573.5954   23351574.2924   23351574.1864
       227.000         181.000
 09  1 23  1 56  0.0000000  0 10G 9G17G 5G15G26G30G18G14G12G22
  95098550.14448  91894963.30148  19999597.4304   19999599.9854   19999597.5224
       250.000         226.000
 137129567.30348  89061997.77048  24191954.2424   24191955.8014   24191954.3864
       217.000         167.000
 100259038.60248  95916122.62048  20981606.8894   20981610.0364   20981607.1964
       246.000         216.000
 129170021.55848  82859750.44548  22677306.2714   22677308.0154   22677305.9924
       234.000         197.000
 120103953.12048 111379695.15748  24757965.4674   24757967.8924   24757964.8054
       213.000         156.000
 118957884.56648  92694451.85748  22636934.5764   22636936.8764   22636934.2234
       231.000         186.000
 121678174.47548  94814155.07248  23154590.1544   23154592.5954   23154590.2914
       224.000         170.000
 137605319.95248  89432705.36748  24282494.3414   24282496.3154   24282491.2784
       212.000         160.000
 107977700.67348  84138462.94748  20547478.5464   20547479.8254   20547478.2844
       251.000         233.000
 132730690.48848  85634304.14148  23354872.5614   23354872.7654   23354872.7184
       229.000         182.000
 09  1 23  1 56 30.0000000  0 10G 9G17G 5G15G26G30G18G14G12G22
  95113339.04848  91906487.12548  20002411.5894   20002414.3234   20002411.7874
       248.000         226.000
 137200347.92848  89117151.51248  24205422.7844   24205424.8844   24205422.9574
       214.000         164.000
 100204229.72448  95873414.40748  20971177.3374   20971180.1674   20971177.9174
       247.000         216.000
 129267781.27948  82935926.86048  22695909.2444   22695910.8254   22695909.2254
       233.000         196.000
 120217423.82448 111468113.92448  24779558.3454   24779560.9394   24779558.3104
       211.000         151.000
 118866116.53448  92622944.32248  22619471.4344   22619473.8224   22619471.2764
       232.000         187.000
 121742518.38648  94864293.17248  23166834.6994   23166836.4554   23166835.1584
       226.000         171.000
 137502659.38148  89352710.12348  24262958.2654   24262960.7464   24262957.4934
       207.000         157.000
 107950637.72248  84117374.94148  20542328.6894   20542330.0774   20542328.6884
       251.000         234.000
 132748527.19748  85648202.85048  23358267.1364   23358267.2354   23358267.2484
       230.000         182.000
 09  1 23  1 57  0.0000000  0 10G 9G17G 5G15G26G30G18G14G12G22
  95128499.96248  91918300.81948  20005296.6744   20005299.3324   20005296.7704
       249.000         226.000
 137271536.44148  89172623.08948  24218969.6364   24218971.4584   24218969.1994
       211.000         163.000
 100149819.97748  95831017.20848  20960823.3104   20960826.1844   20960823.7854
       247.000         217.000
 129365807.71148  83012311.09548  22714563.1234   22714564.7474   22714562.7094
       232.000         196.000
 120330963.64648 111556586.49948  24801163.8154   24801167.1534   24801163.6694
       210.000         146.000
 118774601.71748  92551634.10148  22602056.6284   22602059.2884   22602056.3804
       229.000         186.000
 121807199.40048  94914693.95348  23179142.8054   23179145.0114   23179143.6374
       225.000         172.000
 137400134.75348  89272820.80648  24243448.2594   24243450.3334   24243446.5224
       204.000         152.000
 107924014.74448  84096629.77648  20537262.3594   20537263.9404   20537262.1644
       251.000         234.000
 132766862.97748  85662490.44948  23361756.1154   23361756.5254   23361756.3844
       228.000         180.000
 09  1 23  1 57 30.0000000  0 10G 9G17G 5G15G26G30G18G14G12G22
  95144034.45748  91930405.61948  20008252.7894   20008255.4404   20008253.0134
       249.000         226.000
 137343131.91848  89228411.76448  24232593.3084   24232596.4074   24232593.2164
       214.000         168.000
 100095810.82948  95788932.16248  20950545.6044   20950548.8174   20950546.3334
       247.000         217.000
 129464099.92348  83088902.42148  22733267.3014   22733269.1884   22733267.0184
       232.000         195.000
 120444571.67948 111645112.22548  24822782.2364   24822785.9284   24822781.7744
       208.000         146.000
 118683342.32548  92480522.90048  22584690.4164   22584693.0684   22584689.8874
       230.000         187.000
 121872215.46248  94965355.80848  23191515.4584   23191517.5914   23191516.0034
       227.000         172.000
 137297749.68648  89193040.21648  24223964.7054   24223967.4974   24223964.8704
       212.000         155.000
 107897832.65148  84076228.14348  20532280.2664   20532281.6184   20532280.2324
       251.000         234.000
 132785697.84948  85677166.97848  23365340.0394   23365340.5124   23365340.1524
       228.000         179.000
 09  1 23  1 58  0.0000000  0 10G 9G17G 5G15G26G30G18G14G12G22
  95159942.23748  91942801.29248  20011280.0784   20011282.4924   20011280.2174
       250.000         226.000
 137415131.95748  89284515.69848  24246294.6634   24246297.2294   24246294.3094
       212.000         164.000
 100042202.51148  95747159.45948  20940344.3324   20940347.5384   20940344.7994
       247.000         217.000
 129562655.41048  83165698.90948  22752021.5544   22752023.7044   22752021.1884
       231.000         195.000
 120558246.01948 111733689.62348  24844414.0404   24844416.8174   24844413.3754
       211.000         148.000
 118592339.04348  92409611.27048  22567373.1974   22567375.7854   22567373.5094
       231.000         187.000
 121937563.47248  95016276.31548  23203950.5754   23203953.0314   23203951.0894
       223.000         174.000
 137195506.40748  89113370.11048  24204508.5694   24204511.0994   24204508.0174
       207.000         153.000
 107872090.84748  84056169.59948  20527381.7464   20527383.2074   20527381.7124
       251.000         234.000
 132805029.94748  85692230.92548  23369018.6634   23369019.2384   23369018.9904
       227.000         179.000
 09  1 23  1 58 30.0000000  0 10G 9G17G 5G15G26G30G18G14G12G22
  95176223.20248  91955487.74948  20014378.2444   20014380.7064   20014378.4184
       249.000         226.000
 137487534.11648  89340932.98148  24260072.3484   24260074.4824   24260072.0534
       211.000         164.000
  99988995.40348  95705699.37048  20930219.4444   20930222.4254   20930219.9004
       247.000         217.000
 129661472.14948  83242698.94948  22770825.7834   22770827.9064   22770825.3744
       233.000         195.000
 120671984.38048 111822316.89248  24866057.1324   24866060.8984   24866056.9914
       213.000         150.000
 118501592.99648  92338900.05648  22550105.0224   22550107.2894   22550104.5854
       230.000         188.000
 122003240.45648  95067453.17148  23216448.4654   23216450.9524   23216448.9974
       224.000         173.000
 137093407.34148  89033812.41848  24185079.2314   24185082.0624   24185079.7134
       211.000         156.000
 107846788.94348  84036453.83648  20522566.9064   20522568.3814   20522566.5004
       251.000         234.000
 132824857.89048  85707681.25148  23372791.7194   23372792.6204   23372791.7774
       226.000         179.000
 09  1 23  1 59  0.0000000  0 10G 9G17G 5G15G26G30G18G14G12G22
  95192877.06348  91968464.77248  20017547.4074   20017549.9004   20017547.5144
       249.000         226.000
 137560335.39848  89397661.22648  24273925.8564   24273928.0824   24273925.4394
       215.000         166.000
  99936189.11348  95664551.61448  20920170.6784   20920173.7934   20920171.2664
       248.000         218.000
 129760547.11148  83319900.21548  22789679.4214   22789680.9094   22789679.5424
       232.000         193.000
 120785784.49748 111910992.30148  24887712.7974   24887715.8154   24887712.0844
       207.000         149.000
 118411104.61848  92268389.66448  22532885.3394   22532888.2524   22532884.9374
       231.000         188.000
 122069242.85548  95118883.59448  23229008.4544   23229011.0084   23229009.0414
       225.000         171.000
 136991453.93748  88954368.15548  24165679.0784   24165681.5824   24165679.4074
       214.000         159.000
 107821925.85448  84017079.99748  20517835.6384   20517836.9884   20517835.4464
       251.000         234.000
 132845179.93248  85723516.59148  23376659.3724   23376659.7464   23376659.1344
       229.000         183.000
 09  1 23  1 59 30.0000000  0 10G 9G17G 5G15G26G30G18G14G12G22
  95209904.53848  91981732.93648  20020787.5114   20020790.1084   20020787.6134
       249.000         226.000
 137633534.25748  89454699.28448  24287855.5854   24287857.2944   24287855.6064
       215.000         169.000
  99883784.78148  95623717.07348  20910198.4314   20910201.6254   20910198.8904
       247.000         218.000
 129859879.10348  83397301.77348  22808581.2584   22808583.2654   22808581.0004
       231.000         193.000
 120899645.08948 111999714.82748  24909379.4844   24909382.9794   24909378.4444
       204.000         150.000
 118320875.71348  92198081.42748  22515715.5884   22515718.2844   22515715.3304
       233.000         190.000
 122135568.57248  95170565.96648  23241629.4214   23241631.8814   23241629.9064
       226.000         171.000
 136889649.64848  88875040.12848  24146306.5374   24146308.2524   24146307.1864
       209.000         158.000
 107797501.82548  83998048.29948  20513187.8294   20513189.3014   20513187.6754
       251.000         234.000
 132865995.06248  85739736.15348  23380620.3414   23380620.8304   23380620.6744
       227.000         180.000
 09  1 23  2  0  0.0000000  0 10G 9G17G 5G15G26G30G18G14G12G22
  95227305.46748  91995292.10348  20024098.6664   20024101.3384   20024098.7864
       249.000         226.000
 137707128.35448  89512045.34848  24301860.2054   24301861.7664   24301861.1414
       215.000         169.000
  99831782.55648  95583195.86548  20900302.8144   20900306.0784   20900303.4224
       248.000         219.000
 129959465.79848  83474901.78848  22827532.6734   22827534.2654   22827532.4634
       232.000         194.000
 121013563.97348 112088482.81548  24931057.1684   24931060.7174   24931056.0614
       207.000         150.000
 118230907.23048  92127976.12248  22498595.3984   22498597.9914   22498595.2664
       234.000         190.000
 122202214.18948  95222497.60648  23254311.7324   23254314.1154   23254312.9144
       224.000         169.000
 136787996.69148  88795830.03748  24126961.9704   24126964.7744   24126962.5174
       210.000         153.000
 107773515.98748  83979358.04148  20508623.5314   20508624.9894   20508623.2984
       251.000         234.000
 132887301.76648  85756338.76048  23384674.7564   23384675.4904   23384674.6754
       225.000         177.000
 09  1 23  2  0 30.0000000  0 10G 9G17G 5G15G26G30G18G14G12G22
  95245080.01448  92009142.39048  20027481.0444   20027483.7794   20027481.2024
       249.000         226.000
 137781115.18448  89569697.39448  24315939.1904   24315941.4354   24315939.1124
       214.000         171.000
  99780182.63748  95542988.14348  20890483.7434   20890486.7174   20890484.1264
       249.000         219.000
 130059305.01748  83552698.57948  22846531.2374   22846532.7914   22846531.4834
       231.000         193.000
 121127539.06248 112177294.61248  24952746.9414   24952749.5134   24952745.8334
       208.000         154.000
 118141200.20248  92058074.57148  22481524.1644   22481527.0874   22481524.0104
       232.000         189.000
 122269176.56248  95274676.08048  23267054.4964   23267056.7364   23267055.0964
       224.000         169.000
 136686497.08648  88716739.40948  24107647.5794   24107649.2224   24107648.4744
       211.000         156.000
 107749967.90548  83961008.90248  20504142.2444   20504143.8774   20504142.1664
       251.000         234.000
 132909098.36048  85773323.09448  23388822.0134   23388822.8054   23388821.7044
       226.000         177.000
 09  1 23  2  1  0.0000000  0 10G 9G17G 5G15G26G30G18G14G12G22
  95263228.46648  92023284.04248  20030934.7934   20030937.4404   20030934.9844
       249.000         226.000
 137855492.63248  89627653.86448  24330092.6414   24330094.4454   24330091.6734
       213.000         164.000
  99728985.56348  95503094.32748  20880741.3434   20880744.1884   20880742.1624
       248.000         219.000
 130159394.60448  83630690.46648  22865577.6254   22865579.5904   22865577.0124
       232.000         194.000
 121241568.60148 112266148.85548  24974446.6824   24974449.6724   24974446.2764
       208.000         153.000
 118051755.96648  91988377.78448  22464503.5044   22464506.1784   22464503.6804
       232.000         189.000
 122336452.94548  95327099.21448  23279856.5884   23279859.0074   23279857.2944
       222.000         170.000
 136585153.83948  88637770.62048  24088362.9434   24088364.9874   24088362.9254
       211.000         159.000
 107726857.36448  83943000.69448  20499744.5754   20499746.1044   20499744.3364
       252.000         235.000
 132931383.57448  85790688.19948  23393063.3214   23393063.6164   23393063.9584
       226.000         178.000
 09  1 23  2  1 30.0000000  0 10G 9G17G 5G15G26G30G18G14G12G22
  95281751.06648  92037717.22848  20034459.5844   20034462.1624   20034459.8064
       249.000         226.000
 137930258.53148  89685912.98548  24344320.1264   24344322.3934   24344320.3824
       215.000         167.000
  99678191.75248  95463514.73448  20871075.6524   20871078.4564   20871076.5124
       248.000         219.000
 130259732.60948  83708875.91148  22884671.5724   22884673.3254   22884671.5844
       231.000         194.000
 121355650.99548 112355044.18748  24996154.5634   24996158.9174   24996154.7434
       207.000         148.000
 117962575.54048  91918886.54648  22447533.2954   22447535.4824   22447532.8434
       233.000         190.000
 122404040.92148  95379765.17048  23292718.5984   23292720.3934   23292718.8714
       222.000         170.000
 136483969.28748  88558925.52148  24069107.7404   24069109.9114   24069108.2524
       213.000         158.000
 107704184.25448  83925333.34348  20495430.1374   20495431.5544   20495430.1854
       251.000         235.000
 132954156.05148  85808432.96348  23397396.3684   23397397.5734   23397396.2964
       224.000         178.000
 09  1 23  2  2  0.0000000  0 10G 9G17G 5G15G26G30G18G14G12G22
  95300648.08748  92052442.18348  20038055.7074   20038058.0144   20038055.9624
       250.000         226.000
 138005410.77448  89744473.16348  24358621.1354   24358623.3134   24358620.9404
       217.000         166.000
  99627801.75748  95424249.81148  20861486.4734   20861489.5294   20861486.8194
       248.000         219.000
 130360316.88948  83787253.25948  22903811.7334   22903813.5934   22903811.6814
       230.000         192.000
 121469784.20748 112443979.12048  25017874.7084   25017876.9554   25017875.0104
       208.000         146.000
 117873660.27648  91849601.95148  22430613.3064   22430615.7314   22430613.2624
       232.000         190.000
 122471937.73148  95432671.77248  23305638.4894   23305640.9244   23305638.7604
       224.000         172.000
 136382946.30648  88480206.25848  24049884.8044   24049885.7184   24049885.6114
       214.000         160.000
 107681948.24348  83908006.59148  20491198.6114   20491200.2154   20491198.1084
       252.000         235.000
 132977414.62048  85826556.49448  23401822.4144   23401823.6804   23401821.8154
       225.000         178.000
 09  1 23  2  2 30.0000000  0 10G 9G17G 5G15G26G30G18G14G12G22
  95319919.54848  92067458.90348  20041722.7714   20041725.2844   20041722.9964
       248.000         226.000
 138080946.95948  89803332.53448  24372995.1684   24372996.9244   24372994.4124
       212.000         163.000
  99577815.89748  95385299.78848  20851974.6394   20851977.7214   20851975.1534
       249.000         220.000
 130461145.52348  83865821.02948  22922998.7114   22923000.8854   22922998.2194
       231.000         192.000
 121583966.55548 112532952.41748  25039602.6254   25039603.7024   25039603.0354
       211.000         144.000
 117785010.66648  91780524.35748  22413743.3454   22413746.1884   22413742.8254
       233.000         190.000
 122540140.26948  95485816.60048  23318617.2194   23318619.5034   23318617.8194
       224.000         171.000
 136282087.36148  88401614.89048  24030691.4074   24030692.9764   24030691.1634
       212.000         158.000
 107660148.65348  83891019.90448  20487050.4454   20487051.7054   20487050.4684
       252.000         235.000
 133001157.42848  85845057.35448  23406340.5324   23406341.6164   23406340.6514
       224.000         177.000
 09  1 23  2  3  0.0000000  0 10G 9G17G 5G15G26G30G18G14G12G22
  95339566.07848  92082767.89048  20045461.3064   20045463.9974   20045461.3444
       250.000         226.000
 138156865.45248  89862489.80748  24387441.8964   24387443.6144   24387441.0214
       214.000         161.000
  99528235.08148  95346665.39448  20842539.5994   20842542.7254   20842540.0874
       248.000         220.000
 130562217.13748  83944578.13148  22942232.0644   22942234.1334   22942231.9174
       230.000         192.000
 121698196.69348 112621962.88148  25061339.0644   25061342.2974   25061339.5544
       203.000         143.000
 117696629.13048  91711655.66048  22396924.9644   22396927.7084   22396924.8384
       232.000         191.000
 122608645.86448  95539197.58048  23331653.4424   23331655.3504   23331653.9964
       224.000         171.000
 136181395.53048  88323153.70048  24011530.5234   24011532.1194   24011529.9054
       215.000         159.000
 107638785.72548  83874373.47848  20482985.2154   20482986.5114   20482985.0674
       252.000         235.000
 133025383.65148  85863934.90148  23410950.5124   23410951.0984   23410950.8554
       223.000         176.000
 09  1 23  2  3 30.0000000  0 10G 9G17G 5G15G26G30G18G14G12G22
  95359587.98748  92098369.38248  20049271.2354   20049274.1394   20049271.4474
       249.000         226.000
 138233163.31548  89921942.67648  24401961.2554   24401962.5264   24401961.7794
       215.000         161.000
  99479059.38848  95308346.67048  20833181.8004   20833184.9764   20833182.2134
       249.000         220.000
 130663529.11348  84023522.54048  22961511.3214   22961513.2594   22961510.5404
       230.000         191.000
 121812472.44648 112711008.88148  25083084.5594   25083087.6134   25083083.4974
       203.000         140.000
 117608516.34148  91642996.35048  22380158.1274   22380160.6094   22380157.8384
       234.000         192.000
 122677451.71648  95592812.52148  23344746.7014   23344749.0784   23344747.2814
       223.000         172.000
 136080873.07048  88244824.53948  23992400.8504   23992403.7754   23992400.6744
       210.000         160.000
 107617858.67948  83858066.69248  20479002.9054   20479004.2284   20479002.9034
       252.000         235.000
 133050091.78648  85883187.97448  23415652.4834   23415653.1424   23415652.1754
       225.000         176.000
 09  1 23  2  4  0.0000000  0 10G 9G17G 5G15G26G30G18G14G12G22
  95379984.73048  92114262.94348  20053152.7234   20053155.4204   20053152.7494
       250.000         226.000
 138309838.53248  89981689.60548  24416551.6324   24416553.6434   24416551.0794
       215.000         163.000
  99430288.65948  95270343.51448  20823900.8974   20823904.2264   20823901.3394
       249.000         221.000
 130765078.35948  84102651.80748  22980835.2054   22980837.2984   22980834.8814
       228.000         190.000
 121926791.54248 112800088.70948  25104839.4394   25104842.2264   25104837.1674
       200.000         142.000
 117520672.83448  91574546.88348  22363441.6924   22363444.5224   22363441.1104
       235.000         191.000
 122746554.44848  95646658.77148  23357896.5094   23357898.8304   23357896.9334
       222.000         168.000
 135980522.03548  88166628.93348  23973305.0154   23973308.2394   23973304.1384
       215.000         161.000
 107597366.40848  83842098.69648  20475103.3834   20475104.4934   20475103.1994
       251.000         235.000
 133075279.47348  85902814.71448  23420445.6034   23420446.2604   23420445.5974
       226.000         176.000
 09  1 23  2  4 30.0000000  0 10G 9G17G 5G15G26G30G18G14G12G22
  95400756.53148  92130448.76948  20057105.6374   20057108.1204   20057105.9154
       249.000         226.000
 138386888.32248  90041728.40248  24431214.3264   24431216.0484   24431213.7304
       214.000         162.000
  99381923.28948  95232656.21148  20814697.4154   20814700.4674   20814698.1104
       250.000         221.000
 130866863.84148  84181965.16348  23000204.1324   23000206.3804   23000204.3104
       229.000         189.000
 122041152.12448 112889200.88748  25126602.2914   25126603.7834   25126601.1354
       210.000         147.000
 117433099.75348  91506308.12948  22346777.2554   22346779.7484   22346777.4904
       235.000         192.000
 122815950.83748  95700733.86648  23371101.8534   23371104.3794   23371102.3304
       220.000         167.000
 135880344.99048  88088568.86948  23954242.3074   23954243.8914   23954243.5064
       214.000         159.000
 107577308.74648  83826469.35548  20471286.5024   20471287.7814   20471286.4354
       252.000         235.000
 133100945.45248  85922814.17948  23425329.4714   23425330.7634   23425330.1424
       224.000         177.000
 09  1 23  2  5  0.0000000  0 10G 9G17G 5G15G26G30G18G14G12G22
  95421903.37248  92146926.81348  20061129.6924   20061132.2844   20061129.7574
       249.000         226.000
 138464310.66248  90102057.50448  24445946.9314   24445949.0534   24445946.9194
       215.000         161.000
  99333963.71448  95195285.12048  20805570.9894   20805573.9134   20805571.6124
       249.000         221.000
 130968882.93648  84261460.54748  23019617.9634   23019620.0174   23019617.7684
       228.000         191.000
 122155552.41748 112978344.00948  25148371.0434   25148373.9144   25148370.9484
       202.000         144.000
 117345798.20948  91438280.96148  22330164.2164   22330166.8034   22330164.0644
       233.000         192.000
 122885638.24548  95755035.72248  23384363.1584   23384365.5594   23384363.7034
       223.000         169.000
 135780344.71948  88010646.58348  23935212.9204   23935214.6354   23935212.9204
       217.000         162.000
 107557685.50348  83811178.52148  20467552.3764   20467553.6924   20467552.3484
       252.000         235.000
 133127088.08548  85943185.03948  23430304.1434   23430305.5704   23430304.5684
       224.000         176.000
 09  1 23  2  5 30.0000000  0 10G 9G17G 5G15G26G30G18G14G12G22
  95443425.17248  92163697.05248  20065225.1524   20065227.5784   20065225.3534
       249.000         226.000
 138542103.24848  90162675.13848  24460750.3584   24460752.4634   24460750.3684
       214.000         162.000
  99286410.04748  95158230.31848  20796521.6864   20796524.8724   20796522.4164
       249.000         221.000
 131071133.04748  84341135.95548  23039075.7414   23039077.4584   23039075.3174
       229.000         190.000
 122269990.51848 113067516.54148  25170148.5914   25170150.5324   25170147.9834
       203.000         145.000
 117258769.27148  91370466.22548  22313603.3404   22313605.9074   22313603.0484
       235.000         193.000
 122955613.69048  95809562.05048  23397679.4834   23397681.4694   23397679.9164
       223.000         169.000
 135680523.63848  87932863.92748  23916217.1834   23916219.6714   23916218.3504
       209.000         159.000
 107538496.07748  83796225.73348  20463900.7474   20463901.9534   20463900.6084
       253.000         235.000
 133153705.71748  85963926.03348  23435369.3664   23435370.6344   23435369.0234
       224.000         174.000
 09  1 23  2  6  0.0000000  0 10G 9G17G 5G15G26G30G18G14G12G22
  95465322.76448  92180760.10448  20069392.0334   20069394.5004   20069392.1064
       249.000         225.000
 138620263.84448  90223579.46048  24475624.0014   24475626.4594   24475623.2624
       210.000         157.000
  99239262.93348  95121492.31148  20787549.8754   20787553.0524   20787550.6504
       249.000         221.000
 131173613.07948  84420990.52848  23058577.0904   23058578.5034   23058576.8434
       230.000         191.000
 122384464.81048 113156717.26848  25191932.0364   25191934.0914   25191931.1674
       206.000         141.000
 117172014.25248  91302864.93048  22297094.1604   22297096.6584   22297094.0044
       233.000         192.000
 123025874.40248  95864310.65048  23411049.7004   23411051.8814   23411050.4094
       225.000         173.000
 135580884.74748  87855223.27848  23897255.6804   23897258.7344   23897255.7394
       212.000         161.000
 107519739.86948  83781610.51148  20460331.7734   20460332.5664   20460331.8974
       251.000         235.000
 133180797.00748  85985036.12148  23440525.2044   23440525.0054   23440526.0664
       227.000         174.000
 09  1 23  2  6 30.0000000  0 10G 9G17G 5G15G26G30G18G14G12G22
  95487594.83048  92198114.97048  20073630.3124   20073632.7524   20073630.5934
       250.000         226.000
 138698788.74748  90284767.70748  24490566.7504   24490568.1264   24490566.6454
       209.000         154.000
  99192521.34948  95085070.29748  20778655.4654   20778658.2704   20778656.2574
       250.000         222.000
 131276319.34148  84501021.37948  23078121.3994   23078122.9824   23078120.9444
       227.000         189.000
 122498972.00248 113245943.66548  25213722.0824   25213725.1294   25213721.3534
       203.000         145.000
 117085533.12248  91235477.05248  22280637.3514   22280639.9834   22280636.9584
       235.000         193.000
 123096416.03048  95919278.14848  23424473.2884   23424475.7104   23424474.1864
       222.000         171.000
 135481429.32848  87777725.56348  23878330.9574   23878333.4564   23878332.1184
       216.000         164.000
 107501415.28748  83767331.62448  20456844.4364   20456845.5594   20456843.9454
       253.000         234.000
 133208358.92848  86006512.90848  23445769.9144   23445770.2204   23445769.5444
       226.000         175.000
 09  1 23  2  7  0.0000000  0 10G 9G17G 5G15G26G30G18G14G12G22
  95510242.09948  92215762.18648  20077939.9944   20077942.5384   20077940.1414
       249.000         226.000
 138777676.43848  90346238.64648  24505579.0334   24505580.0194   24505579.1314
       204.000         149.000
  99146186.19448  95048964.98948  20769838.1874   20769841.2464   20769838.8844
       250.000         223.000
 131379250.51148  84581227.46648  23097708.1314   23097710.2574   23097707.6784
       227.000         187.000
 122613511.08148 113335194.83648  25235517.5034   25235521.8524   25235516.2934
       204.000         145.000
 116999327.26048  91168303.66548  22264233.2274   22264235.2614   22264233.1424
       235.000         192.000
 123167236.07148  95974462.58648  23437949.8694   23437952.3424   23437950.2154
       221.000         168.000
 135382160.53748  87700373.26148  23859440.6854   23859443.0584   23859440.7304
       215.000         162.000
 107483522.11848  83753388.90248  20453439.4174   20453440.6454   20453439.3724
       253.000         235.000
 133236390.69948  86028355.82648  23451104.4134   23451104.6634   23451104.9784
       226.000         176.000
 09  1 23  2  7 30.0000000  0 10G 9G17G 5G15G26G30G18G14G12G22
  95533265.56048  92233702.54948  20082321.2434   20082323.8604   20082321.3874
       250.000         226.000
 138856925.37048  90407991.05348  24520658.4224   24520660.5604   24520656.7674
       201.000         143.000
  99100258.30648  95013177.03648  20761098.3304   20761101.3894   20761098.9404
       251.000         223.000
 131482404.61848  84661607.30148  23117337.7654   23117339.8264   23117337.2674
       227.000         186.000
 122728080.65548 113424469.80948  25257320.0894   25257323.0734   25257319.1324
       209.000         150.000
 116913398.34548  91101346.09348  22247881.1724   22247883.5014   22247881.1464
       234.000         193.000
 123238332.59548  96029862.47648  23451478.7814   23451481.4384   23451479.3124
       222.000         169.000
 135283081.56848  87623168.85648  23840587.2214   23840588.6804   23840587.1244
       212.000         162.000
 107466060.96648  83739782.81648  20450116.6974   20450117.9124   20450116.5974
       253.000         235.000
 133264891.17748  86050563.98748  23456527.9994   23456527.9544   23456528.1034
       225.000         176.000
 09  1 23  2  8  0.0000000  0 10G 9G17G 5G15G26G30G18G14G12G22
  95556664.36348  92251935.37648  20086773.7834   20086776.4224   20086773.9254
       248.000         225.000
 138936532.11948  90470022.26548  24535806.4894   24535809.3914   24535806.6904
       203.000         144.000
  99054737.32148  94977706.14148  20752436.1354   20752439.1254   20752436.7464
       250.000         224.000
 131585779.04748  84742158.78148  23137009.3154   23137011.6084   23137009.1224
       226.000         187.000
 122842678.28348 113513766.69048  25279127.6124   25279131.1214   25279127.9634
       208.000         149.000
 116827747.10948  91034604.88948  22231582.4744   22231584.8284   22231582.1674
       236.000         194.000
 123309702.18048  96085475.12748  23465059.8584   23465062.7304   23465060.8324
       221.000         169.000
 135184194.13848  87546113.74948  23821769.1614   23821770.8814   23821767.0274
       212.000         160.000
 107449030.27348  83726512.14848  20446875.9524   20446877.2784   20446875.6774
       254.000         235.000
 133293857.86148  86073135.39948  23462039.9584   23462040.3294   23462039.8264
       226.000         175.000
 09  1 23  2  8 30.0000000  0 10G 9G17G 5G15G26G30G18G14G12G22
  95580438.99948  92270461.06848  20091297.8504   20091300.6664   20091297.9024
       249.000         225.000
 139016494.85648  90532330.95048  24551023.3804   24551025.5724   24551023.6494
       195.000         141.000
  99009623.82348  94942552.77248  20743851.2814   20743854.2544   20743851.5634
       250.000         224.000
 131689371.94248  84822880.50948  23156722.4074   23156724.7584   23156721.9454
       227.000         188.000
 122957302.51448 113603084.31048  25300939.3834   25300942.9044   25300938.3554
       200.000         143.000
 116742374.77548  90968081.01648  22215336.2924   22215339.0484   22215336.1924
       234.000         194.000
 123381341.72848  96141298.12448  23478692.4614   23478694.8364   23478692.6044
       219.000         167.000
 135085501.82448  87469210.63148  23802989.1604   23802990.1494   23802988.4604
       217.000         164.000
 107432429.88548  83713576.78348  20443716.9064   20443718.2704   20443717.0354
       253.000         235.000
 133323289.64148  86096069.25248  23467640.6254   23467640.8264   23467640.5154
       225.000         174.000
 09  1 23  2  9  0.0000000  0 10G 9G17G 5G15G26G30G18G14G12G22
  95604589.12048  92289279.34648  20095893.5764   20095896.1894   20095893.8364
       249.000         225.000
 139096810.75948  90594914.75948  24566306.8644   24566309.0114   24566307.2094
       197.000         139.000
  98964917.38848  94907716.59848  20735343.8324   20735346.9564   20735344.5964
       250.000         224.000
 131793180.48848  84903770.28448  23176476.5214   23176478.7274   23176476.0884
       228.000         187.000
 123071950.77148 113692420.54448  25322755.5174   25322759.4684   25322755.4904
       189.000         135.000
 116657281.92748  90901774.92348  22199143.4644   22199146.6894   22199143.1764
       235.000         194.000
 123453247.81148  96197328.81948  23492376.1214   23492378.5234   23492376.5794
       223.000         168.000
 134987006.08448  87392460.73548  23784245.5694   23784247.2454   23784245.4744
       215.000         166.000
 107416258.50448  83700975.71448  20440639.4434   20440640.8964   20440639.3074
       253.000         235.000
 133353183.88148  86119363.43548  23473329.2044   23473329.3564   23473329.4694
       226.000         177.000
 09  1 23  2  9 30.0000000  0 10G 9G17G 5G15G26G30G18G14G12G22
  95629114.65648  92308390.14948  20100560.5234   20100563.2014   20100560.5754
       248.000         225.000
 139177477.26948  90657771.71148  24581657.4674   24581660.1794   24581660.1714
       190.000         138.000
  98920618.15248  94873197.71948  20726913.8074   20726917.0014   20726914.2994
       251.000         224.000
 131897202.46048  84984826.36848  23196271.2564   23196273.2144   23196270.2754
       229.000         187.000
 123186621.18648 113781774.10548  25344575.9594   25344580.0074   25344576.6484
       199.000         138.000
 116572469.03848  90835686.98148  22183004.2524   22183007.1674   22183003.8084
       235.000         195.000
 123525417.23948  96253564.74648  23506109.4454   23506111.5354   23506109.9594
       220.000         167.000
 134888709.53848  87315866.02148  23765540.6744   23765542.1204   23765540.9214
       217.000         166.000
 107400515.77048  83688708.65048  20437643.7814   20437645.0834   20437643.7794
       253.000         235.000
 133383538.94048  86143016.71248  23479106.2594   23479106.4734   23479106.2714
       228.000         178.000
 09  1 23  2 10  0.0000000  0 10G 9G17G 5G15G26G30G18G14G12G22
  95654016.13148  92327793.90148  20105299.1284   20105301.6344   20105299.2584
       248.000         225.000
 139258492.10748  90720900.19848  24597073.3494   24597076.2064   24597072.9674
       195.000         137.000
  98876726.71448  94838996.59748  20718561.6994   20718564.6814   20718562.6954
       251.000         224.000
 132001436.20448  85066047.47948  23216106.3544   23216108.1464   23216106.1714
       229.000         185.000
 123301312.10148 113871143.69048  25366403.0054   25366405.1144   25366402.6544
       205.000         141.000
 116487937.80048  90769818.51148  22166918.5964   22166921.3534   22166918.2354
       237.000         195.000
 123597847.37648  96310003.80548  23519891.9324   23519894.4644   23519892.3764
       220.000         163.000
 134790615.27148  87239428.97548  23746873.3014   23746875.5394   23746873.1984
       217.000         164.000
 107385201.30348  83676775.30648  20434729.4764   20434730.8834   20434729.5574
       254.000         235.000
 133414353.51948  86167028.04648  23484969.7654   23484970.1814   23484970.3104
       225.000         175.000
 09  1 23  2 10 30.0000000  0 10G 9G17G 5G15G26G30G18G14G12G22
  95679293.50348  92347490.55448  20110109.3484   20110111.8574   20110109.5284
       249.000         225.000
 139339853.45848  90784298.72048  24612556.3984   24612559.7434   24612556.9564
       196.000         137.000
  98833243.48348  94805113.56348  20710287.1374   20710290.1154   20710287.6254
       251.000         225.000
 132105879.92348  85147432.17448  23235981.2094   23235983.0244   23235980.3644
       227.000         184.000
 123416021.96548 113960527.96848  25388231.6014   25388233.3614   25388231.0854
       201.000         141.000
 116403689.56848  90704170.54548  22150886.9074   22150888.9464   22150886.8974
       236.000         195.000
 123670535.77448  96366644.13148  23533724.1024   23533725.8744   23533724.9634
       220.000         165.000
 134692726.14448  87163151.70748  23728245.5104   23728247.9464   23728245.9324
       216.000         166.000
 107370314.32348  83665175.06848  20431896.5344   20431898.0074   20431896.2584
       253.000         235.000
 133445626.15848  86191396.29448  23490920.5204   23490920.5894   23490920.3414
       225.000         173.000
 09  1 23  2 11  0.0000000  0 10G 9G17G 5G15G26G30G18G14G12G22
  95704946.44748  92367479.85448  20114990.9454   20114993.5214   20114991.1474
       249.000         224.000
 139421557.91548  90847964.58248  24628105.3894   24628107.1464   24628104.5134
       195.000         138.000
  98790167.83648  94771548.12048  20702090.1154   20702093.0574   20702090.5414
       252.000         225.000
 132210530.26448  85228977.89348  23255895.7284   23255897.6244   23255895.6154
       229.000         185.000
 123530748.06948 114049924.88348  25410061.5934   25410064.9774   25410062.4234
       196.000         138.000
 116319724.35648  90638743.13748  22134908.6894   22134911.1124   22134908.5004
       236.000         195.000
 123743478.36348  96423482.51248  23547605.4354   23547607.0464   23547605.5424
       221.000         167.000
 134595043.98548  87087035.73748  23709657.7784   23709659.7524   23709657.7064
       216.000         167.000
 107355853.77848  83653907.11748  20429144.8574   20429146.2094   20429144.6844
       253.000         235.000
 133477353.86548  86216119.17248  23496958.3364   23496958.3914   23496958.1324
       226.000         175.000
 09  1 23  2 11 30.0000000  0 10G 9G17G 5G15G26G30G18G14G12G22
  95730975.12548  92387761.94548  20119944.0434   20119946.5894   20119944.2524
       248.000         224.000
 139503603.72848  90911896.36648  24643719.1324   24643718.8124   24643719.9004
       193.000         134.000
  98747500.26248  94738300.66448  20693970.7964   20693973.8554   20693971.7314
       252.000         226.000
 132315385.67148  85310683.39848  23275849.3354   23275851.0904   23275849.5844
       229.000         185.000
 123645489.01048 114139333.39148  25431896.6324   25431899.0874   25431896.7174
       202.000         140.000
 116236043.22548  90573537.06848  22118984.8574   22118986.8074   22118984.2544
       237.000         195.000
 123816672.48348  96480516.88848  23561533.3904   23561536.1484   23561534.1934
       218.000         167.000
 134497571.83848  87011083.40948  23691109.0344   23691111.1564   23691108.3894
       216.000         165.000
 107341819.67048  83642971.44948  20426474.2374   20426475.7124   20426474.0684
       253.000         235.000
 133509535.30048  86241195.60148  23503082.9164   23503082.2854   23503083.6024
       227.000         175.000
 09  1 23  2 12  0.0000000  0 10G 9G17G 5G15G26G30G18G14G12G22
  95757379.04548  92408336.42348  20124968.5164   20124971.2154   20124968.6434
       248.000         225.000
 139585987.44948  90976091.47448  24659395.4094   24659394.8664   24659398.2884
       194.000         134.000
  98705240.20548  94705370.75448  20685928.8134   20685931.9074   20685929.3804
       251.000         225.000
 132420443.01748  85392546.27748  23295841.0784   23295842.4474   23295840.8624
       228.000         185.000
 123760242.19248 114228751.47148  25453733.1324   25453735.6264   25453733.0144
       201.000         137.000
 116152646.67448  90508552.76748  22103114.9184   22103117.0414   22103114.8144
       237.000         196.000
 123890114.25048  96537744.23748  23575509.3404   23575511.3984   23575509.6834
       218.000         165.000
 134400311.51048  86935296.14648  23672601.1324   23672603.3704   23672601.0794
       220.000         169.000
 107328210.49248  83632366.89848  20423884.4414   20423885.9684   20423884.5294
       253.000         235.000
 133542167.85748  86266623.53248  23509291.5334   23509292.2724   23509291.7224
       224.000         175.000
