     2.11           OBSERVATION DATA    G (GPS)             RINEX VERSION / TYPE
teqc  2008Oct2      gpsops              20090123 00:06:08UTCPGM / RUN BY / DATE
    30.0000                                                 INTERVAL
     1     1                                                WAVELENGTH FACT L1/2
     7    L1    L2    P1    P2    C1    S1    S2            # / TYPES OF OBSERV
Linux 2.4.20-8|Pentium IV|gcc -static|Linux|486/DX+         COMMENT
     2.10           OBSERVATION DATA    GPS                 COMMENT
soc2rnx ver 1.20    gpsops              23-Jan-2009 00:05:58COMMENT
S1, if present, is the SNR for the C/A data stream on L1.   COMMENT
 SNR is mapped to RINEX snr flag value [1,4-9]              COMMENT
    SNR:   >316  >100  >31.6  >10  >3.2    >0 bad=0         COMMENT
L1 & L2:      9     8     7     6     5     4     1         COMMENT
                                                            COMMENT
This data is provided as a public service by NASA/JPL.      COMMENT
No warranty is expressed or implied regarding suitability   COMMENT
for use.  For further information, contact:                 COMMENT
Dave Stowers, NASA/JPL m/s 238-600                          COMMENT
4800 Oak Grove Drive, Pasadena CA 91109 USA                 COMMENT
                                                            COMMENT
Forced Modulo Decimation to 30 seconds                      COMMENT
  2009     1    22     0     0    0.0000000     GPS         TIME OF FIRST OBS
DSN                 JPL                                     OBSERVER / AGENCY
451-U               AOAD/M_T        NONE                    ANT # / TYPE
  4849202.3940  -360328.9929  4114913.1862                  APPROX POSITION XYZ
        0.0254        0.0000        0.0000                  ANTENNA: DELTA H/E/N
LP03574             ASHTECH Z-XII3      CC00                REC # / TYPE / VERS
MADR                                                        MARKER NAME
13407S012                                                   MARKER NUMBER
                                                            END OF HEADER
 09  1 22  0  0  0.0000000  0 10G 9G26G 5G15G10G18G17G27G12G28
 111628261.96648  86983043.16848  21242168.4274   21242170.6924   21242168.9324
       242.000         209.000
 108816869.99348  84792371.17448  20707159.1274   20707161.3284   20707159.1924
       251.000         223.000
 132564650.20248 103297109.42548  25226230.6624   25226233.2654   25226228.0984
       200.000         146.000
 106805636.53248  83225165.87648  20324440.4044   20324441.6844   20324440.2264
       254.000         240.000
 127690427.69648  99499013.31848  24298696.9164   24298700.6734   24298697.5354
       217.000         161.000
 120382854.77548  93804820.31048  22908095.9474   22908098.5724   22908097.7024
       231.000         184.000
 124727270.85748  97190072.55348  23734817.4564   23734819.2914   23734816.0524
       225.000         179.000
 126042269.97748  98214745.27948  23985053.6254   23985056.6944   23985053.3784
       222.000         171.000
 126023471.59848  98200093.51748  23981482.3044   23981482.9054   23981482.8834
       225.000         171.000
 121981222.21248  95050297.09948  23212259.5904   23212261.2184   23212260.8034
       229.000         182.000
 09  1 22  0  0 30.0000000  0 10G 9G26G 5G15G10G18G17G27G12G28
 111563194.19048  86932341.02548  21229786.2644   21229788.8084   21229786.1034
       242.000         209.000
 108867814.00248  84832067.79848  20716853.3634   20716855.6764   20716853.4144
       250.000         223.000
 132448580.21848 103206665.31748  25204142.4884   25204146.4384   25204142.5584
       199.000         146.000
 106804812.37948  83224523.67348  20324283.5194   20324284.8334   20324283.3164
       254.000         241.000
 127801424.43248  99585504.27948  24319818.5834   24319822.2604   24319819.6214
       217.000         162.000
 120323953.05748  93758922.85148  22896888.2874   22896889.7674   22896888.5914
       231.000         187.000
 124677621.72548  97151384.93348  23725368.7844   23725370.9224   23725368.2574
       225.000         178.000
 126111031.88848  98268325.96148  23998138.0974   23998141.4264   23998138.0034
       221.000         170.000
 125912769.92448  98113832.50948  23960416.0554   23960417.1924   23960416.8734
       225.000         172.000
 122060046.82348  95111718.86548  23227259.4064   23227261.1394   23227259.8314
       228.000         182.000
 09  1 22  0  1  0.0000000  0 10G 9G26G 5G15G10G18G17G27G12G28
 111498407.97748  86881858.26248  21217457.8304   21217460.3234   21217457.9644
       243.000         210.000
 108919146.12948  84872066.85248  20726621.5064   20726623.9464   20726621.4274
       251.000         223.000
 132332559.11348 103116259.26548  25182064.7854   25182068.3204   25182064.2484
       199.000         146.000
 106804411.15948  83224211.03648  20324207.2354   20324208.3694   20324207.0064
       254.000         240.000
 127912448.11648  99672016.24248  24340945.7144   24340949.2574   24340945.5244
       218.000         162.000
 120265530.34348  93713398.66748  22885771.0334   22885772.7224   22885771.8284
       232.000         188.000
 124628364.80248  97113002.92548  23715995.7084   23715997.0784   23715996.1014
       223.000         177.000
 126179816.79148  98321924.57048  24011227.6854   24011230.6514   24011228.0624
       223.000         169.000
 125802217.96048  98027688.13248  23939378.4384   23939379.5134   23939378.5424
       225.000         174.000
 122139149.08248  95173356.98848  23242312.1824   23242313.3424   23242313.7434
       228.000         180.000
 09  1 22  0  1 30.0000000  0 10G 9G26G 5G15G10G18G17G27G12G28
 111433903.23648  86831594.84148  21205183.1054   21205185.5964   21205183.7084
       242.000         210.000
 108970865.20348  84912367.41848  20736463.3944   20736465.8244   20736463.3064
       252.000         223.000
 132216587.98948 103025892.15448  25159995.5334   25159999.7054   25159994.2534
       201.000         146.000
 106804432.92948  83224227.99548  20324211.4354   20324212.5194   20324211.2484
       254.000         240.000
 128023494.69348  99758546.04948  24362077.3864   24362080.8954   24362077.9154
       217.000         162.000
 120207587.78948  93668248.62748  22874744.7304   22874746.2794   22874744.7884
       232.000         187.000
 124579501.84248  97074927.87748  23706697.8254   23706699.4304   23706697.6134
       223.000         177.000
 126248623.89148  98375540.49248  24024320.9544   24024324.4214   24024320.9614
       222.000         169.000
 125691817.09748  97941661.47748  23918369.4814   23918370.4084   23918368.6174
       224.000         172.000
 122218525.91048  95235209.05948  23257416.8944   23257418.4894   23257417.4564
       228.000         181.000
 09  1 22  0  2  0.0000000  0 10G 9G26G 5G15G10G18G17G27G12G28
 111369681.19648  86781551.70448  21192961.9914   21192964.4724   21192962.1864
       243.000         210.000
 109022971.72748  84952969.89748  20746379.0644   20746381.2554   20746379.2174
       252.000         223.000
 132100669.86448 102935566.35748  25137937.4444   25137942.3314   25137937.5834
       206.000         148.000
 106804879.72748  83224576.14548  20324296.3764   20324297.6404   20324296.1964
       254.000         241.000
 128134563.09348  99845092.86648  24383212.7344   24383216.7884   24383214.4394
       218.000         157.000
 120150128.04348  93623474.79548  22863810.7314   22863811.9524   22863811.1654
       231.000         185.000
 124531036.01848  97037162.31448  23697474.8184   23697476.8314   23697474.6804
       220.000         176.000
 126317453.75848  98429174.12548  24037419.0244   24037422.0744   24037418.8904
       221.000         168.000
 125581570.51248  97855755.05248  23897389.5824   23897391.6554   23897389.0014
       224.000         175.000
 122298176.11348  95297274.14848  23272573.6574   23272575.8474   23272574.0844
       227.000         181.000
 09  1 22  0  2 30.0000000  0 10G 9G26G 5G15G10G18G17G27G12G28
 111305741.44748  86731728.54548  21180794.6754   21180797.1224   21180794.8954
       243.000         210.000
 109075464.43648  84993873.30448  20756368.0704   20756370.2484   20756368.0604
       251.000         224.000
 131984805.79248 102845282.65248  25115890.1234   25115893.4264   25115890.9724
       207.000         146.000
 106805751.46548  83225255.41748  20324462.3434   20324463.5074   20324462.1134
       255.000         241.000
 128245649.66748  99931653.86248  24404351.4594   24404355.7884   24404352.3764
       215.000         155.000
 120093152.31248  93579078.11548  22852968.7714   22852969.8994   22852968.5604
       231.000         186.000
 124482969.04548  96999707.54348  23688328.0604   23688329.4394   23688327.8714
       223.000         178.000
 126386305.46948  98482824.80748  24050520.6564   24050524.4334   24050520.9134
       218.000         167.000
 125471479.79248  97769970.07148  23876440.6394   23876442.6854   23876439.6304
       223.000         176.000
 122378096.56548  95359549.82748  23287782.0824   23287784.1454   23287783.0844
       226.000         180.000
 09  1 22  0  3  0.0000000  0 10G 9G26G 5G15G10G18G17G27G12G28
 111242084.72448  86682125.92248  21168680.9804   21168683.6534   21168681.1524
       242.000         210.000
 109128343.19748  85035077.52048  20766430.5964   20766432.9824   20766430.3824
       251.000         223.000
 131868998.11248 102755042.89348  25093852.1214   25093855.7944   25093851.6484
       204.000         147.000
 106807049.34848  83226266.74548  20324709.4594   20324710.4934   20324709.2214
       255.000         241.000
 128356752.46848 100018227.43248  24425492.9474   24425497.8304   24425493.9834
       215.000         158.000
 120036662.85848  93535060.36748  22842218.4194   22842220.3304   22842219.4614
       231.000         185.000
 124435303.43248  96962565.51948  23679257.3724   23679259.6594   23679257.4414
       222.000         178.000
 126455179.17848  98536492.62548  24063626.9214   24063630.8544   24063627.4604
       219.000         166.000
 125361547.32048  97684308.42948  23855521.5544   23855523.9114   23855521.2964
       225.000         176.000
 122458285.50848  95422034.70348  23303041.4794   23303043.5414   23303041.6764
       225.000         180.000
 09  1 22  0  3 30.0000000  0 10G 9G26G 5G15G10G18G17G27G12G28
 111178711.15448  86632743.92348  21156621.5354   21156623.8974   21156621.6154
       243.000         211.000
 109181606.99048  85076581.76048  20776566.1684   20776568.8584   20776565.9874
       251.000         223.000
 131753248.24348 102664848.19948  25071825.4854   25071828.7864   25071824.0624
       205.000         147.000
 106808773.90248  83227610.55048  20325037.3874   20325038.7004   20325037.1334
       255.000         241.000
 128467868.25848 100104811.17548  24446639.4354   24446642.3594   24446640.2514
       218.000         162.000
 119980660.76948  93491422.37948  22831561.8644   22831563.5914   22831562.3874
       230.000         184.000
 124388041.14648  96925737.76548  23670263.5744   23670265.3254   23670263.0574
       222.000         177.000
 126524074.31348  98590177.12448  24076737.3844   24076740.7954   24076737.8504
       220.000         166.000
 125251774.91948  97598771.52348  23834632.2234   23834634.7494   23834633.0524
       223.000         175.000
 122538739.92148  95484726.44648  23318352.0164   23318353.2114   23318351.9264
       226.000         180.000
 09  1 22  0  4  0.0000000  0 10G 9G26G 5G15G10G18G17G27G12G28
 111115621.74248  86583583.35148  21144616.3084   21144618.4974   21144616.1564
       244.000         211.000
 109235255.71548  85118385.95348  20786775.3154   20786777.6334   20786775.3354
       251.000         223.000
 131637558.40948 102574700.23448  25049810.0134   25049814.2414   25049811.6884
       208.000         150.000
 106810926.16748  83229287.63248  20325446.9284   20325448.2604   20325446.6794
       254.000         241.000
 128578994.53448 100191403.08148  24467785.4884   24467789.6874   24467786.3874
       214.000         160.000
 119925148.49248  93448166.06748  22820997.8214   22820999.4284   22820998.5544
       230.000         185.000
 124341184.65248  96889226.21548  23661347.4194   23661348.2824   23661347.5504
       222.000         177.000
 126592990.75448  98643878.21248  24089852.1644   24089855.5554   24089852.6224
       222.000         166.000
 125142164.78048  97513361.02748  23813773.8144   23813776.0114   23813773.5574
       224.000         175.000
 122619457.82948  95547623.51348  23333712.0774   23333713.2194   23333712.1084
       226.000         179.000
 09  1 22  0  4 30.0000000  0 10G 9G26G 5G15G10G18G17G27G12G28
 111052817.42948  86534644.94148  21132664.8394   21132667.1694   21132665.5094
       245.000         211.000
 109289289.52248  85160490.21648  20797057.6164   20797059.9314   20797057.5334
       251.000         223.000
 131521931.08048 102484600.97148  25027808.1854   25027811.4154   25027808.3864
       210.000         154.000
 106813507.37548  83231298.95648  20325938.2774   20325939.4754   20325938.0254
       255.000         241.000
 128690129.18148 100278001.47548  24488932.2944   24488938.5224   24488932.5954
       209.000         156.000
 119870128.13148  93405293.03848  22810528.3044   22810529.8354   22810528.4094
       229.000         185.000
 124294737.08848  96853033.31148  23652508.1454   23652510.2414   23652508.1884
       223.000         177.000
 126661928.94548  98697596.26348  24102970.4874   24102973.6294   24102970.6714
       219.000         166.000
 125032719.85948  97428079.26348  23792947.2064   23792948.9244   23792947.0204
       225.000         177.000
 122700437.37448  95610724.44648  23349121.9904   23349123.1484   23349122.4724
       226.000         180.000
 09  1 22  0  5  0.0000000  0 10G 9G26G 5G15G10G18G17G27G12G28
 110990298.16948  86485928.63548  21120767.7874   21120770.1894   21120768.1434
       243.000         211.000
 109343707.16848  85202893.56348  20807412.8574   20807415.3014   20807412.5444
       250.000         222.000
 131406367.72148 102394551.57848  25005816.6634   25005820.5544   25005815.3574
       211.000         156.000
 106816517.98748  83233644.88248  20326511.2854   20326512.3374   20326511.2574
       255.000         241.000
 128801269.75448 100364604.51848  24510081.9734   24510086.9274   24510082.6634
       212.000         154.000
 119815601.13548  93362804.47948  22800151.7564   22800153.6964   22800152.1624
       232.000         186.000
 124248700.19848  96817160.42148  23643748.2154   23643749.8724   23643747.8044
       225.000         178.000
 126730888.13348  98751330.66348  24116092.9694   24116096.5064   24116092.3794
       220.000         163.000
 124923441.88348  97342927.59748  23772152.4224   23772153.9564   23772152.5174
       223.000         176.000
 122781676.00848  95674027.27448  23364580.8674   23364582.2614   23364581.4304
       226.000         180.000
 09  1 22  0  5 30.0000000  0 10G 9G26G 5G15G10G18G17G27G12G28
 110928064.53748  86437434.91448  21108924.6934   21108927.8204   21108924.3214
       243.000         212.000
 109398508.80548  85245596.12148  20817841.3754   20817843.5974   20817841.1954
       251.000         222.000
 131290870.85848 102304554.00048  24983838.4044   24983842.4794   24983840.3224
       216.000         158.000
 106819959.24848  83236326.38048  20327165.9924   20327167.1854   20327165.7394
       254.000         241.000
 128912414.04948 100451210.46148  24531233.4194   24531235.9094   24531233.9124
       216.000         157.000
 119761569.71948  93320702.07148  22789870.4294   22789871.6544   22789870.5094
       233.000         188.000
 124203076.63848  96781609.60848  23635066.1034   23635067.8144   23635066.0914
       222.000         178.000
 126799868.88048  98805081.88248  24129219.5784   24129222.7114   24129220.3704
       219.000         163.000
 124814333.36048  97257907.99048  23751389.6034   23751391.5354   23751389.9634
       222.000         177.000
 122863171.67948  95737530.39148  23380089.1074   23380090.3684   23380088.8104
       226.000         180.000
 09  1 22  0  6  0.0000000  0 10G 9G26G 5G15G10G18G17G27G12G28
 110866116.63148  86389163.81548  21097136.6404   21097139.1184   21097136.3364
       243.000         211.000
 109453693.34348  85288597.05548  20828342.6384   20828345.0104   20828342.5704
       251.000         222.000
 131175441.75548 102214609.21648  24961873.7724   24961877.0634   24961875.9764
       215.000         156.000
 106823831.60448  83239343.79348  20327902.8684   20327904.1114   20327902.4784
       254.000         240.000
 129023558.76048 100537816.71948  24552383.9034   24552386.5364   24552385.4874
       213.000         153.000
 119708035.13748  93278986.82748  22779683.1554   22779684.8464   22779684.3094
       232.000         188.000
 124157868.20848  96746382.27048  23626463.2374   23626465.3044   23626462.4214
       225.000         179.000
 126868870.39248  98858849.25348  24142350.0604   24142353.2964   24142350.4674
       219.000         160.000
 124705395.90748  97173021.69948  23730659.3054   23730661.8544   23730659.0994
       223.000         179.000
 122944921.75748  95801231.73348  23395645.3474   23395647.0394   23395645.0724
       224.000         178.000
 09  1 22  0  6 30.0000000  0 10G 9G26G 5G15G10G18G17G27G12G28
 110804454.94248  86341115.75948  21085402.9194   21085405.6434   21085403.2104
       246.000         213.000
 109509260.30748  85331895.98948  20838916.7334   20838919.0814   20838916.7354
       251.000         222.000
 131060082.57248 102124718.95248  24939921.0574   24939924.8654   24939922.0934
       215.000         157.000
 106828135.60348  83242697.55448  20328721.8934   20328723.1164   20328721.6454
       254.000         240.000
 129134701.69248 100624421.61048  24573533.5804   24573536.6064   24573534.8354
       215.000         153.000
 119654999.25548  93237660.15448  22769590.8424   22769592.1234   22769591.1704
       233.000         188.000
 124113077.28348  96711480.25648  23617939.6374   23617941.6044   23617939.8604
       225.000         178.000
 126937892.62548  98912632.79848  24155484.7284   24155488.1194   24155485.1214
       216.000         161.000
 124596631.79348  97088270.45848  23709962.9604   23709964.6604   23709962.3404
       227.000         179.000
 123026924.08448  95865129.65548  23411249.7244   23411251.3414   23411249.9064
       227.000         177.000
 09  1 22  0  7  0.0000000  0 10G 9G26G 5G15G10G18G17G27G12G28
 110743079.76648  86293290.95248  21073723.7324   21073726.0044   21073724.2544
       245.000         212.000
 109565208.90848  85375492.29848  20849563.2924   20849565.7504   20849563.3644
       249.000         222.000
 130944794.95148 102034884.43048  24917983.5874   24917986.5754   24917985.0134
       214.000         157.000
 106832872.06048  83246388.29448  20329623.1764   20329624.4584   20329622.8364
       254.000         240.000
 129245839.68948 100711022.67548  24594682.2524   24594685.6024   24594682.9774
       214.000         158.000
 119602463.21348  93196722.97848  22759593.6044   22759595.2194   22759594.2594
       233.000         189.000
 124068705.80648  96676905.09148  23609496.0084   23609497.2794   23609495.8934
       225.000         180.000
 127006935.07948  98966432.11648  24168622.4684   24168626.6294   24168623.9694
       216.000         161.000
 124488042.99748  97003655.82248  23689299.9274   23689300.8094   23689300.1994
       227.000         181.000
 123109176.40548  95929222.37548  23426901.9554   23426903.6144   23426902.3754
       227.000         179.000
 09  1 22  0  7 30.0000000  0 10G 9G26G 5G15G10G18G17G27G12G28
 110681990.49948  86245688.94048  21062098.5564   21062101.1894   21062098.9634
       246.000         213.000
 109621537.72248  85419384.86448  20860282.2504   20860284.6924   20860282.0534
       249.000         222.000
 130829579.93848 101945106.52048  24896057.9884   24896061.8824   24896059.1054
       215.000         157.000
 106838040.75748  83250415.84648  20330606.8984   20330607.9954   20330606.8224
       254.000         240.000
 129356969.29248 100797617.15148  24615828.7534   24615832.6954   24615830.0514
       209.000         155.000
 119550428.24648  93156176.25648  22749691.7874   22749693.2294   22749692.3084
       231.000         188.000
 124024755.30348  96642657.95848  23601132.5894   23601134.9624   23601133.1434
       225.000         180.000
 127075996.56748  99020246.21548  24181765.3984   24181767.9654   24181765.1354
       215.000         160.000
 124379630.85348  96919178.83448  23668669.6334   23668671.0684   23668669.9534
       230.000         180.000
 123191674.84448  95993506.86248  23442601.1074   23442602.8894   23442601.7004
       227.000         178.000
 09  1 22  0  8  0.0000000  0 10G 9G26G 5G15G10G18G17G27G12G28
 110621188.81448  86198311.00748  21050528.7244   21050531.1574   21050528.9944
       246.000         213.000
 109678246.63248  85463573.61448  20871073.5834   20871076.1494   20871073.3384
       250.000         222.000
 130714440.11948 101855387.17848  24874147.4324   24874150.5974   24874147.7664
       207.000         155.000
 106843642.87148  83254781.11848  20331672.7994   20331674.0274   20331672.5064
       254.000         240.000
 129468088.69648 100884203.63048  24636974.3754   24636978.3354   24636973.6754
       211.000         153.000
 119498896.65848  93116021.77748  22739885.0654   22739886.6624   22739885.4244
       233.000         187.000
 123981228.49148  96608740.97148  23592849.4814   23592851.6394   23592849.7614
       225.000         181.000
 127145077.70248  99074075.67048  24194911.0624   24194913.9344   24194911.0484
       215.000         159.000
 124271398.01348  96834841.56348  23648072.9964   23648075.0934   23648073.3084
       224.000         179.000
 123274417.93748  96057982.00348  23458346.2314   23458348.4824   23458346.5874
       226.000         178.000
 09  1 22  0  8 30.0000000  0 10G 9G26G 5G15G10G18G17G27G12G28
 110560677.39948  86151159.25848  21039013.5874   21039016.2124   21039013.7634
       245.000         213.000
 109735337.73448  85508060.18748  20881937.7324   20881940.1794   20881937.4534
       251.000         221.000
 130599379.83948 101765729.83248  24852251.3244   24852254.8014   24852251.3564
       213.000         152.000
 106849682.06648  83259486.98348  20332822.1194   20332823.3404   20332821.8744
       254.000         240.000
 129579198.06148 100970782.36648  24658118.2884   24658121.1374   24658119.1194
       215.000         153.000
 119447872.45648  93076262.65648  22730175.3704   22730176.9524   22730175.9934
       231.000         186.000
 123938129.87748  96575157.65648  23584648.3994   23584650.0254   23584648.4644
       223.000         180.000
 127214180.77848  99127922.18648  24208060.8224   24208063.7304   24208061.1494
       216.000         157.000
 124163349.13148  96750647.63048  23627511.2304   23627513.9274   23627510.0644
       224.000         179.000
 123357405.99548  96122648.02048  23474138.4024   23474140.4414   23474139.1544
       227.000         178.000
 09  1 22  0  9  0.0000000  0 10G 9G26G 5G15G10G18G17G27G12G28
 110500456.15848  86104233.62748  21027553.7904   21027556.3754   21027553.7754
       246.000         214.000
 109792810.04648  85552843.80548  20892874.3044   20892876.9024   20892874.3814
       250.000         221.000
 130484400.67448 101676135.65948  24830372.3924   24830374.5954   24830373.9864
       212.000         154.000
 106856158.45548  83264533.51348  20334054.4634   20334055.7634   20334054.3004
       254.000         240.000
 129690294.15548 101057350.80348  24679258.9884   24679261.8944   24679259.5804
       218.000         154.000
 119397357.27348  93036900.18748  22720562.0714   22720564.4374   22720563.0474
       229.000         185.000
 123895461.61848  96541909.65748  23576528.6144   23576531.1704   23576529.0104
       224.000         180.000
 127283305.43448  99181785.55048  24221214.3704   24221217.7804   24221215.1864
       213.000         156.000
 124055486.02548  96666598.46348  23606985.3544   23606987.9514   23606984.7914
       223.000         177.000
 123440636.26648  96187502.76548  23489976.4254   23489978.4894   23489977.1704
       225.000         177.000
 09  1 22  0  9 30.0000000  0 10G 9G26G 5G15G10G18G17G27G12G28
 110440524.81948  86057533.88748  21016149.4154   21016151.7884   21016149.4004
       247.000         214.000
 109850662.19148  85597923.39548  20903882.9854   20903885.8414   20903882.8034
       249.000         221.000
 130369503.75648 101586605.61848  24808508.1244   24808510.6804   24808509.2144
       210.000         153.000
 106863071.79648  83269920.52848  20335370.0944   20335371.2254   20335369.8284
       254.000         240.000
 129801373.80748 101143906.40348  24700397.0424   24700400.6104   24700398.1504
       212.000         153.000
 119347352.09048  92997935.09348  22711046.9424   22711048.5434   22711047.0104
       231.000         186.000
 123853224.76448  96508997.83048  23568491.3874   23568493.2074   23568491.5134
       224.000         180.000
 127352450.62348  99235664.88248  24234372.8824   24234375.7994   24234372.7954
       215.000         157.000
 123947810.01148  96582695.08148  23586495.7284   23586497.3854   23586495.9094
       228.000         180.000
 123524105.65648  96252543.84948  23505860.3204   23505862.0284   23505860.9754
       226.000         175.000
 09  1 22  0 10  0.0000000  0 10G 9G26G 5G15G10G18G17G27G12G28
 110380883.06048  86011059.79848  21004799.7314   21004802.1414   21004799.8284
       246.000         214.000
 109908892.72848  85643297.82848  20914964.0434   20914966.5864   20914963.9694
       249.000         221.000
 130254690.18348 101497140.51548  24786660.7534   24786663.4314   24786662.2144
       209.000         155.000
 106870422.55648  83275648.38548  20336768.8004   20336770.0794   20336768.5114
       254.000         240.000
 129912433.50548 101230446.39248  24721530.6704   24721535.2304   24721532.3754
       213.000         156.000
 119297857.00648  92959367.49148  22701628.4554   22701630.1814   22701628.4054
       231.000         187.000
 123811420.66248  96476423.21048  23560536.1024   23560537.8064   23560535.7294
       224.000         180.000
 127421615.35948  99289559.45248  24247534.7444   24247537.1644   24247536.0084
       215.000         158.000
 123840322.15248  96498938.32648  23566041.9124   23566042.9584   23566042.7734
       227.000         180.000
 123607810.94648  96317768.74448  23521789.0504   23521790.6984   23521790.0444
       225.000         176.000
 09  1 22  0 10 30.0000000  0 10G 9G26G 5G15G10G18G17G27G12G28
 110321532.22148  85964812.40148  20993505.8044   20993508.3944   20993505.9154
       246.000         214.000
 109967502.31548  85688967.62748  20926117.1994   20926119.6344   20926117.1144
       249.000         220.000
 130139963.23348 101407742.93848  24764827.9524   24764831.0824   24764829.2444
       210.000         153.000
 106878212.32648  83281718.33648  20338251.1724   20338252.4374   20338250.8464
       254.000         240.000
 130023472.39148 101316970.17748  24742660.6044   24742664.8724   24742661.7594
       213.000         158.000
 119248875.12548  92921199.79048  22692307.3904   22692309.2644   22692307.3994
       233.000         188.000
 123770052.59648  96444188.37548  23552664.3114   23552665.8634   23552663.9114
       225.000         180.000
 127490800.91948  99343470.25848  24260699.7774   24260702.1354   24260700.2294
       207.000         157.000
 123733026.46548  96415331.30348  23545624.0574   23545624.9934   23545623.6674
       227.000         180.000
 123691751.32848  96383176.84648  23537762.1554   23537764.0744   23537761.7104
       226.000         176.000
 09  1 22  0 11  0.0000000  0 10G 9G26G 5G15G10G18G17G27G12G28
 110262473.32648  85918792.49548  20982267.1374   20982269.7014   20982267.7474
       246.000         214.000
 110026490.50248  85734932.44948  20937342.2014   20937344.8324   20937342.0764
       249.000         220.000
 130025325.03248 101318414.48848  24743012.8984   24743016.3684   24743013.8264
       207.000         153.000
 106886441.90748  83288130.99448  20339817.2474   20339818.4784   20339816.9534
       254.000         240.000
 130134488.02448 101403475.87448  24763786.3654   24763790.3434   24763786.7014
       213.000         156.000
 119200408.41948  92883433.52948  22683084.7414   22683086.2374   22683085.3614
       234.000         188.000
 123729123.36348  96412295.45548  23544875.6314   23544877.6324   23544875.0594
       224.000         180.000
 127560007.36848  99397397.34748  24273868.6744   24273872.4714   24273867.7104
       208.000         156.000
 123625925.09848  96331875.70248  23525243.2904   23525244.8214   23525242.9364
       228.000         181.000
 123775924.68848  96448766.46548  23553780.2094   23553781.7444   23553781.0344
       228.000         178.000
 09  1 22  0 11 30.0000000  0 10G 9G26G 5G15G10G18G17G27G12G28
 110203705.56548  85872999.44948  20971083.9784   20971086.5294   20971084.6214
       246.000         214.000
 110085855.44548  85781190.83148  20948638.9654   20948641.5534   20948638.8854
       250.000         220.000
 129910776.23448 101229155.71548  24721214.3774   24721218.2534   24721214.5184
       211.000         154.000
 106895110.85648  83294886.01548  20341466.8474   20341468.1464   20341466.6204
       253.000         240.000
 130245476.21448 101489960.18548  24784906.8884   24784910.4264   24784907.8184
       210.000         152.000
 119152457.16848  92846068.91948  22673960.0004   22673961.4034   22673960.8344
       234.000         188.000
 123688633.53448  96380744.98648  23537170.7024   23537172.4014   23537169.9854
       224.000         181.000
 127629233.08848  99451339.42748  24287042.1504   24287046.4064   24287042.3164
       212.000         158.000
 123519018.54648  96248571.89348  23504899.6534   23504901.3144   23504899.8454
       226.000         182.000
 123860327.48148  96514534.88948  23569841.4374   23569843.1604   23569842.6484
       227.000         177.000
 09  1 22  0 12  0.0000000  0 10G 9G26G 5G15G10G18G17G27G12G28
 110145230.03448  85827434.11248  20959956.6154   20959958.9174   20959956.7204
       247.000         214.000
 110145597.42148  85827743.01148  20960007.5324   20960010.1664   20960007.5044
       249.000         220.000
 129796319.59348 101139968.73848  24699434.7034   24699437.8024   24699435.4124
       212.000         154.000
 106904220.45448  83301984.39948  20343200.4374   20343201.6054   20343200.2194
       254.000         240.000
 130356435.84048 101576422.20748  24806020.3864   24806024.6584   24806021.4424
       207.000         146.000
 119105023.74248  92809107.80348  22664933.6244   22664935.2924   22664933.5954
       232.000         189.000
 123648586.26448  96349539.32748  23529549.9404   23529551.6924   23529549.5004
       225.000         181.000
 127698478.89448  99505297.17448  24300219.8514   24300223.6914   24300220.7154
       212.000         159.000
 123412310.09248  96165422.46048  23484593.2704   23484595.7854   23484592.5514
       226.000         183.000
 123944958.28948  96580480.95848  23585945.8234   23585947.9024   23585946.9674
       226.000         177.000
 09  1 22  0 12 30.0000000  0 10G 9G26G 5G15G10G18G17G27G12G28
 110087047.22548  85782096.86748  20948884.7904   20948887.0974   20948885.1794
       247.000         215.000
 110205715.45048  85874588.22548  20971447.6194   20971450.1894   20971447.4564
       250.000         220.000
 129681956.91048 101050854.97348  24677672.7824   24677674.6754   24677673.0674
       215.000         155.000
 106913771.58848  83309426.83748  20345017.8824   20345019.1604   20345017.7184
       254.000         240.000
 130467364.00548 101662859.76048  24827129.6624   24827132.7964   24827129.6994
       212.000         145.000
 119058109.62448  92772551.33848  22656006.2324   22656007.5184   22656006.9354
       232.000         186.000
 123608983.11448  96318679.74648  23522013.5654   23522015.0664   23522013.1974
       226.000         180.000
 127767744.81748  99559270.58848  24313400.4194   24313404.3014   24313401.3974
       211.000         157.000
 123305801.37948  96082428.65148  23464325.7074   23464328.0004   23464325.2924
       227.000         181.000
 124029814.64948  96646602.77948  23602093.7804   23602095.4554   23602094.1994
       227.000         177.000
 09  1 22  0 13  0.0000000  0 10G 9G26G 5G15G10G18G17G27G12G28
 110029157.61548  85736988.09548  20937868.7154   20937870.9614   20937869.1114
       247.000         215.000
 110266208.94148  85921726.00148  20982959.3324   20982961.6274   20982959.3314
       249.000         220.000
 129567689.99148 100961815.81448  24655928.4944   24655929.8704   24655929.2464
       211.000         152.000
 106923764.67248  83317213.65348  20346919.4394   20346920.8984   20346919.1754
       253.000         240.000
 130578258.03948 101749270.70348  24848232.7234   24848236.3554   24848234.4994
       215.000         154.000
 119011716.45048  92736400.81848  22647177.9024   22647179.2534   22647178.5114
       234.000         188.000
 123569826.25148  96288167.90548  23514562.4484   23514563.9924   23514561.8644
       224.000         181.000
 127837030.45648  99613259.36648  24326585.8314   24326589.0684   24326585.7874
       209.000         157.000
 123199494.53548  95999592.16548  23444095.8274   23444098.2404   23444096.2344
       227.000         183.000
 124114894.21148  96712898.55048  23618284.0784   23618285.4184   23618285.5404
       228.000         175.000
 09  1 22  0 13 30.0000000  0 10G 9G26G 5G15G10G18G17G27G12G28
 109971560.61848  85692107.32848  20926908.4834   20926910.6734   20926908.7434
       247.000         215.000
 110327076.18748  85969155.01548  20994541.8094   20994544.3874   20994541.7124
       249.000         220.000
 129453519.91148 100872852.13748  24634201.7044   24634204.3224   24634203.2474
       209.000         153.000
 106934199.23548  83325344.47448  20348905.1234   20348906.5404   20348904.7534
       254.000         240.000
 130689114.67848 101835652.47248  24869328.6164   24869331.9624   24869329.7224
       215.000         160.000
 118965844.51748  92700656.45348  22638448.5484   22638450.6904   22638449.5794
       233.000         188.000
 123531116.70648  96258004.63048  23507195.5344   23507197.9354   23507195.1464
       224.000         181.000
 127906334.76148  99667262.69348  24339773.0504   24339776.8714   24339773.3284
       212.000         159.000
 123093391.12348  95916914.17448  23423905.5714   23423907.0704   23423906.1134
       226.000         182.000
 124200193.54448  96779365.56548  23634516.1224   23634517.2584   23634516.5524
       228.000         177.000
 09  1 22  0 14  0.0000000  0 10G 9G26G 5G15G10G18G17G27G12G28
 109914258.48448  85647456.33248  20916004.0554   20916006.7734   20916004.5724
       247.000         216.000
 110388318.76248  86016876.49648  21006196.0884   21006198.4424   21006195.9684
       250.000         219.000
 129339450.55648 100783966.95848  24612495.8724   24612498.0614   24612495.9324
       216.000         158.000
 106945078.26148  83333821.63048  20350975.4324   20350976.7474   20350975.2974
       253.000         240.000
 130799933.39748 101922004.69248  24890415.6924   24890419.3764   24890417.4284
       211.000         156.000
 118920497.26948  92665320.94048  22629819.4404   22629821.0884   22629820.2674
       235.000         189.000
 123492858.79648  96228193.28248  23499915.9454   23499917.4714   23499915.2774
       223.000         181.000
 127975659.61748  99721282.02148  24352965.3144   24352968.6704   24352965.5724
       211.000         159.000
 122987495.09348  95834397.79648  23403754.0314   23403755.1804   23403753.0974
       226.000         182.000
 124285712.69348  96846003.86648  23650789.6454   23650790.7684   23650789.9824
       226.000         175.000
 09  1 22  0 14 30.0000000  0 10G 9G26G 5G15G10G18G17G27G12G28
 109857250.78648  85603034.75348  20905156.0494   20905158.3844   20905156.1264
       247.000         216.000
 110449934.86548  86064889.03348  21017921.0634   21017923.4734   21017920.9084
       250.000         219.000
 129225482.98848 100695161.08348  24590808.7424   24590811.3964   24590809.8694
       215.000         161.000
 106956401.36948  83342644.82548  20353129.9464   20353131.5394   20353129.7484
       253.000         240.000
 130910710.62048 102008324.54648  24911495.5004   24911499.2414   24911495.9974
       201.000         138.000
 118875675.16348  92630394.62948  22621290.1854   22621291.6614   22621290.9774
       235.000         190.000
 123455053.50948  96198734.62448  23492721.6154   23492723.5304   23492720.8914
       225.000         181.000
 128045004.17748  99775316.75748  24366160.9944   24366164.5144   24366161.2004
       210.000         157.000
 122881807.63348  95752043.92148  23383642.6874   23383643.2144   23383642.1074
       228.000         182.000
 124371448.37448  96912810.88548  23667104.4514   23667105.7914   23667104.8594
       226.000         177.000
 09  1 22  0 15  0.0000000  0 10G 9G26G 5G15G10G18G17G27G12G28
 109800538.33848  85558843.24748  20894363.8714   20894366.4284   20894364.0574
       247.000         216.000
 110511924.18648  86113192.39348  21029717.2534   21029719.6994   21029717.2504
       249.000         219.000
 129111619.39848 100606436.25048  24569140.6634   24569144.4954   24569141.1904
       211.000         161.000
 106968169.21048  83351814.56748  20355369.3844   20355370.9004   20355369.1294
       254.000         240.000
 131021443.90348 102094610.29448  24932566.5964   24932567.9924   24932566.9774
       207.000         138.000
 118831380.11448  92595879.00748  22612860.8544   22612862.6434   22612861.3624
       234.000         188.000
 123417703.02348  96169630.35348  23485613.8384   23485615.8664   23485613.2724
       226.000         180.000
 128114368.60848  99829366.95348  24379360.5594   24379364.3724   24379360.9744
       207.000         158.000
 122776331.01848  95669854.35748  23363570.6504   23363571.4154   23363571.2484
       228.000         182.000
 124457398.58548  96979785.06348  23683460.5654   23683461.8024   23683460.7374
       227.000         178.000
 09  1 22  0 15 30.0000000  0 10G 9G26G 5G15G10G18G17G27G12G28
 109744122.32548  85514882.71748  20883628.2274   20883630.6524   20883628.7904
       246.000         216.000
 110574286.65948  86161786.52148  21041584.3824   21041587.1784   21041584.2114
       248.000         219.000
 128997862.50648 100517794.52748  24547493.0074   24547496.9484   24547493.1004
       211.000         160.000
 106980383.33748  83361332.06348  20357693.8364   20357695.1434   20357693.5934
       253.000         240.000
 131132132.08648 102180860.88248  24953630.5794   24953634.4264   24953631.9584
       216.000         153.000
 118787614.47948  92561775.91148  22604532.5584   22604533.7864   22604533.0484
       235.000         190.000
 123380810.02648  96140882.59148  23478593.4534   23478595.7834   23478593.8614
       224.000         181.000
 128183753.55648  99883433.11248  24392564.7184   24392567.9684   24392565.2964
       210.000         157.000
 122671068.23248  95587831.42048  23343540.1784   23343541.0874   23343539.7194
       229.000         185.000
 124543561.93748  97046925.32948  23699856.8454   23699858.2674   23699857.4874
       226.000         176.000
 09  1 22  0 16  0.0000000  0 10G 9G26G 5G15G10G18G17G27G12G28
 109688001.79248  85471152.43948  20872948.9414   20872951.3994   20872948.9384
       247.000         216.000
 110637020.40948  86210669.95248  21053522.1894   21053524.9094   21053521.9504
       248.000         218.000
 128884212.86548 100429236.36648  24525865.9654   24525869.7044   24525866.2134
       215.000         160.000
 106993042.79448  83371196.56648  20360102.7984   20360104.0574   20360102.6134
       254.000         239.000
 131242771.54248 102267073.41748  24974684.5674   24974689.3484   24974685.7154
       211.000         156.000
 118744378.40548  92528085.45248  22596305.2314   22596306.4734   22596305.4044
       236.000         190.000
 123344375.22248  96112491.84348  23471659.8094   23471662.3524   23471659.7664
       226.000         181.000
 128253157.66948  99937514.21048  24405771.6694   24405774.6884   24405771.4864
       209.000         156.000
 122566019.94648  95505975.61048  23323550.4044   23323551.7414   23323550.1034
       229.000         185.000
 124629934.77548  97114228.83048  23716292.9244   23716294.5144   23716293.4884
       225.000         175.000
 09  1 22  0 16 30.0000000  0 10G 9G26G 5G15G10G18G17G27G12G28
 109632177.59948  85427653.07148  20862325.9454   20862328.1434   20862326.2784
       247.000         216.000
 110700124.87448  86259842.26048  21065530.6074   21065533.1314   21065530.4234
       248.000         218.000
 128770672.72148 100340763.54748  24504260.4454   24504263.8574   24504261.5664
       214.000         161.000
 107006148.61148  83381408.89048  20362596.7294   20362598.0324   20362596.6144
       253.000         239.000
 131353359.67848 102353245.92648  24995730.5144   24995732.8234   24995730.9954
       206.000         149.000
 118701673.52048  92494808.92648  22588178.9084   22588180.5194   22588179.4994
       236.000         192.000
 123308400.92548  96084459.93848  23464814.2784   23464816.1594   23464814.0374
       225.000         181.000
 128322581.07148  99991610.33148  24418981.6324   24418985.4904   24418981.0074
       213.000         158.000
 122461188.70548  95424288.94348  23303601.4104   23303603.4394   23303601.0844
       228.000         187.000
 124716514.96248  97181693.91548  23732768.5694   23732770.0044   23732768.5564
       225.000         176.000
 09  1 22  0 17  0.0000000  0 10G 9G26G 5G15G10G18G17G27G12G28
 109576650.63748  85384385.30848  20851759.3034   20851761.7664   20851759.3394
       246.000         216.000
 110763599.92648  86309303.33548  21077609.6164   21077611.9164   21077609.4014
       249.000         218.000
 128657244.43348 100252377.90248  24482676.0954   24482679.6454   24482676.8394
       218.000         164.000
 107019701.91848  83391969.90248  20365175.6524   20365177.2204   20365175.3514
       253.000         239.000
 131463894.44548 102439376.86348  25016764.0514   25016765.8994   25016765.5374
       213.000         147.000
 118659501.43548  92461947.54748  22580153.9974   22580155.3634   22580154.2484
       235.000         192.000
 123272889.68248  96056788.83748  23458057.1154   23458059.0344   23458057.0094
       226.000         181.000
 128392024.18148 100045721.84048  24432196.5174   24432200.2584   24432196.6704
       210.000         158.000
 122356576.73148  95342773.12648  23283694.3814   23283696.2754   23283693.9364
       227.000         185.000
 124803300.95148  97249319.35148  23749283.3824   23749285.0954   23749283.4294
       226.000         177.000
 09  1 22  0 17 30.0000000  0 10G 9G26G 5G15G10G18G17G27G12G28
 109521420.34648  85341348.73148  20841249.4134   20841251.8564   20841249.2814
       246.000         217.000
 110827443.89848  86359051.87948  21089758.6564   21089761.1514   21089758.5064
       249.000         218.000
 128543929.16348 100164080.32248  24461113.5394   24461116.6734   24461115.1104
       218.000         164.000
 107033702.30948  83402879.29448  20367839.9694   20367841.3664   20367839.6394
       253.000         239.000
 131574372.84448 102525463.98648  25037787.7214   25037789.1044   25037788.3784
       215.000         148.000
 118617862.68448  92429501.76748  22572229.8744   22572231.6854   22572230.3264
       234.000         191.000
 123237842.25948  96029479.16448  23451387.8384   23451389.7314   23451387.7464
       227.000         180.000
 128461486.06048 100099847.95748  24445415.1034   24445418.8124   24445414.8184
       211.000         160.000
 122252185.45748  95261429.28948  23263829.2424   23263831.0864   23263830.0474
       228.000         186.000
 124890289.36748  97317102.51948  23765836.4954   23765838.6634   23765836.9214
       226.000         178.000
 09  1 22  0 18  0.0000000  0 10G 9G26G 5G15G10G18G17G27G12G28
 109466487.37348  85298543.81548  20830796.0144   20830798.5784   20830796.3074
       247.000         217.000
 110891656.34948  86409087.54348  21101977.9214   21101980.4754   21101977.8734
       249.000         218.000
 128430728.99748 100075872.40148  24439571.1624   24439575.0414   24439572.4584
       216.000         162.000
 107048150.33348  83414137.49048  20370589.4444   20370590.7044   20370589.2994
       252.000         239.000
 131684792.66148 102611505.44148  25058800.2554   25058802.4014   25058802.1764
       211.000         146.000
 118576759.22648  92397473.09448  22564408.5884   22564409.6214   22564409.1834
       236.000         192.000
 123203260.88848  96002532.63848  23444807.3474   23444808.5574   23444807.1254
       227.000         180.000
 128530966.94148 100153988.87748  24458636.7714   24458640.5194   24458636.8944
       207.000         158.000
 122148017.26648  95180259.27848  23244007.1004   23244008.9814   23244006.5854
       228.000         186.000
 124977478.08148  97385041.76848  23782428.3174   23782430.2494   23782429.4294
       227.000         176.000
 09  1 22  0 18 30.0000000  0 10G 9G26G 5G15G10G18G17G27G12G28
 109411853.55348  85255972.01948  20820399.4284   20820402.0504   20820399.5134
       246.000         216.000
 110956237.60648  86459410.59848  21114267.2894   21114269.7474   21114267.1914
       249.000         218.000
 128317647.05248  99987756.59848  24418052.2084   24418055.9294   24418052.5704
       211.000         159.000
 107063047.87548  83425745.96348  20373424.1704   20373425.5424   20373424.0054
       252.000         238.000
 131795152.49548 102697500.02148  25079799.3894   25079804.3284   25079801.2004
       206.000         147.000
 118536193.17248  92365863.19048  22556689.2574   22556690.2204   22556689.8454
       236.000         192.000
 123169148.57348  95975951.62848  23438315.7644   23438317.1504   23438315.4654
       228.000         182.000
 128600467.81748 100208145.38948  24471863.3124   24471865.8774   24471863.9534
       211.000         158.000
 122044075.60448  95099265.80848  23224227.2394   23224229.3104   23224227.4124
       229.000         186.000
 125064866.68948  97453136.80348  23799057.4794   23799059.4234   23799057.7254
       226.000         173.000
 09  1 22  0 19  0.0000000  0 10G 9G26G 5G15G10G18G17G27G12G28
 109357517.90048  85213632.55048  20810059.8944   20810062.1504   20810059.9514
       247.000         217.000
 111021185.53948  86510019.37048  21126626.4894   21126629.1374   21126626.3844
       248.000         218.000
 128204683.84248  99899733.31848  24396555.6384   24396559.4304   24396555.9104
       215.000         159.000
 107078394.26848  83437704.18248  20376344.4034   20376345.8354   20376344.1134
       252.000         238.000
 131905448.42748 102783444.86948  25100788.0244   25100791.6484   25100788.1734
       210.000         151.000
 118496164.78948  92334672.23848  22549071.8824   22549072.9464   22549072.7874
       236.000         192.000
 123135506.12348  95949736.76248  23431913.6064   23431915.3794   23431913.4624
       226.000         182.000
 128669987.42348 100262316.50148  24485091.2144   24485094.7804   24485092.2464
       214.000         158.000
 121940360.68848  95018448.98148  23204491.2294   23204492.4604   23204491.4124
       227.000         184.000
 125152451.29648  97521384.53248  23815724.5754   23815726.0734   23815725.0414
       226.000         172.000
 09  1 22  0 19 30.0000000  0 10G 9G26G 5G15G10G18G17G27G12G28
 109303481.99748  85171526.66748  20799776.9044   20799779.4954   20799777.2484
       247.000         217.000
 111086500.85148  86560914.41348  21139055.7814   21139058.1584   21139055.6554
       248.000         218.000
 128091842.70748  99811805.17848  24375083.4254   24375086.9884   24375085.2834
       215.000         161.000
 107094191.11348  83450013.40648  20379350.4644   20379351.9574   20379350.1224
       252.000         238.000
 132015679.29048 102869339.09848  25121764.6604   25121767.4534   25121765.6984
       209.000         148.000
 118456676.52748  92303902.17048  22541556.9384   22541559.1624   22541557.6204
       234.000         192.000
 123102336.23748  95923890.10548  23425601.8214   23425603.8934   23425601.4794
       226.000         183.000
 128739527.09248 100316503.25948  24498325.2684   24498328.1924   24498325.8994
       210.000         161.000
 121836876.08348  94937811.64148  23184798.0794   23184799.8694   23184798.0934
       228.000         185.000
 125240230.87848  97589784.21748  23832428.4974   23832429.9274   23832428.8464
       227.000         171.000
 09  1 22  0 20  0.0000000  0 10G 9G26G 5G15G10G18G17G27G12G28
 109249745.75248  85129654.27048  20789551.3964   20789553.9564   20789551.2374
       247.000         217.000
 111152182.02448  86612094.54448  21151554.3064   21151556.6894   21151554.2944
       249.000         217.000
 127979124.76948  99723973.05248  24353634.4824   24353637.4934   24353634.3254
       217.000         162.000
 107110438.20148  83462673.46848  20382442.2004   20382443.7314   20382441.9604
       252.000         238.000
 132125842.36448 102955180.45748  25142728.7804   25142731.2754   25142729.5604
       209.000         146.000
 118417729.17048  92273553.56748  22534145.4584   22534147.7494   22534145.9234
       235.000         193.000
 123069640.52448  95898412.92048  23419380.1884   23419382.0924   23419379.9404
       228.000         184.000
 128809086.08248 100370705.04748  24511561.0284   24511564.6554   24511560.7954
       213.000         161.000
 121733623.30448  94857354.93648  23165149.7454   23165151.9264   23165149.2824
       229.000         187.000
 125328202.69248  97658333.67148  23849169.1174   23849170.4154   23849169.4574
       225.000         174.000
 09  1 22  0 20 30.0000000  0 10G 9G26G 5G15G10G18G17G27G12G28
 109196309.90048  85088015.95148  20779383.0544   20779385.2604   20779383.2284
       248.000         218.000
 111218228.57348  86663559.37648  21164122.4124   21164125.1044   21164122.2724
       248.000         217.000
 127866532.42848  99636238.77748  24332208.8474   24332211.4064   24332208.9674
       219.000         164.000
 107127136.30848  83475684.97748  20385619.8154   20385621.2164   20385619.6444
       252.000         238.000
 132235935.56748 103040967.32448  25163677.9064   25163680.9334   25163679.9214
       209.000         147.000
 118379324.04848  92243627.50548  22526837.5394   22526839.2654   22526838.4854
       236.000         193.000
 123037420.98248  95873306.79248  23413248.9704   23413250.8444   23413248.4964
       229.000         185.000
 128878664.60448 100424922.05148  24524801.7694   24524805.1514   24524802.6634
       211.000         161.000
 121630604.67648  94777080.70448  23145546.0634   23145548.3674   23145545.9324
       227.000         187.000
 125416364.55948  97727031.23848  23865945.8644   23865947.1284   23865946.2804
       226.000         177.000
 09  1 22  0 21  0.0000000  0 10G 9G26G 5G15G10G18G17G27G12G28
 109143174.55048  85046611.78448  20769271.9284   20769274.2364   20769271.9484
       247.000         218.000
 111284639.72848  86715308.32848  21176760.0664   21176762.6114   21176759.9334
       248.000         216.000
 127754067.39248  99548603.66948  24310806.9824   24310810.2224   24310807.2204
       217.000         165.000
 107144285.99648  83489048.36848  20388883.2844   20388884.6604   20388883.1594
       252.000         238.000
 132345956.37748 103126697.77248  25184614.1304   25184618.1094   25184615.2274
       207.000         147.000
 118341462.29448  92214124.83848  22519632.6664   22519634.2374   22519633.5374
       236.000         193.000
 123005678.99348  95848572.78348  23407208.7124   23407210.6864   23407208.4344
       230.000         186.000
 128948262.80848 100479154.39448  24538045.9974   24538048.5564   24538047.2684
       214.000         161.000
 121527822.14448  94696990.42948  23125986.9484   23125989.1794   23125986.4424
       230.000         188.000
 125504714.37548  97795875.23348  23882758.3054   23882759.8794   23882758.8284
       227.000         176.000
 09  1 22  0 21 30.0000000  0 10G 9G26G 5G15G10G18G17G27G12G28
 109090340.58848  85005442.47148  20759217.6684   20759220.2364   20759217.9134
       247.000         218.000
 111351414.40548  86767340.53648  21189467.0224   21189469.4604   21189466.9464
       248.000         216.000
 127641731.70548  99461069.34648  24289429.9744   24289433.3264   24289429.8634
       216.000         165.000
 107161887.58048  83502763.87948  20392232.7434   20392234.1354   20392232.4114
       252.000         238.000
 132455902.50348 103212370.09048  25205536.7174   25205540.1814   25205538.3654
       210.000         148.000
 118304145.09648  92185046.50748  22512531.5334   22512533.2394   22512532.1324
       236.000         192.000
 122974416.67848  95824212.54248  23401259.6484   23401260.9664   23401259.5924
       228.000         185.000
 129017880.39248 100533401.82248  24551293.7154   24551296.0274   24551293.8054
       214.000         160.000
 121425277.92648  94617085.84448  23106473.8564   23106475.2664   23106473.9094
       227.000         185.000
 125593249.74448  97864863.81348  23899605.8444   23899607.2384   23899606.4644
       224.000         172.000
 09  1 22  0 22  0.0000000  0 10G 9G26G 5G15G10G18G17G27G12G28
 109037808.44448  84964508.34248  20749221.1534   20749223.6954   20749221.4024
       247.000         218.000
 111418552.49848  86819655.92448  21202242.9104   21202245.5684   21202242.7834
       247.000         216.000
 127529527.41948  99373637.44448  24268077.8564   24268081.6204   24268079.0994
       221.000         165.000
 107179941.83048  83516832.12348  20395668.4304   20395669.7554   20395668.1104
       253.000         238.000
 132565771.19748 103297982.05248  25226444.0564   25226447.6234   25226446.2384
       209.000         145.000
 118267373.99848  92156393.70548  22505533.9094   22505535.5364   22505534.1724
       236.000         192.000
 122943636.13648  95800227.71148  23395402.2814   23395404.3274   23395402.5624
       229.000         185.000
 129087517.71448 100587664.68648  24564544.7504   24564547.8044   24564544.8684
       210.000         160.000
 121322974.17948  94537368.67048  23087006.0124   23087007.7334   23087006.2774
       231.000         187.000
 125681968.87448  97933995.59148  23916488.3284   23916489.6844   23916488.2344
       225.000         168.000
 09  1 22  0 22 30.0000000  0 10G 9G26G 5G15G10G18G17G27G12G28
 108985577.78448  84923809.13248  20739281.8174   20739284.4554   20739281.9934
       248.000         218.000
 111486052.17848  86872253.07148  21215087.5444   21215090.1084   21215087.4444
       248.000         216.000
 127417455.76548  99286308.87448  24246751.8904   24246754.9304   24246753.9164
       220.000         164.000
 107198448.50148  83531252.90048  20399190.1954   20399191.4954   20399190.1714
       252.000         237.000
 132675559.84048 103383531.63948  25247335.8144   25247338.9964   25247337.4044
       205.000         142.000
 118231149.54148  92128166.85048  22498640.7274   22498642.7294   22498641.5774
       236.000         194.000
 122913338.09648  95776618.85648  23389636.8194   23389638.3304   23389636.5764
       228.000         184.000
 129157173.85548 100641942.18148  24577799.7824   24577803.6814   24577800.3884
       215.000         161.000
 121220911.97748  94457839.70248  23067584.6954   23067585.6444   23067584.9254
       229.000         188.000
 125770868.87748  98003268.32748  23933405.4374   23933406.4824   23933406.2944
       224.000         167.000
 09  1 22  0 23  0.0000000  0 10G 9G26G 5G15G10G18G17G27G12G28
 108933649.09848  84883345.22748  20729400.3694   20729402.6034   20729400.4694
       248.000         219.000
 111553912.30448  86925131.08248  21228001.2184   21228003.4064   21228001.1054
       248.000         216.000
 127305518.46948  99199085.00348  24225451.3074   24225454.1154   24225452.2364
       219.000         165.000
 107217407.50048  83546026.14848  20402797.8234   20402799.2194   20402797.5134
       252.000         237.000
 132785265.78948 103469016.78848  25268212.3234   25268215.9254   25268212.7334
       203.000         142.000
 118195472.62748  92100366.66648  22491851.7244   22491853.6974   22491852.3424
       235.000         194.000
 122883524.29948  95753387.34748  23383963.1684   23383964.7134   23383963.1864
       228.000         183.000
 129226848.75448 100696234.25448  24591059.0454   24591062.6344   24591061.2714
       214.000         162.000
 121119093.25648  94378500.46748  23048208.8124   23048210.2984   23048208.8344
       230.000         189.000
 125859947.23048  98072680.04448  23950356.5434   23950357.3154   23950357.4104
       223.000         166.000
 09  1 22  0 23 30.0000000  0 10G 9G26G 5G15G10G18G17G27G12G28
 108882024.11848  84843117.97948  20719576.3604   20719578.8134   20719576.2574
       247.000         219.000
 111622133.71848  86978290.62648  21240983.2814   21240985.7624   21240983.1994
       248.000         216.000
 127193718.87048  99111968.41648  24204175.9094   24204179.6264   24204175.7554
       218.000         163.000
 107236821.09548  83561153.62248  20406492.0914   20406493.4554   20406491.9484
       251.000         237.000
 132894887.74548 103554436.47548  25289072.8504   25289076.3024   25289073.8564
       207.000         146.000
 118160345.63048  92072994.98048  22485167.5314   22485169.1854   22485167.9064
       236.000         194.000
 122854197.86748  95730535.57048  23378382.5694   23378384.4474   23378381.9584
       228.000         184.000
 129296543.86348 100750542.12148  24604320.9644   24604325.2254   24604321.7674
       214.000         164.000
 121017521.72248  94299353.84248  23028880.2234   23028882.1164   23028879.8424
       229.000         189.000
 125949203.11448  98142230.08848  23967341.2644   23967342.2044   23967341.0514
       221.000         166.000
 09  1 22  0 24  0.0000000  0 10G 9G26G 5G15G10G18G17G27G12G28
 108830703.19348  84803127.65248  20709810.2904   20709812.8194   20709810.3784
       248.000         219.000
 111690715.60848  87031731.05248  21254033.8884   21254036.3524   21254033.7534
       249.000         215.000
 127082058.98648  99024960.69748  24182927.6844   24182931.3464   24182928.7844
       219.000         164.000
 107256689.52748  83576635.51048  20410272.9834   20410274.4064   20410272.7274
       251.000         237.000
 133004424.14448 103639789.47448  25309917.5014   25309920.6524   25309919.8074
       212.000         146.000
 118125769.89148  92046052.84148  22478587.9794   22478589.4284   22478589.1654
       237.000         194.000
 122825360.52248  95708064.92748  23372894.8474   23372896.2774   23372894.4264
       228.000         184.000
 129366259.28248 100804865.83348  24617587.9054   24617591.1174   24617587.7144
       213.000         164.000
 120916199.52248  94220401.49048  23009599.9774   23009601.2064   23009599.8704
       231.000         190.000
 126038634.51348  98211916.89448  23984359.5934   23984360.5684   23984358.5464
       224.000         168.000
 09  1 22  0 24 30.0000000  0 10G 9G26G 5G15G10G18G17G27G12G28
 108779685.83648  84763373.87448  20700102.1274   20700104.4974   20700102.4974
       248.000         219.000
 111759656.10448  87085450.91448  21267152.8724   21267155.1094   21267152.8934
       247.000         215.000
 126970539.73948  98938062.56348  24161705.8524   24161709.6034   24161706.6334
       220.000         166.000
 107277012.10248  83592471.27548  20414140.1714   20414141.6924   20414139.9684
       251.000         237.000
 133113871.04248 103725072.74448  25330744.5174   25330746.9314   25330745.0474
       203.000         144.000
 118091745.69448  92019540.47148  22472113.6414   22472114.8404   22472113.7044
       235.000         194.000
 122797012.41348  95685975.49848  23367500.2444   23367502.0134   23367499.7304
       230.000         185.000
 129435993.74448 100859204.34548  24630857.9084   24630861.4504   24630857.4074
       218.000         164.000
 120815127.47348  94141644.06348  22990366.5014   22990367.8194   22990366.8014
       230.000         189.000
 126128237.98048  98281737.77048  24001410.6984   24001411.9634   24001412.6634
       225.000         169.000
 09  1 22  0 25  0.0000000  0 10G 9G26G 5G15G10G18G17G27G12G28
 108728972.89448  84723857.29548  20690451.6634   20690453.9914   20690452.0974
       248.000         219.000
 111828954.65648  87139449.78148  21280339.9724   21280342.3824   21280339.6284
       247.000         215.000
 126859163.25848  98851275.69148  24140512.3264   24140515.3054   24140513.1524
       224.000         169.000
 107297789.58748  83608661.51748  20418094.0274   20418095.4774   20418093.7494
       252.000         237.000
 133223226.77448 103810284.97248  25351553.7554   25351556.2634   25351552.9654
       206.000         138.000
 118058274.38948  91993458.93148  22465744.2374   22465745.3294   22465744.7804
       237.000         193.000
 122769156.44748  95664269.55648  23362199.8424   23362201.2914   23362199.4954
       230.000         185.000
 129505747.79548 100913558.12248  24644131.4874   24644134.9554   24644132.1574
       216.000         165.000
 120714307.75748  94063083.26348  22971180.8784   22971182.5374   22971180.9174
       231.000         190.000
 126218012.07748  98351691.59548  24018494.4664   24018495.2704   24018495.0094
       224.000         167.000
 09  1 22  0 25 30.0000000  0 10G 9G26G 5G15G10G18G17G27G12G28
 108678564.59148  84684578.10548  20680859.1834   20680861.8154   20680859.0104
       248.000         219.000
 111898610.19448  87193726.82348  21293595.1254   21293597.3824   21293595.2424
       247.000         215.000
 126747931.29948  98764601.43848  24119346.1594   24119348.7754   24119347.0074
       224.000         171.000
 107319021.92448  83625206.19348  20422134.4724   20422135.8054   20422134.2184
       252.000         236.000
 133332488.62548 103895424.09548  25372345.8764   25372347.9394   25372347.8634
       206.000         139.000
 118025356.63148  91967808.72448  22459480.2084   22459481.1454   22459480.5934
       236.000         194.000
 122741793.51748  95642947.80048  23356992.5744   23356994.2834   23356992.3594
       231.000         186.000
 129575521.23348 100967927.03348  24657408.8154   24657411.9274   24657409.2474
       212.000         161.000
 120613742.67348  93984720.87348  22952043.7994   22952045.4004   22952043.2704
       230.000         190.000
 126307954.16948  98421776.34648  24035609.2554   24035611.4364   24035609.6324
       223.000         169.000
 09  1 22  0 26  0.0000000  0 10G 9G26G 5G15G10G18G17G27G12G28
 108628462.20848  84645537.28948  20671325.0394   20671327.5004   20671325.4214
       248.000         220.000
 111968622.43548  87248281.80248  21306917.8374   21306920.4324   21306917.7684
       247.000         215.000
 126636846.43648  98678041.79448  24098207.1714   24098210.1104   24098207.5394
       224.000         170.000
 107340710.35548  83642106.26148  20426261.6554   20426262.9374   20426261.4764
       252.000         236.000
 133441654.83548 103980488.69348  25393119.7544   25393123.1334   25393122.2374
       207.000         139.000
 117992994.02848  91942591.11648  22453321.6934   22453323.0904   22453322.1344
       236.000         194.000
 122714926.18348  95622012.22448  23351879.8724   23351881.6534   23351879.7074
       231.000         186.000
 129645314.65548 101022311.52048  24670690.6114   24670693.2634   24670690.2464
       216.000         164.000
 120513434.21448  93906558.47048  22932955.2624   22932957.3944   22932955.2344
       230.000         189.000
 126398062.82048  98491990.86848  24052756.6104   24052758.4594   24052757.4284
       223.000         167.000
 09  1 22  0 26 30.0000000  0 10G 9G26G 5G15G10G18G17G27G12G28
 108578665.43948  84606734.61648  20661849.0514   20661851.7464   20661849.1164
       249.000         220.000
 112038989.91448  87303113.60448  21320308.5054   21320310.9454   21320308.4014
       247.000         215.000
 126525910.07248  98591597.86848  24077096.6284   24077099.6294   24077098.0734
       223.000         168.000
 107362854.81548  83659361.67948  20430475.5704   20430476.9764   20430475.2504
       252.000         236.000
 133550722.26548 104065476.32248  25413873.3324   25413877.5804   25413875.6824
       205.000         138.000
 117961187.15448  91917806.53048  22447269.1834   22447270.1434   22447269.8594
       237.000         193.000
 122688555.47648  95601463.63848  23346861.8604   23346863.4654   23346861.7714
       231.000         187.000
 129715127.77748 101076711.35048  24683975.1824   24683978.5744   24683976.0434
       216.000         163.000
 120413384.30548  93828597.50848  22913916.7144   22913918.0914   22913916.5214
       229.000         189.000
 126488335.30848  98562333.05648  24069934.8504   24069936.9824   24069935.3694
       221.000         166.000
 09  1 22  0 27  0.0000000  0 10G 9G26G 5G15G10G18G17G27G12G28
 108529174.56448  84568170.30048  20652431.2564   20652433.6224   20652431.9684
       248.000         220.000
 112109711.87848  87358221.61548  21333766.3894   21333768.7864   21333766.4914
       247.000         214.000
 126415124.06248  98505271.08648  24056014.7154   24056017.9714   24056015.4164
       219.000         169.000
 107385455.35848  83676972.48648  20434776.2794   20434777.7844   20434775.9894
       251.000         236.000
 133659689.07748 104150385.49548  25434609.3334   25434612.4604   25434610.4994
       208.000         141.000
 117929937.00548  91893455.76548  22441322.1734   22441323.6104   22441322.7924
       236.000         192.000
 122662682.76748  95581303.08648  23341938.8304   23341940.0164   23341938.7244
       231.000         188.000
 129784960.46748 101131126.41548  24697264.3804   24697266.7714   24697265.6784
       217.000         163.000
 120313594.74048  93750839.41948  22894927.3534   22894928.8234   22894928.0854
       230.000         190.000
 126578769.28948  98632801.08448  24087144.1104   24087146.1484   24087144.3924
       221.000         165.000
 09  1 22  0 27 30.0000000  0 10G 9G26G 5G15G10G18G17G27G12G28
 108479989.77448  84529844.49748  20643071.8664   20643074.2194   20643072.1544
       248.000         220.000
 112180787.30148  87413605.06548  21347291.5284   21347293.7514   21347291.6994
       247.000         214.000
 126304490.20848  98419062.88348  24034961.8154   24034964.7364   24034962.1534
       218.000         170.000
 107408512.29648  83694938.93248  20439163.9834   20439165.4354   20439163.7834
       251.000         236.000
 133768553.08348 104235214.57448  25455326.2024   25455329.5664   25455327.1184
       205.000         141.000
 117899244.54648  91869539.56448  22435481.3364   22435482.9784   22435481.5634
       236.000         192.000
 122637309.48848  95561531.70948  23337110.2204   23337112.0574   23337110.2994
       230.000         189.000
 129854812.64148 101185556.68948  24710556.5754   24710560.0044   24710556.7234
       215.000         165.000
 120214067.64748  93673285.86348  22875987.9104   22875989.6894   22875987.5654
       229.000         190.000
 126669362.83948  98703393.45848  24104383.2534   24104385.1944   24104384.5624
       220.000         163.000
 09  1 22  0 28  0.0000000  0 10G 9G26G 5G15G10G18G17G27G12G28
 108431112.58348  84491758.38948  20633770.5874   20633773.1034   20633770.8304
       248.000         220.000
 112252216.10448  87469263.85948  21360884.3524   21360886.4884   21360884.5834
       246.000         214.000
 126194011.18448  98332975.34848  24013938.2914   24013941.6324   24013938.4764
       221.000         172.000
 107432026.35048  83713261.56348  20443638.5104   20443639.9704   20443638.2224
       251.000         236.000
 133877312.24248 104319961.97248  25476022.3854   25476026.0544   25476022.4074
       207.000         144.000
 117869111.40448  91846059.18548  22429747.4824   22429749.0524   22429748.0094
       236.000         193.000
 122612437.84148  95542151.22548  23332377.0084   23332378.8284   23332376.9244
       231.000         189.000
 129924685.24148 101240002.82948  24723852.8114   24723856.7964   24723852.4954
       216.000         164.000
 120114805.55548  93595938.78948  22857098.7164   22857101.1274   22857098.7154
       231.000         191.000
 126760114.41248  98774108.97148  24121652.5194   24121654.8334   24121653.1184
       219.000         163.000
 09  1 22  0 28 30.0000000  0 11G 9G26G 5G15G10G18G17G27G12G22G28
 108382542.29348  84453911.41248  20624528.1014   20624530.5624   20624528.1314
       248.000         221.000
 112323996.26548  87525196.45348  21374543.2574   21374545.8114   21374543.0964
       246.000         214.000
 126083687.92648  98247009.16748  23992944.3894   23992947.8784   23992944.8194
       222.000         172.000
 107455997.30648  83731940.23048  20448199.9164   20448201.4834   20448199.6064
       251.000         236.000
 133985963.44748 104404625.18648  25496698.5234   25496701.5164   25496698.8924
       205.000         142.000
 117839537.51948  91823014.60548  22424119.6154   22424121.0374   22424119.8854
       235.000         193.000
 122588068.64048  95523162.25348  23327739.4914   23327741.3564   23327739.5014
       232.000         188.000
 129994577.11848 101294464.03548  24737152.4854   24737156.7364   24737151.8684
       216.000         165.000
 120015809.62948  93518799.12648  22838260.5364   22838262.5904   22838260.4204
       231.000         191.000
 138190144.78158  89888431.15458  24393768.3145   24393767.0535   24393770.2625
       222.000         160.000
 126851020.94748  98844945.21848  24138951.3584   24138953.7414   24138951.0054
       220.000         163.000
 09  1 22  0 29  0.0000000  0 11G 9G26G 5G15G10G18G17G27G12G22G28
 108334279.53448  84416304.07448  20615344.0094   20615346.6284   20615344.5174
       248.000         221.000
 112396127.18948  87581402.35548  21388269.5614   21388271.8244   21388269.6294
       245.000         213.000
 125973522.50148  98161165.98148  23971980.5194   23971984.2084   23971981.4714
       222.000         172.000
 107480425.33548  83750975.05148  20452848.5144   20452849.8974   20452848.2654
       251.000         236.000
 134094504.36748 104489202.51648  25517351.4614   25517355.6784   25517353.0274
       198.000         137.000
 117810524.23948  91800406.84148  22418598.4584   22418600.1514   22418598.9514
       235.000         193.000
 122564203.29148  95504565.88248  23323198.4954   23323200.3244   23323198.4734
       232.000         189.000
 130064488.51948 101348940.44048  24750456.4874   24750460.0074   24750456.9444
       215.000         165.000
 119917081.68048  93441868.26248  22819473.3334   22819475.3674   22819472.9534
       234.000         193.000
 138117074.57248  89831493.29848  24379862.9154   24379863.0044   24379863.1664
       216.000         166.000
 126942080.26548  98915900.50948  24156279.4284   24156281.5694   24156280.9684
       219.000         162.000
 09  1 22  0 29 30.0000000  0 11G 9G26G 5G15G10G18G17G27G12G22G28
 108286325.14148  84378937.01648  20606218.5724   20606221.0444   20606218.4394
       249.000         221.000
 112468608.13148  87637881.01648  21402061.9114   21402064.2484   21402061.5994
       245.000         213.000
 125863517.07648  98075447.46548  23951047.1294   23951050.9104   23951047.5704
       223.000         172.000
 107505311.03648  83770366.50248  20457584.0204   20457585.5374   20457583.8084
       251.000         236.000
 134202933.17548 104573692.46748  25537984.9724   25537988.8564   25537985.0344
       199.000         135.000
 117782072.39948  91778236.56948  22413184.2044   22413186.0754   22413184.8844
       236.000         192.000
 122540844.03248  95486363.87348  23318753.2734   23318754.9474   23318752.8664
       232.000         188.000
 130134419.83748 101403432.37148  24763764.8764   24763767.5024   24763765.0514
       215.000         167.000
 119818624.08648  93365148.06948  22800737.4974   22800739.3824   22800737.9204
       232.000         193.000
 138044386.71748  89774853.48248  24366030.2114   24366031.4464   24366028.2544
       212.000         162.000
 127033290.71548  98986973.59148  24173636.4284   24173638.6664   24173636.2704
       218.000         162.000
 09  1 22  0 30  0.0000000  0 11G 9G26G 5G15G10G18G17G27G12G22G28
 108238680.80548  84341811.56948  20597152.3744   20597154.7724   20597152.7804
       249.000         222.000
 112541439.45148  87694632.67948  21415921.3704   21415923.7954   21415921.3094
       246.000         213.000
 125753674.78248  97989856.08648  23930145.2024   23930148.6754   23930146.7544
       221.000         171.000
 107530655.54348  83790115.45848  20462407.0554   20462408.5774   20462406.8094
       251.000         235.000
 134311248.85148 104658094.28148  25558596.1534   25558600.6744   25558597.2154
       198.000         134.000
 117754183.95548  91756505.29148  22407877.6384   22407878.9124   22407878.1224
       236.000         194.000
 122517993.18748  95468558.03348  23314404.6524   23314406.3264   23314404.0124
       231.000         189.000
 130204372.38748 101457940.86448  24777075.7404   24777078.6324   24777075.6894
       214.000         165.000
 119720440.17748  93288641.13748  22782053.6874   22782055.5884   22782053.2624
       232.000         192.000
 137972084.49648  89718514.05248  24352272.0894   24352273.3944   24352271.6894
       222.000         164.000
 127124651.35348  99058163.69848  24191021.9004   24191023.6294   24191021.6004
       220.000         162.000
 09  1 22  0 30 30.0000000  0 11G 9G26G 5G15G10G18G17G27G12G22G28
 108191345.83448  84304927.17248  20588144.5814   20588147.1594   20588144.8104
       248.000         221.000
 112614619.00548  87751655.70648  21429847.0674   21429849.4614   21429847.0614
       244.000         213.000
 125643996.43248  97904392.45748  23909274.1504   23909277.4824   23909274.4364
       225.000         173.000
 107556458.67248  83810221.79048  20467317.1654   20467318.5974   20467316.9194
       251.000         235.000
 134419448.23148 104742405.47748  25579186.3964   25579191.5224   25579185.7484
       203.000         140.000
 117726858.94748  91735213.07948  22402677.8724   22402679.1714   22402678.9114
       236.000         194.000
 122495651.17848  95451148.68148  23310153.3654   23310155.3074   23310152.6754
       232.000         190.000
 130274345.20948 101512465.12448  24790390.9044   24790394.1554   24790390.3444
       216.000         167.000
 119622530.85948  93212348.18948  22763422.3094   22763424.2034   22763422.5564
       233.000         194.000
 137900169.09048  89662476.06548  24338587.1724   24338586.8774   24338587.3884
       216.000         163.000
 127216159.19148  99129468.47148  24208435.4924   24208437.3474   24208436.4644
       216.000         159.000
 09  1 22  0 31  0.0000000  0 10G 9G26G 5G15G18G17G27G12G22G28
 108144320.10848  84268283.75648  20579195.8294   20579198.2924   20579196.1844
       248.000         221.000
 112688145.42948  87808949.01848  21443838.6914   21443841.0854   21443838.6134
       244.000         212.000
 125534483.37948  97819057.61148  23888434.8344   23888437.7794   23888436.5214
       225.000         174.000
 107582719.64048  83830684.87648  20472314.5424   20472315.8714   20472314.2654
       251.000         235.000
 117700097.71548  91714360.17548  22397585.1144   22397586.6554   22397585.7454
       235.000         192.000
 122473818.88048  95434136.51048  23305998.7154   23306000.2354   23305998.4664
       231.000         190.000
 130344337.95448 101567004.94248  24803710.1814   24803713.0094   24803710.4464
       214.000         164.000
 119524897.35848  93136270.15748  22744843.3574   22744845.3704   22744843.3884
       233.000         195.000
 137828642.21848  89606740.87348  24324976.3944   24324976.6234   24324976.4744
       215.000         163.000
 127307811.11648  99200885.56848  24225876.0434   24225878.2284   24225875.9844
       215.000         158.000
 09  1 22  0 31 30.0000000  0 10G 9G26G 5G15G18G17G27G12G22G28
 108097605.27948  84231882.60048  20570306.1444   20570308.8784   20570306.4074
       248.000         221.000
 112762018.90848  87866512.75548  21457896.1704   21457898.6664   21457896.0884
       243.000         212.000
 125425138.82648  97733854.05848  23867626.9534   23867630.2984   23867627.0844
       222.000         174.000
 107609440.00148  83851505.93048  20477399.1884   20477400.5964   20477398.8924
       251.000         235.000
 117673902.36148  91693948.19448  22392600.2524   22392601.5904   22392600.5974
       236.000         193.000
 122452499.24248  95417523.83448  23301942.0264   23301943.1474   23301941.5904
       232.000         190.000
 130414351.61248 101621561.02148  24817033.2734   24817036.6364   24817033.1524
       216.000         164.000
 119427542.87548  93060409.53948  22726317.5834   22726319.1504   22726317.2354
       235.000         195.000
 137757507.70748  89551311.44848  24311439.8114   24311440.4984   24311439.3654
       220.000         171.000
 127399606.49448  99272414.41748  24243344.1254   24243346.1464   24243344.7464
       217.000         159.000
 09  1 22  0 32  0.0000000  0 10G 9G26G 5G15G18G17G27G12G22G28
 108051200.38248  84195722.94448  20561475.7784   20561478.1814   20561475.9574
       249.000         222.000
 112836237.24548  87924345.21648  21472019.3574   21472022.0534   21472019.0964
       243.000         211.000
 125315963.24448  97648782.20448  23846850.9354   23846854.9194   23846851.1494
       222.000         174.000
 107636618.64348  83872684.08948  20482571.1714   20482572.6134   20482570.9304
       251.000         235.000
 117648272.26948  91673976.67448  22387722.9264   22387724.7244   22387723.6214
       236.000         193.000
 122431691.89548  95401310.33248  23297982.1264   23297984.1944   23297981.9174
       232.000         191.000
 130484384.78148 101676132.31948  24830359.9724   24830363.7514   24830360.7574
       213.000         162.000
 119330468.05948  92984766.83048  22707845.1284   22707845.9744   22707845.0464
       235.000         194.000
 137686765.54848  89496187.72448  24297978.0614   24297978.6274   24297977.5314
       218.000         164.000
 127491541.81248  99344052.32048  24260838.7034   24260840.3394   24260841.4014
       217.000         158.000
 09  1 22  0 32 30.0000000  0 10G 9G26G 5G15G18G17G27G12G22G28
 108005106.82448  84159805.89548  20552704.5514   20552706.8784   20552704.6524
       249.000         222.000
 112910800.31848  87982446.30948  21486208.3344   21486210.8314   21486208.2804
       244.000         212.000
 125206959.42848  97563844.18748  23826108.7164   23826112.3494   23826109.1264
       222.000         176.000
 107664256.77648  83894220.28948  20487830.5974   20487831.9994   20487830.4584
       251.000         235.000
 117623208.87648  91654446.75948  22382953.7534   22382954.7294   22382954.5554
       237.000         194.000
 122411399.49648  95385498.08748  23294120.6694   23294122.5104   23294120.4834
       233.000         192.000
 130554438.52248 101730719.62948  24843691.1424   24843694.3734   24843690.8274
       214.000         164.000
 119233675.88948  92909344.37048  22689425.8264   22689426.9374   22689425.8714
       234.000         193.000
 137616418.75348  89441372.02648  24284591.9294   24284591.1184   24284593.3104
       222.000         167.000
 127583615.93148  99415798.39048  24278359.7884   24278361.6364   24278360.1664
       215.000         158.000
 09  1 22  0 33  0.0000000  0 10G 9G26G 5G15G18G17G27G12G22G28
 107959325.08148  84124131.81148  20543992.6144   20543994.9324   20543992.7894
       249.000         222.000
 112985707.26848  88040815.34748  21500462.6624   21500465.4264   21500462.5654
       243.000         211.000
 125098129.31248  97479041.50748  23805398.9204   23805402.2574   23805399.4774
       223.000         175.000
 107692353.99948  83916114.22448  20493177.2394   20493178.6984   20493176.9914
       251.000         235.000
 117598712.97848  91635359.04148  22378292.3064   22378293.7604   22378292.8224
       236.000         194.000
 122391623.15548  95370087.96048  23290357.3264   23290359.1754   23290357.2884
       233.000         192.000
 130624513.06948 101785323.17948  24857025.6894   24857028.9394   24857024.8524
       214.000         160.000
 119137168.28648  92834143.65648  22671060.6364   22671062.0334   22671060.4034
       235.000         195.000
 137546469.73048  89386866.25648  24271280.7044   24271280.3794   24271279.3884
       219.000         165.000
 127675826.69748  99487650.91648  24295906.6264   24295908.7634   24295907.4564
       212.000         156.000
 09  1 22  0 33 30.0000000  0 10G 9G26G 5G15G18G17G27G12G22G28
 107913855.51848  84088700.98948  20535339.9504   20535342.4164   20535339.8994
       249.000         222.000
 113060956.83448  88099451.37448  21514782.1234   21514784.6924   21514782.0994
       243.000         211.000
 124989474.52148  97394375.42948  23784722.5984   23784725.9704   23784724.3454
       223.000         176.000
 107720910.48748  83938366.03348  20498611.4474   20498612.8114   20498611.2044
       251.000         235.000
 117574785.19548  91616714.00948  22373738.7774   22373740.4274   22373739.3964
       236.000         193.000
 122372363.93948  95355080.78248  23286692.7574   23286694.1904   23286692.5874
       233.000         192.000
 130694608.32148 101839942.82548  24870364.5264   24870366.5444   24870364.7154
       217.000         160.000
 119040946.85048  92759165.91648  22652750.5824   22652751.9474   22652750.2794
       235.000         195.000
 137476920.37348  89332671.94948  24258045.3814   24258046.0804   24258045.2994
       223.000         165.000
 127768171.88848  99559608.22348  24313478.7834   24313481.1794   24313477.3834
       212.000         154.000
 09  1 22  0 34  0.0000000  0 10G 9G26G 5G15G18G17G27G12G22G28
 107868698.27248  84053513.52748  20526746.7854   20526749.0714   20526747.1264
       249.000         222.000
 113136547.66848  88158353.30748  21529166.5824   21529169.2284   21529166.3114
       243.000         210.000
 124880996.78348  97309847.34848  23764079.4354   23764083.2574   23764080.6724
       223.000         176.000
 107749926.72548  83960976.08648  20504132.9784   20504134.3324   20504132.8674
       251.000         235.000
 117551426.11248  91598512.12148  22369293.7344   22369295.2654   22369294.1894
       235.000         193.000
 122353623.14848  95340477.58548  23283126.1704   23283128.1024   23283126.0644
       232.000         192.000
 130764724.02048 101894578.42448  24883707.7924   24883709.9134   24883708.0594
       216.000         163.000
 118945013.29948  92684412.51648  22634494.9904   22634496.4054   22634495.2724
       236.000         196.000
 137407772.42248  89278790.44448  24244887.6394   24244887.9204   24244889.7274
       219.000         170.000
 127860649.40248  99631668.59648  24331076.5374   24331079.0944   24331078.6604
       212.000         149.000
 09  1 22  0 34 30.0000000  0 10G 9G26G 5G15G18G17G27G12G22G28
 107823853.15148  84018569.28548  20518213.0294   20518215.4134   20518213.2554
       249.000         222.000
 113212478.37348  88217520.09048  21543615.6924   21543618.2614   21543615.6694
       243.000         210.000
 124772697.47248  97225458.28448  23743470.8504   23743474.5714   23743470.7644
       223.000         177.000
 107779402.03648  83983943.85248  20509741.8754   20509743.3774   20509741.5094
       251.000         235.000
 117528635.76548  91580753.39348  22364957.3104   22364958.6134   22364957.6344
       236.000         195.000
 122335401.44248  95326278.86448  23279658.4274   23279660.6934   23279658.4824
       234.000         192.000
 130834859.89548 101949229.74148  24897053.5114   24897056.2734   24897054.3624
       218.000         163.000
 118849369.14348  92609884.61248  22616294.6334   22616296.1734   22616294.2794
       234.000         196.000
 137339027.55848  89225223.00848  24231805.6244   24231805.7854   24231803.7104
       214.000         162.000
 127953256.41948  99703829.88448  24348699.4954   24348701.4164   24348701.8324
       210.000         151.000
 09  1 22  0 35  0.0000000  0 10G 9G26G 5G15G18G17G27G12G22G28
 107779322.07948  83983869.74648  20509739.1954   20509741.4614   20509739.5104
       249.000         222.000
 113288749.29848  88276951.97348  21558129.5154   21558132.2794   21558129.3614
       243.000         210.000
 124664579.75748  97141210.74148  23722896.8084   23722900.1724   23722897.6024
       225.000         176.000
 107809337.45448  84007270.14348  20515438.3594   20515439.9824   20515438.1784
       251.000         234.000
 117506416.55048  91563439.71248  22360728.9234   22360730.2144   22360729.3054
       237.000         195.000
 122317701.64248  95312486.81848  23276290.4914   23276292.2004   23276290.3794
       234.000         193.000
 130905017.44248 102003897.96848  24910404.8664   24910407.0464   24910405.0714
       217.000         163.000
 118754017.47448  92535584.62548  22598149.7954   22598151.5604   22598149.9664
       234.000         197.000
 137270689.37448  89171972.50648  24218800.4974   24218801.8274   24218802.2084
       217.000         166.000
 128045992.45348  99776091.74148  24366346.4684   24366349.1944   24366345.8104
       208.000         151.000
 09  1 22  0 35 30.0000000  0 10G 9G26G 5G15G18G17G27G12G22G28
 117735147.75658  73949455.69258  20501324.8765   20501327.2575   20501324.6835
       249.000         223.000
 113365358.84948  88336647.72048  21572707.9034   21572710.7494   21572707.7184
       242.000         210.000
 124556644.84148  97057105.61948  23702357.7654   23702360.6164   23702358.8364
       225.000         175.000
 107839732.94848  84030954.93448  20521222.5684   20521223.9794   20521222.5264
       251.000         234.000
 117484767.60048  91546570.40448  22356609.2424   22356610.9684   22356610.1544
       235.000         195.000
 122300523.97948  95299101.62648  23273021.7104   23273023.7554   23273021.3694
       233.000         192.000
 130975195.92548 102058582.48348  24923758.9824   24923761.3884   24923758.1914
       217.000         165.000
 118658959.45048  92461513.44948  22580060.6884   22580062.6024   22580060.3614
       234.000         197.000
 137202758.82348  89119039.60248  24205873.9024   24205875.6574   24205874.9354
       221.000         171.000
 128138854.63048  99848451.85148  24384018.1324   24384019.9564   24384017.0614
       208.000         151.000
 09  1 22  0 36  0.0000000  0 10G 9G26G 5G15G18G17G27G12G22G28
 117691245.13048  73915245.86448  20492970.3684   20492972.8384   20492970.8964
       248.000         222.000
 113442306.20748  88396606.69548  21587350.4274   21587353.3554   21587350.4224
       243.000         210.000
 124448894.90448  96973144.64848  23681853.5104   23681856.5104   23681853.9424
       225.000         176.000
 107870588.79448  84054998.44848  20527094.1714   20527095.6224   20527093.8024
       250.000         234.000
 117463690.02848  91530146.31148  22352598.4994   22352600.3714   22352598.3644
       237.000         196.000
 122283870.14048  95286124.61248  23269852.8264   23269854.3824   23269852.3624
       234.000         191.000
 131045395.73148 102113283.60748  24937117.7434   24937120.7224   24937117.6794
       217.000         165.000
 118564197.59448  92387673.05448  22562027.9324   22562029.9344   22562027.5574
       234.000         197.000
 137135238.78448  89066426.60648  24193026.1164   24193026.7864   24193025.4154
       221.000         169.000
 128231841.35248  99920909.04748  24401713.4064   24401714.7014   24401714.9194
       216.000         152.000
 09  1 22  0 36 30.0000000  0 10G 9G26G 5G15G18G17G27G12G22G28
 117647656.09348  73881280.38248  20484675.5024   20484678.1744   20484675.6074
       248.000         223.000
 113519589.04148  88456827.07748  21602056.8924   21602059.6294   21602056.8874
       243.000         209.000
 124341330.50048  96889328.25748  23661384.8644   23661387.9724   23661385.4214
       225.000         178.000
 107901903.44548  84079399.47148  20533053.1914   20533054.5704   20533052.8174
       251.000         234.000
 117443183.39048  91514167.11148  22348696.4904   22348697.8284   22348697.3884
       238.000         196.000
 122267739.97648  95273555.67048  23266783.2304   23266784.7854   23266783.2654
       233.000         192.000
 131115615.57248 102168000.37248  24950479.5174   24950482.9634   24950479.2284
       221.000         166.000
 118469731.77748  92314063.32648  22544051.6594   22544053.5054   22544051.1714
       236.000         197.000
 137068129.72848  89014133.88348  24180255.6054   24180255.8154   24180256.5994
       222.000         168.000
 128324948.88948  99993460.38448  24419431.3524   24419432.9654   24419432.7364
       214.000         154.000
 09  1 22  0 37  0.0000000  0 10G 9G26G 5G15G18G17G27G12G22G28
 117604382.57948  73847560.76648  20476440.7894   20476443.4984   20476441.0164
       249.000         223.000
 113597207.58648  88517309.05148  21616827.2484   21616829.9544   21616827.1924
       242.000         209.000
 124233954.83248  96805658.93648  23640951.8534   23640955.1174   23640952.2444
       225.000         177.000
 107933678.65748  84104159.37048  20539099.8154   20539101.1544   20539099.7104
       250.000         234.000
 117423249.59148  91498634.28048  22344903.0984   22344904.6394   22344904.1204
       236.000         196.000
 122252135.90248  95261396.65948  23263813.6764   23263815.5074   23263813.6654
       233.000         192.000
 131185857.06648 102222734.00048  24963846.4904   24963849.4374   24963847.2084
       218.000         163.000
 118375565.75048  92240687.20548  22526132.8024   22526134.0254   22526132.9994
       236.000         198.000
 137001435.22148  88962164.12448  24167564.6094   24167564.4044   24167564.7594
       224.000         170.000
 128418176.79648 100066105.51148  24437172.1674   24437173.8564   24437171.7094
       213.000         154.000
 09  1 22  0 37 30.0000000  0 10G 9G26G 5G15G18G17G27G12G22G28
 117561424.28548  73814086.77048  20468266.2604   20468268.7624   20468266.4244
       248.000         223.000
 113675160.04748  88578051.21648  21631661.2644   21631663.6874   21631661.1004
       242.000         209.000
 124126769.17348  96722137.65748  23620554.8154   23620558.0204   23620555.3794
       224.000         177.000
 107965913.45948  84129277.38848  20545233.7674   20545235.3774   20545233.4294
       250.000         234.000
 117403888.49848  91483547.69548  22341218.5934   22341220.2614   22341218.8034
       236.000         196.000
 122237058.64948  95249648.16548  23260944.5364   23260946.3474   23260944.2504
       233.000         192.000
 131256119.52348 102277483.98948  24977216.9244   24977219.8114   24977217.7244
       214.000         163.000
 118281700.49748  92167545.45448  22508271.1944   22508272.3774   22508271.0074
       237.000         200.000
 136935156.51148  88910518.34048  24154952.2644   24154952.0814   24154953.3544
       223.000         170.000
 128511522.32948 100138842.25148  24454935.1664   24454937.5274   24454935.0324
       215.000         156.000
 09  1 22  0 38  0.0000000  0 10G 9G26G 5G15G18G17G27G12G22G28
 117518781.95248  73780858.98348  20460151.6114   20460154.4114   20460151.6104
       249.000         224.000
 113753445.86948  88639053.15548  21646558.4844   21646560.9914   21646558.2404
       242.000         209.000
 124019775.68848  96638766.12148  23600194.8794   23600198.0264   23600195.3424
       226.000         179.000
 107998608.22148  84154753.82348  20551455.5434   20551457.0374   20551455.3044
       250.000         234.000
 117385100.76248  91468907.89548  22337643.2904   22337645.2724   22337643.6874
       237.000         195.000
 122222509.69948  95238311.32948  23258175.9424   23258177.5844   23258175.9184
       232.000         191.000
 131326403.54348 102332250.73248  24990591.6014   24990594.5034   24990590.9564
       216.000         164.000
 118188138.47448  92094640.00448  22490466.5454   22490468.0974   22490466.5034
       237.000         200.000
 136869296.00848  88859198.49848  24142418.6984   24142418.3354   24142419.9244
       219.000         163.000
 128604983.89348 100211669.44148  24472720.8634   24472721.8624   24472721.6944
       216.000         155.000
 09  1 22  0 38 30.0000000  0 10G 9G26G 5G15G18G17G27G12G22G28
 117476455.64648  73747877.45048  20452097.3204   20452099.8224   20452097.7864
       249.000         223.000
 113832063.63948  88700313.74648  21661519.2744   21661521.6894   21661519.3794
       243.000         209.000
 123912975.73548  96555545.41348  23579871.0784   23579874.7264   23579872.2004
       225.000         179.000
 108031762.81448  84180588.56748  20557764.6594   20557766.0084   20557764.3934
       251.000         234.000
 117366886.58248  91454715.01848  22334177.3794   22334179.0784   22334178.3344
       235.000         196.000
 122208489.79748  95227386.73848  23255508.1094   23255509.9264   23255507.8214
       233.000         192.000
 131396708.86248 102387034.10148  25003969.9354   25003973.0514   25003969.4564
       216.000         160.000
 118094881.02148  92021971.86748  22472720.1474   22472721.9874   22472720.3024
       237.000         198.000
 136803855.13148  88808205.61448  24129965.1664   24129965.5334   24129965.6654
       217.000         163.000
 128698559.14848 100284585.21148  24490527.7964   24490528.2654   24490528.4714
       212.000         154.000
 09  1 22  0 39  0.0000000  0 10G 9G26G 5G15G18G17G27G12G22G28
 117434446.60748  73715143.13648  20444103.3254   20444105.7044   20444103.1334
       249.000         224.000
 113911013.01848  88761832.75348  21676542.4204   21676545.2364   21676542.5484
       242.000         208.000
 123806372.08448  96472477.65448  23559585.4144   23559588.6094   23559585.8654
       224.000         178.000
 108065378.07548  84206782.27648  20564161.5054   20564162.8144   20564161.3644
       251.000         233.000
 117349247.21448  91440970.06748  22330820.5434   22330822.4704   22330821.2164
       235.000         195.000
 122195000.76348  95216875.81948  23252941.1144   23252943.0464   23252941.3064
       233.000         193.000
 131467036.34448 102441834.73548  25017352.8834   25017355.5334   25017352.5484
       219.000         164.000
 118001930.71348  91949543.07548  22455032.0784   22455033.8644   22455032.0064
       237.000         199.000
 136738837.00148  88757542.13148  24117593.3574   24117592.8294   24117594.2574
       221.000         165.000
 128792246.50548 100357588.34548  24508355.6994   24508357.1144   24508355.9414
       212.000         151.000
 09  1 22  0 39 30.0000000  0 10G 9G26G 5G15G18G17G27G12G22G28
 117392754.43648  73682655.73348  20436169.4924   20436171.8604   20436169.5844
       249.000         224.000
 113990292.03648  88823608.59948  21691628.6774   21691631.4674   21691628.4404
       242.000         208.000
 123699965.60648  96389563.54948  23539336.7394   23539340.1564   23539337.0044
       225.000         180.000
 108099453.00248  84233334.16148  20570645.6424   20570647.0434   20570645.4474
       250.000         233.000
 117332182.35448  91427672.76648  22327573.1854   22327575.1004   22327573.6484
       236.000         195.000
 122182042.64848  95206778.59648  23250475.3804   23250477.1694   23250474.9904
       234.000         193.000
 131537385.28448 102496652.09848  25030740.5124   25030742.6944   25030740.4624
       217.000         164.000
 117909288.61648  91877354.42648  22437403.2334   22437404.5054   22437403.1944
       238.000         200.000
 136674242.32248  88707208.61648  24105300.8354   24105301.4574   24105300.5784
       216.000         165.000
 128886043.40748 100430676.84148  24526204.1624   24526205.4154   24526205.5284
       213.000         148.000
 09  1 22  0 40  0.0000000  0 10G 9G26G 5G15G18G17G27G12G22G28
 117351381.06148  73650416.74548  20428296.3594   20428298.8384   20428296.3794
       249.000         224.000
 114069901.12848  88885641.65448  21706777.8694   21706780.2994   21706777.8554
       242.000         207.000
 123593759.63548  96306805.69148  23519126.5024   23519130.0694   23519126.6734
       225.000         180.000
 108133988.67648  84260245.07348  20577217.6294   20577219.0044   20577217.3054
       249.000         233.000
 117315693.69948  91414824.45448  22324435.8504   22324437.2944   22324436.5654
       236.000         196.000
 122169618.18348  95197097.18648  23248111.4934   23248112.7884   23248111.3254
       234.000         193.000
 131607757.05748 102551487.26148  25044131.4394   25044134.6714   25044131.5154
       217.000         163.000
 117816957.91948  91805408.43848  22419833.2324   22419834.5104   22419833.0694
       239.000         201.000
 136610074.76848  88657207.89648  24093090.0854   24093091.0654   24093090.0164
       219.000         167.000
 128979949.20248 100503850.18348  24544074.0694   24544074.7664   24544075.5584
       213.000         150.000
 09  1 22  0 40 30.0000000  0 10G 9G26G 5G15G18G17G27G12G22G28
 117310324.43848  73618424.58148  20420483.4384   20420485.9924   20420483.7494
       249.000         224.000
 114149836.82448  88947929.20148  21721989.3254   21721991.7244   21721989.4184
       242.000         208.000
 123487753.79248  96224203.75048  23498954.3584   23498957.8514   23498954.9274
       225.000         181.000
 108168983.18948  84287513.51848  20583876.6494   20583878.2894   20583876.3134
       250.000         233.000
 117299779.17148  91402423.52548  22321407.1384   22321409.0744   22321407.7404
       235.000         195.000
 122157725.91548  95187830.49648  23245847.9804   23245849.6244   23245847.6954
       231.000         192.000
 131678149.44148 102606338.46848  25057526.7654   25057529.3904   25057526.5684
       221.000         167.000
 117724938.13348  91733704.71748  22402322.3514   22402323.7424   22402322.4814
       238.000         201.000
 136546333.80748  88607539.67348  24080961.0234   24080961.4534   24080962.2704
       221.000         172.000
 129073959.52948 100577104.99948  24561963.8484   24561964.1934   24561964.4374
       211.000         148.000
 09  1 22  0 41  0.0000000  0 10G 9G26G 5G15G18G17G27G12G22G28
 117269586.62348  73586680.83848  20412731.2934   20412733.8194   20412731.4024
       249.000         224.000
 114230099.77048  89010471.75348  21737262.8434   21737265.3334   21737262.8224
       242.000         207.000
 123381951.53048  96141760.44748  23478820.8344   23478824.2214   23478821.4454
       226.000         180.000
 108204438.07448  84315140.69448  20590623.5344   20590625.0724   20590623.4324
       249.000         233.000
 117284441.18048  91390471.84248  22318488.2564   22318490.0414   22318489.1004
       235.000         195.000
 122146368.63448  95178980.66648  23243686.8744   23243688.2814   23243686.6254
       233.000         192.000
 131748564.49548 102661207.31948  25070926.1564   25070929.0274   25070926.6474
       220.000         164.000
 117633232.62148  91662245.89348  22384871.1884   22384872.8434   22384870.9344
       239.000         201.000
 136483023.35948  88558206.85448  24068913.9324   24068913.6904   24068913.4194
       220.000         169.000
 129168074.11748 100650441.02748  24579872.9424   24579873.2984   24579872.4894
       209.000         147.000
 09  1 22  0 41 30.0000000  0 10G 9G26G 5G15G18G17G27G12G22G28
 117229167.77648  73555185.63948  20405039.9154   20405042.3884   20405040.1724
       250.000         224.000
 114310688.30148  89073268.00948  21752598.1844   21752600.7214   21752598.0244
       242.000         207.000
 123276354.30648  96059476.93548  23458726.1484   23458729.5334   23458727.0684
       227.000         180.000
 108240352.90048  84343126.27248  20597457.7564   20597459.4374   20597457.3774
       249.000         232.000
 117269679.40648  91378969.14848  22315679.6194   22315681.1564   22315679.6674
       237.000         196.000
 122135547.01948  95170548.25948  23241627.7704   23241629.1914   23241627.9664
       233.000         192.000
 131819001.94948 102716093.63148  25084330.0454   25084332.7884   25084330.3794
       219.000         161.000
 117541842.87548  91591033.11048  22367480.3324   22367481.9044   22367480.1964
       237.000         201.000
 136420144.66148  88509210.49548  24056947.9404   24056948.0734   24056946.8144
       221.000         170.000
 129262290.54648 100723856.42148  24597800.9964   24597801.9944   24597801.6984
       208.000         145.000
 09  1 22  0 42  0.0000000  0 10G 9G26G 5G15G18G17G27G12G22G28
 117189068.40348  73523939.38048  20397409.2454   20397411.7384   20397409.7134
       249.000         224.000
 114391601.03648  89136316.89048  21767995.4254   21767998.0654   21767995.2614
       242.000         207.000
 123170963.60948  95977354.33348  23438671.3244   23438674.2934   23438672.3904
       226.000         179.000
 108276727.03848  84371469.75248  20604379.6884   20604381.2444   20604379.3124
       250.000         233.000
 117255494.10548  91367915.66448  22312980.1754   22312981.8894   22312980.9124
       236.000         195.000
 122125261.60948  95162533.65148  23239670.5764   23239672.0804   23239670.2414
       232.000         193.000
 131889461.56848 102770997.19948  25097737.5724   25097740.7014   25097738.0054
       214.000         160.000
 117450770.38348  91520067.55648  22350149.9914   22350151.2884   22350149.6014
       239.000         202.000
 136357699.60748  88460552.01848  24045064.9814   24045065.7324   24045065.7844
       223.000         172.000
 129356606.56548 100797349.45748  24615749.4944   24615749.6624   24615748.1384
       205.000         145.000
 09  1 22  0 42 30.0000000  0 10G 9G26G 5G15G18G17G27G12G22G28
 117149289.04448  73492942.48148  20389839.4704   20389841.9224   20389839.6334
       248.000         224.000
 114472837.42648  89199617.97548  21783454.2594   21783456.6244   21783454.2124
       243.000         206.000
 123065781.58448  95895394.32648  23418655.8144   23418658.5704   23418656.0494
       227.000         181.000
 108313560.91748  84400171.47348  20611389.0794   20611390.4864   20611388.9364
       250.000         232.000
 117241885.69848  91357311.71048  22310390.2624   22310391.7504   22310390.5284
       236.000         194.000
 122115513.74348  95154937.91848  23237815.5544   23237817.1684   23237815.5014
       232.000         193.000
 131959943.78548 102825918.39748  25111149.8454   25111153.7534   25111150.1504
       211.000         159.000
 117360017.18448  91449350.77748  22332880.4994   22332881.2614   22332880.3324
       241.000         203.000
 136295690.42048  88412233.18348  24033265.4964   24033265.3724   24033266.5014
       219.000         171.000
 129451020.82848 100870918.96848  24633714.7004   24633716.8954   24633715.5704
       202.000         143.000
 09  1 22  0 43  0.0000000  0 10G 9G26G 5G15G18G17G27G12G22G28
 117109829.27048  73462194.61448  20382330.4774   20382332.9984   20382330.3104
       249.000         224.000
 114554395.60048  89263169.79648  21798974.1084   21798976.7364   21798974.3064
       241.000         206.000
 122960809.46748  95813597.90948  23398680.1084   23398683.1564   23398680.7434
       226.000         181.000
 108350853.66848  84429230.76048  20618485.7094   20618487.0504   20618485.4654
       250.000         232.000
 117228853.85148  91347157.00748  22307910.4634   22307912.1894   22307911.1304
       235.000         195.000
 122106303.72048  95147761.29748  23236062.9994   23236064.5484   23236062.7754
       234.000         193.000
 132030448.10848 102880856.81548  25124566.9684   25124569.6354   25124566.1204
       214.000         160.000
 117269584.59048  91378883.82348  22315671.5614   22315672.5794   22315671.5624
       241.000         203.000
 136234118.25948  88364254.86648  24021548.0254   24021548.2604   24021547.7004
       220.000         168.000
 129545530.45648 100944562.81548  24651699.9494   24651701.5774   24651699.5904
       205.000         149.000
 09  1 22  0 43 30.0000000  0 10G 9G26G 5G15G18G17G27G12G22G28
 117070690.45648  73431696.84548  20374882.6524   20374885.1214   20374882.8354
       249.000         224.000
 114636275.14948  89326972.03748  21814555.3944   21814558.1104   21814555.2614
       242.000         207.000
 122856049.93548  95731967.12548  23378744.7594   23378748.2244   23378745.1214
       225.000         180.000
 108388605.95048  84458648.12448  20625669.6994   20625671.0224   20625669.4914
       250.000         232.000
 117216399.77248  91337452.52948  22305540.7944   22305542.1054   22305541.4034
       238.000         195.000
 122097633.28048  95141005.11048  23234413.0994   23234414.6324   23234413.2214
       231.000         192.000
 132100975.40348 102935813.13548  25137987.8034   25137991.3374   25137987.8054
       216.000         162.000
 117179475.29548  91308668.78948  22298524.1744   22298525.4564   22298523.9724
       239.000         203.000
 136172986.06848  88316619.40348  24009915.9504   24009915.2354   24009916.4884
       221.000         170.000
 129640134.49048 101018280.24848  24669702.3924   24669704.5204   24669701.6194
       203.000         148.000
 09  1 22  0 44  0.0000000  0 10G 9G26G 5G15G18G17G27G12G22G28
 117031872.67548  73401449.23248  20367495.9494   20367498.3964   20367496.4124
       249.000         224.000
 114718474.49748  89391023.48248  21830197.4664   21830199.9114   21830197.6704
       242.000         205.000
 122751504.33048  95650503.04348  23358850.5754   23358853.7784   23358851.4184
       225.000         181.000
 108426817.38948  84488423.26948  20632940.9384   20632942.4614   20632940.7064
       249.000         232.000
 117204523.29948  91328198.12848  22303280.8284   22303282.2724   22303281.5324
       237.000         195.000
 122089502.75948  95134669.65748  23232865.7564   23232867.3584   23232865.5344
       229.000         194.000
 132171525.31048 102990787.10548  25151412.8404   25151415.6054   25151412.9464
       214.000         161.000
 117089690.05448  91238706.28848  22281438.0044   22281439.9314   22281437.8894
       238.000         202.000
 136112294.88248  88269327.60548  23998365.9054   23998366.5974   23998367.0494
       220.000         166.000
 129734830.32348 101092069.18748  24687722.1614   24687724.7794   24687720.5954
       206.000         149.000
 09  1 22  0 44 30.0000000  0 10G 9G26G 5G15G18G17G27G12G22G28
 116993376.23948  73371452.01948  20360170.2804   20360172.6074   20360170.1674
       250.000         225.000
 114800992.49248  89455323.21648  21845900.0984   21845902.5604   21845899.9084
       242.000         206.000
 122647174.12648  95569206.80848  23338996.9674   23339000.3264   23338997.1364
       227.000         180.000
 108465487.53248  84518555.84548  20640299.3314   20640301.2484   20640298.8744
       249.000         232.000
 117193224.08448  91319393.53948  22301130.1544   22301131.9554   22301130.6434
       236.000         194.000
 122081912.86648  95128755.47948  23231421.3614   23231422.9544   23231420.5664
       232.000         193.000
 132242098.07248 103045778.87248  25164842.4664   25164845.9434   25164842.7024
       214.000         159.000
 117000230.94648  91168997.91248  22264414.7184   22264416.6834   22264414.7074
       240.000         204.000
 136052046.93748  88222381.10548  23986900.8804   23986901.1004   23986901.6724
       220.000         166.000
 129829616.01348 101165928.14348  24705759.9244   24705761.8164   24705761.8904
       207.000         150.000
 09  1 22  0 45  0.0000000  0 10G 9G26G 5G15G18G17G27G12G22G28
 116955200.98248  73341705.07948  20352905.6534   20352908.0644   20352906.0064
       250.000         224.000
 114883827.13948  89519869.69248  21861663.0214   21861665.6724   21861662.8634
       241.000         205.000
 122543060.85948  95488079.60248  23319184.9324   23319188.1734   23319186.0194
       227.000         181.000
 108504615.57848  84549045.22648  20647745.2874   20647747.0864   20647744.9234
       249.000         232.000
 117182502.19948  91311038.81848  22299089.8844   22299091.6944   22299090.0904
       235.000         193.000
 122074863.96248  95123262.83348  23230080.0924   23230081.6394   23230079.4284
       232.000         194.000
 132312693.51148 103100788.31648  25178276.1904   25178279.2094   25178276.2424
       214.000         154.000
 116911098.97448  91099544.43148  22247454.0224   22247455.6114   22247453.7884
       240.000         205.000
 135992243.06448  88175780.68948  23975520.6564   23975520.8534   23975519.8864
       223.000         174.000
 129924489.05748 101239855.15948  24723814.1694   24723815.6234   24723814.7694
       207.000         152.000
 09  1 22  0 45 30.0000000  0 10G 9G26G 5G15G18G17G27G12G22G28
 116917348.25648  73312209.45248  20345702.6534   20345704.9624   20345702.8244
       249.000         224.000
 114966978.20848  89584662.72748  21877486.0724   21877488.7374   21877485.6364
       242.000         205.000
 122439166.97248  95407123.34248  23299414.6484   23299417.8754   23299414.8774
       228.000         182.000
 108544202.19048  84579891.93548  20655278.4574   20655280.2334   20655278.2184
       249.000         232.000
 117172358.33548  91303134.50848  22297159.9264   22297161.4514   22297160.3134
       235.000         195.000
 122068357.49748  95118192.86748  23228842.0044   23228843.6494   23228842.0304
       231.000         195.000
 132383312.17048 103155815.83148  25191714.3124   25191717.2714   25191715.1254
       214.000         158.000
 116822296.90848  91030348.02448  22230555.5714   22230556.9054   22230555.3654
       242.000         206.000
 135932886.24948  88129528.63748  23964225.8164   23964226.6484   23964225.8694
       221.000         170.000
 130019448.28548 101313849.39448  24741883.6614   24741885.8954   24741884.1814
       202.000         150.000
 09  1 22  0 46  0.0000000  0 10G 9G26G 5G15G18G17G27G12G22G28
 116879818.04348  73282965.13448  20338560.7164   20338563.4364   20338560.6564
       249.000         225.000
 115050444.09648  89649701.07648  21893369.3004   21893371.6824   21893369.4914
       242.000         205.000
 122335493.81648  95326339.09148  23279686.1774   23279689.7144   23279686.9784
       224.000         180.000
 108584246.82548  84611095.53548  20662898.8714   20662900.4904   20662898.5934
       249.000         232.000
 117162792.11548  91295680.30248  22295339.7004   22295341.3224   22295340.2114
       236.000         196.000
 122062393.87048  95113545.89848  23227707.3774   23227708.7744   23227707.8314
       232.000         193.000
 132453953.49248 103210861.03348  25205156.8894   25205160.4854   25205157.2514
       215.000         158.000
 116733825.75848  90961409.46148  22213720.1984   22213721.4254   22213720.1674
       241.000         205.000
 135873977.31448  88083625.55048  23953015.5624   23953016.1544   23953016.8614
       219.000         167.000
 130114491.16148 101387908.74048  24759969.1744   24759972.6934   24759969.0424
       203.000         148.000
 09  1 22  0 46 30.0000000  0 10G 9G26G 5G15G18G17G27G12G22G28
 116842611.30948  73253972.88048  20331480.5664   20331483.0844   20331480.7544
       250.000         225.000
 115134224.24148  89714984.29748  21909311.9194   21909314.2854   21909311.9164
       241.000         203.000
 122232043.78648  95245728.69348  23260000.2074   23260003.6174   23259999.7544
       226.000         180.000
 108624749.70248  84642656.21648  20670606.3884   20670607.8204   20670606.0974
       250.000         232.000
 117153804.54748  91288677.00448  22293629.1544   22293630.6414   22293629.6654
       236.000         195.000
 122056974.70748  95109323.18248  23226675.7254   23226677.2754   23226675.8764
       232.000         193.000
 132524618.56448 103265924.72448  25218604.3974   25218606.6954   25218604.0764
       217.000         158.000
 116645687.69248  90892730.45848  22196947.7844   22196949.2964   22196947.5844
       241.000         205.000
 135815519.00648  88038073.64148  23941892.0374   23941891.3874   23941892.9894
       221.000         169.000
 130209616.84048 101462032.60848  24778071.9984   24778073.8884   24778072.1774
       205.000         151.000
 09  1 22  0 47  0.0000000  0 10G 9G26G 5G15G18G17G27G12G22G28
 116805727.67048  73225232.38948  20324461.7334   20324464.2534   20324461.9174
       249.000         225.000
 115218316.63948  89780510.84748  21925314.2054   21925316.4304   21925313.9824
       241.000         204.000
 122128818.00848  95165293.03848  23240357.2504   23240360.6414   23240358.3324
       226.000         181.000
 108665710.01248  84674573.34048  20678400.8084   20678402.2984   20678400.7034
       250.000         231.000
 117145394.60048  91282123.78748  22292028.7964   22292030.4954   22292029.3964
       236.000         195.000
 122052099.70948  95105524.48548  23225748.3114   23225749.9764   23225748.2984
       233.000         194.000
 132595306.89548 103321006.53548  25232055.9674   25232058.9764   25232056.0684
       212.000         156.000
 116557883.87348  90824311.91848  22180238.9894   22180240.6324   22180238.9464
       239.000         205.000
 135757512.60248  87992873.86948  23930853.5174   23930853.5954   23930853.4464
       222.000         173.000
 130304822.32948 101536218.73048  24796189.0734   24796190.7594   24796188.9354
       200.000         149.000
 09  1 22  0 47 30.0000000  0 10G 9G26G 5G15G18G17G27G12G22G28
 116769168.64848  73196744.83748  20317504.8644   20317507.4554   20317504.9744
       250.000         225.000
 115302721.10948  89846280.55648  21941375.8564   21941378.4054   21941375.7944
       241.000         204.000
 122025819.12348  95085034.18948  23220756.7014   23220760.9254   23220757.4734
       224.000         182.000
 108707128.36648  84706847.37548  20686282.4694   20686284.0444   20686282.2674
       249.000         231.000
 117137563.52048  91276021.64748  22290538.5624   22290540.5064   22290539.0634
       237.000         196.000
 122047770.65748  95102151.20848  23224924.1554   23224926.2684   23224924.2514
       231.000         192.000
 132666019.48748 103376107.25948  25245511.8984   25245514.4754   25245512.0824
       212.000         150.000
 116470417.13348  90756156.01348  22163594.7804   22163596.0904   22163594.3614
       240.000         205.000
 135699960.61948  87948028.16148  23919901.3164   23919901.7084   23919899.8274
       223.000         172.000
 130400106.89248 101610466.39448  24814320.2554   24814323.6924   24814319.5714
       200.000         148.000
 09  1 22  0 48  0.0000000  0 10G 9G26G 5G15G18G17G27G12G22G28
 116732933.95048  73168510.01048  20310609.6994   20310612.1184   20310610.0324
       250.000         225.000
 115387435.73948  89912291.95348  21957496.7104   21957499.0124   21957496.6474
       242.000         204.000
 121923048.20948  95004952.99548  23201199.7484   23201203.9444   23201199.5314
       224.000         181.000
 108749003.70648  84739477.50248  20694251.0134   20694252.6034   20694250.7354
       249.000         231.000
 117130310.45048  91270369.89848  22289158.3764   22289160.0734   22289158.9664
       236.000         194.000
 122043987.62448  95099203.38948  23224204.3304   23224205.9484   23224204.0574
       233.000         192.000
 132736755.67348 103431226.42248  25258971.6444   25258976.5604   25258972.5634
       212.000         150.000
 116383288.16948  90688263.32448  22147014.8174   22147015.9294   22147014.8024
       241.000         206.000
 135642864.23548  87903537.49548  23909036.8384   23909036.3834   23909037.9264
       224.000         169.000
 130495467.53148 101684773.35148  24832467.3614   24832469.8024   24832466.9894
       204.000         154.000
 09  1 22  0 48 30.0000000  0 10G 9G26G 5G15G18G17G27G12G22G28
 116697023.71848  73140528.00848  20303776.0204   20303778.7184   20303776.1944
       249.000         225.000
 115472459.12248  89978543.94648  21973676.2164   21973678.5314   21973676.3304
       241.000         203.000
 121820507.05248  94925050.81848  23181686.8654   23181691.0094   23181687.0354
       227.000         182.000
 108791335.93648  84772463.64848  20702306.5004   20702308.2234   20702306.2114
       249.000         231.000
 117123635.37248  91265168.53248  22287888.1664   22287889.7694   22287888.8224
       236.000         195.000
 122040751.15748  95096681.47248  23223588.8054   23223589.9134   23223589.2984
       232.000         192.000
 132807515.62348 103486364.01248  25272437.7454   25272441.1884   25272437.8234
       212.000         154.000
 116296498.72148  90620635.19148  22130499.1854   22130500.6554   22130498.7214
       241.000         207.000
 135586225.32748  87859403.25648  23898258.8354   23898258.4124   23898260.8204
       222.000         171.000
 130590902.64848 101759138.37348  24850627.5914   24850630.1254   24850626.5124
       202.000         153.000
 09  1 22  0 49  0.0000000  0 10G 9G26G 5G15G18G17G27G12G22G28
 116661438.37148  73112799.17148  20297004.5954   20297007.0034   20297004.8424
       250.000         226.000
 115557790.04348  90045035.56148  21989913.9844   21989916.5104   21989913.9554
       242.000         204.000
 121718197.24048  94845328.89148  23162218.3084   23162222.0494   23162219.5364
       226.000         183.000
 108834124.28548  84805805.21248  20710448.7164   20710450.5874   20710448.3864
       249.000         230.000
 117117538.10248  91260417.40048  22286727.7164   22286729.6684   22286728.4004
       234.000         195.000
 122038061.63748  95094585.75248  23223076.4724   23223078.2414   23223076.4744
       229.000         191.000
 132878299.52648 103541520.33848  25285907.3454   25285910.0634   25285907.1354
       212.000         150.000
 116210050.03848  90553272.59648  22114048.5914   22114050.1284   22114048.4384
       241.000         206.000
 135530045.16448  87815626.50248  23887567.1204   23887567.9474   23887567.0034
       223.000         172.000
 130686410.21848 101833559.82748  24868802.3714   24868804.9414   24868800.0594
       206.000         155.000
 09  1 22  0 49 30.0000000  0 10G 9G26G 5G15G18G17G27G12G22G28
 116626179.18048  73085324.48748  20290294.8834   20290297.3824   20290295.2174
       251.000         226.000
 115643427.52248  90111766.06848  22006210.2964   22006212.6424   22006210.4014
       240.000         203.000
 121616121.01248  94765788.99848  23142793.7884   23142797.2184   23142794.3824
       225.000         182.000
 108877369.18148  84839502.52448  20718678.0724   20718679.7734   20718677.8774
       249.000         230.000
 117112019.27648  91256117.01348  22285677.7944   22285679.3024   22285678.2724
       236.000         195.000
 122035920.50648  95092917.35548  23222669.0014   23222670.7604   23222668.1204
       230.000         191.000
 132949108.02448 103596695.76948  25299380.9934   25299384.3064   25299382.6254
       208.000         148.000
 116123944.46848  90486177.36248  22097663.0984   22097664.5694   22097662.8504
       241.000         205.000
 135474326.21748  87772209.12248  23876965.2494   23876965.1784   23876965.3634
       224.000         170.000
 130781988.83848 101908036.67048  24886990.2634   24886992.2494   24886990.9104
       206.000         154.000
 09  1 22  0 50  0.0000000  0 10G 9G26G 5G15G18G17G27G12G22G28
 116591245.93748  73058103.77448  20283647.4024   20283649.7184   20283647.5664
       250.000         226.000
 115729370.29548  90178734.46148  22022564.5414   22022566.7934   22022564.1994
       241.000         202.000
 121514279.84948  94686432.27648  23123413.8404   23123417.4814   23123414.6384
       225.000         181.000
 108921069.91148  84873555.03548  20726994.0464   20726995.7274   20726993.8224
       249.000         230.000
 117107078.43848  91252266.99148  22284737.4684   22284739.4584   22284737.8104
       236.000         195.000
 122034327.70848  95091676.23848  23222366.3144   23222367.7334   23222365.5824
       230.000         192.000
 133019940.64748 103651889.99548  25312860.6304   25312863.9444   25312861.3844
       213.000         157.000
 116038183.42948  90419350.59348  22081343.4894   22081344.6304   22081343.6644
       241.000         206.000
 135419069.46948  87729151.91048  23866449.6944   23866449.0444   23866450.9494
       225.000         172.000
 130877636.14348 101982567.01248  24905191.5994   24905193.2704   24905192.3514
       209.000         157.000
 09  1 22  0 50 30.0000000  0 10G 9G26G 5G15G18G17G27G12G22G28
 116556638.49948  73031136.94248  20277061.9164   20277064.1924   20277062.1664
       250.000         226.000
 115815616.45448  90245939.26348  22038976.7944   22038979.0974   22038976.8194
       241.000         203.000
 121412674.79348  94607259.50348  23104079.5454   23104082.6554   23104080.2764
       227.000         182.000
 108965225.32248  84907961.84348  20735396.7914   20735398.1544   20735396.6164
       249.000         230.000
 117102714.77048  91248866.73048  22283906.7554   22283909.0614   22283907.3414
       235.000         194.000
 122033282.99148  95090862.17148  23222167.1694   23222169.3354   23222166.9094
       230.000         192.000
 133090796.99748 103707102.75548  25326344.2124   25326347.0834   25326345.0364
       215.000         156.000
 115952767.73648  90352792.90748  22065089.4504   22065090.4154   22065089.3784
       242.000         206.000
 135364276.24548  87686455.87848  23856022.8854   23856023.0034   23856024.0834
       221.000         172.000
 130973349.92448 102057149.16548  24923405.3534   24923406.4824   24923407.1844
       212.000         156.000
 09  1 22  0 51  0.0000000  0 10G 9G26G 5G15G18G17G27G12G22G28
 116522357.67248  73004424.60948  20270538.3034   20270540.8514   20270538.1944
       251.000         226.000
 115902164.95048  90313379.64048  22055446.3904   22055449.0534   22055446.5064
       240.000         202.000
 121311307.97148  94528272.38948  23084790.1424   23084793.4994   23084790.7124
       229.000         183.000
 109009835.41148  84942722.95048  20743885.6974   20743887.2244   20743885.3774
       249.000         230.000
 117098928.50348  91245916.38648  22283186.4934   22283188.1694   22283186.8134
       236.000         194.000
 122032787.64948  95090476.19648  23222072.9824   23222074.8834   23222072.8934
       232.000         192.000
 133161677.71848 103762334.50248  25339832.2704   25339835.3234   25339832.7734
       207.000         147.000
 115867699.44048  90286505.92548  22048901.5164   22048902.6854   22048901.4344
       241.000         207.000
 135309948.67348  87644122.71748  23845684.7304   23845685.3334   23845684.0904
       223.000         173.000
 131069128.47148 102131781.80148  24941631.7154   24941632.5694   24941632.9734
       212.000         158.000
 09  1 22  0 51 30.0000000  0 10G 9G26G 5G15G18G17G27G12G22G28
 116488404.37748  72977967.50048  20264077.3564   20264079.8004   20264077.6114
       250.000         226.000
 115989015.17948  90381055.14348  22071973.2134   22071975.8964   22071973.1234
       239.000         201.000
 121210181.56648  94449472.62248  23065546.2574   23065549.7794   23065547.5904
       230.000         184.000
 109054900.77248  84977838.80948  20752461.4074   20752462.8944   20752461.2194
       249.000         230.000
 117095719.93748  91243416.19948  22282575.9154   22282577.5674   22282576.5114
       234.000         195.000
 122032842.73248  95090519.15148  23222083.4214   23222085.0964   23222083.5314
       229.000         191.000
 133232583.70848 103817585.93648  25353325.7974   25353329.2434   25353326.0804
       194.000         135.000
 115782980.63748  90220491.28548  22032779.9394   22032781.4184   22032779.9484
       240.000         208.000
 135256088.46748  87602153.71548  23835435.4404   23835435.5374   23835436.3794
       223.000         172.000
 131164970.38248 102206463.83148  24959869.8874   24959870.2684   24959870.6264
       213.000         158.000
 09  1 22  0 52  0.0000000  0 10G 9G26G 5G15G18G17G27G12G22G28
 116454778.81148  72951765.76148  20257678.5234   20257680.9684   20257678.8334
       251.000         227.000
 116076165.62648  90448964.58448  22088557.6104   22088559.9754   22088557.4614
       239.000         201.000
 121109297.32548  94370861.55048  23046348.8074   23046352.1884   23046349.0344
       230.000         185.000
 109100420.27348  85013308.54848  20761123.2704   20761124.9234   20761123.0374
       248.000         229.000
 117093088.95748  91241366.07148  22282075.5684   22282076.9014   22282075.9464
       237.000         196.000
 122033448.68948  95090991.33248  23222198.4524   23222200.3614   23222197.8644
       231.000         191.000
 133303514.98948 103872857.07948  25366823.7624   25366825.3804   25366823.2364
       191.000         129.000
 115698612.78348  90154750.10948  22016725.2144   22016726.8294   22016725.1854
       241.000         208.000
 135202697.47148  87560550.32248  23825275.9104   23825275.3524   23825276.4754
       225.000         174.000
 131260873.99848 102281193.91548  24978119.8524   24978120.1384   24978120.9504
       213.000         158.000
 09  1 22  0 52 30.0000000  0  9G 9G26G 5G15G18G17G12G22G28
 116421481.16248  72925819.54848  20251342.1054   20251344.6804   20251342.3874
       251.000         226.000
 116163614.94348  90517106.89848  22105198.4764   22105201.0114   22105198.1954
       241.000         201.000
 121008656.57448  94292440.20248  23027197.7744   23027200.9694   23027198.5094
       229.000         185.000
 109146393.79648  85049132.06748  20769871.8084   20769873.4134   20769871.4644
       249.000         229.000
 117091034.99648  91239765.57548  22281684.6244   22281686.1724   22281685.3874
       236.000         195.000
 122034605.27248  95091892.56448  23222418.8954   23222420.2714   23222418.9884
       231.000         191.000
 115614597.11348  90089283.35348  22000737.5524   22000739.0574   22000737.3414
       240.000         208.000
 135149777.52548  87519314.03248  23815205.5464   23815205.5714   23815206.5114
       222.000         174.000
 131356837.25148 102355970.45648  24996380.4414   24996381.5734   24996382.1814
       211.000         157.000
 09  1 22  0 53  0.0000000  0  9G 9G26G 5G15G18G17G12G22G28
 116388511.85448  72900129.18048  20245068.3084   20245070.6754   20245068.4964
       250.000         226.000
 116251361.55748  90585480.89248  22121896.2714   22121898.5034   22121896.2314
       240.000         201.000
 120908261.20548  94214210.07248  23008092.7114   23008096.1744   23008093.8034
       229.000         183.000
 109192820.74948  85085308.91248  20778706.7134   20778708.1894   20778706.6054
       249.000         230.000
 117089557.74548  91238614.45948  22281403.6064   22281404.9044   22281404.1224
       236.000         196.000
 122036313.55848  95093223.70848  23222743.5504   23222745.4094   23222744.2434
       228.000         190.000
 115530935.32048  90024092.36648  21984817.0814   21984818.9234   21984817.0274
       240.000         208.000
 135097329.77648  87478445.67348  23805224.3424   23805225.1014   23805223.9794
       224.000         177.000
 131452858.02248 102430791.83348  25014652.6654   25014653.5314   25014653.3544
       211.000         158.000
 09  1 22  0 53 30.0000000  0  9G 9G26G 5G15G18G17G12G22G28
 116355871.76648  72874695.34948  20238857.2194   20238859.5134   20238857.4294
       251.000         226.000
 116339404.89948  90654086.08748  22138650.2764   22138652.8174   22138650.2214
       239.000         200.000
 120808113.31548  94136172.78148  22989034.9704   22989038.4764   22989035.4134
       228.000         183.000
 109239701.00748  85121838.98048  20787627.5934   20787629.2484   20787627.3394
       249.000         230.000
 117088657.67848  91237913.10648  22281232.6774   22281233.6354   22281233.1804
       238.000         196.000
 122038574.16148  95094985.22948  23223173.6944   23223175.6334   23223173.5094
       229.000         191.000
 115447629.48648  89959178.72748  21968964.6594   21968966.1604   21968964.5184
       242.000         209.000
 135045355.73248  87437946.40448  23795334.5324   23795334.7284   23795334.5484
       227.000         177.000
 131548935.10448 102505657.09648  25032935.1174   25032937.2174   25032935.3154
       212.000         158.000
 09  1 22  0 54  0.0000000  0  9G 9G26G 5G15G18G17G12G22G28
 116323560.92448  72849518.07448  20232708.5044   20232710.8894   20232708.6144
       251.000         227.000
 116427742.89648  90722920.87748  22155460.3104   22155463.0224   22155460.3324
       239.000         201.000
 120708213.91048  94058329.09848  22970025.1244   22970028.1694   22970025.8764
       229.000         185.000
 109287033.48248  85158721.42048  20796634.7294   20796636.4514   20796634.5534
       248.000         229.000
 117088333.38548  91237660.40748  22281171.0634   22281172.2134   22281171.7084
       238.000         196.000
 122041386.77848  95097176.89448  23223709.3484   23223710.9644   23223709.0654
       229.000         191.000
 115364680.21048  89894542.92748  21953179.9794   21953181.2944   21953179.8044
       241.000         208.000
 134993857.85548  87397818.19948  23785534.6124   23785535.2084   23785534.2614
       222.000         175.000
 131645065.82648 102580564.15648  25051228.0044   25051230.9294   25051229.5844
       212.000         159.000
 09  1 22  0 54 30.0000000  0  9G 9G26G 5G15G18G17G12G22G28
 116291580.32348  72824598.12748  20226622.8394   20226625.3184   20226623.0464
       251.000         227.000
 116516374.90048  90791984.76948  22172326.6484   22172329.2334   22172326.7404
       240.000         200.000
 120608565.48948  93980680.99148  22951062.4644   22951065.5634   22951062.9554
       231.000         185.000
 109334818.58148  85195956.55948  20805727.8914   20805729.6884   20805727.4594
       248.000         229.000
 117088585.66648  91237856.98348  22281218.3754   22281220.3234   22281219.2214
       236.000         195.000
 122044752.45348  95099799.49948  23224349.4954   23224351.7804   23224349.0794
       229.000         191.000
 115282090.06448  89830186.97748  21937463.5954   21937464.8424   21937463.3294
       241.000         208.000
 134942837.05648  87358061.71748  23775826.0074   23775825.8124   23775825.1314
       230.000         180.000
 131741249.41148 102655512.38848  25069531.1164   25069533.5874   25069532.5064
       213.000         157.000
 09  1 22  0 55  0.0000000  0  9G 9G26G 5G15G18G17G12G22G28
 116259929.50448  72799935.16048  20220599.8744   20220602.4314   20220600.1024
       251.000         227.000
 116605298.60248  90861275.97348  22189248.1654   22189250.7164   22189248.1934
       238.000         199.000
 120509168.59448  93903228.89048  22932147.7854   22932150.9124   22932148.8574
       228.000         185.000
 109383054.70248  85233543.14848  20814906.9874   20814908.6194   20814906.7764
       249.000         229.000
 117089413.19048  91238501.79948  22281375.8624   22281377.7134   22281375.9734
       236.000         195.000
 122048670.47548  95102852.51148  23225094.9484   23225097.2624   23225094.6444
       228.000         190.000
 115199859.35848  89766111.10448  21921815.5164   21921816.8114   21921815.4604
       241.000         209.000
 134892294.14448  87318677.61248  23766208.3644   23766207.8784   23766208.6394
       224.000         178.000
 131837482.88048 102730499.49848  25087844.0404   25087846.3154   25087845.9144
       212.000         157.000
 09  1 22  0 55 30.0000000  0  9G 9G26G 5G15G18G17G12G22G28
 116228609.92348  72775530.30048  20214639.9444   20214642.3884   20214639.9244
       251.000         227.000
 116694513.83048  90930794.33348  22206225.0594   22206227.8364   22206224.8264
       239.000         200.000
 120410026.01448  93825974.94448  22913281.2604   22913284.7764   22913281.6874
       229.000         185.000
 109431742.38548  85271481.60348  20824171.9234   20824173.5634   20824171.7494
       249.000         228.000
 117090816.17948  91239595.03948  22281643.0644   22281644.7444   22281643.6084
       236.000         195.000
 122053142.44748  95106337.18848  23225945.7524   23225948.0234   23225945.1204
       229.000         190.000
 115117990.63448  89702317.29648  21906236.3374   21906237.6364   21906236.1644
       240.000         209.000
 134842231.98348  87279668.16948  23756680.9094   23756681.5914   23756679.2784
       225.000         177.000
 131933765.56148 102805524.95148  25106165.7504   25106168.6064   25106168.7494
       214.000         156.000
 09  1 22  0 56  0.0000000  0  9G 9G26G 5G15G18G17G12G22G28
 116197622.10248  72751383.94748  20208743.2054   20208745.7514   20208743.4174
       251.000         227.000
 116784019.01248  91000538.62348  22223257.4804   22223260.0884   22223257.2654
       238.000         199.000
 120311139.52248  93748920.56348  22894463.8744   22894467.3634   22894464.1324
       229.000         186.000
 109480881.21948  85309771.59848  20833522.7054   20833524.3164   20833522.4334
       248.000         228.000
 117092794.97948  91241136.95848  22282019.6154   22282021.4474   22282020.4864
       237.000         196.000
 122058168.56148  95110253.65548  23226902.1944   23226904.4164   23226901.2544
       227.000         189.000
 115036485.57348  89638806.87848  21890726.3524   21890727.8824   21890726.4434
       239.000         209.000
 134792652.33048  87241034.65348  23747247.0064   23747246.4434   23747246.5614
       227.000         176.000
 132030095.61848 102880587.32148  25124497.0574   25124499.5674   25124498.6364
       212.000         156.000
 09  1 22  0 56 30.0000000  0  9G 9G26G 5G15G18G17G12G22G28
 116166965.21048  72727495.46848  20202909.4644   20202911.8884   20202909.6294
       252.000         227.000
 116873812.03648  91070507.20748  22240344.4644   22240346.9864   22240344.7474
       238.000         198.000
 120212509.43448  93672065.96248  22875695.4514   22875698.6604   22875696.2514
       230.000         187.000
 109530469.29248  85348411.65248  20842958.8954   20842960.5504   20842958.5684
       248.000         228.000
 117095347.61648  91243126.01348  22282505.3484   22282507.0674   22282505.7794
       237.000         196.000
 122063748.17148  95114601.41048  23227964.4004   23227966.1634   23227964.0414
       230.000         189.000
 114955344.63748  89575580.19248  21875285.7564   21875287.4924   21875285.4854
       241.000         210.000
 134743554.61848  87202776.68348  23737903.5924   23737903.3184   23737903.6854
       224.000         175.000
 132126470.02148 102955684.26048  25142836.3284   25142838.6354   25142836.2684
       209.000         154.000
 09  1 22  0 57  0.0000000  0  9G 9G26G 5G15G18G17G12G22G28
 116136639.08548  72703864.73148  20197138.6434   20197141.0904   20197139.0654
       253.000         228.000
 116963891.00048  91140698.60948  22257486.1104   22257488.3874   22257485.6124
       239.000         198.000
 120114137.32648  93595412.38948  22856975.7324   22856979.3044   22856976.3054
       231.000         188.000
 109580505.69148  85387401.04848  20852480.3844   20852482.2424   20852480.1964
       248.000         228.000
 117098473.07048  91245561.43448  22283100.1904   22283101.8984   22283100.7044
       236.000         196.000
 122069880.81048  95119380.09748  23229131.5534   23229133.0454   23229131.4104
       227.000         189.000
 114874568.59148  89512637.82348  21859914.8754   21859916.1594   21859914.8114
       241.000         210.000
 134694940.71048  87164895.68748  23728652.7404   23728652.3884   23728653.2364
       225.000         177.000
 132222887.00748 103030814.38148  25161183.9144   25161186.2254   25161183.6234
       210.000         157.000
 09  1 22  0 57 30.0000000  0  9G 9G26G 5G15G18G17G12G22G28
 116106644.77348  72680492.53848  20191430.8844   20191433.3124   20191430.9974
       253.000         228.000
 117054255.07048  91211112.17248  22274682.0374   22274684.2134   22274682.4754
       237.000         199.000
 120016025.28348  93518961.46248  22838305.6424   22838309.2314   22838306.5884
       229.000         187.000
 109630990.84248  85426740.11548  20862087.5424   20862089.2374   20862087.2924
       248.000         228.000
 117102171.65448  91248443.43348  22283804.0924   22283805.5744   22283804.4594
       236.000         196.000
 122076567.42348  95124590.45648  23230403.7594   23230405.2814   23230403.7884
       227.000         188.000
 114794159.57648  89449981.44948  21844613.4544   21844614.8014   21844613.3144
       241.000         210.000
 134646812.73448  87127393.37848  23719493.9254   23719494.7564   23719495.0444
       220.000         175.000
 132319345.18248 103105976.59748  25179538.9544   25179541.4634   25179538.6784
       210.000         156.000
 09  1 22  0 58  0.0000000  0  9G 9G26G 5G15G18G17G12G22G28
 116076983.31848  72657379.72148  20185786.5664   20185788.9324   20185786.8214
       253.000         228.000
 117144903.41048  91281747.23148  22291931.5464   22291933.9154   22291931.1574
       238.000         198.000
 119918175.47148  93442714.86648  22819685.2714   22819688.9454   22819685.4744
       230.000         187.000
 109681924.17648  85466428.42948  20871779.9624   20871781.4374   20871779.8274
       248.000         227.000
 117106443.44548  91251772.09648  22284616.6784   22284618.3764   22284616.9344
       235.000         194.000
 122083808.71348  95130233.03048  23231781.3834   23231783.4264   23231781.1964
       229.000         190.000
 114714119.43048  89387612.51148  21829382.1304   21829383.6444   21829382.1594
       241.000         209.000
 134599172.37348  87090271.05048  23710428.0704   23710428.6764   23710428.3644
       225.000         176.000
 132415843.01748 103181169.71648  25197901.8974   25197904.2014   25197902.9104
       211.000         154.000
 09  1 22  0 58 30.0000000  0  9G 9G26G 5G15G18G17G12G22G28
 116047654.22948  72634525.88648  20180205.2664   20180207.8164   20180205.2064
       254.000         228.000
 117235833.92048  91352602.17848  22309235.1514   22309237.3804   22309235.1584
       238.000         197.000
 119820588.70348  93366673.24748  22801114.9574   22801118.8554   22801116.0484
       229.000         188.000
 109733304.67548  85506465.18148  20881557.3384   20881558.9004   20881557.0164
       248.000         228.000
 117111287.06548  91255546.34648  22285538.4304   22285540.1754   22285539.1374
       236.000         195.000
 122091604.15148  95136307.40948  23233264.7894   23233267.0204   23233265.0214
       229.000         189.000
 114634448.96948  89325531.64148  21814221.3524   21814222.9294   21814221.2734
       240.000         210.000
 134552020.24248  87053529.10048  23701455.6184   23701455.7534   23701455.9544
       223.000         176.000
 132512378.18248 103256391.91948  25216271.8764   25216274.1934   25216273.3994
       209.000         152.000
 09  1 22  0 59  0.0000000  0 10G 9G26G 5G30G15G18G17G12G22G28
 116018659.29348  72611932.42948  20174687.8394   20174690.1074   20174688.1574
       253.000         228.000
 117327046.35648  91423676.81148  22326592.3184   22326594.7194   22326592.7364
       237.000         198.000
 119723268.01648  93290838.94148  22782595.5704   22782599.3684   22782595.7804
       231.000         188.000
 131671317.40858 102601011.28358  25056230.0655   25056233.3405   25056229.2975
       211.000         149.000
 109785132.78648  85546850.71948  20891419.8394   20891421.5494   20891419.4134
       248.000         227.000
 117116703.51648  91259766.95448  22286568.9284   22286571.1054   22286569.5484
       235.000         194.000
 122099955.32348  95142814.82248  23234854.1584   23234855.8854   23234853.3924
       229.000         190.000
 114555150.70648  89263740.80348  21799131.5024   21799133.0164   21799131.4054
       240.000         211.000
 134505359.06348  87017169.74848  23692575.9934   23692576.5604   23692575.8404
       227.000         179.000
 132608950.23648 103331642.87548  25234649.2564   25234650.2394   25234648.5894
       209.000         150.000
 09  1 22  0 59 30.0000000  0 10G 9G26G 5G30G15G18G17G12G22G28
 115989997.65748  72589598.68948  20169233.5544   20169236.1074   20169233.7224
       254.000         228.000
 117418538.30048  91494969.22748  22344002.4544   22344005.2284   22344002.1894
       237.000         197.000
 119626213.77948  93215212.26948  22764127.0264   22764130.4554   22764128.4634
       232.000         188.000
 131558903.49548 102513416.10748  25034838.4194   25034841.8244   25034838.1304
       214.000         150.000
 109837406.88948  85587583.78248  20901367.1004   20901369.0894   20901366.8334
       248.000         227.000
 117122690.91348  91264432.44848  22287708.4854   22287710.6964   22287708.9784
       235.000         195.000
 122108861.04848  95149754.37248  23236549.0744   23236550.9624   23236548.6814
       231.000         191.000
 114476225.27148  89202240.47848  21784112.5954   21784114.0404   21784112.4464
       240.000         210.000
 134459188.72548  86981192.86148  23683790.6434   23683790.5294   23683792.2114
       228.000         181.000
 132705556.25748 103406920.31148  25253033.4334   25253033.6794   25253032.2064
       206.000         146.000
 09  1 22  1  0  0.0000000  0 10G 9G26G 5G30G15G18G17G12G22G28
 115961670.03948  72567525.22548  20163842.9434   20163845.4804   20163843.1304
       253.000         228.000
 117510308.72048  91566478.64048  22361465.9624   22361468.4414   22361465.6744
       236.000         197.000
 119529427.96848  93139794.76348  22745709.0844   22745712.5444   22745709.9774
       230.000         188.000
 131446564.54148 102425879.27048  25013462.2244   25013465.8474   25013463.0654
       208.000         150.000
 109890126.13148  85628663.70348  20911399.4174   20911401.3034   20911399.1794
       248.000         227.000
 117129248.74648  91269542.43348  22288956.4254   22288958.4864   22288956.8014
       237.000         195.000
 122118321.75348  95157126.34548  23238349.6994   23238351.0134   23238349.6814
       232.000         190.000
 114397674.03748  89141031.73248  21769164.6364   21769166.1824   21769164.5134
       240.000         211.000
 134413510.87248  86945599.72448  23675098.6984   23675098.8714   23675098.3114
       229.000         181.000
 132802195.01248 103482223.25848  25271422.6444   25271423.3904   25271423.6394
       213.000         149.000
 09  1 22  1  0 30.0000000  0 10G 9G26G 5G30G15G18G17G12G22G28
 115933676.35348  72545711.97048  20158515.9984   20158518.3044   20158516.1094
       254.000         228.000
 117602355.04948  91638203.05948  22378981.7564   22378984.1224   22378981.8554
       236.000         195.000
 119432911.31248  93064586.99448  22727342.6484   22727345.9544   22727343.0944
       231.000         190.000
 131334301.43548 102338401.58148  24992098.3684   24992101.7714   24992096.6174
       209.000         153.000
 109943289.69248  85670089.85248  20921516.1404   20921517.8014   20921515.9474
       248.000         226.000
 117136375.61648  91275095.82848  22290313.0264   22290314.5874   22290314.0764
       236.000         196.000
 122128336.68048  95164930.18948  23240255.3864   23240256.6354   23240255.3244
       231.000         190.000
 114319497.52748  89080114.98348  21754288.0284   21754289.6934   21754287.9844
       240.000         211.000
 134368326.49648  86910391.12248  23666500.3384   23666500.2554   23666500.7444
       226.000         180.000
 132898863.82048 103557549.62448  25289818.1564   25289818.5024   25289820.2184
       211.000         149.000
 09  1 22  1  1  0.0000000  0 10G 9G26G 5G30G15G18G17G12G22G28
 115906018.56348  72524160.45048  20153252.9224   20153255.0854   20153253.0214
       254.000         228.000
 117694678.38148  91710143.33048  22396550.2214   22396552.6314   22396550.0474
       236.000         195.000
 119336667.59148  92989591.90448  22709028.4174   22709031.2894   22709029.0844
       232.000         189.000
 131222118.02548 102250985.98148  24970750.1274   24970754.5664   24970750.1244
       212.000         153.000
 109996898.86548  85711863.22948  20931717.6244   20931719.2364   20931717.2534
       248.000         226.000
 117144073.57048  91281094.23048  22291777.6854   22291779.6294   22291778.1494
       237.000         195.000
 122138907.92148  95173167.52248  23242266.8564   23242268.0764   23242266.3014
       230.000         189.000
 114241699.49648  89019493.15048  21739483.2704   21739485.0104   21739483.0494
       242.000         211.000
 134323638.84848  86875569.57248  23657996.0044   23657995.8344   23657996.0814
       227.000         177.000
 132995563.11248 103632899.73048  25308219.3794   25308219.7304   25308221.0414
       210.000         146.000
 09  1 22  1  1 30.0000000  0 10G 9G26G 5G30G15G18G17G12G22G28
 115878695.76348  72502869.95948  20148053.6754   20148055.8404   20148054.0744
       254.000         228.000
 117787275.54048  91782296.95848  22414170.7814   22414173.4544   22414170.7034
       237.000         195.000
 119240696.78848  92914809.47248  22690765.6554   22690768.6034   22690766.3344
       231.000         190.000
 131110014.49748 102163632.61648  24949418.1024   24949420.9944   24949417.7904
       213.000         152.000
 110050951.40648  85753982.08848  20942003.2694   20942005.1154   20942003.1314
       247.000         226.000
 117152339.72048  91287535.37348  22293350.6994   22293352.1074   22293351.3574
       234.000         193.000
 122150034.05948  95181837.25348  23244383.9324   23244385.3424   23244383.8674
       232.000         190.000
 114164279.57648  88959165.93148  21724750.9284   21724752.5804   21724750.8324
       242.000         212.000
 134279447.23448  86841134.53548  23649587.3534   23649586.1084   23649588.1144
       227.000         180.000
 133092289.53348 103708270.96548  25326626.2014   25326626.8284   25326626.7734
       211.000         149.000
 09  1 22  1  2  0.0000000  0 10G 9G26G 5G30G15G18G17G12G22G28
 115851708.27048  72481840.74948  20142918.0764   20142920.4534   20142918.3424
       254.000         228.000
 117880145.15248  91854662.87848  22431843.6764   22431846.0804   22431843.5854
       237.000         198.000
 119145000.50448  92840240.95848  22672555.1844   22672558.4944   22672555.0314
       232.000         191.000
 130997992.34448 102076342.68748  24928100.7504   24928103.9104   24928101.1024
       213.000         155.000
 110105446.35848  85796445.68248  20952373.2714   20952375.0574   20952372.8434
       247.000         225.000
 117161173.84348  91294419.09348  22295031.7884   22295033.2374   22295032.4274
       235.000         194.000
 122161715.29448  95190939.52748  23246607.1194   23246608.4914   23246607.2964
       233.000         190.000
 114087239.17548  88899134.45348  21710090.8654   21710092.5044   21710090.7474
       242.000         212.000
 134235754.14948  86807088.01248  23641272.1094   23641273.3034   23641272.0164
       225.000         181.000
 133189041.39248 103783662.02548  25345037.8754   25345038.5684   25345038.5704
       211.000         152.000
 09  1 22  1  2 30.0000000  0 10G 9G26G 5G30G15G18G17G12G22G28
 115825057.21148  72461073.68748  20137846.4304   20137848.8644   20137846.4054
       254.000         228.000
 117973286.25748  91927240.36048  22449567.8724   22449570.4424   22449567.6984
       236.000         196.000
 119049580.88748  92765888.04048  22654397.1544   22654400.6434   22654397.9994
       232.000         191.000
 130886053.60648 101989117.73548  24906799.2014   24906803.0354   24906798.7464
       212.000         155.000
 110160383.43848  85839253.79648  20962827.5984   20962829.1084   20962827.3544
       248.000         225.000
 117170575.13848  91301744.78648  22296820.8054   22296822.4674   22296821.3424
       235.000         193.000
 122173951.82448  95200474.48648  23248935.7664   23248937.1614   23248935.7374
       231.000         191.000
 114010580.04448  88839400.07148  21695503.0964   21695504.8324   21695503.1764
       243.000         213.000
 134192560.81348  86773430.81748  23633053.0934   23633053.3634   23633053.2454
       224.000         174.000
 133285817.44948 103859071.94248  25363452.6474   25363454.4864   25363453.8194
       202.000         143.000
 09  1 22  1  3  0.0000000  0 10G 9G26G 5G30G15G18G17G12G22G28
 115798743.00048  72440569.11448  20132839.1164   20132841.4044   20132839.4484
       253.000         228.000
 118066697.42948  92000028.28148  22467343.2854   22467345.8374   22467343.5464
       235.000         194.000
 118954439.39348  92691751.82748  22636292.4814   22636295.8144   22636292.7884
       234.000         192.000
 130774200.08548 101901959.17348  24885513.8874   24885518.4734   24885512.6454
       209.000         155.000
 110215762.05548  85882405.96548  20973365.9464   20973367.4324   20973365.8664
       247.000         226.000
 117180542.95048  91309511.89848  22298717.3564   22298719.0334   22298718.4974
       236.000         194.000
 122186743.42648  95210441.98148  23251369.9764   23251371.0684   23251369.4654
       231.000         190.000
 113934303.56148  88779963.86448  21680988.0554   21680989.7594   21680987.8074
       241.000         213.000
 134149867.59348  86740163.35248  23624928.3944   23624928.3094   23624926.9634
       224.000         178.000
 133382615.86648 103934499.23648  25381872.1624   25381874.6564   25381872.5644
       204.000         142.000
 09  1 22  1  3 30.0000000  0 10G 9G26G 5G30G15G18G17G12G22G28
 115772766.46848  72420327.66748  20127895.9004   20127898.1154   20127895.8724
       254.000         228.000
 118160377.66948  92073025.87748  22485170.0144   22485172.5344   22485169.6264
       235.000         194.000
 118859578.18248  92617834.01648  22618241.1024   22618244.1534   22618241.7054
       234.000         192.000
 130662433.85048 101814868.62248  24864245.6014   24864249.7654   24864245.8994
       214.000         158.000
 110271581.80048  85925901.86648  20983987.9454   20983989.6564   20983987.6444
       248.000         225.000
 117191077.27548  91317720.46248  22300722.0524   22300723.9854   22300722.5364
       237.000         195.000
 122200090.62048  95220842.41048  23253909.5064   23253911.0434   23253909.3094
       233.000         191.000
 113858411.51848  88720827.21948  21666546.2034   21666548.1154   21666545.7774
       243.000         214.000
 134107676.84648  86707287.49248  23616900.1494   23616900.4834   23616899.1614
       225.000         177.000
 133479435.82448 104009943.32948  25400297.6724   25400298.5784   25400297.2654
       207.000         144.000
 09  1 22  1  4  0.0000000  0 10G 9G26G 5G30G15G18G17G12G22G28
 115747127.44648  72400349.20948  20123016.9164   20123019.1254   20123017.3014
       254.000         228.000
 118254325.02848  92146231.60748  22503047.5634   22503049.9884   22503047.4574
       235.000         195.000
 118764998.29548  92544135.41448  22600242.8254   22600246.2744   22600243.4024
       234.000         192.000
 130550755.97948 101727846.95448  24842995.7564   24842997.9174   24842994.8634
       216.000         158.000
 110327841.87648  85969740.88348  20994693.8814   20994695.6324   20994693.6544
       247.000         225.000
 117202176.82748  91326369.45248  22302834.5664   22302836.1194   22302835.2174
       237.000         194.000
 122213993.36548  95231675.72348  23256555.3764   23256556.4254   23256555.4764
       232.000         190.000
 113782904.63348  88661990.69048  21652178.1174   21652179.4754   21652178.2034
       243.000         214.000
 134065989.81948  86674804.06548  23608967.1644   23608966.9364   23608966.1304
       223.000         174.000
 133576275.08448 104085402.49548  25418725.4234   25418727.6014   25418726.2964
       207.000         146.000
 09  1 22  1  4 30.0000000  0 10G 9G26G 5G30G15G18G17G12G22G28
 115721825.62948  72380633.50548  20118202.2604   20118204.4164   20118202.5094
       253.000         228.000
 118348537.59348  92219643.99148  22520975.2254   22520978.1704   22520975.5824
       232.000         193.000
 118670700.73748  92470656.80948  22582298.9354   22582302.2654   22582299.2304
       234.000         193.000
 130439167.88148 101640895.23548  24821760.6204   24821763.2704   24821761.1874
       214.000         160.000
 110384540.61248  86013921.70948  21005483.4094   21005485.1254   21005483.1404
       247.000         225.000
 117213840.09248  91335457.70648  22305053.8044   22305055.4894   22305054.6844
       234.000         193.000
 122228450.61548  95242941.10348  23259306.7074   23259307.6904   23259306.5314
       234.000         190.000
 113707783.64748  88603454.86948  21637883.0684   21637884.2014   21637883.0834
       244.000         214.000
 134024806.71848  86642713.35648  23601129.3284   23601130.2244   23601129.0064
       224.000         177.000
 133673131.20848 104160874.80748  25437156.4174   25437158.9434   25437156.8264
       206.000         147.000
 09  1 22  1  5  0.0000000  0 10G 9G26G 5G30G15G18G17G12G22G28
 115696862.04748  72361181.36748  20113451.7624   20113454.1454   20113451.8914
       254.000         229.000
 118443014.41148  92293262.27748  22538953.5424   22538956.4234   22538953.0734
       233.000         191.000
 118576687.51948  92397399.76448  22564408.7804   22564412.0284   22564408.9824
       235.000         193.000
 130327671.82148 101554015.24048  24800542.7674   24800546.1354   24800542.8774
       215.000         158.000
 110441677.43148  86058443.90448  21016356.1504   21016357.7744   21016355.7744
       248.000         225.000
 117226066.94448  91344985.11548  22307380.1794   22307382.2344   22307380.6564
       235.000         193.000
 122243462.40548  95254638.60748  23262163.3754   23262164.2624   23262163.2984
       232.000         190.000
 113633050.37748  88545221.16248  21623661.8454   21623662.8154   21623661.8124
       243.000         214.000
 133984129.08648  86611016.51848  23593389.5624   23593389.8234   23593389.8974
       221.000         175.000
 133770002.83348 104236359.14048  25455591.2214   25455593.1164   25455591.2084
       210.000         145.000
 09  1 22  1  5 30.0000000  0 10G 9G26G 5G30G15G18G17G12G22G28
 115672236.45948  72341992.60248  20108765.5874   20108768.2194   20108765.6574
       254.000         229.000
 118537753.34748  92367084.82648  22556982.0894   22556984.7134   22556981.7264
       233.000         191.000
 118482959.76048  92324365.16848  22546572.7824   22546576.3884   22546573.3104
       235.000         193.000
 130216268.66148 101467207.60348  24779343.6874   24779346.7344   24779342.5504
       213.000         156.000
 110499251.53248  86103306.83048  21027312.2454   21027313.8364   21027312.1574
       248.000         225.000
 117238855.86448  91354950.49148  22309814.2084   22309815.9054   22309814.6734
       237.000         194.000
 122259028.68848  95266768.19948  23265124.9334   23265126.4314   23265125.0434
       232.000         189.000
 113558705.50148  88487290.10648  21609514.2524   21609515.3834   21609514.1054
       243.000         214.000
 133943957.70248  86579714.14148  23585744.7834   23585744.5944   23585743.5124
       227.000         176.000
 133866888.45948 104311854.40048  25474026.8304   25474029.9414   25474028.1544
       211.000         149.000
 09  1 22  1  6  0.0000000  0 10G 9G26G 5G30G15G18G17G12G22G28
 115647949.52748  72323067.72448  20104143.9594   20104146.5664   20104144.1574
       253.000         229.000
 118632753.09548  92441110.61048  22575059.7234   22575062.3114   22575059.9194
       233.000         192.000
 118389519.02248  92251554.22748  22528791.5264   22528795.0404   22528791.5074
       233.000         194.000
 130104960.10548 101380473.67248  24758162.2704   24758165.8984   24758161.8044
       214.000         158.000
 110557262.00548  86148509.79748  21038350.9744   21038353.0604   21038350.5364
       246.000         225.000
 117252205.88848  91365353.09948  22312354.6984   22312356.2694   22312355.6414
       235.000         193.000
 122275149.16648  95279329.62048  23268192.6474   23268194.4454   23268192.2804
       233.000         192.000
 113484750.58748  88429662.92048  21595441.1214   21595442.5224   21595440.9604
       244.000         215.000
 133904294.05448  86548807.36948  23578198.1834   23578197.9184   23578198.3914
       227.000         182.000
 133963786.22348 104387359.09648  25492466.7094   25492468.6014   25492467.2314
       212.000         147.000
 09  1 22  1  6 30.0000000  0 10G 9G26G 5G30G15G18G17G12G22G28
 115624001.43848  72304406.87748  20099586.8734   20099589.2814   20099587.0334
       253.000         229.000
 118728012.14448  92515338.43848  22593186.9754   22593189.7174   22593187.4284
       233.000         192.000
 118296366.69348  92178968.02648  22511064.7764   22511068.7344   22511064.7434
       234.000         192.000
 129993747.85348 101293814.76548  24737000.3834   24737002.5404   24736999.9024
       216.000         157.000
 110615707.94048  86194052.07148  21049473.1324   21049474.8734   21049472.7094
       248.000         225.000
 117266116.00948  91376192.13748  22315001.2184   22315003.0554   22315001.6794
       233.000         193.000
 122291823.53548  95292322.63148  23271366.1784   23271367.4524   23271366.0414
       232.000         191.000
 113411186.55648  88372340.31248  21581442.2574   21581443.7694   21581442.2724
       244.000         215.000
 133865138.66548  86518296.70248  23570745.8464   23570746.8954   23570746.1314
       226.000         179.000
 134060694.07348 104462871.72048  25510907.3194   25510909.4304   25510907.6324
       209.000         143.000
 09  1 22  1  7  0.0000000  0 10G 9G26G 5G30G15G18G17G12G22G28
 115600392.73948  72286010.49048  20095094.1224   20095096.6004   20095094.3424
       254.000         228.000
 118823528.97948  92589767.12148  22611363.5544   22611366.0474   22611363.8244
       232.000         192.000
 118203504.37948  92106607.78048  22493394.0454   22493397.1914   22493394.5314
       236.000         194.000
 129882633.40748 101207232.08748  24715856.0834   24715857.4914   24715855.9294
       219.000         157.000
 110674588.59748  86239933.09748  21060677.7234   21060679.3824   21060677.7414
       246.000         224.000
 117280585.38648  91387466.97048  22317754.7394   22317756.3094   22317754.9434
       235.000         192.000
 122309051.71948  95305747.18948  23274644.4864   23274645.4444   23274644.2264
       232.000         190.000
 113338015.00048  88315323.52748  21567518.0584   21567519.7834   21567517.7834
       244.000         216.000
 133826493.01748  86488183.19448  23563392.8864   23563392.8344   23563392.8064
       226.000         182.000
 134157611.22748 104538391.55548  25529349.7434   25529351.5224   25529350.7894
       212.000         139.000
 09  1 22  1  7 30.0000000  0 10G 9G26G 5G30G15G18G17G12G22G28
 115577122.08048  72267877.50948  20090666.0614   20090668.4174   20090666.3204
       253.000         229.000
 118919300.22148  92664394.05348  22629588.2044   22629590.5764   22629587.9604
       233.000         191.000
 118110931.82048  92034473.34048  22475778.2294   22475781.3914   22475778.5374
       236.000         195.000
 129771616.94348 101120725.76648  24694730.0654   24694731.7564   24694729.6294
       218.000         159.000
 110733901.15048  86286150.66748  21071964.4864   21071966.0714   21071964.0024
       247.000         224.000
 117295611.74948  91399175.81548  22320614.4124   22320615.7194   22320614.6474
       236.000         193.000
 122326831.35248  95319601.46248  23278027.5524   23278028.8614   23278027.7034
       230.000         188.000
 113265235.04548  88258611.88748  21553668.8184   21553670.3634   21553668.7254
       245.000         216.000
 133788356.36748  86458466.33348  23556135.3064   23556136.1644   23556134.2414
       226.000         182.000
 134254534.02148 104613915.81448  25547794.3824   25547794.5824   25547794.7594
       205.000         137.000
 09  1 22  1  8  0.0000000  0  9G 9G26G 5G30G15G18G17G12G22
 115554190.59848  72250008.82748  20086302.2864   20086304.6564   20086302.3984
       253.000         229.000
 119015324.97848  92739218.54248  22647861.4114   22647863.4744   22647861.4494
       234.000         192.000
 118018651.11948  91962566.31548  22458218.0494   22458220.9724   22458218.6274
       237.000         196.000
 129660700.62848 101034297.48348  24673623.5374   24673625.5644   24673623.4284
       220.000         160.000
 110793644.94748  86332704.27448  21083333.4984   21083335.0384   21083333.3724
       247.000         224.000
 117311193.96748  91411317.80448  22323579.6614   22323581.0494   22323580.2234
       236.000         193.000
 122345163.30048  95333886.09848  23281515.8024   23281517.2554   23281515.5254
       231.000         188.000
 113192848.59248  88202206.86948  21539893.9774   21539895.5054   21539893.8714
       243.000         215.000
 133750730.71648  86429147.64848  23548975.3354   23548976.1954   23548976.4204
       227.000         180.000
 09  1 22  1  8 30.0000000  0  9G 9G26G 5G30G15G18G17G12G22
 115531601.16148  72232406.67348  20082003.6794   20082006.0834   20082003.9014
       254.000         229.000
 119111604.40048  92814241.48348  22666182.6084   22666184.8304   22666182.5924
       234.000         192.000
 117926666.26848  91890889.82548  22440714.0134   22440716.7774   22440713.8974
       237.000         197.000
 129549888.54548 100947950.42448  24652536.7834   24652538.6384   24652536.4314
       219.000         159.000
 110853822.19348  86379595.63248  21094784.6564   21094786.4844   21094784.3284
       247.000         224.000
 117327333.84248  91423894.31548  22326651.0324   22326652.5824   22326651.6314
       236.000         194.000
 122364049.45048  95348602.59648  23285109.8644   23285110.9594   23285110.2454
       232.000         188.000
 113120859.09148  88146111.15948  21526194.7784   21526196.2704   21526194.5724
       244.000         216.000
 133713619.16548  86400229.55048  23541912.5114   23541913.3594   23541912.1454
       222.000         177.000
 09  1 22  1  9  0.0000000  0  9G 9G26G 5G30G15G18G17G12G22
 115509354.22348  72215071.39948  20077770.1624   20077772.6074   20077770.3684
       253.000         229.000
 119208137.46448  92889462.04448  22684552.1794   22684554.8014   22684552.6084
       231.000         191.000
 117834979.39648  91819445.52348  22423266.5644   22423269.1444   22423267.2534
       237.000         197.000
 129439182.85348 100861686.22048  24631469.7924   24631472.1504   24631469.8674
       217.000         160.000
 110914432.54748  86426824.47848  21106318.3054   21106320.3424   21106318.0284
       246.000         224.000
 117344030.93048  91436905.02548  22329828.4724   22329830.0454   22329828.9304
       236.000         194.000
 122383489.81348  95363750.94148  23288808.9784   23288810.4104   23288808.8084
       230.000         187.000
 113049268.41048  88090326.24148  21512571.4894   21512572.9434   21512571.5374
       244.000         216.000
 133677023.14248  86371713.19148  23534949.6724   23534949.8394   23534949.1594
       224.000         178.000
 09  1 22  1  9 30.0000000  0  9G 9G26G 5G30G15G18G17G12G22
 115487449.45048  72198002.74248  20073601.7624   20073604.2414   20073601.8794
       253.000         229.000
 119304921.77148  92964878.37348  22702969.5994   22702972.1114   22702968.9264
       230.000         190.000
 117743590.83248  91748233.67548  22405875.5794   22405878.6254   22405876.4114
       237.000         197.000
 129328584.28148 100775505.51448  24610423.0704   24610425.4324   24610422.8424
       218.000         157.000
 110975473.83748  86474389.11848  21117934.1504   21117935.9204   21117933.7754
       246.000         223.000
 117361283.41248  91450348.50848  22333111.5594   22333112.9934   22333112.4774
       236.000         194.000
 122403483.16648  95379330.17248  23292614.0634   23292615.1424   23292613.5134
       232.000         190.000
 112978076.67948  88034852.17448  21499024.1824   21499025.5914   21499024.1094
       244.000         216.000
 133640942.76848  86343598.60148  23528082.6164   23528082.8284   23528081.5004
       221.000         173.000
 09  1 22  1 10  0.0000000  0  9G 9G26G 5G30G15G18G17G12G22
 115465886.99148  72181200.83048  20069498.4044   20069501.0324   20069498.6434
       253.000         229.000
 119401955.40448  93040489.00248  22721434.5334   22721436.8164   22721433.8244
       233.000         190.000
 117652501.91848  91677255.30248  22388541.8494   22388544.9584   22388542.3394
       236.000         197.000
 129218094.07148 100689409.21348  24589397.7424   24589399.7854   24589398.5314
       218.000         158.000
 111036944.77748  86522288.55148  21129631.6764   21129633.6414   21129631.3264
       247.000         223.000
 117379089.55648  91464223.41748  22336499.7314   22336501.6334   22336500.3794
       236.000         194.000
 122424029.10148  95395339.99048  23296524.0354   23296524.9084   23296523.9004
       232.000         189.000
 112907284.90248  87979689.75548  21485553.2064   21485554.3914   21485553.1544
       245.000         217.000
 133605379.43548  86315886.92648  23521315.5354   23521316.1364   23521315.3674
       223.000         178.000
 09  1 22  1 10 30.0000000  0  9G 9G26G 5G30G15G18G17G12G22
 115444666.64248  72164665.49748  20065460.6534   20065462.9514   20065460.8564
       252.000         229.000
 119499236.32748  93116292.32148  22739946.1424   22739948.8314   22739946.5134
       231.000         190.000
 117561713.64448  91606511.20948  22371265.2624   22371268.5414   22371265.9494
       235.000         197.000
 129107713.52748 100603398.40948  24568392.7784   24568394.9724   24568392.8104
       219.000         159.000
 111098843.92348  86570521.64348  21141410.6204   21141412.7564   21141410.4684
       247.000         223.000
 117397447.92948  91478528.62848  22339993.3684   22339995.0914   22339993.7084
       236.000         193.000
 122445126.43148  95411779.47748  23300537.9554   23300539.5854   23300537.9554
       232.000         188.000
 112836893.76548  87924839.53048  21472158.0364   21472159.4174   21472158.1774
       244.000         217.000
 133570332.85048  86288577.91548  23514646.1744   23514647.8804   23514646.2634
       223.000         178.000
 09  1 22  1 11  0.0000000  0  9G 9G26G 5G30G15G18G17G12G22
 115423789.91648  72148397.91948  20061487.9434   20061490.2354   20061488.0694
       252.000         229.000
 119596763.69548  93192287.67348  22758504.8904   22758507.6464   22758504.9624
       231.000         187.000
 117471227.97348  91536002.91748  22354045.8954   22354049.6944   22354046.7094
       234.000         197.000
 128997445.05748 100517474.90848  24547409.9534   24547411.9224   24547410.4204
       217.000         160.000
 111161171.11548  86619088.28248  21153271.2484   21153273.1854   21153270.9474
       246.000         223.000
 117416357.89648  91493263.65348  22343591.8284   22343593.3524   22343592.5074
       235.000         192.000
 122466775.71548  95428649.04748  23304657.6004   23304659.4074   23304657.1744
       233.000         189.000
 112766904.53648  87870302.48448  21458839.3924   21458840.9544   21458839.2604
       244.000         217.000
 133535804.88848  86261673.00648  23508076.6724   23508076.9894   23508076.7374
       226.000         179.000
 09  1 22  1 11 30.0000000  0  9G 9G26G 5G30G15G18G17G12G22
 115403255.84248  72132397.34748  20057580.4574   20057582.7274   20057580.6654
       252.000         229.000
 119694534.95148  93268473.07548  22777110.2894   22777112.6634   22777110.4124
       229.000         187.000
 117381045.49148  91465730.87148  22336884.9004   22336888.7994   22336885.2804
       236.000         200.000
 128887289.08248 100431639.10148  24526448.0094   24526449.7834   24526448.0614
       214.000         161.000
 111223924.22948  86667986.80548  21165212.8524   21165214.5674   21165212.5044
       247.000         223.000
 117435817.53948  91508427.01848  22347294.8514   22347296.2214   22347295.2894
       236.000         193.000
 122488975.61748  95445947.67048  23308882.8824   23308883.9134   23308882.7554
       233.000         189.000
 112697317.76048  87816079.03548  21445597.6094   21445599.0304   21445597.6464
       245.000         218.000
 133501795.31848  86235172.06048  23501604.5984   23501604.9924   23501603.9564
       225.000         179.000
 09  1 22  1 12  0.0000000  0  9G 9G26G 5G30G15G18G17G12G22
 115383064.86548  72116664.11548  20053738.1604   20053740.4794   20053738.3634
       252.000         228.000
 119792548.73548  93344847.44448  22795761.5814   22795764.2384   22795760.9714
       230.000         188.000
 117291167.67348  91395696.21748  22319782.0204   22319785.7404   22319782.8054
       237.000         200.000
 128777247.46348 100345892.36648  24505507.1714   24505509.8294   24505505.7934
       216.000         160.000
 111287102.47448  86717216.60448  21177235.1974   21177236.9164   21177234.8994
       247.000         222.000
 117455825.61048  91524017.72248  22351102.3364   22351103.9054   22351102.5924
       236.000         192.000
 122511725.44748  95463674.82848  23313211.6134   23313212.8144   23313212.1314
       230.000         188.000
 112628134.85748  87762170.28548  21432432.5034   21432433.7814   21432432.4044
       244.000         218.000
 133468305.10148  86209075.77348  23495231.6714   23495231.8324   23495231.7254
       226.000         179.000
 09  1 22  1 12 30.0000000  0  9G 9G26G 5G30G15G18G17G12G22
 115363217.91548  72101198.96048  20049961.3144   20049963.6824   20049961.5444
       251.000         228.000
 119890803.76648  93421409.81348  22814459.1004   22814461.3384   22814459.2724
       232.000         189.000
 117201596.28148  91325900.35348  22302737.0714   22302740.8724   22302737.6834
       238.000         200.000
 128667321.95948 100260236.11548  24484589.0704   24484592.1134   24484589.2104
       215.000         159.000
 111350705.35548  86766777.28648  21189338.4824   21189340.1434   21189338.2244
       247.000         223.000
 117476381.31648  91540035.14248  22355013.7704   22355015.6574   22355014.4354
       235.000         193.000
 122535025.34548  95481830.61048  23317644.9024   23317646.7964   23317644.5954
       232.000         189.000
 112559356.78248  87708576.99548  21419344.3954   21419345.8394   21419344.3164
       244.000         218.000
 133435335.94348  86183385.51148  23488957.9614   23488958.3534   23488958.7494
       229.000         179.000
 09  1 22  1 13  0.0000000  0  9G 9G26G 5G30G15G18G17G12G22
 115343714.07648  72086001.16448  20046249.9384   20046252.1214   20046250.3064
       251.000         228.000
 119989297.41748  93498158.11248  22833201.7194   22833204.3364   22833201.6914
       231.000         190.000
 117112331.81948  91256343.63848  22285750.9824   22285754.1234   22285751.5544
       238.000         200.000
 128557513.16048 100174670.75648  24463693.0664   24463696.4424   24463693.6894
       216.000         159.000
 111414730.46748  86816666.98248  21201522.0154   21201523.7434   21201521.6944
       246.000         222.000
 117497482.20348  91556477.36948  22359029.2394   22359031.0534   22359029.6474
       236.000         194.000
 122558873.59348  95500413.64748  23322184.0914   23322184.7264   23322183.4654
       235.000         191.000
 112490983.75648  87655299.31948  21406333.2174   21406334.6184   21406332.8904
       245.000         217.000
 133402887.37648  86158100.91448  23482783.5404   23482783.1594   23482785.0824
       229.000         179.000
 09  1 22  1 13 30.0000000  0  9G 9G26G 5G30G15G18G17G12G22
 115324554.68748  72071071.77248  20042603.9704   20042606.2474   20042604.1534
       251.000         228.000
 120088029.05648  93575091.85048  22851989.8554   22851992.3664   22851989.7094
       229.000         188.000
 117023376.53848  91187027.83948  22268823.4544   22268826.3814   22268824.3094
       238.000         199.000
 128447823.71148 100089198.42248  24442819.9004   24442823.3384   24442819.6944
       214.000         160.000
 111479178.10348  86866885.91048  21213785.9194   21213787.6774   21213785.5424
       246.000         222.000
 117519128.37648  91573344.49948  22363148.6304   22363150.0994   22363149.3094
       236.000         194.000
 122583270.68648  95519424.38048  23326825.9914   23326827.5524   23326826.0454
       229.000         188.000
 112423017.83048  87602338.87248  21393399.9004   21393401.1604   21393399.5864
       246.000         218.000
 133370961.11448  86133223.33648  23476707.9534   23476707.6204   23476709.3444
       229.000         179.000
 09  1 22  1 14  0.0000000  0  9G 9G26G 5G30G15G18G17G12G22
 115305741.34548  72056412.02448  20039023.9864   20039026.2514   20039024.2864
       251.000         228.000
 120186998.17948  93652210.64448  22870822.9114   22870825.4084   22870822.7474
       230.000         188.000
 116934733.14148  91117955.06448  22251955.0204   22251957.9614   22251955.6394
       238.000         199.000
 128338256.28748 100003821.19248  24421969.8164   24421973.3694   24421968.6994
       215.000         160.000
 111544048.07848  86917433.94548  21226130.2534   21226132.0294   21226129.8444
       246.000         222.000
 117541319.50348  91590636.28448  22367371.1644   22367372.9054   22367371.6484
       236.000         193.000
 122608217.03448  95538863.10648  23331572.5694   23331574.8664   23331571.4604
       233.000         190.000
 112355460.92648  87549697.13948  21380544.4464   21380545.7424   21380544.3934
       246.000         219.000
 133339559.42348  86108754.45348  23470732.5674   23470731.9404   23470732.3204
       229.000         180.000
 09  1 22  1 14 30.0000000  0  9G 9G26G 5G30G15G18G17G12G22
 115287273.76748  72042021.69848  20035509.6504   20035512.0364   20035509.8794
       251.000         228.000
 120286202.50148  93729512.71448  22889700.8454   22889703.7374   22889701.2384
       227.000         186.000
 116846401.90548  91049125.54348  22235146.1374   22235149.0714   22235146.8314
       239.000         201.000
 128228811.49248  99918539.53548  24401142.9464   24401146.9504   24401143.3684
       218.000         161.000
 111609338.23748  86968309.38848  21238554.6024   21238556.2924   21238554.3304
       246.000         222.000
 117564053.18248  91608350.82748  22371697.2874   22371698.9564   22371697.7194
       236.000         191.000
 122633711.30848  95558728.75348  23336425.6964   23336426.2984   23336425.9884
       235.000         192.000
 112288313.56848  87497374.54148  21367766.6284   21367768.0454   21367766.5544
       246.000         219.000
 133308682.21748  86084694.30048  23464856.2554   23464856.0424   23464855.6924
       227.000         177.000
 09  1 22  1 15  0.0000000  0  9G 9G26G 5G30G15G18G17G12G22
 115269152.04348  72027900.86548  20032061.1674   20032063.5044   20032061.2654
       251.000         228.000
 120385640.09948  93806996.55048  22908623.0634   22908626.1574   22908622.8914
       230.000         187.000
 116758384.08848  90980540.24048  22218396.8694   22218399.7344   22218397.6514
       238.000         201.000
 128119490.91248  99833354.66548  24380340.2894   24380343.8434   24380340.1054
       219.000         166.000
 111675047.51448  87019511.42148  21251058.6304   21251060.4184   21251058.4404
       247.000         222.000
 117587328.01548  91626487.05748  22376126.1114   22376127.8504   22376126.7084
       234.000         190.000
 122659752.62748  95579020.72848  23341380.0144   23341381.9434   23341380.5134
       229.000         186.000
 112221576.36748  87445371.53948  21355066.6084   21355068.4564   21355066.3574
       246.000         219.000
 133278329.34148  86061042.68348  23459080.7704   23459080.0664   23459079.8514
       227.000         179.000
 09  1 22  1 15 30.0000000  0  9G 9G26G 5G30G15G18G17G12G22
 115251376.53748  72014049.82148  20028678.6994   20028681.0184   20028678.9564
       251.000         229.000
 120485309.51648  93884661.03848  22927589.7734   22927592.6314   22927589.5304
       230.000         188.000
 116670681.28548  90912200.40648  22201707.2554   22201710.4934   22201708.0274
       238.000         202.000
 128010296.58448  99748268.17348  24359561.9564   24359565.1284   24359560.1464
       223.000         168.000
 111741174.83448  87071039.19848  21263642.5194   21263644.2024   21263642.3844
       246.000         222.000
 117611142.55648  91645043.83948  22380657.8004   22380659.8964   22380658.4894
       234.000         191.000
 122686340.65148  95599738.68148  23346438.8204   23346441.3294   23346437.8554
       233.000         188.000
 112155250.33348  87393688.92748  21342445.4804   21342447.0304   21342445.4274
       246.000         220.000
 133248502.38248  86037800.89348  23453404.6004   23453404.5584   23453404.6084
       227.000         180.000
 09  1 22  1 16  0.0000000  0  9G 9G26G 5G30G15G18G17G12G22
 115233947.69748  72000468.90048  20025361.9914   20025364.5654   20025362.1774
       250.000         228.000
 120585209.15248  93962504.90948  22946600.0844   22946602.8144   22946599.4844
       230.000         188.000
 116583294.72948  90844107.00248  22185078.0954   22185081.1634   22185078.7654
       237.000         201.000
 127901229.91248  99663281.12348  24338807.6034   24338810.3854   24338808.0654
       223.000         167.000
 111807719.02648  87122891.81348  21276305.4204   21276307.0384   21276305.2474
       246.000         221.000
 117635495.79748  91664020.38648  22385292.3154   22385294.3774   22385292.9114
       236.000         192.000
 122713474.64448  95620882.05048  23351603.6594   23351604.6294   23351603.5624
       235.000         189.000
 112089336.23848  87342327.30848  21329902.4174   21329903.8444   21329902.2574
       246.000         219.000
 133219201.91848  86014969.36848  23447829.2434   23447829.7124   23447829.1594
       230.000         185.000
 09  1 22  1 16 30.0000000  0  9G 9G26G 5G30G15G18G17G12G22
 115216864.44148  71987157.26848  20022111.0884   20022113.4994   20022111.1424
       251.000         228.000
 120685335.86748  94040525.73748  22965653.5774   22965655.9454   22965654.4514
       229.000         186.000
 116496224.43048  90776260.03048  22168509.0604   22168512.2444   22168509.6224
       238.000         202.000
 127792291.04448  99578393.66848  24318076.7194   24318079.3324   24318076.8034
       221.000         163.000
 111874677.67448  87175067.38348  21289047.2394   21289048.7154   21289046.9394
       247.000         221.000
 117660384.70548  91683414.32448  22390028.9434   22390030.2094   22390029.4844
       235.000         192.000
 122741152.56348  95642449.26748  23356870.2184   23356871.5384   23356870.6774
       232.000         186.000
 112023833.84348  87291286.48548  21317437.6864   21317439.0954   21317437.6134
       246.000         219.000
 133190426.87248  85992547.24848  23442353.1954   23442354.0114   23442354.2234
       230.000         184.000
 09  1 22  1 17  0.0000000  0  9G 9G26G 5G30G15G18G17G12G22
 115200128.25648  71974116.08748  20018926.3044   20018928.7634   20018926.4454
       251.000         228.000
 120785689.36948  94118723.26248  22984749.7764   22984752.8184   22984750.1334
       228.000         186.000
 116409472.85748  90708661.42148  22152001.0764   22152004.2294   22152001.3614
       239.000         203.000
 127683482.47448  99493607.74648  24297371.2714   24297373.5214   24297371.5004
       219.000         161.000
 111942050.85848  87227565.95848  21301867.9294   21301869.5894   21301867.7474
       246.000         221.000
 117685809.07648  91703225.50648  22394866.5834   22394868.5294   22394867.1484
       233.000         192.000
 122769374.86048  95664440.67148  23362240.7024   23362241.9964   23362240.4434
       232.000         187.000
 111958745.41848  87240568.24448  21305051.7824   21305053.0184   21305051.6514
       247.000         219.000
 133162179.19348  85970536.06948  23436977.6914   23436978.5464   23436978.5114
       229.000         186.000
 09  1 22  1 17 30.0000000  0  9G 9G26G 5G30G15G18G17G12G22
 115183740.72648  71961346.57148  20015807.9634   20015810.4014   20015808.1204
       251.000         229.000
 120886269.22348  94197097.16348  23003889.9364   23003892.6254   23003889.7924
       228.000         185.000
 116323042.51048  90641313.10648  22135554.0194   22135556.9174   22135554.8754
       240.000         203.000
 127574807.05648  99408925.61848  24276690.4504   24276693.5164   24276689.3294
       215.000         160.000
 112009838.46448  87280387.47648  21314767.3634   21314769.1414   21314767.0514
       245.000         221.000
 117711768.37848  91723453.52448  22399806.7844   22399808.5274   22399806.9874
       235.000         192.000
 122798141.71448  95686856.41648  23367714.3864   23367716.4494   23367714.6744
       229.000         185.000
 111894072.75248  87190173.96648  21292745.0254   21292746.1134   21292744.8034
       247.000         219.000
 133134460.94248  85948937.45848  23431702.9864   23431703.9114   23431702.8794
       231.000         185.000
 09  1 22  1 18  0.0000000  0  9G 9G26G 5G30G15G18G17G12G22
 115167701.11548  71948848.17448  20012755.8534   20012758.0424   20012756.0704
       252.000         229.000
 120987072.84348  94275645.41848  23023072.1934   23023075.1034   23023072.3744
       228.000         186.000
 116236933.77748  90574215.41348  22119168.1364   22119171.1164   22119168.8934
       240.000         205.000
 127466265.61248  99324347.87748  24256035.3694   24256039.3104   24256034.2844
       213.000         160.000
 112078038.24548  87333530.15048  21327745.2794   21327747.1394   21327744.8704
       245.000         220.000
 117738260.60148  91744096.81148  22404847.9934   22404849.4884   22404848.2564
       236.000         191.000
 122827451.54648  95709695.27348  23373291.4754   23373293.8224   23373291.0314
       231.000         188.000
 111829816.24148  87140103.96348  21280517.6374   21280518.5374   21280517.6194
       247.000         219.000
 133107271.73348  85927751.05048  23426529.5714   23426529.8574   23426531.0434
       231.000         186.000
 09  1 22  1 18 30.0000000  0  9G 9G26G 5G30G15G18G17G12G22
 115152010.15448  71936621.44948  20009770.0004   20009772.1014   20009770.2434
       251.000         229.000
 121088098.54748  94354366.74948  23042296.9824   23042299.6734   23042296.9704
       230.000         186.000
 116151148.14048  90507369.47248  22102843.8734   22102846.8274   22102844.6194
       240.000         204.000
 127357859.93748  99239875.97948  24235406.7504   24235410.2624   24235407.1924
       216.000         164.000
 112146649.22748  87386993.25248  21340801.6194   21340803.2494   21340801.2534
       246.000         220.000
 117765284.32148  91765154.24348  22409990.2934   22409992.1274   22409990.5094
       234.000         190.000
 122857303.89648  95732956.82948  23378973.2304   23378974.5794   23378972.4794
       235.000         190.000
 111765976.56848  87090358.77348  21268368.8574   21268370.3884   21268368.6164
       247.000         220.000
 133080612.27048  85906977.43948  23421455.9884   23421456.7344   23421456.0904
       229.000         183.000
 09  1 22  1 19  0.0000000  0  9G 9G26G 5G30G15G18G17G12G22
 115136667.70948  71924666.29548  20006850.3704   20006852.5964   20006850.5854
       251.000         228.000
 121189344.48848  94433259.68648  23061563.2274   23061565.6284   23061562.6734
       228.000         185.000
 116065686.45048  90440775.96348  22086580.7264   22086584.1034   22086581.2454
       240.000         205.000
 127249590.85748  99155510.53248  24214803.9044   24214807.0534   24214804.3824
       220.000         166.000
 112215669.69948  87440775.43348  21353935.6434   21353937.3814   21353935.4934
       245.000         219.000
 117792837.26048  91786624.04948  22415233.4984   22415235.3724   22415234.2354
       234.000         189.000
 122887697.71048  95756640.32648  23384757.0314   23384757.9474   23384757.2504
       233.000         188.000
 111702554.05648  87040938.65348  21256300.0864   21256301.5654   21256299.9364
       247.000         220.000
 133054482.72148  85886616.73948  23416484.1094   23416483.8024   23416483.7404
       231.000         182.000
 09  1 22  1 19 30.0000000  0  9G 9G26G 5G30G15G18G17G12G22
 115121673.83448  71912982.75548  20003997.0774   20003999.3744   20003997.3654
       251.000         228.000
 121290808.91048  94512322.87448  23080871.3834   23080873.8254   23080870.9874
       231.000         185.000
 115980550.06048  90374435.92848  22070379.9424   22070383.1484   22070380.5824
       240.000         206.000
 127141459.94248  99071252.70548  24194227.3844   24194229.9854   24194227.1274
       220.000         164.000
 112285098.55448  87494875.83948  21367147.7904   21367149.1384   21367147.5834
       246.000         220.000
 117820918.35948  91808505.42648  22420577.0154   22420578.6794   22420577.6574
       233.000         189.000
 122918632.02548  95780745.01848  23390643.0364   23390645.0694   23390643.1464
       230.000         185.000
 111639549.93348  86991844.53648  21244310.8884   21244312.3804   21244310.6414
       248.000         221.000
 133028883.67748  85866669.41348  23411612.5554   23411612.3094   23411613.2924
       228.000         181.000
 09  1 22  1 20  0.0000000  0  9G 9G26G 5G30G15G18G17G12G22
 115107029.61948  71901571.68048  20001210.3484   20001212.6274   20001210.5494
       251.000         229.000
 121392490.56448  94591555.34248  23100220.5444   23100222.9984   23100220.8484
       229.000         184.000
 115895740.67848  90308350.71948  22054241.1074   22054244.5084   22054241.9364
       240.000         205.000
 127033469.21148  98987104.10548  24173677.6054   24173679.5724   24173677.2854
       220.000         164.000
 112354935.06348  87549293.89848  21380437.1894   21380438.7324   21380437.1344
       246.000         219.000
 117849526.21548  91830797.26348  22426020.6324   22426022.5914   22426021.1024
       233.000         189.000
 122950106.26248  95805270.40548  23396631.9844   23396634.1754   23396631.6154
       230.000         183.000
 111576965.46348  86943077.41948  21232401.6014   21232402.9464   21232401.5554
       248.000         222.000
 133003816.06548  85847136.19648  23406842.0864   23406842.8704   23406841.7684
       226.000         182.000
 09  1 22  1 20 30.0000000  0  8G26G 5G30G15G18G17G12G22
 121494388.18348  94670956.08348  23119611.1964   23119613.2794   23119611.5574
       230.000         185.000
 115811259.95848  90242521.59048  22038165.0454   22038168.2944   22038165.7174
       241.000         206.000
 126925620.89248  98903066.50248  24153154.4534   24153156.7224   24153154.5734
       222.000         166.000
 112425178.20848  87604028.81248  21393804.0614   21393805.5594   21393803.8804
       245.000         219.000
 117878659.36248  91853498.40148  22431565.0204   22431566.4204   22431565.4814
       234.000         190.000
 122982119.92248  95830216.12048  23402723.8784   23402726.1964   23402723.8174
       233.000         186.000
 111514801.47548  86894637.95548  21220572.1454   21220573.6954   21220571.7964
       247.000         222.000
 132979280.83348  85828017.85248  23402172.5134   23402173.7514   23402172.5864
       227.000         181.000
 09  1 22  1 21  0.0000000  0  9G 9G26G 5G30G15G18G17G12G22
 115078791.42048  71879567.88748  19995836.7734   19995839.1454   19995836.9614
       251.000         228.000
 121596499.35048  94750523.22648  23139042.3014   23139044.4924   23139042.4224
       227.000         184.000
 115727108.40248  90176948.96348  22022151.7054   22022154.6644   22022152.3314
       240.000         205.000
 126817915.47348  98819140.23048  24132658.8244   24132661.2214   24132659.0394
       220.000         167.000
 112495825.98048  87659079.01348  21407247.6864   21407249.4324   21407247.5444
       245.000         219.000
 117908315.54448  91876607.10348  22437208.2194   22437210.0894   22437209.1544
       234.000         190.000
 123014671.77548  95855581.19148  23408919.2704   23408920.7594   23408919.2804
       233.000         187.000
 111453058.40148  86846526.48048  21208822.7244   21208824.1164   21208822.5414
       248.000         221.000
 132955277.82748  85809314.23148  23397605.5014   23397606.4064   23397605.4844
       230.000         184.000
 09  1 22  1 21 30.0000000  0  9G 9G26G 5G30G15G18G17G12G22
 115065197.19148  71868974.98148  19993249.8044   19993252.2384   19993249.9934
       251.000         228.000
 121698822.21348  94830255.30548  23158513.4924   23158516.0704   23158513.4614
       225.000         183.000
 115643286.80148  90111633.43348  22006200.8374   22006203.5634   22006201.4484
       241.000         206.000
 126710353.91748  98735326.05348  24112190.5964   24112193.2964   24112189.8214
       220.000         166.000
 112566876.66048  87714443.16848  21420768.4084   21420769.9224   21420768.1834
       245.000         218.000
 117938492.65648  91900121.72148  22442950.7374   22442952.6804   22442951.3994
       236.000         191.000
 123047760.08448  95881364.28448  23415215.8584   23415217.2134   23415215.7514
       231.000         185.000
 111391736.40048  86798743.10348  21197153.5744   21197154.7644   21197153.4964
       248.000         221.000
 132931806.94448  85791025.21048  23393139.8424   23393139.2944   23393139.7724
       232.000         184.000
 09  1 22  1 22  0.0000000  0  9G 9G26G 5G30G15G18G17G12G22
 115051954.02048  71858655.63048  19990729.7164   19990732.1704   19990729.8314
       251.000         228.000
 121801355.55448  94910151.39948  23178024.4884   23178027.5104   23178024.4224
       227.000         185.000
 115559797.23148  90046576.64648  21990313.2514   21990316.1374   21990314.2604
       241.000         206.000
 126602938.97748  98651626.14648  24091750.4654   24091752.7664   24091750.4614
       218.000         164.000
 112638329.88448  87770121.01248  21434365.4974   21434366.9794   21434365.2414
       245.000         219.000
 117969190.16748  91924041.85348  22448792.5864   22448794.0774   22448793.3364
       234.000         190.000
 123081384.85748  95907565.40648  23421613.9034   23421615.6314   23421613.3834
       230.000         184.000
 111330837.05948  86751289.06548  21185564.8314   21185566.0634   21185564.5284
       248.000         222.000
 132908869.44648  85773151.81148  23388774.8754   23388774.7024   23388775.5744
       231.000         184.000
 09  1 22  1 22 30.0000000  0  9G 9G26G 5G30G15G18G17G12G22
 115039062.06448  71848609.95148  19988276.4214   19988279.0424   19988276.7034
       250.000         229.000
 121904097.62148  94990210.14748  23197576.1384   23197578.7914   23197576.0254
       229.000         184.000
 115476640.86548  89981779.49648  21974488.8964   21974492.0684   21974488.9914
       241.000         206.000
 126495672.09048  98568041.60548  24071337.8444   24071340.5874   24071337.4524
       216.000         163.000
 112710184.11548  87826111.31248  21448038.7564   21448040.3544   21448038.4924
       244.000         218.000
 118000406.29648  91948366.09048  22454732.6794   22454734.2524   22454733.0574
       234.000         189.000
 123115545.10848  95934183.79248  23428114.2244   23428116.3614   23428114.4404
       230.000         185.000
 111270361.27148  86704165.08348  21174056.4474   21174057.9294   21174056.5734
       247.000         222.000
 132886465.78348  85755694.40848  23384511.3834   23384511.8714   23384511.5824
       231.000         183.000
 09  1 22  1 23  0.0000000  0  9G 9G26G 5G30G15G18G17G12G22
 115026521.60348  71838838.16548  19985890.1594   19985892.6034   19985890.3184
       251.000         229.000
 122007046.94748  95070430.40648  23217166.7504   23217169.3854   23217167.3274
       229.000         184.000
 115393818.95948  89917242.96248  21958728.4174   21958731.6404   21958729.3904
       242.000         207.000
 126388554.49448  98484573.41348  24050953.8694   24050956.7404   24050954.0234
       220.000         164.000
 112782438.02948  87882413.06248  21461788.1344   21461789.8384   21461787.7314
       245.000         217.000
 118032139.32448  91973093.11448  22460771.3744   22460772.6074   22460771.9154
       234.000         187.000
 123150239.87048  95961218.68348  23434716.2784   23434718.7584   23434716.0634
       231.000         184.000
 111210309.81548  86657371.75048  21162629.0804   21162630.5424   21162628.7964
       248.000         222.000
 132864596.54048  85738653.42148  23380350.2634   23380349.7584   23380351.0704
       231.000         182.000
 09  1 22  1 23 30.0000000  0  9G 9G26G 5G30G15G18G17G12G22
 115014332.52948  71829340.18348  19983570.7154   19983572.9254   19983570.8704
       251.000         229.000
 122110201.24448  95150810.38148  23236796.0744   23236799.0094   23236796.0584
       231.000         184.000
 115311332.12248  89852967.51148  21943031.9884   21943034.9854   21943032.4244
       243.000         208.000
 126281587.15348  98401222.26548  24030598.8314   24030601.3054   24030598.8924
       219.000         164.000
 112855089.89448  87939024.89648  21475613.3024   21475615.0254   21475613.0754
       244.000         217.000
 118064386.84648  91998221.06048  22466907.9274   22466909.3074   22466908.4624
       233.000         188.000
 123185467.53048  95988668.81448  23441420.3894   23441421.8554   23441420.5394
       230.000         185.000
 111150682.54548  86610908.95748  21151282.4874   21151283.9374   21151282.2574
       248.000         223.000
 132843261.38448  85722028.66148  23376289.8164   23376290.3114   23376289.9494
       230.000         184.000
 09  1 22  1 24  0.0000000  0  9G 9G26G 5G30G15G18G17G12G22
 115002496.09748  71820116.99048  19981318.3434   19981320.6414   19981318.5704
       251.000         229.000
 122213559.78048  95231349.49148  23256464.9224   23256467.4044   23256464.6994
       229.000         182.000
 115229182.56748  89788954.87948  21927399.5934   21927402.2954   21927400.3624
       242.000         208.000
 126174772.70548  98317990.25048  24010272.3314   24010275.3334   24010271.5654
       220.000         164.000
 112928139.21548  87995946.45048  21489514.2094   21489515.6064   21489513.9094
       245.000         217.000
 118097148.21648  92023749.38548  22473141.8714   22473143.5574   22473142.3354
       231.000         186.000
 123221228.02648  96016534.13548  23448225.7974   23448226.6604   23448225.8294
       230.000         182.000
 111091481.65648  86564778.40048  21140017.1184   21140018.3284   21140017.1474
       248.000         223.000
 132822461.68448  85705821.08048  23372332.6824   23372331.8174   23372332.4954
       232.000         184.000
 09  1 22  1 24 30.0000000  0  9G 9G26G 5G30G15G18G17G12G22
 114991013.11448  71811169.21148  19979133.2464   19979135.5134   19979133.5444
       251.000         229.000
 122317120.82648  95312046.42948  23276171.7504   23276174.2854   23276170.8524
       229.000         181.000
 115147371.71348  89725206.18248  21911831.1704   21911834.0754   21911831.8024
       242.000         208.000
 126068112.83748  98234878.70948  23989975.9654   23989978.6414   23989975.7174
       219.000         166.000
 113001584.65848  88053176.66148  21503490.4454   21503491.9504   21503490.3984
       243.000         217.000
 118130421.76948  92049676.82348  22479473.5764   22479475.4604   22479474.0024
       233.000         186.000
 123257520.74048  96044814.17548  23455131.5574   23455132.8304   23455131.7264
       227.000         180.000
 111032707.27748  86518980.19348  21128832.4604   21128833.9564   21128832.1204
       248.000         223.000
 132802198.05448  85690031.24048  23368476.2544   23368476.1914   23368476.2654
       231.000         182.000
 09  1 22  1 25  0.0000000  0  9G 9G26G 5G30G15G18G17G12G22
 114979882.69748  71802496.15648  19977015.0504   19977017.4944   19977015.1654
       251.000         229.000
 122420881.82348  95392899.15448  23295916.9394   23295919.2414   23295916.8474
       229.000         179.000
 115065899.64648  89661721.46148  21896327.5894   21896330.4644   21896327.9894
       243.000         208.000
 125961607.96048  98151887.93548  23969708.5234   23969711.4484   23969708.6774
       220.000         167.000
 113075423.85448  88110713.69248  21517541.4574   21517543.3024   21517541.1544
       243.000         216.000
 118164204.39548  92076000.94448  22485902.1844   22485904.3414   22485902.9354
       232.000         187.000
 123294343.33948  96073507.11048  23462138.3644   23462140.1754   23462138.3574
       229.000         180.000
 110974359.75148  86473514.59348  21117729.3454   21117730.8124   21117729.2794
       249.000         223.000
 132782469.30648  85674658.16748  23364721.4264   23364721.1674   23364722.5254
       230.000         178.000
 09  1 22  1 25 30.0000000  0  9G 9G26G 5G30G15G18G17G12G22
 114969105.93048  71794098.67248  19974964.3584   19974966.7854   19974964.4644
       251.000         229.000
 122524842.01148  95473907.10848  23315699.6434   23315702.0284   23315699.0954
       228.000         179.000
 114984768.60148  89598502.46948  21880888.7894   21880891.8504   21880889.5884
       242.000         208.000
 125855260.73848  98069020.00448  23949471.1924   23949474.0924   23949470.8544
       219.000         168.000
 113149656.65148  88168557.42048  21531667.5884   21531669.3474   21531667.1624
       244.000         217.000
 118198495.69648  92102721.43748  22492427.6764   22492429.6194   22492428.1464
       232.000         188.000
 123331695.82648  96102612.95848  23469246.3464   23469248.0614   23469246.1784
       230.000         182.000
 110916440.73348  86428382.89948  21106707.7504   21106709.1364   21106707.6394
       248.000         224.000
 132763277.07048  85659703.18848  23361069.2244   23361068.4784   23361068.5944
       226.000         179.000
 09  1 22  1 26  0.0000000  0  9G 9G26G 5G30G15G18G17G12G22
 114958683.43448  71785977.24948  19972980.9914   19972983.5034   19972981.3244
       250.000         229.000
 122629000.09448  95555069.24448  23335520.2464   23335522.7434   23335520.6964
       224.000         176.000
 114903980.02348  89535550.34448  21865514.9854   21865518.3454   21865515.6564
       243.000         209.000
 125749073.08048  97986276.37948  23929263.9594   23929267.3194   23929264.0314
       219.000         167.000
 113224282.03048  88226707.06248  21545868.5054   21545869.9104   21545868.3364
       244.000         216.000
 118233294.08348  92129837.05848  22499049.8514   22499051.5544   22499050.0164
       233.000         188.000
 123369577.43148  96132131.09448  23476454.9864   23476456.9414   23476455.3254
       228.000         182.000
 110858951.01548  86383585.72548  21095767.6714   21095769.2014   21095767.5204
       249.000         224.000
 132744621.84248  85645166.63348  23357519.4644   23357519.3124   23357518.7614
       231.000         181.000
 09  1 22  1 26 30.0000000  0  9G 9G26G 5G30G15G18G17G12G22
 114948613.65748  71778130.66848  19971064.7594   19971067.3294   19971064.9194
       251.000         229.000
 122733352.14648  95636382.52248  23355377.7424   23355380.1904   23355377.6784
       226.000         179.000
 114823532.85648  89472864.24448  21850206.2484   21850209.6944   21850206.9414
       242.000         208.000
 125643044.18648  97903656.49948  23909087.4304   23909090.9354   23909086.7924
       218.000         168.000
 113299295.97848  88285159.48748  21560142.9234   21560144.5894   21560142.9144
       243.000         215.000
 118268595.28848  92157344.48148  22505767.7714   22505769.1264   22505768.6964
       233.000         188.000
 123407984.57248  96162058.74148  23483764.1244   23483765.5054   23483763.9984
       228.000         181.000
 110801889.02648  86339121.83548  21084909.2874   21084910.6534   21084909.0734
       249.000         224.000
 132726501.68448  85631047.01848  23354071.5904   23354071.3694   23354072.0174
       231.000         182.000
 09  1 22  1 27  0.0000000  0  9G 9G26G 5G30G15G18G17G12G22
 114938898.51448  71770560.42848  19969215.9734   19969218.6454   19969216.1304
       250.000         229.000
 122837898.14348  95717846.93948  23375272.3514   23375274.6904   23375271.8884
       225.000         180.000
 114743430.06748  89410446.49948  21834963.3054   21834966.5814   21834963.9714
       243.000         209.000
 125537177.30748  97821162.88148  23888941.9394   23888944.8724   23888941.8084
       223.000         169.000
 113374698.98048  88343915.07548  21574491.6474   21574493.5334   21574491.3634
       243.000         215.000
 118304399.40148  92185243.78148  22512580.7714   22512582.4084   22512581.3384
       233.000         187.000
 123446918.35548  96192396.76848  23491172.9304   23491174.3754   23491172.3944
       229.000         181.000
 110745257.18448  86294993.13348  21074132.5674   21074133.8804   21074132.4274
       249.000         224.000
 132708919.07648  85617346.26248  23350726.0544   23350725.6084   23350726.0954
       232.000         182.000
 09  1 22  1 27 30.0000000  0  9G 9G26G 5G30G15G18G17G12G22
 114929538.00648  71763266.52348  19967434.7004   19967437.1814   19967434.8664
       250.000         229.000
 122942635.85848  95799460.71848  23395203.2004   23395206.1814   23395202.5834
       226.000         181.000
 114663672.38548  89348297.65548  21819786.3684   21819789.3954   21819786.7234
       244.000         209.000
 125431473.38048  97738796.19748  23868827.2204   23868829.6134   23868827.7014
       221.000         167.000
 113450489.20048  88402972.38048  21588913.9454   21588915.8174   21588913.7304
       243.000         215.000
 118340703.66148  92213532.80148  22519489.0594   22519490.7944   22519489.6664
       233.000         186.000
 123486377.15948  96223143.90048  23498681.2414   23498682.7394   23498681.0174
       231.000         181.000
 110689056.01948  86251200.01048  21063437.8714   21063439.0884   21063437.6834
       249.000         224.000
 132691873.19748  85604063.77948  23347481.8804   23347481.7384   23347482.8154
       231.000         182.000
 09  1 22  1 28  0.0000000  0  9G 9G26G 5G30G15G18G17G12G22
 114920532.64648  71756249.35948  19965721.1324   19965723.5344   19965721.3434
       250.000         229.000
 123047563.73748  95881222.68548  23415170.4684   23415173.2604   23415169.5934
       227.000         183.000
 114584261.15548  89286418.79548  21804674.8114   21804677.6604   21804675.6534
       242.000         209.000
 125325934.17748  97656557.88048  23848744.0354   23848745.9904   23848743.2084
       220.000         165.000
 113526665.44348  88462330.49448  21603409.9694   21603411.6814   21603409.5694
       243.000         216.000
 118377507.01248  92242210.71848  22526492.5844   22526494.2094   22526493.3344
       232.000         187.000
 123526359.81148  96254299.20348  23506289.9564   23506290.9694   23506289.6274
       228.000         180.000
 110633286.08848  86207742.92548  21052825.0674   21052826.4144   21052825.0414
       249.000         225.000
 132675364.31348  85591199.69148  23344340.0894   23344340.0324   23344339.1604
       230.000         182.000
 09  1 22  1 28 30.0000000  0  9G 9G26G 5G30G15G18G17G12G22
 114911882.89048  71749509.28848  19964075.0724   19964077.5854   19964075.2484
       250.000         229.000
 123152680.46148  95963131.82248  23435173.6374   23435176.4084   23435173.5504
       230.000         185.000
 114505197.74348  89224810.95648  21789629.4804   21789632.2764   21789630.1124
       243.000         209.000
 125220561.57848  97574449.38648  23828691.8024   23828693.7904   23828691.3054
       219.000         164.000
 113603226.75748  88521988.65648  21617979.1604   21617981.0154   21617978.9854
       243.000         216.000
 118414807.62748  92271276.13848  22533590.7304   22533592.2254   22533591.4924
       232.000         185.000
 123566865.30048  96285861.93048  23513997.8894   23513998.9684   23513997.3864
       231.000         182.000
 110577948.39748  86164622.65148  21042294.9034   21042296.1824   21042294.5254
       250.000         225.000
 132659393.22148  85578754.69448  23341301.1144   23341301.1184   23341302.4074
       231.000         183.000
 09  1 22  1 29  0.0000000  0  9G 9G26G 5G30G15G18G17G12G22
 114903588.21348  71743045.90148  19962496.5204   19962499.2994   19962496.6224
       250.000         229.000
 123257983.31848  96045185.99948  23455211.9284   23455214.6924   23455211.6584
       229.000         184.000
 114426482.25748  89163474.22048  21774650.6864   21774653.4554   21774651.3654
       242.000         210.000
 125115356.05548  97492471.09148  23808671.6464   23808674.0814   23808671.4204
       217.000         165.000
 113680170.37248  88581944.71448  21632620.9834   21632622.8724   21632620.7364
       243.000         215.000
 118452602.74448  92300726.86548  22540782.5214   22540784.2814   22540782.9834
       231.000         186.000
 123607891.49248  96317830.39448  23521805.1304   23521806.7334   23521805.3794
       229.000         182.000
 110523042.24248  86121838.64248  21031846.4694   21031847.8454   21031846.5634
       249.000         225.000
 132643959.23548  85566728.19848  23338364.2914   23338364.0844   23338365.1694
       230.000         181.000
 09  1 22  1 29 30.0000000  0  9G 9G26G 5G30G15G18G17G12G22
 114895649.76948  71736860.09648  19960986.0344   19960988.5874   19960986.2234
       250.000         229.000
 123363471.52748  96127384.60248  23475285.7264   23475288.3864   23475285.6874
       231.000         185.000
 114348116.98948  89102410.38548  21759738.0684   21759740.9654   21759738.6494
       242.000         210.000
 125010320.11348  97410624.93948  23788684.0604   23788686.6114   23788683.2564
       220.000         169.000
 113757495.73948  88642198.23648  21647335.5784   21647337.3154   21647335.3454
       243.000         214.000
 118490891.01848  92330561.88048  22548068.6444   22548070.8294   22548068.9494
       231.000         186.000
 123649438.32348  96350204.54448  23529711.2914   23529712.3394   23529711.1834
       232.000         182.000
 110468569.40948  86079392.28248  21021480.4644   21021482.0554   21021480.1314
       249.000         225.000
 132629063.26248  85555120.92448  23335529.2994   23335529.6644   23335529.0514
       229.000         181.000
 09  1 22  1 30  0.0000000  0  9G 9G26G 5G30G15G18G17G12G22
 114888067.41748  71730951.77148  19959542.9804   19959545.5994   19959543.0784
       250.000         228.000
 123469142.82748  96209725.86548  23495394.3114   23495397.1444   23495394.5014
       231.000         186.000
 114270102.17748  89041619.63448  21744892.3754   21744895.1294   21744893.1264
       242.000         210.000
 124905454.56448  97328911.54248  23768729.3744   23768731.6944   23768729.7394
       225.000         172.000
 113835200.87548  88702747.69648  21662122.4124   21662123.9654   21662122.2604
       242.000         214.000
 118529669.86448  92360779.15448  22555448.0614   22555449.8174   22555449.1354
       230.000         185.000
 123691503.69648  96382982.77548  23537715.6704   23537717.2374   23537715.8354
       231.000         183.000
 110414529.70148  86037283.42048  21011197.1714   21011198.6874   21011197.0014
       250.000         226.000
 132614704.67148  85543932.41348  23332797.2494   23332797.1704   23332796.8394
       231.000         182.000
 09  1 22  1 30 30.0000000  0  9G 9G26G 5G30G15G18G17G12G22
 114880841.79548  71725321.41448  19958168.0984   19958170.7054   19958168.3614
       251.000         228.000
 123574995.60648  96292208.54848  23515537.5484   23515540.1234   23515537.7834
       233.000         185.000
 114192439.39448  88981103.19448  21730113.5374   21730116.5154   21730114.1074
       242.000         210.000
 124800760.93248  97247332.11348  23748806.8104   23748809.3094   23748807.0374
       222.000         171.000
 113913284.51948  88763592.08848  21676981.1174   21676982.7544   21676980.8164
       242.000         214.000
 118568937.91648  92391377.62348  22562920.5694   22562922.2384   22562920.9664
       232.000         186.000
 123734086.47148  96416164.17748  23545818.9524   23545820.8554   23545818.5044
       232.000         183.000
 110360924.16448  85995512.87548  21000996.5124   21000997.9054   21000996.4094
       250.000         226.000
 132600884.15648  85533163.18548  23330167.1164   23330167.7054   23330167.0514
       230.000         184.000
 09  1 22  1 31  0.0000000  0  9G 9G26G 5G30G15G18G17G12G22
 114873973.55848  71719969.53948  19956861.0284   19956863.7144   19956861.1594
       250.000         228.000
 123681028.54048  96374831.61548  23535714.8464   23535717.2814   23535715.0454
       232.000         185.000
 114115129.95548  88920862.09048  21715401.8194   21715404.8514   21715402.2814
       242.000         210.000
 124696241.07848  97165888.09048  23728917.3254   23728919.7774   23728916.6964
       222.000         171.000
 113991745.80248  88824730.75248  21691911.8874   21691913.6264   21691911.2384
       243.000         214.000
 118608693.19848  92422355.76148  22570486.1044   22570487.4914   22570486.6104
       233.000         186.000
 123777186.27748  96449748.45448  23554020.8254   23554022.2814   23554020.5634
       231.000         182.000
 110307753.57648  85954081.24848  20990878.5664   20990879.7424   20990878.3954
       250.000         226.000
 132587601.90748  85522813.36648  23327639.8594   23327639.6884   23327639.4614
       231.000         182.000
 09  1 22  1 31 30.0000000  0  9G 9G26G 5G30G15G18G17G12G22
 114867462.58648  71714896.05348  19955622.1804   19955624.6304   19955622.3084
       250.000         228.000
 123787239.21148  96457593.17648  23555926.3104   23555928.7764   23555926.1914
       233.000         185.000
 114038174.41748  88860896.75348  21700757.7524   21700760.7064   21700758.3974
       242.000         210.000
 124591895.87148  97084580.15348  23709060.9664   23709063.1134   23709059.8134
       224.000         169.000
 114070582.48348  88886161.92148  21706914.0194   21706915.8214   21706913.9604
       242.000         214.000
 118648933.08448  92453711.50048  22578143.0524   22578144.9514   22578143.8984
       230.000         184.000
 123820801.11048  96483734.06448  23562320.3554   23562322.0134   23562320.6494
       230.000         182.000
 110255017.84448  85912988.47148  20980843.1534   20980844.3654   20980842.9774
       250.000         226.000
 132574857.33848  85512882.54448  23325214.1514   23325214.0394   23325214.6574
       232.000         183.000
 09  1 22  1 32  0.0000000  0  9G 9G26G 5G30G15G18G17G12G22
 114861309.07648  71710101.10748  19954451.1404   19954453.7344   19954451.2824
       251.000         228.000
 123893625.99848  96540491.97248  23576171.4654   23576173.6194   23576171.9564
       231.000         184.000
 113961573.88348  88801208.03848  21686181.1054   21686184.1974   21686181.7194
       241.000         210.000
 124487727.14448  97003409.71148  23689238.3314   23689240.0934   23689239.3894
       222.000         168.000
 114149792.47048  88947883.98948  21721987.2474   21721988.8514   21721987.1934
       242.000         214.000
 118689655.81548  92485443.48248  22585892.0824   22585894.1794   22585892.4174
       230.000         186.000
 123864929.43048  96518119.74848  23570717.5024   23570718.7384   23570717.3494
       228.000         180.000
 110202717.51248  85872234.97048  20970890.6524   20970891.9644   20970890.5354
       249.000         226.000
 132562650.75848  85503370.92148  23322891.5084   23322892.2514   23322891.9974
       228.000         184.000
 09  1 22  1 32 30.0000000  0  9G 9G26G 5G30G15G18G17G12G22
 114855514.02148  71705585.48148  19953348.5114   19953350.9504   19953348.7404
       251.000         228.000
 124000187.85648  96623527.19048  23596448.8574   23596451.7554   23596448.8064
       230.000         181.000
 113885330.05448  88741797.26848  21671672.4414   21671675.6734   21671672.9624
       243.000         211.000
 124383737.19248  96922378.63148  23669449.2494   23669451.6214   23669449.4464
       221.000         168.000
 114229375.54548  89009896.76648  21737131.1664   21737133.2064   21737131.1014
       241.000         212.000
 118730859.77248  92517550.46348  22593733.2684   22593735.3104   22593733.9584
       231.000         186.000
 123909570.65748  96552905.12848  23579211.9814   23579213.6484   23579211.3994
       225.000         178.000
 110150853.87248  85831821.75548  20961021.3594   20961022.6894   20961021.1964
       251.000         227.000
 132550982.44748  85494278.71548  23320670.8004   23320671.3774   23320670.0004
       232.000         184.000
 09  1 22  1 33  0.0000000  0  9G 9G26G 5G30G15G18G17G12G22
 114850078.04348  71701349.65148  19952314.0104   19952316.5214   19952314.1774
       250.000         228.000
 124106923.30148  96706697.66148  23616760.1634   23616762.3814   23616759.7114
       227.000         178.000
 113809444.40748  88682665.59248  21657232.0694   21657235.1284   21657232.7324
       243.000         211.000
 124279927.63848  96841488.08348  23649695.0994   23649697.2034   23649694.4124
       223.000         171.000
 114309330.39348  89072199.23748  21752346.1474   21752347.8794   21752345.6114
       242.000         213.000
 118772543.33048  92550031.14048  22601665.3364   22601667.4094   22601665.7194
       232.000         186.000
 123954723.81348  96588089.40348  23587804.3704   23587806.2484   23587803.9034
       229.000         179.000
 110099427.97648  85791749.63248  20951235.6074   20951236.6494   20951235.5694
       251.000         227.000
 132539852.77348  85485606.21948  23318552.9524   23318553.7284   23318553.3404
       229.000         184.000
 09  1 22  1 33 30.0000000  0  9G 9G26G 5G30G15G18G17G12G22
 114845000.61848  71697393.21348  19951347.8614   19951350.3464   19951348.0184
       251.000         229.000
 124213829.61248  96790001.28548  23637103.4844   23637106.0554   23637103.6444
       226.000         174.000
 113733916.76248  88623812.89248  21642859.4944   21642862.6414   21642860.0014
       243.000         212.000
 124176298.91048  96760738.43848  23629975.8134   23629978.0594   23629975.6974
       226.000         174.000
 114389654.42148  89134789.38648  21767631.5704   21767633.0754   21767631.5594
       242.000         213.000
 118814703.22948  92582883.00648  22609688.4164   22609690.5754   22609689.1184
       231.000         186.000
 124000386.41048  96623670.65148  23596493.6544   23596494.7384   23596493.6654
       227.000         178.000
 110048438.92848  85752017.91248  20941532.4094   20941533.7374   20941532.2004
       250.000         226.000
 132529260.93848  85477352.82248  23316538.0904   23316537.9074   23316538.2494
       231.000         183.000
 09  1 22  1 34  0.0000000  0  9G 9G26G 5G30G15G18G17G12G22
 114840281.48348  71693715.97048  19950449.7784   19950452.3404   19950449.9724
       250.000         228.000
 124320904.65348  96873436.38348  23657478.7474   23657482.2634   23657478.6004
       223.000         173.000
 113658748.06248  88565239.88348  21628555.5814   21628558.2524   21628556.3764
       242.000         211.000
 124072852.11648  96680130.59548  23610289.9384   23610292.9514   23610290.3754
       225.000         174.000
 114470345.70048  89197665.70848  21782986.4334   21782988.1434   21782986.0714
       242.000         213.000
 118857337.24548  92616104.31248  22617801.1524   22617803.6824   22617801.7384
       231.000         186.000
 124046556.96148  96659647.70348  23605280.1514   23605281.1374   23605280.0514
       228.000         180.000
 109997886.97948  85712626.78748  20931912.6094   20931914.0664   20931912.4094
       250.000         227.000
 132519206.49348  85469518.21348  23314624.1614   23314624.3304   23314623.9644
       230.000         183.000
 09  1 22  1 34 30.0000000  0  9G 9G26G 5G30G15G18G17G12G22
 114835921.68248  71690318.71548  19949620.1694   19949622.5354   19949620.3324
       251.000         228.000
 124428147.27948  96957002.06148  23677886.9304   23677889.6554   23677886.6514
       223.000         171.000
 113583939.79648  88506947.73448  21614319.8844   21614322.7414   21614320.2694
       243.000         212.000
 123969589.04248  96599665.87548  23590639.4344   23590642.3674   23590639.5344
       223.000         171.000
 114551402.99448  89260827.23648  21798411.1244   21798412.8144   21798410.9364
       240.000         211.000
 118900443.66248  92649693.71748  22626004.0064   22626006.1724   22626004.7364
       229.000         184.000
 124093234.20848  96696019.57148  23614162.4614   23614164.6444   23614162.4394
       228.000         182.000
 109947772.97048  85673576.91948  20922376.2524   20922377.7254   20922376.1324
       250.000         227.000
 132509689.82948  85462102.60048  23312813.9104   23312813.7054   23312813.6764
       230.000         184.000
 09  1 22  1 35  0.0000000  0  9G 9G26G 5G30G15G18G17G12G22
 114831921.63148  71687201.79048  19948859.0214   19948861.3554   19948859.2584
       251.000         228.000
 124535555.62448  97040696.89148  23698325.7294   23698328.2644   23698326.6024
       220.000         166.000
 113509493.06048  88448937.30348  21600153.1534   21600155.9194   21600153.8984
       241.000         211.000
 123866511.55448  96519345.78248  23571024.7614   23571027.2374   23571023.4074
       227.000         174.000
 114632825.03648  89324272.97848  21813905.1324   21813906.9224   21813904.7994
       241.000         211.000
 118944020.47348  92683649.65948  22634296.2544   22634298.4074   22634296.5934
       230.000         183.000
 124140417.08248  96732785.46848  23623141.3614   23623143.1984   23623141.1094
       231.000         183.000
 109898097.38348  85634868.67748  20912923.5634   20912924.8574   20912923.6644
       251.000         228.000
 132500710.84348  85455105.99448  23311104.5544   23311105.0684   23311105.0684
       229.000         183.000
 09  1 22  1 35 30.0000000  0  9G 9G26G 5G30G15G18G17G12G22
 114828281.32548  71684365.18948  19948166.1094   19948168.7374   19948166.2444
       250.000         229.000
 124643127.82148  97124519.36348  23718796.2204   23718798.7604   23718796.4734
       220.000         166.000
 113435408.55548  88391209.13348  21586055.0704   21586058.0924   21586055.3784
       243.000         211.000
 123763620.64448  96439171.05648  23551445.4054   23551447.4714   23551445.4904
       223.000         170.000
 114714609.82148  89388001.37648  21829468.3724   21829470.1374   21829468.1994
       241.000         211.000
 118988065.24048  92717970.24648  22642678.0714   22642679.7684   22642678.1754
       230.000         182.000
 124188103.90948  96769944.04948  23632215.6214   23632217.5914   23632215.8774
       228.000         183.000
 109848860.49848  85596502.27648  20903554.1034   20903555.2444   20903554.0194
       250.000         227.000
 132492269.03848  85448527.95148  23309498.3254   23309498.9544   23309498.6644
       230.000         185.000
 09  1 22  1 36  0.0000000  0  9G 9G26G 5G30G15G18G17G12G22
 114825001.13348  71681809.19448  19947542.0664   19947544.5764   19947542.2434
       251.000         229.000
 124750862.14048  97208468.19948  23739297.3704   23739299.9214   23739297.1724
       220.000         163.000
 113361687.38148  88333764.06748  21572026.5174   21572029.6374   21572027.0644
       243.000         211.000
 123660917.62148  96359142.75748  23531900.8624   23531903.6164   23531900.3684
       226.000         171.000
 114796755.87548  89452011.28848  21845100.3224   21845101.6644   21845100.0874
       241.000         211.000
 119032575.87348  92752653.85948  22651147.9884   22651149.3354   22651148.8094
       230.000         181.000
 124236293.28348  96807494.20748  23641385.6904   23641387.4244   23641385.4024
       229.000         182.000
 109800062.77548  85558478.08348  20894268.0114   20894269.3494   20894267.9104
       250.000         228.000
 132484364.42048  85442368.52048  23307993.9274   23307994.7124   23307993.7234
       232.000         185.000
 09  1 22  1 36 30.0000000  0  9G 9G26G 5G30G15G18G17G12G22
 114822082.23348  71679534.72748  19946986.5844   19946989.1564   19946986.7684
       251.000         229.000
 124858757.62848  97292542.60948  23759829.1974   23759831.9754   23759830.0484
       217.000         160.000
 113288331.33848  88276603.51748  21558067.2004   21558070.3004   21558067.6614
       242.000         211.000
 123558405.24448  96279262.99348  23512393.8854   23512396.1934   23512393.8124
       225.000         172.000
 114879262.37448  89516302.06748  21860800.6484   21860802.3814   21860800.7074
       240.000         211.000
 119077551.05448  92787699.44448  22659706.7524   22659707.8864   22659707.3614
       228.000         181.000
 124284984.30348  96845435.26748  23650651.0774   23650652.7274   23650650.6194
       228.000         181.000
 109751705.27548  85520796.91848  20885065.9994   20885067.2094   20885065.8634
       250.000         228.000
 132476997.65948  85436628.16548  23306592.7384   23306592.8394   23306592.3694
       231.000         186.000
 09  1 22  1 37  0.0000000  0  9G 9G26G 5G30G15G18G17G12G22
 114819522.94248  71677540.47148  19946499.6424   19946502.1174   19946499.8124
       251.000         229.000
 124966810.62548  97376739.74448  23780391.1424   23780393.6624   23780390.6244
       214.000         157.000
 113215339.52348  88219726.77248  21544177.4224   21544180.5754   21544177.9254
       243.000         211.000
 123456082.83848  96199531.25548  23492922.1984   23492924.9374   23492922.6264
       223.000         172.000
 114962125.75148  89580870.92048  21876569.0974   21876570.9744   21876568.5604
       240.000         211.000
 119122986.25248  92823103.46348  22668352.8884   22668354.4764   22668353.4144
       230.000         182.000
 124334173.62848  96883764.62348  23660011.6034   23660013.4594   23660011.9614
       228.000         178.000
 109703786.71948  85483457.78848  20875947.3084   20875948.5644   20875947.1584
       250.000         228.000
 132470166.66748  85431305.31648  23305292.6004   23305292.6464   23305293.5124
       230.000         184.000
 09  1 22  1 37 30.0000000  0  9G 9G26G 5G30G15G18G17G12G22
 114817324.80748  71675827.64148  19946081.2134   19946083.8134   19946081.2244
       250.000         228.000
 125075020.56548  97461059.17348  23800982.7864   23800985.4654   23800981.8344
       213.000         153.000
 113142714.13148  88163135.55948  21530357.4664   21530360.5144   21530357.9644
       243.000         212.000
 123353952.84348  96119949.46348  23473487.6084   23473490.1974   23473487.2434
       223.000         174.000
 115045345.75048  89645717.66648  21892405.3594   21892407.2664   21892404.6724
       241.000         211.000
 119168880.35048  92858865.08448  22677086.2804   22677087.7344   22677086.9064
       228.000         180.000
 124383861.29948  96922482.29048  23669466.8324   23669467.4024   23669466.5774
       228.000         178.000
 109656308.95448  85446462.13448  20866912.6404   20866913.9114   20866912.4364
       250.000         228.000
 132463872.49548  85426400.75748  23304094.9624   23304094.7344   23304095.3824
       230.000         185.000
 09  1 22  1 38  0.0000000  0  9G 9G26G 5G30G15G18G17G12G22
 114815489.02348  71674397.16048  19945731.8714   19945734.3384   19945732.1194
       251.000         228.000
 125183386.39648  97545500.08248  23821604.1904   23821606.1154   23821604.4694
       211.000         152.000
 113070456.78148  88106831.14148  21516607.5544   21516610.5264   21516608.3044
       244.000         213.000
 123252017.49748  96040519.33948  23454090.0054   23454092.7624   23454089.4624
       226.000         175.000
 115128921.09248  89710841.30348  21908309.2254   21908311.0724   21908309.2604
       240.000         210.000
 119215232.33648  92894983.51348  22685906.1754   22685908.2044   22685906.5764
       228.000         179.000
 124434046.19948  96961587.38248  23679016.6134   23679017.3574   23679016.4464
       229.000         180.000
 109609272.48848  85409810.34948  20857961.7984   20857963.0474   20857961.5204
       250.000         228.000
 132458115.39048  85421914.70148  23302999.2104   23302999.4214   23302999.2834
       229.000         183.000
 09  1 22  1 38 30.0000000  0  9G 9G26G 5G30G15G18G17G12G22
 114814014.73348  71673248.35748  19945451.3654   19945453.8334   19945451.6054
       250.000         228.000
 125291905.17648  97630060.15748  23842254.2694   23842257.8464   23842255.1914
       207.000         149.000
 112998567.30848  88050813.38248  21502927.2054   21502930.2444   21502927.8834
       243.000         212.000
 123150277.36048  95961241.35048  23434729.6774   23434732.4134   23434730.1894
       225.000         176.000
 115212849.34348  89776239.93348  21924280.0564   21924282.0604   21924279.3514
       240.000         210.000
 119262038.77848  92931456.04148  22694813.3544   22694815.3324   22694813.7894
       229.000         180.000
 124484725.87248  97001078.05748  23688660.9534   23688663.0964   23688660.4764
       231.000         182.000
 109562676.64248  85373501.90748  20849094.8394   20849096.0954   20849094.7754
       250.000         228.000
 132452894.14448  85417846.18248  23302005.7904   23302005.9524   23302005.6434
       229.000         182.000
 09  1 22  1 39  0.0000000  0  9G 9G26G 5G30G15G18G17G12G22
 114812902.24448  71672381.48148  19945239.7204   19945242.2394   19945239.8964
       251.000         228.000
 125400575.22448  97714738.12448  23862934.5494   23862936.4574   23862934.1564
       210.000         146.000
 112927046.88748  87995083.20648  21489316.9094   21489320.3074   21489317.2234
       243.000         212.000
 123048733.75848  95882116.48648  23415406.5514   23415408.8074   23415406.7144
       226.000         175.000
 115297128.78948  89841912.23348  21940317.9674   21940319.8264   21940317.6864
       241.000         209.000
 119309297.44548  92968280.96848  22703806.0154   22703808.0014   22703806.4714
       229.000         181.000
 124535898.91248  97040953.18748  23698399.2824   23698401.6274   23698399.6684
       232.000         182.000
 109516522.07148  85337537.31248  20840311.9744   20840313.2754   20840311.5244
       250.000         228.000
 132448208.48248  85414195.02148  23301113.5094   23301114.3574   23301114.1024
       228.000         183.000
 09  1 22  1 39 30.0000000  0  9G 9G26G 5G30G15G18G17G12G22
 114812152.19548  71671797.02148  19945096.9454   19945099.4804   19945097.1374
       250.000         228.000
 125509395.04048  97799532.76648  23883641.7754   23883643.9744   23883641.7214
       200.000         143.000
 112855896.59948  87939641.43048  21475777.6954   21475780.7984   21475778.3564
       243.000         212.000
 122947388.45448  95803146.12948  23396121.9184   23396123.5404   23396121.1224
       227.000         176.000
 115381757.98148  89907857.06448  21956422.2074   21956424.2334   21956422.1434
       239.000         208.000
 119357006.10048  93005456.53048  22712885.1114   22712886.8974   22712885.7414
       230.000         183.000
 124587563.62248  97081211.38048  23708230.5824   23708230.5454   23708231.2064
       230.000         179.000
 109470809.14848  85301916.86048  20831613.0684   20831614.4164   20831613.0074
       250.000         228.000
 132444058.37048  85410961.17148  23300324.0284   23300324.6304   23300323.5544
       230.000         183.000
 09  1 22  1 40  0.0000000  0  9G 9G26G 5G30G15G18G17G12G22
 114811764.57248  71671494.97648  19945023.2054   19945025.7064   19945023.2764
       250.000         228.000
 125618362.69648  97884442.64348  23904376.5334   23904379.0664   23904376.7544
       204.000         139.000
 112785117.13148  87884488.59748  21462308.9794   21462311.6184   21462309.5614
       243.000         212.000
 122846242.44948  95724331.07048  23376874.3304   23376875.8324   23376874.6464
       225.000         173.000
 115466734.94148  89974072.86348  21972592.6454   21972594.9704   21972592.5184
       239.000         209.000
 119405162.40148  93042980.91148  22722049.1914   22722050.9054   22722049.6974
       230.000         184.000
 124639718.27848  97121851.34848  23718154.8804   23718155.8384   23718155.4094
       230.000         181.000
 109425538.00748  85266640.65148  20822998.2354   20822999.3394   20822998.0024
       250.000         228.000
 132440443.31248  85408144.24348  23299635.7904   23299636.7644   23299636.9344
       226.000         183.000
 09  1 22  1 40 30.0000000  0  9G 9G26G 5G30G15G18G17G12G22
 114811740.14148  71671475.93448  19945018.5274   19945021.0604   19945018.6704
       250.000         228.000
 125727476.41448  97969466.31448  23925141.5864   23925142.9914   23925142.9054
       206.000         136.000
 112714709.65548  87829625.63548  21448910.7994   21448913.7644   21448911.4954
       244.000         212.000
 122745297.45248  95645672.65148  23357664.8154   23357666.5904   23357664.0084
       227.000         176.000
 115552058.30548  90040558.59848  21988829.2504   21988831.4734   21988828.9774
       239.000         209.000
 119453764.25448  93080852.46448  22731297.8354   22731299.8834   22731298.5624
       230.000         184.000
 124692361.55848  97162872.12548  23728172.5044   23728175.9004   23728172.8204
       228.000         183.000
 109380709.16048  85231709.08648  20814467.6064   20814468.6984   20814467.4204
       250.000         229.000
 132437363.21048  85405744.15148  23299050.3484   23299050.6084   23299049.4204
       230.000         186.000
 09  1 22  1 41  0.0000000  0  9G 9G26G 5G30G15G18G17G12G22
 114812079.11848  71671740.07148  19945083.0344   19945085.5634   19945083.2844
       251.000         228.000
 125836734.60048  98054602.56948  23945930.1624   23945934.5084   23945931.4044
       196.000         134.000
 112644675.27948  87775053.40348  21435583.7844   21435586.7994   21435584.3824
       244.000         212.000
 122644554.97248  95567172.03748  23338493.9364   23338496.1424   23338494.2894
       223.000         175.000
 115637726.40348  90107312.95648  22005131.4964   22005133.6154   22005130.7804
       240.000         209.000
 119502809.39148  93119069.43248  22740631.0864   22740632.6964   22740631.6754
       231.000         184.000
 124745491.97048  97204272.48948  23738282.6244   23738286.3004   23738282.6704
       229.000         180.000
 109336322.98748  85197122.45748  20806021.4224   20806022.5904   20806021.4564
       250.000         229.000
 132434817.67148  85403760.63048  23298566.0824   23298566.4764   23298566.8944
       230.000         186.000
 09  1 22  1 41 30.0000000  0  9G 9G26G 5G30G15G18G17G12G22
 114812782.36948  71672288.06048  19945216.9824   19945219.2564   19945217.1244
       251.000         228.000
 125946136.18548  98139850.52748  23966749.3784   23966752.6444   23966751.1404
       198.000         133.000
 112575015.42148  87720773.00148  21422328.0064   21422330.8154   21422328.5094
       245.000         212.000
 122544017.12748  95488830.87648  23319361.9464   23319364.6694   23319360.8994
       226.000         177.000
 115723738.09148  90174335.04748  22021499.2324   22021500.9954   22021499.3284
       240.000         208.000
 119552295.94148  93157630.35448  22750048.2204   22750049.5144   22750048.6564
       231.000         183.000
 124799108.62348  97246051.68848  23748485.5684   23748486.8494   23748485.0354
       226.000         175.000
 109292380.27048  85162881.38848  20797659.2454   20797660.5504   20797659.0424
       250.000         229.000
 132432807.00148  85402193.87248  23298183.2314   23298183.8724   23298182.5554
       231.000         183.000
 09  1 22  1 42  0.0000000  0  9G 9G26G 5G30G15G18G17G12G22
 114813849.58048  71673119.64848  19945420.1064   19945422.4374   19945420.3334
       250.000         229.000
 126055678.42548  98225208.09848  23987594.7424   23987598.7824   23987596.3514
       201.000         133.000
 112505730.13548  87666784.47148  21409143.4724   21409146.3434   21409144.3444
       243.000         212.000
 122443684.50548  95410649.62948  23300269.4254   23300272.5504   23300269.2554
       226.000         177.000
 115810090.65348  90241622.75148  22037931.4664   22037933.2704   22037931.1244
       239.000         207.000
 119602220.85548  93196532.87148  22759548.2724   22759549.8754   22759548.7534
       227.000         181.000
 124853208.88048  97288207.70148  23758780.7554   23758780.4614   23758780.2984
       228.000         177.000
 109248880.37748  85128985.37648  20789381.3304   20789382.6804   20789381.0814
       250.000         229.000
 132431329.87548  85401042.87548  23297901.8884   23297902.7334   23297903.1344
       227.000         185.000
 09  1 22  1 42 30.0000000  0  9G 9G26G 5G30G15G18G17G12G22
 114815280.16048  71674234.38348  19945692.2064   19945694.7144   19945692.2154
       251.000         229.000
 126165358.81048  98310673.35548  24008467.7574   24008466.6814   24008469.4334
       201.000         130.000
 112436819.43548  87613087.84748  21396029.8674   21396033.0924   21396030.5084
       244.000         212.000
 122343557.62548  95332628.70148  23281215.8334   23281219.1314   23281216.5374
       225.000         178.000
 115896782.13948  90309174.55948  22054428.2444   22054429.7384   22054427.7124
       240.000         207.000
 119652580.98048  93235774.52248  22769130.6974   22769133.2274   22769131.8074
       226.000         179.000
 124907790.49148  97330738.81248  23769167.3844   23769167.9794   23769167.3414
       227.000         179.000
 109205822.75048  85095433.98648  20781187.8244   20781189.0084   20781187.7584
       250.000         229.000
 132430384.90948  85400306.51648  23297722.0124   23297722.8504   23297721.8444
       227.000         184.000
 09  1 22  1 43  0.0000000  0  9G 9G26G 5G30G15G18G17G12G22
 114817075.77348  71675633.55948  19946033.9944   19946036.2804   19946034.1934
       251.000         228.000
 126275176.74648  98396245.80748  24029365.5564   24029365.1014   24029364.1454
       190.000         127.000
 112368285.54848  87559684.82048  21382988.3554   21382991.5064   21382989.0134
       244.000         212.000
 122243639.04848  95254770.09348  23262201.4924   23262204.9204   23262200.6714
       225.000         178.000
 115983811.66548  90376989.77448  22070989.5504   22070991.0114   22070989.2034
       239.000         207.000
 119703375.03648  93275354.28348  22778796.4504   22778798.9524   22778796.6504
       227.000         179.000
 124962852.58648  97373644.34848  23779645.3194   23779646.8204   23779644.9984
       227.000         180.000
 109163209.09548  85062228.55148  20773078.7534   20773079.9044   20773078.6134
       250.000         229.000
 132429972.92348  85399985.47848  23297643.7604   23297644.4114   23297643.7894
       231.000         185.000
 09  1 22  1 43 30.0000000  0  9G 9G26G 5G30G15G18G17G12G22
 114819236.37748  71677317.14148  19946445.2664   19946447.4574   19946445.4134
       250.000         228.000
 126385130.08048  98481923.76848  24050289.3364   24050289.9614   24050289.2534
       189.000         124.000
 112300128.91848  87506575.76848  21370018.7374   21370021.6604   21370019.4114
       245.000         212.000
 122143929.78148  95177074.58148  23243227.5374   23243230.6954   23243226.8134
       227.000         178.000
 116071177.11148  90445066.72548  22087614.6114   22087616.4194   22087614.1534
       239.000         206.000
 119754600.23048  93315270.00148  22788544.8374   22788546.5694   22788545.3664
       227.000         179.000
 125018393.44448  97416922.96248  23790213.7124   23790216.8644   23790213.7994
       226.000         182.000
 109121039.16448  85029368.87848  20765053.9394   20765055.3444   20765053.8374
       252.000         229.000
 132430093.66448  85400079.55848  23297666.8054   23297667.2034   23297667.2374
       230.000         183.000
 09  1 22  1 44  0.0000000  0  8G 9G 5G30G15G18G17G12G22
 114821761.36248  71679284.66048  19946925.5944   19946928.0214   19946925.8524
       250.000         228.000
 112232349.85848  87453760.91848  21357120.9454   21357123.5704   21357121.2674
       245.000         212.000
 122044430.86748  95099542.95348  23224293.7484   23224295.9114   23224294.1694
       225.000         175.000
 116158876.08048  90513403.57948  22104302.8674   22104304.9604   22104302.7474
       238.000         206.000
 119806253.61648  93355519.37848  22798374.0644   22798375.6074   22798374.7204
       228.000         179.000
 125074410.82748  97460572.89548  23800873.7004   23800877.2094   23800873.3904
       224.000         181.000
 109079312.59648  84996854.68248  20757113.7454   20757114.9014   20757113.6464
       252.000         230.000
 132430745.30648  85400587.32648  23297790.8594   23297791.3894   23297791.2804
       229.000         182.000
 09  1 22  1 44 30.0000000  0  8G 9G 5G30G15G18G17G12G22
 114824651.02948  71681536.34948  19947475.5274   19947477.8734   19947475.5624
       250.000         228.000
 112164948.71548  87401240.55148  21344294.8794   21344297.3624   21344295.7764
       244.000         212.000
 121945143.07448  95022175.85848  23205399.4324   23205401.8744   23205398.7874
       223.000         175.000
 116246906.72148  90581998.89648  22121054.4154   22121056.3384   22121054.1294
       238.000         206.000
 119858332.50948  93396100.31448  22808284.3534   22808285.9894   22808284.8034
       229.000         180.000
 125130902.40948  97504592.32348  23811623.5784   23811626.7494   23811623.2084
       224.000         177.000
 109038028.77348  84964685.48448  20749257.8254   20749258.8804   20749257.8704
       252.000         230.000
 132431927.04548  85401508.16348  23298015.8574   23298016.5074   23298016.0744
       230.000         184.000
 09  1 22  1 45  0.0000000  0  9G 9G26G 5G30G15G18G17G12G22
 114827907.90848  71684074.17648  19948095.2474   19948097.6294   19948095.4494
       250.000         228.000
 136715698.22958  88739488.69158  24113207.3285   24113210.4315   24113205.6135
       193.000         127.000
 112097928.79248  87349017.22548  21331541.2604   21331543.9974   21331541.7414
       244.000         212.000
 121846070.28548  94944976.30348  23186546.7764   23186548.9754   23186546.9504
       225.000         178.000
 116335269.36948  90650852.89748  22137869.3974   22137871.3754   22137868.8644
       237.000         206.000
 119910836.56448  93437012.56848  22818275.9474   22818277.0924   22818276.1944
       230.000         181.000
 125187868.61748  97548981.57148  23822464.5374   23822465.7504   23822464.3184
       225.000         176.000
 108997190.53148  84932863.49448  20741486.4654   20741487.6834   20741486.2334
       253.000         230.000
 132433640.84348  85402843.58148  23298342.0104   23298342.3604   23298342.1844
       230.000         183.000
 09  1 22  1 45 30.0000000  0  9G 9G26G 5G30G15G18G17G12G22
 114831530.69748  71686897.12948  19948784.5924   19948786.9884   19948784.8334
       251.000         228.000
 136826174.84048  88825574.40648  24134232.7474   24134234.0184   24134228.7804
       204.000         134.000
 112031289.29648  87297090.34448  21318859.8484   21318863.0134   21318860.4774
       243.000         212.000
 121747212.43348  94867944.21948  23167735.1494   23167737.2054   23167734.6534
       228.000         179.000
 116423960.52948  90719962.89648  22154746.7754   22154748.8524   22154747.0294
       237.000         205.000
 119963761.84748  93478253.03848  22828347.3324   22828348.8564   22828348.4204
       230.000         180.000
 125245306.25148  97593738.13648  23833394.4814   23833395.1234   23833394.4214
       224.000         174.000
 108956796.74048  84901387.82348  20733799.8004   20733801.0334   20733799.6274
       252.000         231.000
 132435884.63348  85404591.99348  23298768.9234   23298769.3624   23298768.4874
       230.000         183.000
 09  1 22  1 46  0.0000000  0  9G 9G26G 5G30G15G18G17G12G22
 114835519.32548  71690005.14948  19949543.6804   19949545.9934   19949543.8174
       251.000         228.000
 136936777.59948  88911758.36948  24155279.7404   24155282.7804   24155279.8914
       199.000         137.000
 111965030.94548  87245460.46648  21306251.3394   21306254.4834   21306251.6554
       244.000         212.000
 121648570.58548  94791080.46348  23148964.4574   23148966.4564   23148964.0894
       228.000         180.000
 116512978.41648  90789327.47848  22171686.3984   22171688.2624   22171685.8094
       238.000         205.000
 120017105.90548  93519819.81648  22838497.9704   22838499.9164   22838498.2554
       227.000         180.000
 125303213.67348  97638860.79748  23844414.1764   23844414.6624   23844413.8154
       221.000         175.000
 108916847.00148  84870258.17048  20726197.5594   20726198.8654   20726197.4934
       252.000         231.000
 132438657.50648  85406752.66248  23299295.9434   23299296.4244   23299296.2214
       230.000         181.000
 09  1 22  1 46 30.0000000  0  9G 9G26G 5G30G15G18G17G12G22
 114839872.98748  71693397.61148  19950372.3314   19950374.4544   19950372.5284
       251.000         228.000
 137047503.31548  88998038.07148  24176350.3344   24176352.6174   24176350.0184
       197.000         136.000
 111899153.25848  87194127.22248  21293715.3594   21293718.4624   21293715.7024
       245.000         213.000
 121550144.59448  94714384.90248  23130234.6154   23130236.8014   23130234.4774
       228.000         179.000
 116602319.89048  90858944.21648  22188687.7264   22188689.3984   22188687.7164
       239.000         205.000
 120070864.60348  93561709.69048  22848727.7154   22848729.9514   22848727.8114
       227.000         180.000
 125361587.86948  97684347.17548  23855521.9974   23855523.4174   23855521.2994
       223.000         175.000
 108877340.36348  84839473.78448  20718679.6774   20718680.9504   20718679.5374
       252.000         231.000
 132441957.48848  85409324.09048  23299924.3114   23299924.8014   23299924.7784
       229.000         183.000
 09  1 22  1 47  0.0000000  0  9G 9G26G 5G30G15G18G17G12G22
 114844593.78348  71697076.15748  19951270.5544   19951272.7914   19951270.7614
       251.000         228.000
 137158351.91548  89084413.58148  24197443.8264   24197445.4434   24197445.1264
       200.000         137.000
 111833658.71048  87143092.51648  21281252.4684   21281255.1244   21281253.2214
       245.000         213.000
 121451937.74348  94637860.09348  23111546.4024   23111548.6334   23111545.9994
       226.000         180.000
 116691984.81548  90928812.98248  22205750.3484   22205751.9424   22205750.4904
       238.000         205.000
 120125037.57348  93603922.37948  22859037.2184   22859038.8204   22859037.9304
       229.000         180.000
 125420428.45248  97730196.98548  23866719.2734   23866721.1034   23866718.8974
       220.000         174.000
 108838278.46148  84809035.93748  20711246.4504   20711247.6334   20711246.2174
       252.000         230.000
 132445785.98748  85412307.32148  23300653.0624   23300653.0274   23300653.6974
       229.000         182.000
 09  1 22  1 47 30.0000000  0  9G 9G26G 5G30G15G18G17G12G22
 114849681.04248  71701040.25748  19952238.5514   19952240.9034   19952238.7334
       250.000         228.000
 137269320.77148  89170882.84548  24218560.4334   24218562.6144   24218558.4444
       206.000         131.000
 111768547.26148  87092356.33248  21268862.2374   21268864.8224   21268862.7494
       245.000         213.000
 121353950.50148  94561506.41748  23092899.6904   23092902.6854   23092899.0514
       227.000         180.000
 116781970.86948  90998931.97948  22222874.2434   22222875.9894   22222873.7284
       239.000         206.000
 120179621.38848  93646455.21348  22869424.0484   22869426.0664   22869424.8644
       229.000         179.000
 125479732.95348  97776408.31748  23878004.1904   23878006.7774   23878003.8674
       222.000         175.000
 108799660.54848  84778944.07048  20703897.6774   20703898.9094   20703897.6454
       251.000         230.000
 132450141.54648  85415701.26048  23301481.5694   23301481.6904   23301481.5234
       229.000         181.000
 09  1 22  1 48  0.0000000  0  9G 9G26G 5G30G15G18G17G12G22
 114855135.03448  71705290.11748  19953276.3934   19953278.7044   19953276.6064
       251.000         228.000
 137380408.02748  89257444.33648  24239698.9644   24239701.8244   24239704.0714
       198.000         130.000
 111703819.64748  87041919.24748  21256544.7674   21256547.4554   21256545.3244
       245.000         213.000
 121256184.17648  94485324.87248  23074295.3494   23074298.0604   23074295.3794
       224.000         179.000
 116872275.73248  91069299.40648  22240058.5984   22240060.4084   22240058.2874
       238.000         205.000
 120234613.29448  93689306.03548  22879888.3694   22879890.5754   22879888.9944
       226.000         178.000
 125539499.36348  97822979.55048  23889377.4384   23889380.1134   23889377.8604
       221.000         175.000
 108761486.89648  84749198.37548  20696633.3784   20696634.6574   20696633.2324
       252.000         231.000
 132455023.05448  85419505.02348  23302410.5864   23302410.1224   23302410.8314
       228.000         179.000
 09  1 22  1 48 30.0000000  0  9G 9G26G 5G30G15G18G17G12G22
 114860956.32248  71709826.18248  19954384.1384   19954386.4924   19954384.2814
       250.000         228.000
 137491612.21548  89344096.94348  24260859.2734   24260862.9454   24260861.0124
       199.000         124.000
 111639476.98048  86991782.11348  21244300.8384   21244303.6324   21244301.6034
       245.000         214.000
 121158640.40748  94409316.75448  23055733.2284   23055736.1284   23055732.1004
       228.000         181.000
 116962898.16648  91139914.28048  22257303.5824   22257305.2304   22257303.4694
       238.000         205.000
 120290011.00048  93732473.06148  22890430.1464   22890432.2644   22890430.2354
       227.000         178.000
 125599726.00248  97869909.37748  23900838.1954   23900839.9184   23900838.7384
       222.000         174.000
 108723757.69148  84719798.99848  20689453.9984   20689455.1034   20689453.8314
       252.000         231.000
 132460430.27148  85423718.43648  23303439.6014   23303439.2144   23303439.9664
       230.000         181.000
 09  1 22  1 49  0.0000000  0  9G 9G26G 5G30G15G18G17G12G22
 114867146.00448  71714649.30848  19955562.1454   19955564.3164   19955562.4214
       251.000         228.000
 137602932.14348  89430839.78348  24282046.0584   24282043.3064   24282045.4284
       188.000         125.000
 111575520.37048  86941945.80848  21232130.2354   21232133.1934   21232130.6104
       245.000         214.000
 121061320.95348  94333483.43448  23037213.7904   23037216.6954   23037213.6914
       226.000         180.000
 117053836.85548  91210775.59548  22274608.5074   22274610.6194   22274608.1384
       238.000         204.000
 120345812.64448  93775954.84648  22901048.8404   22901050.9584   22901049.0984
       228.000         179.000
 125660411.70648  97917196.94848  23912386.2104   23912387.5964   23912386.3174
       221.000         173.000
 108686473.65148  84690746.51048  20682358.8924   20682360.1454   20682358.7194
       252.000         231.000
 132466363.07548  85428341.37848  23304568.7584   23304568.1124   23304568.2554
       229.000         181.000
 09  1 22  1 49 30.0000000  0  8G 9G 5G30G15G18G17G12G22
 114873703.24948  71719758.85048  19956809.8374   19956812.2184   19956810.1224
       251.000         228.000
 111511949.95648  86892410.43048  21220033.0404   21220035.9434   21220033.7904
       245.000         213.000
 120964226.68248  94257825.56548  23018737.5684   23018740.1504   23018736.4464
       229.000         181.000
 117145089.35548  91281881.43348  22291973.1294   22291974.7604   22291972.5464
       237.000         203.000
 120402014.64848  93819748.59048  22911744.0054   22911745.7744   22911744.7784
       226.000         179.000
 125721554.00348  97964840.27948  23924021.5704   23924022.9274   23924021.8434
       220.000         172.000
 108649633.75748  84662040.11048  20675348.3934   20675349.7394   20675347.9534
       252.000         231.000
 132472819.75148  85433372.55848  23305797.3094   23305797.3694   23305797.7494
       229.000         182.000
 09  1 22  1 50  0.0000000  0  9G 9G26G 5G30G15G18G17G12G22
 114880628.38448  71725155.05448  19958127.8314   19958129.9874   19958128.0594
       251.000         228.000
 117825901.94758 109604578.94558  24324476.7885   24324480.2825   24324477.1355
       190.000         125.000
 111448766.38748  86843176.48448  21208009.6624   21208012.2804   21208010.2304
       244.000         213.000
 120867358.66248  94182344.01448  23000304.3364   23000306.7864   23000304.6834
       228.000         181.000
 117236653.47248  91353230.09748  22309397.3194   22309398.9044   22309397.0514
       237.000         203.000
 120458614.90248  93863852.69148  22922515.0594   22922516.0864   22922515.3524
       229.000         179.000
 125783150.92348  98012837.89048  23935743.3184   23935744.3084   23935743.1534
       221.000         174.000
 108613238.08348  84633679.85248  20668422.7564   20668423.8034   20668422.5764
       252.000         231.000
 132479799.71348  85438811.47348  23307125.0844   23307125.3224   23307125.5214
       227.000         180.000
 09  1 22  1 50 30.0000000  0  9G 9G26G 5G30G15G18G17G12G22
 114887921.55248  71730838.04348  19959515.5694   19959517.8024   19959515.8204
       251.000         228.000
 117937555.09548 109691581.34448  24345724.0134   24345724.7624   24345723.9074
       198.000         128.000
 111385970.19848  86794244.39848  21196059.7874   21196062.6514   21196060.2454
       245.000         213.000
 120770718.07648  94107039.66348  22981914.5104   22981916.2954   22981914.3804
       229.000         182.000
 117328527.13248  91424819.96948  22326879.9724   22326881.6614   22326879.8784
       237.000         202.000
 120515610.35048  93908264.72648  22933360.5274   22933361.8224   22933361.2004
       230.000         179.000
 125845200.14748  98061187.90348  23947550.6354   23947552.3464   23947550.9834
       220.000         171.000
 108577286.71848  84605665.80348  20661581.2444   20661582.5214   20661581.1224
       252.000         231.000
 132487301.91848  85444657.34348  23308553.3134   23308553.4504   23308553.2194
       228.000         181.000
 09  1 22  1 51  0.0000000  0  9G 9G26G 5G30G15G18G17G12G22
 114895583.53548  71736808.41848  19960973.5904   19960975.8604   19960973.7464
       251.000         228.000
 118049316.26948 109778667.98848  24366990.1344   24366993.3434   24366991.3584
       195.000         126.000
 111323562.61748  86745615.12248  21184183.9244   21184186.8054   21184184.5854
       244.000         214.000
 120674306.85548  94031914.05548  22963568.1574   22963570.0164   22963567.8764
       231.000         183.000
 117420708.96748  91496649.96348  22344421.9704   22344423.7104   22344421.6034
       238.000         203.000
 120572998.72748  93952982.92148  22944280.7004   22944282.4244   22944281.3084
       227.000         178.000
 125907700.47548  98109889.47848  23959444.2254   23959445.2834   23959444.2994
       221.000         172.000
 108541780.12848  84577998.33548  20654824.4574   20654825.8744   20654824.3544
       252.000         232.000
 132495325.88648  85450909.79748  23310079.9554   23310080.2434   23310079.9204
       228.000         180.000
 09  1 22  1 51 30.0000000  0  9G 9G26G 5G30G15G18G17G12G22
 114903614.64948  71743066.42548  19962501.9504   19962504.1934   19962502.1354
       251.000         228.000
 118161183.37248 109865837.14848  24388278.3034   24388280.9924   24388280.2774
       201.000         131.000
 111261544.18548  86697289.08548  21172382.3144   21172385.3984   21172382.6984
       246.000         215.000
 120578126.03148  93956967.96348  22945265.7364   22945267.1754   22945266.0044
       229.000         181.000
 117513196.92648  91568718.49548  22362021.7234   22362023.7704   22362021.7804
       236.000         203.000
 120630777.38148  93998005.23448  22955276.0224   22955277.7074   22955276.3594
       227.000         179.000
 125970649.63748  98158940.75848  23971423.5414   23971423.9984   23971423.2984
       221.000         171.000
 108506718.00348  84550677.18848  20648152.4554   20648153.7654   20648152.1794
       252.000         232.000
 132503870.86148  85457568.20548  23311706.3924   23311706.0344   23311706.1744
       227.000         180.000
 09  1 22  1 52  0.0000000  0  9G 9G26G 5G30G15G18G17G12G22
 114912014.22448  71749611.55148  19964100.2724   19964102.5624   19964100.5674
       251.000         228.000
 118273154.12948 109953087.11248  24409584.5254   24409586.5314   24409586.1094
       204.000         134.000
 111199915.14348  86649266.45348  21160654.9214   21160657.7134   21160655.4854
       245.000         215.000
 120482176.76548  93882202.31948  22927006.7584   22927008.9824   22927006.8864
       229.000         181.000
 117605988.79048  91641023.84048  22379679.4804   22379681.4884   22379679.1254
       235.000         202.000
 120688943.28848  94043329.29148  22966344.6974   22966346.8554   22966345.2104
       227.000         180.000
 126034045.42748  98208340.08948  23983486.6364   23983488.0944   23983486.2194
       216.000         167.000
 108472099.84148  84523702.00248  20641564.8124   20641566.0504   20641564.5014
       252.000         232.000
 132512935.61148  85464631.63348  23313431.3944   23313431.4214   23313431.6814
       227.000         182.000
 09  1 22  1 52 30.0000000  0  9G 9G26G 5G30G15G18G17G12G22
 114920783.65148  71756444.86848  19965768.9894   19965771.3454   19965769.1864
       250.000         228.000
 118385227.43948 110040416.96848  24430914.2714   24430913.3604   24430913.4624
       205.000         137.000
 111138676.94948  86601548.39148  21149001.6794   21149004.4494   21149002.1824
       245.000         215.000
 120386460.83048  93807618.48848  22908792.5394   22908794.5604   22908792.1544
       229.000         181.000
 117699083.38148  91713565.07948  22397394.7134   22397396.5454   22397394.4634
       236.000         202.000
 120747494.55248  94088953.63248  22977486.9634   22977488.9124   22977487.2934
       227.000         179.000
 126097886.80048  98258086.62048  23995634.7214   23995636.5864   23995634.9844
       218.000         169.000
 108437926.05848  84497073.08548  20635061.9574   20635063.0084   20635061.8774
       252.000         232.000
 132522519.49548  85472099.57348  23315254.5944   23315255.1964   23315255.0164
       228.000         182.000
 09  1 22  1 53  0.0000000  0  9G 9G26G 5G30G15G18G17G12G22
 114929922.87348  71763566.34248  19967508.0514   19967510.4134   19967508.2674
       251.000         228.000
 118497401.32748 110127825.13148  24452256.8994   24452260.3374   24452258.5044
       206.000         140.000
 111077829.87648  86554135.08648  21137422.9884   21137425.6554   21137423.3394
       246.000         215.000
 120290978.85848  93733216.97748  22890622.9554   22890625.1734   22890622.8964
       230.000         184.000
 117792478.67348  91786340.63748  22415167.2684   22415169.0204   22415166.9754
       235.000         201.000
 120806428.01148  94134875.78948  22988701.8714   22988703.3184   22988702.4584
       229.000         177.000
 126162171.25648  98308178.39948  24007867.6534   24007869.7474   24007867.3354
       217.000         168.000
 108404197.21648  84470790.88648  20628643.5284   20628644.5864   20628643.3154
       253.000         232.000
 132532621.60048  85479971.35548  23317177.1404   23317177.7914   23317177.3254
       228.000         182.000
 09  1 22  1 53 30.0000000  0  9G 9G26G 5G30G15G18G17G12G22
 114939431.94248  71770976.00748  19969317.4844   19969320.0614   19969317.5314
       251.000         228.000
 118609673.49348 110215309.96048  24473623.5994   24473623.9074   24473623.7414
       206.000         144.000
 111017374.67748  86507027.15048  21125918.5344   21125921.3234   21125919.3934
       246.000         215.000
 120195732.75148  93658999.24648  22872498.2084   22872500.4344   22872498.4634
       227.000         182.000
 117886172.53148  91859348.82648  22432996.8024   22432998.6494   22432996.0334
       235.000         202.000
 120865741.30548  94181093.92748  22999988.4544   22999990.2684   22999988.8984
       226.000         178.000
 126226896.84548  98358613.94548  24020184.8414   24020186.4984   24020185.1904
       218.000         167.000
 108370912.62148  84444854.84748  20622309.7164   20622310.5854   20622309.5334
       253.000         232.000
 132543241.08148  85488246.24248  23319198.0354   23319198.2354   23319198.1424
       230.000         182.000
 09  1 22  1 54  0.0000000  0  9G 9G26G 5G30G15G18G17G12G22
 114949310.85448  71778673.85848  19971197.5994   19971200.0394   19971197.8494
       250.000         228.000
 118722042.15148 110302869.94948  24495005.3564   24495007.5914   24495005.4234
       208.000         146.000
 110957311.52748  86460224.70948  21114488.8104   21114491.6154   21114489.3444
       246.000         215.000
 120100723.14048  93584965.80348  22854418.0224   22854420.7884   22854417.1784
       229.000         183.000
 117980162.66148  91932587.89148  22450882.5424   22450884.3344   22450881.9394
       237.000         202.000
 120925431.18648  94227605.51548  23011346.9684   23011348.9784   23011347.6774
       226.000         176.000
 126292061.17448  98409391.34348  24032584.9504   24032586.1514   24032584.5284
       216.000         166.000
 108338071.64948  84419264.49248  20616060.2034   20616061.2694   20616060.0804
       252.000         233.000
 132554376.63548  85496923.30148  23321316.9844   23321316.9914   23321317.1194
       229.000         180.000
 09  1 22  1 54 30.0000000  0 10G 9G26G 5G30G15G14G18G17G12G22
 114959560.01148  71786660.21548  19973147.8674   19973150.4074   19973148.1364
       251.000         228.000
 118834505.41048 110390503.65348  24516406.0904   24516407.3704   24516406.8244
       212.000         149.000
 110897641.07948  86413728.26548  21103133.6844   21103136.6774   21103134.4024
       245.000         215.000
 120005951.28148  93511117.62048  22836383.7484   22836386.4214   22836383.6104
       230.000         183.000
 118074446.89648  92006056.11748  22468824.2034   22468826.0124   22468824.4404
       235.000         201.000
 138786406.17258  90353035.50558  24507245.0485   24507247.1895   24507244.9455
       208.000         153.000
 120985494.68248  94274408.22148  23022776.5904   23022778.1154   23022777.1064
       225.000         175.000
 126357662.07548  98460508.92148  24045068.9134   24045069.9434   24045067.9554
       216.000         167.000
 108305674.34748  84394019.84448  20609895.0824   20609896.3214   20609894.8694
       252.000         233.000
 132566027.42548  85506001.83448  23323534.0034   23323533.9714   23323534.7144
       227.000         179.000
 09  1 22  1 55  0.0000000  0 10G 9G26G 5G30G15G14G18G17G12G22
 114970178.57648  71794934.42448  19975168.5804   19975170.8574   19975168.8584
       251.000         228.000
 118947060.31648 110478208.74948  24537825.4164   24537826.6014   24537825.3964
       214.000         151.000
 110838363.02648  86367537.58948  21091853.6494   21091856.3314   21091854.0424
       247.000         216.000
 119911417.59648  93437455.00948  22818394.8804   22818397.3434   22818394.8954
       230.000         184.000
 118169022.79648  92079751.62248  22486821.4734   22486822.9414   22486820.4914
       234.000         200.000
 138682357.75348  90271958.78148  24487445.7484   24487447.7534   24487445.5084
       209.000         153.000
 121045928.67448  94321499.62948  23034276.4954   23034278.2724   23034276.7474
       226.000         175.000
 126423696.91148  98511964.60148  24057634.5464   24057636.0574   24057635.7844
       216.000         165.000
 108273719.78748  84369120.18848  20603814.2734   20603815.6344   20603814.1534
       251.000         233.000
 132578191.18048  85515480.05748  23325848.7764   23325848.9184   23325848.4344
       229.000         182.000
 09  1 22  1 55 30.0000000  0 10G 9G26G 5G30G15G14G18G17G12G22
 114981167.56548  71803497.27648  19977259.6604   19977261.9094   19977259.8654
       250.000         228.000
 119059706.05448 110565984.65748  24559260.7164   24559262.8244   24559261.9184
       214.000         153.000
 110779478.91148  86321653.87448  21080648.6664   21080651.2324   21080649.4224
       246.000         217.000
 119817124.11848  93363979.58748  22800451.6144   22800453.6084   22800451.2434
       230.000         185.000
 118263888.68748  92153673.09748  22504873.8204   22504875.2124   22504872.9574
       235.000         200.000
 138578418.59148  90190967.28548  24467666.4754   24467667.9804   24467668.0384
       210.000         152.000
 121106731.25748  94368878.26348  23045847.4174   23045848.7164   23045848.4474
       227.000         175.000
 126490164.28248  98563757.35648  24070283.1194   24070284.1814   24070282.8164
       211.000         162.000
 108242208.60748  84344566.02848  20597818.0284   20597819.1994   20597817.8524
       251.000         234.000
 132590868.11348  85525358.18348  23328261.3474   23328261.2794   23328261.5844
       228.000         180.000
 09  1 22  1 56  0.0000000  0 10G 9G26G 5G30G15G14G18G17G12G22
 114992527.80148  71812349.40448  19979421.5094   19979423.6184   19979421.7064
       251.000         227.000
 119172441.56048 110653830.52248  24580713.2834   24580715.2174   24580714.1214
       220.000         159.000
 110720990.10048  86276078.18848  21069518.5114   21069521.4214   21069519.1794
       247.000         217.000
 119723072.91348  93290692.94348  22782554.4424   22782556.3194   22782554.5964
       231.000         184.000
 118359043.56648  92227819.74148  22522981.2594   22522982.8384   22522981.4314
       234.000         200.000
 138474592.06148  90110063.41148  24447909.3864   24447911.5964   24447908.7284
       212.000         154.000
 121167900.53648  94416542.61748  23057487.5884   23057488.9534   23057488.2734
       225.000         176.000
 126557063.11348  98615886.27948  24083013.4314   24083014.5074   24083012.0864
       217.000         163.000
 108211141.52648  84320357.92548  20591906.1804   20591907.4744   20591905.9504
       251.000         234.000
 132604057.74348  85535635.79648  23330770.9664   23330771.1264   23330771.3064
       227.000         180.000
 09  1 22  1 56 30.0000000  0 10G 9G26G 5G30G15G14G18G17G12G22
 115004259.37248  71821490.88248  19981653.8434   19981656.1174   19981654.0534
       250.000         227.000
 119285264.45348 110741744.48448  24602183.7414   24602185.3554   24602184.9584
       222.000         161.000
 110662896.36848  86230810.36048  21058463.4494   21058466.4844   21058464.0574
       247.000         216.000
 119629264.53548  93217595.53648  22764703.1134   22764705.1894   22764702.7754
       231.000         185.000
 118454485.47548  92302190.05348  22541143.1084   22541145.0114   22541142.7534
       235.000         200.000
 138370879.67248  90029248.56148  24428172.6324   24428175.8834   24428173.1474
       205.000         154.000
 121229432.87548  94464489.86048  23069196.8184   23069198.3394   23069197.1384
       228.000         177.000
 126624390.68648  98668349.35648  24095826.1564   24095827.2034   24095825.9874
       216.000         163.000
 108180517.43348  84296495.01148  20586078.6034   20586079.8834   20586078.5244
       251.000         234.000
 132617758.13948  85546311.42048  23333378.0954   23333378.4844   23333377.5464
       231.000         181.000
 09  1 22  1 57  0.0000000  0 10G 9G26G 5G30G15G14G18G17G12G22
 115016361.94848  71830921.46248  19983956.9084   19983959.1904   19983956.8604
       251.000         228.000
 119398172.08248 110829724.47748  24623668.8064   24623670.9264   24623669.9314
       216.000         162.000
 110605198.06848  86185850.65548  21047484.0284   21047486.8474   21047484.6274
       247.000         216.000
 119535700.05548  93144688.16548  22746898.5054   22746900.2714   22746898.7544
       231.000         185.000
 118550211.72648  92376781.93048  22559359.4484   22559360.7514   22559359.1404
       234.000         199.000
 138267283.57048  89948524.40548  24408459.0164   24408461.2794   24408459.9894
       209.000         156.000
 121291325.10748  94512717.56848  23080974.4564   23080976.0594   23080975.3414
       227.000         176.000
 126692144.37248  98721144.45748  24108718.7434   24108720.7414   24108718.3364
       214.000         161.000
 108150336.09048  84272977.08748  20580335.2374   20580336.4384   20580335.1024
       252.000         234.000
 132631968.03348  85557384.08548  23336082.5834   23336082.0974   23336083.6474
       229.000         180.000
 09  1 22  1 57 30.0000000  0 10G 9G26G 5G30G15G14G18G17G12G22
 115028836.47448  71840641.87048  19986330.7794   19986333.0954   19986330.8944
       251.000         228.000
 119511163.73448 110917769.88348  24645170.0884   24645173.1614   24645170.8524
       216.000         162.000
 110547896.32448  86141199.93448  21036579.7864   21036582.5234   21036580.3674
       247.000         216.000
 119442381.11448  93071972.12848  22729140.3254   22729142.5824   22729139.7734
       231.000         187.000
 118646220.57748  92451594.01948  22577629.3784   22577630.6374   22577628.8734
       236.000         198.000
 138163806.87448  89867893.20648  24388768.1794   24388769.9224   24388766.9714
       206.000         151.000
 121353574.86048  94561223.86548  23092820.3374   23092822.0334   23092820.7694
       226.000         176.000
 126760322.91948  98774270.60248  24121692.7114   24121694.6404   24121692.0444
       217.000         162.000
 108120597.91948  84249804.49348  20574676.3554   20574677.4454   20574676.2244
       252.000         234.000
 132646687.14748  85568853.51648  23338883.3474   23338883.7024   23338883.6684
       229.000         180.000
 09  1 22  1 58  0.0000000  0 10G 9G26G 5G30G15G14G18G17G12G22
 115041683.07248  71850652.20948  19988775.4624   19988777.8444   19988775.7374
       251.000         228.000
 119624237.21648 111005879.08648  24666687.4824   24666689.7764   24666687.4464
       216.000         163.000
 110490991.72548  86096858.70048  21025750.8524   21025753.9894   21025751.3714
       247.000         217.000
 119349308.91048  92999448.35448  22711428.7074   22711431.6614   22711428.4694
       231.000         186.000
 118742510.32048  92526624.99048  22595952.7234   22595953.9144   22595953.0254
       235.000         197.000
 138060452.19948  89787357.09348  24369100.2744   24369101.3424   24369100.5494
       211.000         151.000
 121416179.95148  94610007.04248  23104733.2954   23104735.4834   23104733.8664
       224.000         175.000
 126828923.97948  98827726.00048  24134747.1324   24134748.3374   24134746.5084
       218.000         160.000
 108091302.58848  84226976.96748  20569101.6964   20569102.7874   20569101.4884
       251.000         234.000
 132661914.27648  85580718.79848  23341781.1254   23341781.2034   23341781.1844
       230.000         181.000
 09  1 22  1 58 30.0000000  0 10G 9G26G 5G30G15G14G18G17G12G22
 115054901.42148  71860952.21848  19991290.7754   19991293.3114   19991290.9374
       251.000         228.000
 119737390.60548 111094050.56948  24688219.8094   24688222.0884   24688219.3674
       217.000         161.000
 110434484.48848  86052827.08648  21014998.0994   21015001.1474   21014998.6314
       247.000         217.000
 119256484.57348  92927117.71948  22693765.4174   22693767.6474   22693765.1854
       230.000         186.000
 118839078.82148  92601873.15948  22614328.9764   22614330.1854   22614329.1014
       234.000         198.000
 137957221.32648  89706917.35348  24349456.6714   24349457.1364   24349455.6514
       205.000         147.000
 121479137.04748  94659064.51448  23116713.2734   23116715.5454   23116714.0874
       223.000         172.000
 126897945.33548  98881508.86648  24147882.1174   24147881.8274   24147881.6304
       218.000         161.000
 108062449.68948  84204494.19248  20563611.0424   20563612.2464   20563610.8994
       252.000         235.000
 132677647.75948  85592978.65348  23344775.2934   23344775.0064   23344775.8564
       230.000         182.000
 09  1 22  1 59  0.0000000  0 10G 9G26G 5G30G15G14G18G17G12G22
 115068491.40148  71871541.81548  19993877.0144   19993879.3354   19993877.2074
       251.000         228.000
 119850621.48448 111182282.42448  24709766.6604   24709769.4624   24709767.6144
       211.000         157.000
 110378374.68148  86009105.15548  21004320.9434   21004323.7314   21004321.4354
       247.000         217.000
 119163908.56148  92854980.56948  22676148.6344   22676150.9744   22676148.6814
       231.000         186.000
 118935923.27648  92677336.37448  22632757.8034   22632759.4364   22632757.3744
       234.000         198.000
 137854116.20448  89626575.74148  24329834.7304   24329837.0504   24329834.8094
       206.000         151.000
 121542443.11248  94708393.90848  23128760.0654   23128762.4214   23128760.0614
       226.000         174.000
 126967384.41548  98935617.23248  24161095.9614   24161095.9954   24161096.3174
       219.000         165.000
 108034038.37348  84182355.51848  20558204.5924   20558205.7864   20558204.5674
       252.000         235.000
 132693886.23748  85605632.00548  23347865.2614   23347865.4474   23347864.8974
       227.000         181.000
 09  1 22  1 59 30.0000000  0 10G 9G26G 5G30G15G14G18G17G12G22
 115082453.64748  71882421.48048  19996533.8124   19996536.1374   19996533.9694
       250.000         228.000
 119963928.41748 111270573.53748  24731328.0584   24731331.0764   24731327.3874
       209.000         158.000
 110322663.14448  85965693.56948  20993719.1884   20993722.1574   20993719.7354
       247.000         217.000
 119071582.35248  92783038.09048  22658579.1584   22658581.8134   22658578.7444
       229.000         186.000
 119033041.90248  92753013.21348  22651238.7694   22651240.5724   22651238.3324
       234.000         198.000
 137751139.83148  89546334.45748  24310239.8164   24310242.1924   24310240.1374
       205.000         152.000
 121606095.36848  94757993.04648  23140873.0444   23140874.8664   23140873.8414
       223.000         172.000
 127037239.24648  98990049.56048  24174388.7434   24174389.6644   24174388.4394
       217.000         164.000
 108006068.91348  84160561.13348  20552882.1024   20552883.2794   20552882.0574
       252.000         235.000
 132710628.88748  85618678.20548  23351050.8324   23351051.3064   23351051.5954
       227.000         181.000
 09  1 22  2  0  0.0000000  0 10G 9G26G 5G30G15G14G18G17G12G22
 115096788.60448  71893591.57248  19999261.6124   19999263.9224   19999261.7134
       250.000         228.000
 120077309.50248 111358922.42848  24752904.3834   24752907.2184   24752903.9914
       212.000         158.000
 110267350.75648  85922593.01648  20983193.6044   20983196.4994   20983193.9124
       247.000         217.000
 118979507.93348  92711291.79548  22641058.2574   22641060.5424   22641057.6194
       231.000         187.000
 119130433.44948  92828902.71548  22669771.8424   22669773.6164   22669771.4974
       234.000         198.000
 137648295.00948  89466195.63548  24290669.5044   24290671.2444   24290666.6744
       210.000         156.000
 121670091.50048  94807860.15548  23153051.0154   23153053.0014   23153051.5094
       224.000         171.000
 127107508.24948  99044804.64148  24187760.0854   24187761.8154   24187759.8424
       220.000         162.000
 107978541.35748  84139111.09148  20547643.8274   20547644.9294   20547643.5794
       252.000         235.000
 132727874.45348  85632116.30348  23354332.7924   23354332.9184   23354332.8284
       227.000         180.000
 09  1 22  2  0 30.0000000  0 10G 9G26G 5G30G15G14G18G17G12G22
 115111495.72848  71905051.67048  20002060.2504   20002062.6254   20002060.3574
       250.000         228.000
 120190762.42148 111447327.34048  24774494.1854   24774496.2344   24774493.9504
       210.000         152.000
 110212437.10648  85879803.16648  20972744.0294   20972746.7544   20972744.7204
       249.000         217.000
 118887685.30548  92639741.72048  22623584.9164   22623587.1114   22623584.8214
       231.000         187.000
 119228094.75148  92905002.44248  22688356.2754   22688357.9644   22688356.0874
       234.000         197.000
 137545583.21648  89386160.45948  24271124.9754   24271126.6144   24271124.5634
       209.000         158.000
 121734427.68648  94857992.23948  23165293.9844   23165295.7324   23165294.0434
       228.000         173.000
 127178187.98648  99099879.80548  24201209.7554   24201211.3774   24201210.4614
       216.000         163.000
 107951454.49048  84118004.45048  20542489.3634   20542490.5604   20542489.3044
       252.000         235.000
 132745620.70448  85645944.54548  23357710.1044   23357710.0364   23357710.3094
       230.000         181.000
 09  1 22  2  1  0.0000000  0 10G 9G26G 5G30G15G14G18G17G12G22
 115126575.00348  71916801.75448  20004929.8524   20004932.2194   20004929.9334
       251.000         228.000
 120304285.37148 111535786.81148  24796095.9984   24796098.3734   24796095.8184
       207.000         146.000
 110157922.84048  85837324.52048  20962370.2344   20962372.9174   20962370.7264
       249.000         217.000
 118796115.90948  92568388.96148  22606160.0224   22606162.2314   22606159.7534
       231.000         188.000
 119326023.99248  92981310.93648  22706991.3854   22706992.9704   22706991.3234
       234.000         197.000
 137443006.87148  89306230.85448  24251604.6344   24251606.5004   24251603.5734
       205.000         152.000
 121799101.70248  94908387.56948  23177601.2464   23177602.5554   23177602.0444
       225.000         174.000
 127249277.07548  99155273.88448  24214737.2364   24214739.2194   24214736.6594
       214.000         164.000
 107924808.34748  84097241.22448  20537418.7654   20537420.0164   20537418.5134
       252.000         235.000
 132763867.08648  85660162.48448  23361182.1974   23361182.6054   23361182.5604
       227.000         182.000
 09  1 22  2  1 30.0000000  0 10G 9G26G 5G30G15G14G18G17G12G22
 115142028.15848  71928843.17748  20007870.5784   20007872.8164   20007870.8914
       251.000         228.000
 120417877.25848 111624299.96848  24817711.3714   24817715.4374   24817711.4414
       206.000         144.000
 110103809.27048  85795158.11348  20952072.6584   20952075.5954   20952073.4444
       249.000         218.000
 118704801.88648  92497235.19748  22588783.5124   22588785.5484   22588782.9964
       232.000         188.000
 119424220.05448  93057827.34848  22725677.7304   22725679.2264   22725677.4274
       232.000         196.000
 137340569.42348  89226409.46648  24232111.1924   24232113.0534   24232110.4604
       207.000         150.000
 121864111.04748  94959044.17848  23189972.2804   23189974.0494   23189972.8634
       226.000         174.000
 127320773.74848  99210985.58148  24228343.0464   24228344.9344   24228342.4654
       215.000         165.000
 107898603.06048  84076821.52548  20532432.1864   20532433.2564   20532432.1524
       252.000         235.000
 132782612.41048  85674769.23348  23364749.1184   23364749.5704   23364749.2234
       227.000         180.000
 09  1 22  2  2  0.0000000  0 10G 9G26G 5G30G15G14G18G17G12G22
 115157853.43648  71941174.56148  20010882.0524   20010884.2914   20010882.3314
       251.000         228.000
 120531534.53248 111712864.05148  24839339.3954   24839342.9364   24839339.9774
       211.000         146.000
 110050095.00748  85753302.84848  20941851.1554   20941854.0994   20941851.7384
       249.000         218.000
 118613742.41148  92426279.79948  22571455.2974   22571457.7834   22571455.7574
       232.000         190.000
 119522678.93948  93134548.54748  22744413.6704   22744415.3634   22744413.2324
       233.000         196.000
 137238271.59048  89146696.85048  24212645.1584   24212646.7034   24212645.9934
       206.000         154.000
 121929451.08948  95009958.47748  23202405.9164   23202407.8684   23202406.5294
       225.000         174.000
 127392674.07348  99267011.82448  24242024.6584   24242027.6044   24242024.7154
       215.000         166.000
 107872837.03448  84056744.10948  20527528.9484   20527530.1804   20527528.8504
       252.000         235.000
 132801853.80048  85689762.49848  23368410.5454   23368410.8764   23368410.9464
       225.000         179.000
 09  1 22  2  2 30.0000000  0 10G 9G26G 5G30G15G14G18G17G12G22
 115174052.32448  71953797.06748  20013964.5254   20013966.7964   20013964.7044
       251.000         228.000
 120645256.79348 111801478.76848  24860980.7574   24860983.6964   24860980.6374
       210.000         149.000
 109996782.05748  85711760.29148  20931706.1304   20931708.9104   20931706.4974
       249.000         218.000
 118522940.27748  92355524.88348  22554176.8104   22554178.6814   22554175.9784
       233.000         190.000
 119621400.20748  93211474.20648  22763199.4214   22763201.5794   22763198.9614
       232.000         195.000
 137136117.32548  89067096.14648  24193205.5504   24193206.9814   24193205.0284
       211.000         155.000
 121995120.50748  95061129.43948  23214902.0934   23214904.3834   23214902.7444
       224.000         173.000
 127464977.48248  99323352.14948  24255784.0684   24255785.6104   24255783.3834
       214.000         165.000
 107847511.26148  84037009.74448  20522709.5654   20522710.7844   20522709.2634
       251.000         235.000
 132821592.32548  85705143.17148  23372166.6054   23372167.4564   23372166.5104
       226.000         180.000
 09  1 22  2  3  0.0000000  0 10G 9G26G 5G30G15G14G18G17G12G22
 115190624.93648  71966710.79148  20017118.2304   20017120.4344   20017118.4814
       250.000         228.000
 120759042.15848 111890142.65648  24882633.0534   24882636.1374   24882631.7164
       207.000         150.000
 109943870.85448  85670530.77848  20921637.5004   20921640.3024   20921638.0974
       249.000         219.000
 118432396.38148  92284971.23248  22536946.3914   22536948.9124   22536946.3074
       231.000         189.000
 119720381.59448  93288602.54548  22782035.2234   22782036.8964   22782035.1654
       233.000         195.000
 137034109.05548  88987609.20548  24173794.1524   24173795.9944   24173794.5804
       212.000         156.000
 122061116.83048  95112555.13548  23227460.8574   23227463.1984   23227461.3194
       225.000         172.000
 127537681.69148  99380004.77048  24269619.4244   24269620.6644   24269618.6784
       214.000         165.000
 107822625.24348  84017618.03648  20517973.8324   20517974.9664   20517973.6004
       251.000         235.000
 132841825.83748  85720909.53948  23376017.1084   23376017.3694   23376016.8614
       227.000         182.000
 09  1 22  2  3 30.0000000  0 10G 9G26G 5G30G15G14G18G17G12G22
 115207570.96448  71979915.48348  20020342.8274   20020345.1084   20020342.9794
       250.000         228.000
 120872888.31848 111978853.94348  24904296.8574   24904300.6264   24904295.5454
       205.000         150.000
 109891361.36548  85629614.28848  20911645.1474   20911648.1124   20911645.6774
       249.000         219.000
 118342111.73548  92214619.56948  22519765.6574   22519768.1514   22519765.4604
       231.000         190.000
 119819620.89448  93365931.87448  22800919.9154   22800920.9814   22800920.4214
       232.000         194.000
 136932249.12548  88908237.80548  24154411.3744   24154412.5874   24154411.3974
       210.000         158.000
 122127436.41748  95164232.72748  23240080.8324   23240083.2964   23240081.5724
       225.000         173.000
 127610784.12148  99436967.66348  24283530.2324   24283531.6784   24283530.5064
       214.000         168.000
 107798178.11248  83998568.32648  20513321.7534   20513322.9814   20513321.6064
       251.000         235.000
 132862552.69348  85737060.31948  23379961.5434   23379962.0764   23379962.0234
       229.000         181.000
 09  1 22  2  4  0.0000000  0 10G 9G26G 5G30G15G14G18G17G12G22
 115224890.13448  71993410.93748  20023638.4494   20023640.8704   20023638.5684
       250.000         228.000
 120986792.90448 112067610.74448  24925972.0744   24925975.9804   24925970.5994
       208.000         151.000
 109839253.64348  85589010.88248  20901729.4254   20901732.3744   20901729.9184
       249.000         219.000
 118252086.94548  92144470.38448  22502634.7704   22502637.2384   22502634.3904
       234.000         190.000
 119919115.51648  93443460.15348  22819853.0634   22819854.4554   22819852.6814
       234.000         195.000
 136830539.46448  88828983.56448  24135055.3274   24135058.1084   24135056.3924
       206.000         155.000
 122194075.98748  95216159.66248  23252761.8764   23252764.3304   23252762.6674
       222.000         170.000
 127684282.14048  99494238.83548  24297516.5504   24297517.9054   24297517.1324
       216.000         171.000
 107774169.21748  83979860.10048  20508753.0034   20508754.2784   20508752.8364
       251.000         235.000
 132883771.13548  85753594.16348  23383999.1244   23383999.5244   23383999.0874
       227.000         181.000
 09  1 22  2  4 30.0000000  0 10G 9G26G 5G30G15G14G18G17G12G22
 115242583.02248  72007197.60348  20027005.1994   20027007.8234   20027005.4714
       250.000         228.000
 121100754.41948 112156411.97448  24947659.3064   24947662.1514   24947658.1714
       208.000         153.000
 109787548.17848  85548720.91948  20891890.3404   20891893.0624   20891890.6804
       250.000         219.000
 118162323.31748  92074524.73248  22485552.7874   22485555.3794   22485552.7264
       232.000         189.000
 120018863.44048  93521185.80348  22838834.6654   22838835.8844   22838834.9404
       232.000         194.000
 136728982.77148  88749848.48148  24115729.6194   24115732.0944   24115730.4624
       208.000         152.000
 122261032.89048  95268333.86648  23265503.5464   23265505.6824   23265504.0504
       224.000         171.000
 127758173.45248  99551816.49148  24311577.5414   24311579.2284   24311578.0254
       216.000         169.000
 107750598.61348  83961493.40248  20504267.5354   20504268.8834   20504267.6294
       251.000         235.000
 132905479.90748  85770510.07848  23388129.5354   23388130.2274   23388129.2544
       225.000         179.000
 09  1 22  2  5  0.0000000  0 10G 9G26G 5G30G15G14G18G17G12G22
 115260650.07348  72021275.81648  20030443.2814   20030445.9534   20030443.2774
       251.000         228.000
 121214771.07048 112245256.17648  24969356.4804   24969358.7264   24969356.4624
       207.000         155.000
 109736245.68048  85508744.96148  20882127.7404   20882130.3654   20882128.4794
       250.000         220.000
 118072822.62748  92004783.93548  22468521.1894   22468523.7754   22468521.3264
       232.000         189.000
 120118862.87148  93599107.43248  22857863.9014   22857865.2044   22857863.4204
       232.000         194.000
 136627581.55948  88670834.55048  24096434.2014   24096435.7114   24096434.3414
       210.000         155.000
 122328304.45048  95320753.24248  23278304.8354   23278306.8824   23278305.4734
       222.000         171.000
 127832456.33248  99609699.26448  24325712.9594   24325714.1434   24325712.5734
       216.000         166.000
 107727466.04748  83943468.03248  20499865.5944   20499866.9604   20499865.4424
       252.000         235.000
 132927677.85648  85787807.17448  23392354.4214   23392354.2754   23392354.9114
       225.000         180.000
 09  1 22  2  5 30.0000000  0 10G 9G26G 5G30G15G14G18G17G12G22
 115279091.70748  72035645.92748  20033952.6954   20033955.2774   20033952.9294
       250.000         228.000
 121328841.66848 112334142.35848  24991062.1934   24991066.7754   24991062.9104
       202.000         149.000
 109685346.91748  85469083.58648  20872442.1634   20872444.7774   20872443.0314
       250.000         220.000
 117983585.95148  91935248.88048  22451540.3064   22451542.3844   22451539.5884
       234.000         191.000
 120219112.07248  93677223.68548  22876940.8584   22876942.2814   22876940.7294
       233.000         195.000
 136526338.84248  88591944.15748  24077167.9874   24077169.6884   24077168.7364
       209.000         156.000
 122395888.39948  95373416.05348  23291166.0764   23291167.6164   23291166.4314
       224.000         171.000
 127907129.00948  99667885.77348  24339922.5284   24339924.2894   24339922.6874
       213.000         164.000
 107704771.40148  83925783.90448  20495547.0564   20495548.3484   20495547.2404
       251.000         235.000
 132950363.90548  85805484.61248  23396671.2414   23396671.8984   23396671.2354
       226.000         178.000
 09  1 22  2  6  0.0000000  0 10G 9G26G 5G30G15G14G18G17G12G22
 115297906.97748  72050307.15848  20037533.2384   20037535.6674   20037533.4724
       250.000         227.000
 121442962.98248 112423068.00948  25012779.4244   25012782.2044   25012779.5534
       209.000         149.000
 109634851.17848  85429736.26248  20862832.9824   20862835.7074   20862833.4424
       250.000         220.000
 117894613.53048  91865919.73348  22434609.3834   22434611.6894   22434609.3544
       232.000         191.000
 120319607.97948  93755532.18348  22896064.3834   22896065.8344   22896064.1214
       231.000         193.000
 136425256.21248  88513178.43848  24057933.7094   24057934.1794   24057933.0454
       214.000         156.000
 122463780.61448  95426319.08848  23304085.1334   23304087.0864   23304085.6664
       223.000         173.000
 127982187.94348  99726373.24148  24354205.6814   24354207.5144   24354205.5654
       216.000         165.000
 107682513.29548  83908439.93548  20491311.3694   20491312.7324   20491310.9714
       252.000         235.000
 132973535.35548  85823540.26148  23401080.1134   23401081.2624   23401079.5874
       226.000         179.000
 09  1 22  2  6 30.0000000  0 10G 9G26G 5G30G15G14G18G17G12G22
 115317096.91648  72065260.36548  20041184.9164   20041187.3004   20041185.0274
       251.000         227.000
 121557134.15848 112512032.59348  25034504.8474   25034507.1734   25034505.1064
       211.000         144.000
 109584759.93648  85390704.12748  20853300.9434   20853303.7914   20853301.3984
       250.000         221.000
 117805907.38748  91796798.08948  22417729.1524   22417731.4184   22417728.2934
       234.000         191.000
 120420349.28248  93834031.88448  22915234.5174   22915236.3384   22915233.9184
       231.000         193.000
 136324337.25648  88434540.29948  24038729.5064   24038730.0764   24038729.4434
       214.000         160.000
 122531978.95148  95479460.62148  23317063.2294   23317065.1294   23317063.9354
       224.000         172.000
 128057631.87548  99785160.71648  24368562.5534   24368563.7604   24368562.3404
       214.000         166.000
 107660692.12648  83891436.43248  20487158.9884   20487160.1774   20487158.9544
       251.000         235.000
 132997191.95648  85841973.95548  23405582.1964   23405582.7544   23405582.0594
       225.000         179.000
 09  1 22  2  7  0.0000000  0 10G 9G26G 5G30G15G14G18G17G12G22
 115336661.19248  72080505.24248  20044907.7684   20044910.3924   20044907.9464
       249.000         227.000
 121671352.90548 112601034.25048  25056239.8714   25056243.1494   25056239.8764
       205.000         143.000
 109535072.72848  85351986.83348  20843845.7274   20843848.5914   20843846.2604
       250.000         221.000
 117717467.96648  91727884.27248  22400899.7004   22400902.1334   22400899.7444
       234.000         193.000
 120521333.66548  93912721.01148  22934451.3214   22934453.0634   22934451.5434
       230.000         192.000
 136223583.67348  88356031.03848  24019557.1584   24019557.6414   24019556.6354
       213.000         159.000
 122600479.78448  95532837.89648  23330098.2994   23330100.0184   23330098.5534
       223.000         172.000
 128133457.80348  99844245.85848  24382991.8184   24382992.8854   24382990.9144
       216.000         166.000
 107639306.80948  83874772.56548  20483089.5584   20483090.6874   20483089.4524
       252.000         236.000
 133021331.72248  85860784.13448  23410175.6514   23410176.0824   23410175.7564
       224.000         179.000
 09  1 22  2  7 30.0000000  0 10G 9G26G 5G30G15G14G18G17G12G22
 115356600.42848  72096042.31148  20048702.0824   20048704.7224   20048702.0594
       251.000         227.000
 121785617.60848 112690071.60848  25077983.8274   25077987.3714   25077982.6334
       204.000         140.000
 109485790.56148  85313585.14748  20834467.6244   20834470.4514   20834468.1224
       250.000         221.000
 117629296.97448  91659179.60948  22384121.8764   22384123.8974   22384121.5424
       236.000         194.000
 120622559.24448  93991598.09148  22953713.9314   22953715.5754   22953713.4824
       231.000         192.000
 136122998.69748  88277653.12648  24000416.3134   24000416.5124   24000415.6364
       213.000         159.000
 122669281.26648  95586449.43448  23343190.8324   23343192.8694   23343191.5624
       222.000         173.000
 128209664.27348  99903627.50348  24397493.4184   24397494.4894   24397492.7854
       217.000         165.000
 107618357.51248  83858448.45048  20479102.9934   20479104.1774   20479103.0634
       252.000         235.000
 133045953.51548  85879969.94248  23414861.2164   23414861.7114   23414860.8674
       225.000         178.000
 09  1 22  2  8  0.0000000  0 10G 9G26G 5G30G15G14G18G17G12G22
 115376914.40548  72111871.37848  20052567.6654   20052570.2494   20052567.8244
       249.000         227.000
 121899925.99148 112779143.08948  25099735.2304   25099738.8204   25099734.8114
       196.000         142.000
 109436912.99148  85275498.73748  20825166.3134   20825169.4764   20825166.8884
       250.000         222.000
 117541394.91448  91590684.52248  22367394.4204   22367396.7944   22367394.2024
       236.000         193.000
 120724023.08148  94070660.82048  22973021.8284   22973023.6244   22973021.5574
       230.000         192.000
 136022584.22848  88199408.11048  23981306.7804   23981309.7504   23981305.8224
       213.000         162.000
 122738379.29748  95640292.02948  23356339.7694   23356341.7094   23356340.5274
       224.000         171.000
 128286248.09248  99963303.21748  24412066.7174   24412067.6854   24412066.6064
       214.000         163.000
 107597843.12448  83842463.22648  20475199.2434   20475200.1644   20475199.0704
       252.000         236.000
 133071054.99548  85899529.50148  23419638.0344   23419638.2254   23419638.2194
       223.000         178.000
 09  1 22  2  8 30.0000000  0 10G 9G26G 5G30G15G14G18G17G12G22
 115397603.25548  72127992.55648  20056504.8904   20056507.1284   20056504.9654
       251.000         227.000
 122014276.20348 112868247.15948  25121495.6344   25121498.8404   25121494.9774
       204.000         147.000
 109388440.56848  85237728.01548  20815942.4034   20815945.3564   20815942.8984
       251.000         222.000
 117453762.91048  91522399.84548  22350718.6244   22350720.8404   22350718.5714
       236.000         194.000
 120825723.39548  94149907.80048  22992374.5034   22992376.5604   22992374.0774
       230.000         191.000
 135922342.76648  88121297.88948  23962232.1704   23962234.3614   23962232.6914
       215.000         159.000
 122807770.90448  95694363.40248  23369544.2534   23369546.3694   23369544.7404
       222.000         168.000
 128363207.24648 100023271.39048  24426711.6414   24426713.5464   24426711.5634
       213.000         159.000
 107577763.00148  83826816.38848  20471378.1774   20471379.3094   20471378.0824
       252.000         236.000
 133096634.93448  85919461.90748  23424505.9884   23424506.2074   23424506.0884
       224.000         179.000
 09  1 22  2  9  0.0000000  0 10G 9G26G 5G30G15G14G18G17G12G22
 115418666.86348  72144405.75648  20060512.9454   20060515.3464   20060513.1284
       250.000         227.000
 122128666.31648 112957382.39148  25143263.6064   25143266.4014   25143263.0484
       203.000         145.000
 109340373.46448  85200273.11748  20806795.6404   20806798.4024   20806796.1784
       250.000         222.000
 117366401.76448  91454326.23948  22334094.2734   22334096.7674   22334094.2524
       236.000         194.000
 120927657.91848  94229337.29848  23011772.1434   23011773.8244   23011771.7044
       230.000         191.000
 135822277.04848  88043324.60448  23943190.2054   23943192.1804   23943190.4874
       216.000         160.000
 122877453.99848  95748661.90348  23382804.4184   23382806.4464   23382804.5684
       224.000         169.000
 128440539.11948 100083530.01448  24441427.1074   24441429.0024   24441427.3514
       211.000         153.000
 107558117.38548  83811508.12548  20467639.8304   20467640.8764   20467639.9044
       253.000         236.000
 133122691.48448  85939765.70848  23429463.8584   23429464.7454   23429464.3714
       225.000         178.000
 09  1 22  2  9 30.0000000  0 10G 9G26G 5G30G15G14G18G17G12G22
 115440106.50448  72161111.96248  20064592.9544   20064595.2204   20064593.1434
       250.000         227.000
 122243095.59948 113046548.03948  25165039.2914   25165042.2794   25165037.9774
       207.000         146.000
 109292713.17748  85163135.23748  20797725.9334   20797729.0554   20797726.5644
       251.000         222.000
 117279314.18048  91386465.79548  22317521.9694   22317524.5844   22317521.5934
       235.000         194.000
 121029825.84948  94308948.66148  23031214.3134   23031215.9974   23031214.0254
       232.000         192.000
 135722390.55248  87965490.96448  23924182.7794   23924184.2154   23924183.9464
       218.000         163.000
 122947426.31948  95803185.78948  23396120.2094   23396122.0574   23396121.0294
       224.000         172.000
 128518242.54548 100144078.16748  24456213.5884   24456215.2424   24456213.7934
       204.000         147.000
 107538906.52848  83796538.63048  20463984.1424   20463985.0344   20463983.9294
       253.000         236.000
 133149224.40948  85960440.71048  23434512.9744   23434513.8824   23434513.0894
       224.000         178.000
 09  1 22  2 10  0.0000000  0 10G 9G26G 5G30G15G14G18G17G12G22
 115461920.46548  72178109.86548  20068743.8924   20068746.2224   20068744.0424
       250.000         227.000
 122357560.28348 113135741.33748  25186820.4664   25186823.0124   25186819.2704
       199.000         141.000
 109245457.99848  85126313.02748  20788733.6574   20788736.7204   20788734.5744
       250.000         222.000
 117192498.94448  91318817.56348  22301001.3464   22301004.0394   22301001.2604
       234.000         193.000
 121132222.94548  94388738.61048  23050699.8964   23050701.3444   23050700.0264
       232.000         191.000
 135622684.12948  87887797.66048  23905208.7154   23905210.6474   23905208.5204
       217.000         161.000
 123017682.74548  95857931.04948  23409489.6544   23409491.7474   23409490.2294
       223.000         173.000
 128596313.45748 100204912.64148  24471069.9934   24471071.5184   24471070.3384
       202.000         141.000
 107520127.78648  83781905.85448  20460410.8284   20460411.5184   20460411.0714
       252.000         236.000
 133176229.94448  85981483.97548  23439652.4334   23439652.1384   23439652.7344
       226.000         176.000
 09  1 22  2 10 30.0000000  0 10G 9G26G 5G30G15G14G18G17G12G22
 115484110.13948  72195400.51548  20072966.6194   20072968.8624   20072966.9844
       250.000         227.000
 122472059.37048 113224961.42448  25208609.3534   25208611.9304   25208607.1414
       204.000         144.000
 109198609.21748  85089807.47848  20779818.8014   20779821.5774   20779819.6534
       250.000         223.000
 117105958.07448  91251383.14648  22284532.7584   22284535.9004   22284532.4514
       234.000         194.000
 121234847.86348  94468706.07848  23070228.7664   23070230.4254   23070228.5144
       229.000         191.000
 135523161.36748  87810247.45648  23886270.5784   23886271.8374   23886271.8644
       220.000         163.000
 123088220.97848  95912895.89248  23422912.4134   23422915.1684   23422912.8534
       224.000         172.000
 128674750.63448 100266032.51448  24485996.3254   24485997.7854   24485995.6604
       203.000         138.000
 107501781.75048  83767610.24148  20456919.4994   20456920.3874   20456919.0874
       252.000         236.000
 133203707.58248  86002895.09948  23444881.0394   23444880.9914   23444880.7674
       225.000         178.000
 09  1 22  2 11  0.0000000  0 10G 9G26G 5G30G15G14G18G17G12G22
 115506674.23548  72212982.93648  20077260.4234   20077262.8584   20077260.7184
       250.000         227.000
 122586589.85848 113314205.90648  25230403.1274   25230407.7094   25230402.2094
       200.000         144.000
 109152165.72248  85053617.74348  20770980.9394   20770983.8584   20770981.6534
       251.000         224.000
 117019691.29848  91184162.29948  22268117.2204   22268119.5274   22268116.8544
       235.000         193.000
 121337697.36448  94548848.53948  23089800.0594   23089802.1864   23089799.5464
       228.000         188.000
 135423823.51748  87732841.34748  23867367.0354   23867368.4564   23867368.5504
       214.000         163.000
 123159037.35448  95968077.47148  23436388.2864   23436390.8444   23436389.2444
       221.000         170.000
 138753578.05958  90327464.64358  24500990.4635   24500990.3665   24500989.4925
       195.000         134.000
 107483866.59248  83753650.38648  20453510.2014   20453511.2794   20453510.1224
       252.000         236.000
 133231654.45948  86024671.86148  23450199.3724   23450199.5594   23450199.7794
       226.000         177.000
 09  1 22  2 11 30.0000000  0 10G 9G26G 5G30G15G14G18G17G12G22
 115529614.33348  72230858.32448  20081625.8804   20081628.2874   20081626.0664
       250.000         227.000
 122701151.46348 113403474.65748  25252204.4914   25252207.2434   25252203.0294
       210.000         150.000
 109106129.63548  85017745.46548  20762220.4994   20762223.3844   20762221.1194
       251.000         224.000
 116933701.62048  91117157.37448  22251753.6864   22251756.0634   22251753.8094
       234.000         193.000
 121440771.12348  94629165.74048  23109414.2684   23109416.3954   23109414.0024
       228.000         188.000
 135324674.71448  87655582.54248  23848500.1624   23848501.2644   23848499.3454
       218.000         163.000
 123230130.69848  96023474.88248  23449916.6934   23449918.9624   23449916.7804
       220.000         170.000
 118832795.17758 110389204.64158  24516054.9045   24516052.2065   24516049.2625
       190.000         125.000
 107466383.49848  83740027.19448  20450183.3184   20450184.4454   20450183.2524
       253.000         237.000
 133260070.40148  86046814.14548  23455607.1894   23455606.3264   23455607.3154
       226.000         177.000
