     2.11           OBSERVATION DATA    G (GPS)             RINEX VERSION / TYPE
teqc  2008Oct2      gpsops              20090105 00:05:33UTCPGM / RUN BY / DATE
    30.0000                                                 INTERVAL
     1     1                                                WAVELENGTH FACT L1/2
     7    L1    L2    P1    P2    C1    S1    S2            # / TYPES OF OBSERV
Linux 2.4.20-8|Pentium IV|gcc -static|Linux|486/DX+         COMMENT
     2.10           OBSERVATION DATA    GPS                 COMMENT
soc2rnx ver 1.20    gpsops               5-Jan-2009 00:05:32COMMENT
S1, if present, is the SNR for the C/A data stream on L1.   COMMENT
 SNR is mapped to RINEX snr flag value [1,4-9]              COMMENT
    SNR:   >316  >100  >31.6  >10  >3.2    >0 bad=0         COMMENT
L1 & L2:      9     8     7     6     5     4     1         COMMENT
                                                            COMMENT
This data is provided as a public service by NASA/JPL.      COMMENT
No warranty is expressed or implied regarding suitability   COMMENT
for use.  For further information, contact:                 COMMENT
Dave Stowers, NASA/JPL m/s 238-600                          COMMENT
4800 Oak Grove Drive, Pasadena CA 91109 USA                 COMMENT
                                                            COMMENT
Forced Modulo Decimation to 30 seconds                      COMMENT
  2009     1     4     0     0    0.0000000     GPS         TIME OF FIRST OBS
DSN                 JPL                                     OBSERVER / AGENCY
451-U               AOAD/M_T        NONE                    ANT # / TYPE
  4849202.3940  -360328.9929  4114913.1862                  APPROX POSITION XYZ
        0.0254        0.0000        0.0000                  ANTENNA: DELTA H/E/N
LP03574             ASHTECH Z-XII3      CC00                REC # / TYPE / VERS
MADR                                                        MARKER NAME
13407S012                                                   MARKER NUMBER
                                                            END OF HEADER
 09  1  4  0  0  0.0000000  0  9G 9G24G 8G21G26G15G27G10G28
 124002902.45448  96625626.14048  23596979.1624   23596981.6744   23596979.9074
       226.000         174.000
 127021089.39748  98977455.65348  24171321.0184   24171324.0414   24171320.1694
       217.000         165.000
 120607943.35048  93980207.98648  22950933.8514   22950937.0954   22950934.5864
       228.000         187.000
 128417789.54548 100065804.62148  24437099.7854   24437099.1004   24437102.6404
       209.000         141.000
 105607055.17948  82291202.09548  20096360.3354   20096363.0434   20096360.2784
       250.000         228.000
 111004098.46848  86496696.47048  21123380.6674   21123382.5004   21123380.7084
       248.000         225.000
 120943839.67448  94241944.40148  23014852.8444   23014855.4524   23014852.7384
       233.000         193.000
 113262442.71248  88256434.53348  21553137.4324   21553140.5434   21553138.1264
       244.000         211.000
 114460050.58948  89189641.82348  21781029.2204   21781030.8054   21781029.8224
       242.000         210.000
 09  1  4  0  0 30.0000000  0  9G 9G24G 8G21G26G15G27G10G28
 123903590.39848  96548240.19448  23578080.0364   23578083.4044   23578080.2814
       226.000         172.000
 127086543.66848  99028458.96648  24183777.3384   24183780.4764   24183777.7294
       218.000         164.000
 120693293.44948  94046714.52748  22967175.5054   22967178.8784   22967176.1034
       229.000         187.000
 128422451.36848 100069437.21648  24437985.6254   24437987.5194   24437989.1194
       209.000         147.000
 105600761.61948  82286298.02448  20095162.7814   20095165.3704   20095162.6224
       250.000         228.000
 110953841.42648  86457535.14548  21113817.1164   21113818.9064   21113816.7114
       248.000         225.000
 121014714.79448  94297171.75448  23028339.5544   23028342.7964   23028339.3974
       232.000         193.000
 113342666.56048  88318946.61448  21568403.4534   21568406.7414   21568404.1734
       244.000         211.000
 114475968.20748  89202045.17148  21784058.0874   21784060.0054   21784058.2954
       242.000         211.000
 09  1  4  0  1  0.0000000  0  9G 9G24G 8G21G26G15G27G10G28
 123804449.43548  96470987.54648  23559214.6194   23559217.7124   23559215.1344
       225.000         172.000
 127152235.18248  99079647.14548  24196277.7234   24196281.4484   24196277.5104
       219.000         162.000
 120778759.73248  94113311.63148  22983439.4864   22983442.3074   22983439.7054
       230.000         187.000
 128427606.40348 100073454.13848  24438966.9194   24438968.9654   24438967.5454
       210.000         148.000
 105594825.95748  82281672.83448  20094033.2914   20094035.9124   20094033.2554
       251.000         228.000
 110903815.23048  86418553.70448  21104297.4724   21104299.0404   21104297.2514
       248.000         225.000
 121085648.67648  94352444.89648  23041837.8414   23041840.7214   23041837.9344
       232.000         193.000
 113423278.22048  88381760.89048  21583743.2564   21583746.9014   21583744.3124
       243.000         211.000
 114492413.76448  89214859.89248  21787187.5844   21787189.5734   21787187.9304
       243.000         210.000
 09  1  4  0  1 30.0000000  0  9G 9G24G 8G21G26G15G27G10G28
 123705482.37548  96393870.38648  23540381.4404   23540384.3324   23540381.7254
       226.000         171.000
 127218162.75548  99131019.28448  24208823.3744   24208826.8674   24208823.9714
       219.000         162.000
 120864342.33448  94179999.35248  22999725.2684   22999728.4564   22999725.8834
       229.000         187.000
 128433255.39548 100077855.92348  24440041.4824   24440043.6244   24440040.5594
       201.000         146.000
 105589250.49948  82277328.31348  20092972.5154   20092974.8514   20092972.4664
       251.000         228.000
 110854022.65648  86379754.30148  21094822.4174   21094823.8684   21094822.2894
       249.000         225.000
 121156641.84848  94407764.24448  23055347.4684   23055350.1284   23055347.5344
       232.000         193.000
 113504277.22748  88444876.98748  21599156.7444   21599160.4334   21599157.6894
       244.000         210.000
 114509388.66848  89228087.09948  21790417.6984   21790419.4704   21790418.1674
       242.000         210.000
 09  1  4  0  2  0.0000000  0  9G 9G24G 8G21G26G15G27G10G28
 123606690.09248  96316889.41148  23521581.9344   23521584.9714   23521582.4624
       227.000         173.000
 127284323.35148  99182572.98448  24221412.9714   24221417.0744   24221413.3114
       216.000         161.000
 120950039.45748  94246776.30148  23016032.6024   23016036.3514   23016033.9084
       228.000         187.000
 128439397.22748 100082641.78948  24441209.9194   24441212.5034   24441209.9034
       201.000         149.000
 105584035.64848  82273264.78648  20091980.0884   20091982.6114   20091980.1274
       251.000         228.000
 110804465.06148  86341137.99848  21085391.9834   21085393.4774   21085391.7854
       248.000         226.000
 121227693.27848  94463128.98048  23068867.9874   23068871.0174   23068868.0824
       232.000         192.000
 113585660.77948  88508292.73548  21614643.7534   21614646.9784   21614644.4304
       243.000         210.000
 114526892.01048  89241726.06248  21793748.5464   21793750.3554   21793748.9354
       242.000         209.000
 09  1  4  0  2 30.0000000  0  9G 9G24G 8G21G26G15G27G10G28
 123508073.28648  96240045.13248  23502815.9964   23502818.7454   23502816.9114
       224.000         172.000
 127350713.88448  99234305.85748  24234046.4904   24234050.9474   24234046.2634
       217.000         161.000
 121035849.42048  94313641.18148  23032362.1564   23032365.1684   23032362.3734
       229.000         185.000
 128446030.71448 100087810.72648  24442472.2444   24442474.6304   24442470.0874
       207.000         153.000
 105579181.68748  82269482.46948  20091056.3674   20091058.9284   20091056.2714
       250.000         228.000
 110755143.05248  86302705.26148  21076006.2674   21076007.8194   21076005.7404
       248.000         226.000
 121298801.71248  94518538.13648  23082399.3924   23082402.4404   23082399.8344
       232.000         192.000
 113667426.76748  88572006.48648  21630203.1784   21630206.4924   21630203.8274
       243.000         210.000
 114544922.61248  89255775.88348  21797179.4654   21797181.4334   21797179.8014
       241.000         209.000
 09  1  4  0  3  0.0000000  0  9G 9G24G 8G21G26G15G27G10G28
 123409632.17348  96163337.78848  23484082.7424   23484085.6754   23484082.2514
       225.000         174.000
 127417330.80748  99286215.15448  24246724.1274   24246727.1984   24246724.5854
       215.000         158.000
 121121769.95348  94380592.23848  23048711.9224   23048715.0984   23048713.3904
       226.000         184.000
 128453154.22148 100093361.49048  24443829.5414   24443830.0684   24443830.1494
       215.000         156.000
 105574688.66548  82265981.40948  20090201.3114   20090203.8954   20090201.3244
       250.000         227.000
 110706057.39148  86264456.68248  21066665.6224   21066667.1684   21066665.4344
       249.000         226.000
 121369965.61848  94573990.50948  23095941.9914   23095944.2924   23095942.3754
       233.000         191.000
 113749572.61448  88636016.22148  21645835.1934   21645838.5684   21645835.8274
       243.000         210.000
 114563479.14748  89270235.52648  21800710.6954   21800712.5634   21800711.3644
       241.000         209.000
 09  1  4  0  3 30.0000000  0  9G 9G24G 8G21G26G15G27G10G28
 123311367.15648  96086767.65048  23465383.5614   23465386.6734   23465384.5204
       224.000         172.000
 127484170.95348  99338298.37848  24259443.0774   24259446.5454   24259442.8054
       216.000         157.000
 121207799.29248  94447628.07348  23065082.5224   23065085.9474   23065082.5524
       226.000         183.000
 128460766.31848 100099292.98848  24445277.3654   24445278.8824   24445280.3814
       213.000         155.000
 105570556.75848  82262761.73448  20089415.1304   20089417.6084   20089415.0434
       250.000         228.000
 110657209.03348  86226393.02948  21057369.9424   21057371.8844   21057369.6434
       249.000         226.000
 121441183.68548  94629485.10648  23109494.1844   23109496.5254   23109494.6034
       231.000         191.000
 113832095.21948  88700319.54448  21661538.8894   21661542.1484   21661540.1934
       244.000         210.000
 114582560.40648  89285104.03948  21804341.5934   21804343.7804   21804342.1934
       241.000         209.000
 09  1  4  0  4  0.0000000  0  9G 9G24G 8G21G26G15G27G10G28
 123213280.16948  96010336.24148  23446718.2234   23446721.0994   23446717.7004
       225.000         172.000
 127551232.69348  99390554.25348  24272203.4444   24272208.3704   24272203.9404
       211.000         155.000
 121293936.78048  94514748.16648  23081474.0404   23081477.5904   23081474.3564
       228.000         184.000
 128468866.98348 100105605.19048  24446819.3924   24446819.9984   24446819.7484
       217.000         158.000
 105566787.34548  82259824.52648  20088697.8594   20088700.1974   20088697.7664
       250.000         227.000
 110608600.36048  86188516.14648  21048120.0954   21048121.6874   21048119.9034
       249.000         226.000
 121512455.78448  94685021.79248  23123056.5184   23123059.6914   23123056.7574
       231.000         191.000
 113914993.60148  88764915.67648  21677313.7024   21677317.2104   21677314.8404
       243.000         210.000
 114602166.85748  89300381.80148  21808072.6814   21808074.6344   21808073.0244
       242.000         209.000
 09  1  4  0  4 30.0000000  0  9G 9G24G 8G21G26G15G27G10G28
 123115372.34048  95934044.44048  23428086.7694   23428089.8354   23428086.9904
       225.000         173.000
 127618513.13348  99442980.55548  24285007.4314   24285011.1564   24285007.0314
       215.000         158.000
 121380181.16748  94581951.57748  23097885.9644   23097889.2834   23097886.7664
       228.000         184.000
 128477455.54548 100112297.54548  24448453.0744   24448454.7324   24448453.7884
       216.000         159.000
 105563381.63248  82257170.72348  20088049.6944   20088052.1274   20088049.4644
       251.000         227.000
 110560232.53848  86150826.94448  21038915.8474   21038917.6374   21038915.5784
       249.000         227.000
 121583781.03648  94740599.88648  23136629.4904   23136632.6254   23136629.5754
       232.000         191.000
 113998266.03848  88829803.28848  21693159.8994   21693163.5014   21693160.2264
       242.000         209.000
 114622297.89448  89316068.32748  21811903.1834   21811905.3394   21811903.8034
       241.000         209.000
 09  1  4  0  5  0.0000000  0  9G 9G24G 8G21G26G15G27G10G28
 123017644.53048  95857892.93348  23409489.9874   23409493.3364   23409490.0834
       226.000         172.000
 127686008.86348  99495574.62048  24297851.4424   24297855.5684   24297851.6434
       214.000         159.000
 121466530.59148  94649236.82248  23114317.8384   23114321.1914   23114317.9724
       229.000         184.000
 128486530.62048 100119369.01448  24450180.0814   24450181.5244   24450180.7444
       209.000         156.000
 105560339.42148  82254800.16248  20087470.9074   20087473.1804   20087470.8664
       251.000         227.000
 110512106.59648  86113326.21748  21029757.7624   21029759.7604   21029757.4004
       249.000         227.000
 121655158.28248  94796218.51248  23150212.0874   23150215.0244   23150212.5544
       232.000         190.000
 114081909.83648  88894980.26948  21709076.8494   21709080.2344   21709077.6574
       243.000         208.000
 114642952.37448  89332162.73448  21815833.6724   21815835.8344   21815834.2404
       242.000         209.000
 09  1  4  0  5 30.0000000  0  9G 9G24G 8G21G26G15G27G10G28
 122920097.32948  95781882.13648  23390927.1844   23390930.1554   23390927.7514
       226.000         171.000
 127753716.83748  99548334.04448  24310735.9284   24310739.3714   24310735.6794
       214.000         157.000
 121552983.21448  94716602.49248  23130769.3794   23130772.3524   23130770.0094
       227.000         183.000
 128496090.37648 100126818.15848  24451998.5214   24452000.4694   24451999.0374
       207.000         153.000
 105557660.96148  82252713.04748  20086961.2644   20086963.5034   20086961.2114
       251.000         228.000
 110464223.49248  86076014.71448  21020645.9254   21020647.7554   21020645.6084
       249.000         227.000
 121726586.26648  94851876.67248  23163804.2454   23163806.9854   23163804.8394
       229.000         190.000
 114165922.09748  88960444.36248  21725063.6484   21725067.1734   21725064.8414
       242.000         207.000
 114664128.95248  89348663.96648  21819863.6754   21819865.6554   21819864.2274
       242.000         209.000
 09  1  4  0  6  0.0000000  0  9G 9G24G 8G21G26G15G27G10G28
 122822732.24848  95706013.22848  23372399.5664   23372401.6144   23372399.5294
       227.000         172.000
 127821634.89748  99601257.19048  24323660.0804   24323663.6674   24323660.7604
       215.000         156.000
 121639538.07848  94784047.81648  23147240.0314   23147243.5684   23147239.7104
       229.000         184.000
 128506134.56748 100134644.79648  24453910.8334   24453911.3934   24453909.4394
       205.000         153.000
 105555347.66848  82250910.47048  20086521.0094   20086523.2624   20086520.8744
       251.000         228.000
 110416585.41548  86038894.14948  21011580.7854   21011582.5474   21011580.4674
       249.000         227.000
 121798064.55248  94907574.01148  23177406.1774   23177409.2074   23177406.5474
       230.000         190.000
 114250301.68848  89026194.67548  21741120.4784   21741124.1874   21741121.1414
       241.000         208.000
 114685827.68048  89365572.06748  21823992.9484   21823994.9344   21823993.7604
       242.000         209.000
 09  1  4  0  6 30.0000000  0  9G 9G24G 8G21G26G15G27G10G28
 122725550.12148  95630286.91148  23353906.4744   23353908.7344   23353906.4784
       228.000         172.000
 127889760.17848  99654341.82548  24336623.4774   24336628.0394   24336623.5504
       212.000         154.000
 121726193.70348  94851571.66148  23163730.3424   23163733.7094   23163731.5754
       228.000         184.000
 128516661.89948 100142847.90448  24455913.6784   24455915.7574   24455913.3464
       212.000         155.000
 105553399.92248  82249392.74348  20086150.3544   20086152.7094   20086150.2594
       250.000         228.000
 110369193.26748  86001965.20448  21002562.4314   21002564.1714   21002562.2534
       249.000         228.000
 121869592.23148  94963309.84548  23191017.4234   23191020.5924   23191017.7584
       231.000         189.000
 114335046.18348  89092229.34548  21757246.8794   21757250.5314   21757247.3034
       241.000         207.000
 114708047.35248  89382886.10348  21828220.9624   21828223.0824   21828221.5354
       242.000         209.000
 09  1  4  0  7  0.0000000  0  9G 9G24G 8G21G26G15G27G10G28
 122628550.92848  95554703.18548  23335448.1164   23335450.7784   23335448.6864
       227.000         175.000
 127958089.15848  99707585.16748  24349626.7474   24349630.5254   24349627.2984
       207.000         153.000
 121812948.28348  94919172.61548  23180239.0314   23180242.3184   23180239.1224
       228.000         182.000
 128527670.68148 100151426.15948  24458008.2844   24458010.7794   24458007.9774
       209.000         153.000
 105551817.52448  82248159.70048  20085849.2534   20085851.6474   20085849.0024
       251.000         228.000
 110322047.78448  85965228.46848  20993590.6944   20993592.7834   20993590.2234
       249.000         228.000
 121941167.92948  95019083.11048  23204637.8344   23204640.6874   23204638.5184
       229.000         188.000
 114420152.57848  89158546.01148  21773442.1674   21773445.5714   21773442.6624
       241.000         207.000
 114730786.63048  89400605.02748  21832548.3774   21832550.2344   21832549.1564
       240.000         208.000
 09  1  4  0  7 30.0000000  0  9G 9G24G 8G21G26G15G27G10G28
 122531736.46948  95479263.41348  23317024.9594   23317027.8174   23317025.1044
       225.000         176.000
 128026619.44748  99760985.33148  24362666.7304   24362671.4794   24362666.1844
       210.000         150.000
 121899800.67448  94986849.78848  23196766.5254   23196769.3744   23196767.1214
       228.000         181.000
 128539160.14548 100160379.00048  24460195.0494   24460197.3454   24460196.5684
       212.000         157.000
 105550601.64948  82247212.26348  20085618.0014   20085620.3144   20085617.9694
       252.000         228.000
 110275150.77948  85928685.34248  20984666.6124   20984668.4294   20984666.0224
       249.000         227.000
 122012791.34148  95074893.55048  23218266.8774   23218270.2644   23218266.6414
       229.000         187.000
 114505619.10948  89225143.29948  21789705.7544   21789709.2404   21789706.8184
       241.000         206.000
 114754044.86448  89418728.32148  21836973.8184   21836975.9754   21836974.3704
       241.000         209.000
 09  1  4  0  8  0.0000000  0  9G 9G24G 8G21G26G15G27G10G28
 122435106.95448  95403967.70848  23298636.6564   23298639.8224   23298636.7994
       226.000         176.000
 128095347.95648  99814540.02048  24375746.3344   24375749.9174   24375747.0894
       209.000         151.000
 121986749.27448  95054601.93048  23213312.3664   23213315.2204   23213313.6304
       228.000         182.000
 128551128.87848 100169705.23348  24462473.2534   24462474.5674   24462473.9994
       218.000         160.000
 105549752.38348  82246550.48948  20085456.3864   20085458.7584   20085456.3944
       251.000         228.000
 110228503.28848  85892336.64648  20975789.8604   20975791.6004   20975789.5124
       250.000         228.000
 122084460.84748  95130739.89248  23231905.6904   23231908.8984   23231906.1134
       230.000         187.000
 114591443.16848  89292019.17748  21806037.2414   21806041.1124   21806038.4044
       240.000         206.000
 114777821.05348  89437255.23048  21841498.6134   21841500.6134   21841499.2044
       242.000         208.000
 09  1  4  0  8 30.0000000  0  9G 9G24G 8G21G26G15G27G10G28
 122338663.47048  95328816.95848  23280284.2604   23280287.2724   23280284.2324
       226.000         177.000
 128164271.51048  99868246.64048  24388862.5694   24388866.1714   24388863.2034
       207.000         152.000
 122073792.40648  95122427.71648  23229875.7744   23229879.3884   23229876.0534
       228.000         181.000
 128563575.15448 100179403.65448  24464841.7184   24464842.8694   24464844.5234
       217.000         162.000
 105549270.29448  82246174.83548  20085364.6524   20085366.9344   20085364.5624
       251.000         228.000
 110182106.25248  85856183.11448  20966960.9354   20966962.5784   20966960.7074
       250.000         228.000
 122156175.41648  95186621.36548  23245552.7894   23245555.6164   23245553.0734
       230.000         187.000
 114677622.34448  89359171.77148  21822436.9594   21822440.5084   21822437.7234
       240.000         205.000
 114802114.06548  89456184.86048  21846121.5194   21846123.2514   21846121.9264
       241.000         208.000
 09  1  4  0  9  0.0000000  0  9G 9G24G 8G21G26G15G27G10G28
 122242407.67548  95253812.46448  23261967.0514   23261970.2684   23261966.9354
       227.000         175.000
 128233387.96548  99922103.62648  24402014.3654   24402018.2244   24402013.9234
       204.000         147.000
 122160929.20648  95190326.50648  23246457.4964   23246461.4754   23246458.1664
       227.000         182.000
 128576499.06248 100189474.21548  24467300.0224   24467301.9374   24467299.4324
       198.000         151.000
 105549156.61948  82246086.25548  20085343.1994   20085345.3284   20085343.1314
       251.000         228.000
 110135961.93148  85820226.49048  20958180.1084   20958181.5374   20958179.6564
       249.000         228.000
 122227935.18748  95242538.05948  23259207.9994   23259210.8284   23259208.1734
       227.000         186.000
 114764155.27748  89426600.02948  21838903.8114   21838906.9754   21838904.6904
       242.000         205.000
 114826923.90048  89475517.19948  21850842.5244   21850844.4984   21850842.8094
       242.000         209.000
 09  1  4  0  9 30.0000000  0  9G 9G24G 8G21G26G15G27G10G28
 122146341.45348  95178955.66148  23243686.1564   23243689.3974   23243686.4094
       226.000         175.000
 128302695.37748  99976109.41348  24415203.2654   24415206.3204   24415202.9964
       211.000         150.000
 122248159.00848  95258297.76848  23263056.9274   23263060.3834   23263056.5844
       231.000         180.000
 128589899.77448 100199916.33448  24469849.7504   24469852.5134   24469848.3214
       209.000         150.000
 105549412.81548  82246285.88448  20085391.7734   20085394.0624   20085391.5744
       251.000         229.000
 110090072.37948  85784468.39848  20949447.4474   20949449.1744   20949447.1544
       249.000         228.000
 122299740.14148  95298489.95448  23272871.6894   23272874.7714   23272871.5414
       228.000         185.000
 114851040.35348  89494302.68148  21855437.2204   21855440.8124   21855438.0654
       239.000         204.000
 114852250.05048  89495251.86248  21855662.1114   21855663.6714   21855662.7044
       241.000         208.000
 09  1  4  0 10  0.0000000  0  9G 9G24G 8G21G26G15G27G10G28
 122050464.00548  95104245.97548  23225442.1994   23225444.9194   23225442.9674
       227.000         177.000
 128372189.20548 100030260.41148  24428427.4404   24428430.8604   24428426.9054
       211.000         149.000
 122335479.00848  95326339.30048  23279673.1474   23279676.5914   23279673.9374
       226.000         179.000
 128603774.45948 100210727.70948  24472490.1884   24472492.4984   24472491.6654
       212.000         153.000
 105550037.48748  82246772.64148  20085510.5724   20085512.9474   20085510.4924
       252.000         229.000
 110044437.25648  85748908.55848  20940763.2624   20940765.1464   20940763.0284
       249.000         228.000
 122371587.57548  95354474.94748  23286544.1104   23286546.9934   23286544.4824
       229.000         186.000
 114938273.32748  89562276.41148  21872037.0044   21872040.8784   21872037.7624
       239.000         204.000
 114878090.08248  89515386.95448  21860579.0784   21860580.9284   21860579.5324
       241.000         208.000
 09  1  4  0 10 30.0000000  0  9G 9G24G 8G21G26G15G27G10G28
 121954776.21048  95029684.07948  23207233.4844   23207235.8884   23207234.1224
       227.000         176.000
 128441866.56048 100084554.46448  24441686.0794   24441690.4884   24441687.2034
       206.000         149.000
 122422888.12148  95394450.27148  23296306.8164   23296310.0494   23296306.4334
       226.000         178.000
 128618121.90648 100221907.52648  24475221.4674   24475222.8694   24475222.3334
       214.000         157.000
 105551031.49648  82247547.19548  20085699.6724   20085702.0944   20085699.6264
       251.000         229.000
 109999058.08548  85713548.15848  20932128.1374   20932129.8624   20932127.7614
       250.000         229.000
 122443476.73048  95410492.45948  23300224.1154   23300226.8374   23300224.7264
       227.000         185.000
 115025852.37948  89630519.81748  21888702.8494   21888706.4354   21888703.5654
       240.000         204.000
 114904443.15348  89535921.82348  21865593.7664   21865595.9754   21865594.3184
       239.000         207.000
 09  1  4  0 11  0.0000000  0  9G 9G24G 8G21G26G15G27G10G28
 121859279.32148  94955270.93148  23189060.6144   23189063.3054   23189060.7374
       225.000         178.000
 128511724.72248 100138989.38348  24454979.2404   24454984.1554   24454978.5274
       210.000         149.000
 122510384.53648  95462629.28648  23312956.9644   23312960.3774   23312957.7564
       229.000         179.000
 128632941.27848 100233455.09948  24478041.7154   24478042.9404   24478041.0724
       210.000         157.000
 105552395.45248  82248610.01348  20085959.4444   20085961.6724   20085959.3944
       251.000         229.000
 109953936.34148  85678388.34948  20923541.8034   20923543.4314   20923541.5564
       250.000         229.000
 122515406.92748  95466541.95548  23313911.9034   23313914.5134   23313911.7294
       228.000         185.000
 115113774.96848  89699030.92148  21905434.0284   21905437.6504   21905434.7924
       240.000         204.000
 114931308.15948  89556855.59648  21870705.9414   21870708.0784   21870706.2234
       241.000         208.000
 09  1  4  0 11 30.0000000  0  9G 9G24G 8G21G26G15G27G10G28
 121763974.38848  94881007.39648  23170924.1434   23170927.1594   23170924.0514
       223.000         176.000
 128581761.53948 100193563.50148  24468306.6554   24468311.5644   24468307.2744
       209.000         149.000
 122597967.84848  95530876.02048  23329623.7344   23329626.9534   23329624.7594
       227.000         177.000
 128648231.13348 100245369.26748  24480950.9964   24480952.2584   24480950.5234
       219.000         157.000
 105554130.44448  82249961.95148  20086289.4434   20086291.7504   20086289.3644
       252.000         229.000
 109909073.92048  85643430.60448  20915004.8284   20915006.3574   20915004.7104
       249.000         229.000
 122587377.62448  95522622.99548  23327607.4004   23327610.4454   23327607.7434
       229.000         186.000
 115202039.80848  89767808.71148  21922230.4814   21922234.2904   21922231.0274
       240.000         205.000
 114958684.87448  89578188.10648  21875915.6504   21875917.7354   21875916.3564
       241.000         207.000
 09  1  4  0 12  0.0000000  0  9G 9G24G 8G21G26G15G27G10G28
 121668861.98948  94806893.88748  23152823.9304   23152827.9984   23152824.2174
       225.000         177.000
 128651974.02048 100248274.51248  24481667.8484   24481673.3164   24481667.5554
       212.000         152.000
 122685636.59048  95599189.30748  23346306.1144   23346309.5534   23346306.5814
       225.000         176.000
 128663990.42648 100257649.21848  24483949.4444   24483950.5144   24483951.8284
       212.000         152.000
 105556236.95548  82251603.39648  20086690.3094   20086692.6464   20086690.2164
       252.000         229.000
 109864471.92348  85608675.80448  20906517.2634   20906518.9454   20906517.0104
       249.000         229.000
 122659388.06648  95578735.01048  23341310.6904   23341313.8384   23341311.0744
       228.000         186.000
 115290644.29848  89836851.16748  21939091.3394   21939094.9194   21939092.1724
       240.000         204.000
 114986571.96948  89599918.31348  21881222.5604   21881224.2054   21881222.8764
       241.000         208.000
 09  1  4  0 12 30.0000000  0  9G 9G24G 8G21G26G15G27G10G28
 121573943.36248  94732931.31748  23134762.7174   23134765.1354   23134762.7224
       228.000         179.000
 128722359.37048 100303120.22748  24495062.6254   24495067.4434   24495063.4964
       212.000         153.000
 122773389.50648  95667568.18748  23363004.7364   23363008.6664   23363004.9524
       224.000         174.000
 128680217.69448 100270293.83648  24487037.8084   24487039.2954   24487038.0654
       214.000         157.000
 105558715.10748  82253534.41948  20087161.8944   20087164.1974   20087161.8164
       251.000         229.000
 109820131.44648  85574124.79248  20898079.5454   20898081.1494   20898079.1474
       250.000         229.000
 122731437.40548  95634877.33448  23355021.2674   23355024.2124   23355021.5674
       228.000         185.000
 115379585.52248  89906156.00148  21956016.2744   21956019.6704   21956017.0124
       240.000         204.000
 115014968.26248  89622045.29348  21886626.3884   21886628.1654   21886626.7224
       242.000         209.000
 09  1  4  0 13  0.0000000  0  9G 9G24G 8G21G26G15G27G10G28
 121479219.39948  94659120.43648  23116737.8424   23116740.0854   23116738.1844
       229.000         181.000
 128792914.01248 100358097.85948  24508488.3854   24508493.4894   24508488.6504
       216.000         155.000
 122861224.66948  95736011.13648  23379719.1664   23379723.5444   23379719.6334
       225.000         175.000
 128696911.46548 100283301.94548  24490214.9194   24490216.3124   24490214.9464
       211.000         149.000
 105561565.62648  82255755.57848  20087704.3934   20087706.6834   20087704.2934
       251.000         229.000
 109776053.80348  85539778.57148  20889691.8964   20889693.3914   20889691.6224
       250.000         229.000
 122803524.64748  95691049.18448  23368738.8654   23368741.8204   23368739.2984
       225.000         184.000
 115468861.25048  89975721.50548  21973004.8794   21973008.2614   21973005.8254
       240.000         204.000
 115043872.46148  89644568.04748  21892126.9784   21892128.3194   21892127.7554
       242.000         209.000
 09  1  4  0 13 30.0000000  0  9G 9G24G 8G21G26G15G27G10G28
 121384690.44948  94585461.52548  23098749.3594   23098752.0194   23098749.3454
       227.000         181.000
 128863635.23948 100413205.27648  24521946.3174   24521951.0574   24521946.9044
       214.000         152.000
 122949140.64948  95804517.07148  23396449.5764   23396453.1204   23396449.4284
       228.000         174.000
 128714070.30548 100296672.48348  24493479.6484   24493481.5334   24493481.1504
       211.000         152.000
 105564788.88448  82258267.20548  20088317.7024   20088320.0304   20088317.5994
       251.000         228.000
 109732240.58748  85505638.40448  20881354.3854   20881355.9754   20881354.2474
       250.000         229.000
 122875648.95048  95747249.90148  23382463.3944   23382466.9144   23382462.9684
       227.000         184.000
 115558469.33348  90045545.97048  21990057.0044   21990060.3734   21990057.8884
       240.000         204.000
 115073283.62448  89667485.83748  21897723.5574   21897725.2224   21897724.1974
       241.000         208.000
 09  1  4  0 14  0.0000000  0  9G 9G24G 8G21G26G15G27G10G28
 121290358.11948  94511955.80248  23080798.4234   23080801.2034   23080798.3124
       228.000         182.000
 128934520.90948 100468440.88148  24535434.9744   24535439.1434   24535435.5614
       216.000         153.000
 123037136.61148  95873085.35748  23413194.8684   23413197.5234   23413195.5784
       227.000         171.000
 128731692.99448 100310404.40748  24496832.8994   24496835.2684   24496832.0794
       211.000         148.000
 105568385.90148  82261070.07348  20089002.1394   20089004.5994   20089002.2334
       251.000         228.000
 109688693.25548  85471705.41248  20873067.7444   20873069.2144   20873067.4204
       249.000         229.000
 122947809.79048  95803479.12648  23396196.0394   23396198.5764   23396196.2174
       231.000         187.000
 115648407.73148  90115627.83648  22007171.4934   22007175.0174   22007172.2944
       239.000         203.000
 115103201.13848  89690798.18948  21903416.3494   21903418.1864   21903417.1164
       240.000         207.000
 09  1  4  0 14 30.0000000  0  9G 9G24G 8G21G26G15G27G10G28
 121196222.81248  94438603.62348  23062885.1254   23062888.1124   23062885.7474
       225.000         181.000
 129005566.98648 100523801.45248  24548955.2034   24548959.3654   24548955.4724
       217.000         158.000
 123125210.67348  95941714.48648  23429954.3924   23429957.0904   23429955.1784
       224.000         169.000
 128749777.44148 100324496.18548  24500274.9824   24500275.8924   24500275.9424
       206.000         147.000
 105572356.17048  82264163.79048  20089757.6884   20089760.1734   20089757.6794
       251.000         229.000
 109645412.05548  85437979.79148  20864831.5994   20864833.0564   20864831.2414
       250.000         230.000
 123020005.86248  95859735.79848  23409934.8624   23409937.2154   23409935.9014
       229.000         186.000
 115738673.47248  90185964.76948  22024348.4204   22024351.9324   22024348.8984
       239.000         203.000
 115133622.52548  89714503.17848  21909205.1284   21909207.1304   21909205.5214
       240.000         207.000
 09  1  4  0 15  0.0000000  0  9G 9G24G 8G21G26G15G27G10G28
 121102285.53648  94365405.74948  23045008.7904   23045012.2184   23045008.9654
       224.000         178.000
 129076771.55948 100579285.48348  24562505.0734   24562509.3584   24562505.2154
       217.000         160.000
 123213362.10448  96010403.87648  23446728.3614   23446732.5914   23446729.0024
       223.000         169.000
 128768322.57548 100338946.87948  24503803.8174   24503804.2154   24503803.4744
       212.000         151.000
 105576701.06948  82267549.41948  20090584.4824   20090587.0954   20090584.3964
       251.000         229.000
 109602399.76948  85404463.72248  20856646.5484   20856648.1654   20856646.3764
       250.000         230.000
 123092236.94448  95916019.74248  23423679.0624   23423682.3604   23423679.0864
       227.000         183.000
 115829264.61348  90256555.26348  22041587.3484   22041590.9894   22041588.3114
       239.000         203.000
 115164547.69348  89738600.70948  21915090.1104   21915092.1484   21915090.9004
       242.000         208.000
 09  1  4  0 15 30.0000000  0  9G 9G24G 8G21G26G15G27G10G28
 121008547.82848  94292363.39648  23027171.1274   23027174.5594   23027170.6324
       225.000         179.000
 129148131.86448 100634890.89448  24576084.8364   24576089.0654   24576085.0874
       217.000         161.000
 123301589.75248  96079152.66348  23463518.1124   23463522.0564   23463518.2314
       225.000         172.000
 128787327.50548 100353755.93848  24507420.5114   24507421.2304   24507421.9184
       211.000         149.000
 105581421.35748  82271227.55748  20091482.7424   20091485.2614   20091482.6424
       252.000         228.000
 109559657.62348  85371158.14148  20848513.0674   20848514.5154   20848512.8314
       251.000         230.000
 123164502.63148  95972330.62348  23437429.9654   23437434.1304   23437430.4354
       225.000         182.000
 115920179.02648  90327397.66248  22058887.5914   22058891.2244   22058888.4384
       239.000         202.000
 115195975.83248  89763090.17748  21921070.7384   21921072.6294   21921071.1434
       240.000         207.000
 09  1  4  0 16  0.0000000  0  9G 9G24G 8G21G26G15G27G10G28
 120915010.19848  94219476.94948  23009371.5114   23009374.9844   23009371.9044
       225.000         180.000
 129219644.41248 100690614.94948  24589692.3054   24589697.1624   24589693.4954
       213.000         159.000
 123389891.87348  96147959.49248  23480322.5574   23480324.9984   23480323.0284
       229.000         173.000
 128806789.78448 100368921.31748  24511123.3064   24511125.0814   24511126.4164
       208.000         146.000
 105586516.93248  82275198.13248  20092452.3834   20092454.8354   20092452.3704
       251.000         228.000
 109517186.61848  85338063.84048  20840431.1704   20840432.6674   20840430.8564
       251.000         230.000
 123236801.43848  96028667.32648  23451188.8364   23451192.0264   23451188.8874
       228.000         186.000
 116011413.89148  90398489.75648  22076249.2524   22076252.6744   22076250.0244
       240.000         202.000
 115227905.03248  89787970.07048  21927146.5064   21927148.5464   21927147.0344
       242.000         207.000
 09  1  4  0 16 30.0000000  0  9G 9G24G 8G21G26G15G27G10G28
 120821673.03048  94146746.73448  22991610.0184   22991613.7534   22991610.1824
       224.000         180.000
 129291306.29948 100746455.34248  24603329.5184   24603333.7704   24603328.7324
       214.000         157.000
 123478267.09948  96216823.30648  23497139.5464   23497141.8554   23497140.9544
       226.000         170.000
 128826708.23448 100384442.15248  24514913.3934   24514914.0834   24514913.4984
       204.000         146.000
 105591988.20748  82279461.45848  20093493.5474   20093495.8724   20093493.5934
       250.000         228.000
 109474988.03348  85305181.82048  20832401.0324   20832402.5194   20832400.7024
       250.000         230.000
 123309132.49948  96085029.19848  23464953.1684   23464956.0934   23464952.9084
       231.000         187.000
 116102966.70148  90469829.61148  22093671.5934   22093674.6864   22093672.5534
       240.000         202.000
 115260334.00548  89813239.40748  21933317.4034   21933319.7484   21933318.0014
       241.000         208.000
 09  1  4  0 17  0.0000000  0 10G 9G24G 8G21G26G17G15G27G10G28
 120728537.93148  94074173.96548  22973887.1364   22973890.3984   22973887.3454
       226.000         179.000
 129363115.37248 100802410.43348  24616994.0164   24616998.7064   24616994.6834
       212.000         157.000
 123566714.66148  96285743.46848  23513970.1194   23513973.1734   23513970.2854
       224.000         166.000
 128847081.96548 100400317.80348  24518790.4864   24518792.1764   24518789.2794
       210.000         147.000
 105597836.36948  82284018.46048  20094606.4654   20094608.7824   20094606.3004
       250.000         228.000
 142244353.23958  93047542.34058  25165267.9995   25165269.2955   25165267.1465
       214.000         160.000
 109433063.65048  85272513.47348  20824423.1364   20824424.5684   20824422.8554
       250.000         230.000
 123381495.73448  96141416.12848  23478723.2684   23478726.3304   23478723.9244
       228.000         183.000
 116194835.86948  90541415.97948  22111153.6384   22111156.8494   22111154.5154
       240.000         203.000
 115293262.23948  89838897.77648  21939583.6074   21939585.7704   21939584.2284
       241.000         208.000
 09  1  4  0 17 30.0000000  0 10G 9G24G 8G21G26G17G15G27G10G28
 120635605.17048  94001758.83248  22956203.0714   22956205.6114   22956202.9244
       228.000         180.000
 129435068.17748 100858477.55048  24630686.3294   24630690.1854   24630686.9644
       213.000         157.000
 123655232.65848  96354718.50048  23530814.0724   23530817.6454   23530814.6424
       222.000         165.000
 128867908.89948 100416546.56948  24522754.2624   24522755.8614   24522757.3314
       210.000         146.000
 105604061.49848  82288869.22048  20095791.1424   20095793.3504   20095791.0754
       252.000         228.000
 142168025.56548  92988066.26048  25150742.8354   25150745.1194   25150742.8854
       217.000         160.000
 109391414.55948  85240059.63548  20816497.5604   20816499.0084   20816497.1684
       251.000         230.000
 123453890.19848  96197827.37748  23492498.8554   23492502.7274   23492498.7784
       226.000         182.000
 116287018.12248  90613246.29748  22128695.1404   22128698.8244   22128695.7304
       239.000         202.000
 115326687.90048  89864943.75548  21945944.5174   21945946.4054   21945945.0014
       242.000         208.000
 09  1  4  0 18  0.0000000  0 10G 9G24G 8G21G26G17G15G27G10G28
 120542878.16648  93929504.03348  22938557.4584   22938560.1664   22938557.9844
       227.000         181.000
 129507164.26248 100914656.29248  24644405.4764   24644410.2064   24644404.6124
       212.000         156.000
 123743822.51448  96423749.56248  23547672.3904   23547675.6214   23547672.7534
       225.000         168.000
 128889189.72248 100433129.04748  24526803.2044   24526805.4634   24526802.6454
       211.000         149.000
 105610666.33048  82294015.83348  20097047.9144   20097050.2834   20097047.8834
       250.000         228.000
 142091766.81348  92928643.79748  25136231.1914   25136232.3294   25136230.6174
       216.000         160.000
 109350044.31148  85207823.07948  20808624.9524   20808626.5604   20808624.6314
       250.000         230.000
 123526317.45548  96254264.17948  23506281.3824   23506284.9864   23506281.1654
       228.000         184.000
 116379513.82148  90685320.84648  22146296.4064   22146300.1574   22146297.3434
       240.000         202.000
 115360612.19248  89891378.26848  21952400.1074   21952402.0424   21952400.6054
       242.000         208.000
 09  1  4  0 18 30.0000000  0 10G 9G24G 8G21G26G17G15G27G10G28
 120450355.35248  93857408.35148  22920950.9034   22920954.0264   22920950.8334
       228.000         182.000
 129579398.23348 100970942.48948  24658151.9234   24658155.3874   24658152.5494
       212.000         156.000
 123832480.28848  96492833.52348  23564543.7344   23564546.9084   23564544.0094
       225.000         167.000
 128910920.38548 100450061.99948  24530939.5234   24530940.2594   24530939.4774
       211.000         150.000
 105617648.75548  82299456.66448  20098376.6704   20098379.0864   20098376.4054
       250.000         228.000
 142015577.33548  92869275.37448  25121732.6484   25121734.2484   25121733.0154
       214.000         156.000
 109308951.76348  85175802.91048  20800805.2744   20800806.9314   20800804.9884
       251.000         230.000
 123598774.06448  96310723.86048  23520070.4774   23520072.9724   23520071.1084
       232.000         186.000
 116472317.78048  90757635.60348  22163956.5204   22163960.1094   22163957.2834
       238.000         201.000
 115395031.50448  89918198.51348  21958949.6794   21958951.7094   21958950.1984
       241.000         208.000
 09  1  4  0 19  0.0000000  0 10G 9G24G 8G21G26G17G15G27G10G28
 120358035.80848  93785471.04748  22903382.7674   22903386.1334   22903383.4274
       228.000         182.000
 129651765.44048 101027332.53248  24671922.7784   24671927.2024   24671923.1454
       206.000         153.000
 123921203.22648  96561968.26148  23581427.0454   23581430.3314   23581427.3504
       224.000         166.000
 128933097.48448 100467342.85748  24535158.9134   24535160.3574   24535159.5834
       203.000         147.000
 105625007.68348  82305190.89648  20099776.9704   20099779.4574   20099776.9064
       251.000         228.000
 141939458.27148  92809961.81748  25107247.5634   25107248.6514   25107247.5214
       218.000         159.000
 109268136.75648  85143999.00648  20793038.4994   20793040.0864   20793038.1734
       250.000         230.000
 123671257.56148  96367204.51448  23533863.7874   23533866.3244   23533864.5264
       229.000         184.000
 116565425.90848  90830187.39248  22181674.6794   22181677.7754   22181674.8334
       238.000         201.000
 115429942.51148  89945401.89848  21965593.0554   21965595.2134   21965593.4734
       240.000         208.000
 09  1  4  0 19 30.0000000  0 11G 9G18G24G 8G21G26G17G15G27G10G28
 120265921.56248  93713693.72148  22885853.6744   22885857.1804   22885853.6314
       230.000         181.000
 138800235.70258  90363817.18858  24509872.6765   24509873.8695   24509875.2425
       214.000         159.000
 129724264.21048 101083825.04448  24685718.4974   24685723.2264   24685718.1334
       209.000         152.000
 124009991.15248  96631153.64848  23598322.3504   23598326.3204   23598323.1234
       221.000         164.000
 128955720.63948 100484971.25448  24539463.4014   24539465.2474   24539463.8064
       199.000         143.000
 105632744.66048  82311219.70948  20101249.1314   20101251.8364   20101249.1164
       250.000         228.000
 141863413.83548  92750706.38748  25092777.3174   25092779.1844   25092777.8344
       219.000         164.000
 109227601.71948  85112413.26348  20785324.8504   20785326.4344   20785324.4834
       250.000         230.000
 123743768.40748  96423706.43948  23547661.0514   23547665.1614   23547661.1134
       227.000         183.000
 116658836.90648  90902975.18948  22199450.1614   22199453.2134   22199450.9804
       240.000         201.000
 115465345.12448  89972988.35448  21972330.1324   21972332.1014   21972330.1904
       242.000         208.000
 09  1  4  0 20  0.0000000  0 11G 9G18G24G 8G21G26G17G15G27G10G28
 120174013.60748  93642077.13648  22868364.7724   22868367.6084   22868365.1754
       231.000         183.000
 138703630.45648  90288540.38948  24491489.1284   24491491.2514   24491489.7744
       213.000         159.000
 129796891.87548 101140418.07748  24699539.7444   24699543.9384   24699540.7314
       212.000         153.000
 124098843.66348  96700389.33148  23615229.8024   23615234.2184   23615230.2034
       220.000         163.000
 128978788.55848 100502946.23848  24543853.7094   24543855.0894   24543852.1794
       206.000         147.000
 105640860.64148  82317543.83548  20102793.6914   20102796.1824   20102793.5464
       251.000         228.000
 141787447.47848  92691511.79148  25078321.5494   25078322.8564   25078321.7614
       214.000         163.000
 109187348.32448  85081046.98748  20777664.9314   20777666.5294   20777664.6084
       250.000         230.000
 123816306.44548  96480229.56348  23561464.7094   23561468.5074   23561465.0904
       227.000         183.000
 116752548.94848  90975997.55948  22217283.0324   22217286.1734   22217284.3464
       239.000         201.000
 115501238.34748  90000957.09848  21979160.5154   21979162.1714   21979160.9214
       240.000         208.000
 09  1  4  0 20 30.0000000  0 11G 9G18G24G 8G21G26G17G15G27G10G28
 120082313.21148  93570622.28548  22850914.9334   22850917.7444   22850915.4704
       231.000         183.000
 138607248.63148  90213437.65748  24473147.4864   24473150.5344   24473147.9984
       209.000         157.000
 129869646.33048 101197109.86448  24713384.0084   24713388.7734   24713384.4574
       209.000         152.000
 124187759.53348  96769674.39448  23632150.9954   23632154.1944   23632150.6694
       226.000         166.000
 129002299.73748 100521266.62548  24548327.7564   24548329.2634   24548329.4714
       210.000         149.000
 105649356.40448  82324163.90748  20104410.3064   20104412.8374   20104410.1084
       251.000         228.000
 141711562.56648  92632380.72948  25063879.6254   25063882.3014   25063879.5324
       213.000         160.000
 109147378.60648  85049901.73648  20770058.8994   20770060.4974   20770058.6084
       250.000         230.000
 123888871.37048  96536773.63848  23575273.6454   23575277.0864   23575273.9924
       227.000         183.000
 116846559.88448  91049252.83748  22235172.3754   22235175.9814   22235173.3164
       238.000         201.000
 115537621.35448  90029307.49348  21986083.7574   21986085.6144   21986083.9504
       242.000         207.000
 09  1  4  0 21  0.0000000  0 11G 9G18G24G 8G21G26G17G15G27G10G28
 119990821.81648  93499330.30548  22833504.7184   22833507.0994   22833505.1624
       229.000         181.000
 138511092.81948  90138511.10948  24454849.8604   24454852.6714   24454849.6554
       214.000         160.000
 129942524.88948 101253898.35148  24727252.9274   24727256.8984   24727252.4914
       207.000         146.000
 124276737.54048  96839007.92748  23649083.9284   23649086.3284   23649084.7784
       226.000         166.000
 129026253.09148 100539931.57848  24552885.7814   24552887.3104   24552887.5244
       207.000         152.000
 105658232.88748  82331080.63748  20106099.5714   20106101.9654   20106099.5694
       251.000         228.000
 141635762.38348  92573315.64748  25049456.1314   25049458.7144   25049456.7484
       212.000         162.000
 109107694.24548  85018978.85548  20762507.3244   20762508.7804   20762507.1984
       250.000         231.000
 123961462.82348  96593338.41548  23589087.9174   23589090.7124   23589087.9854
       230.000         185.000
 116940867.15248  91122739.00848  22253118.2194   22253122.0964   22253118.6384
       238.000         200.000
 115574493.40148  90058038.96048  21993100.1764   21993102.0344   21993100.7674
       241.000         207.000
 09  1  4  0 21 30.0000000  0 11G 9G18G24G 8G21G26G17G15G27G10G28
 119899539.40048  93428201.16848  22816133.9204   22816136.5384   22816133.8794
       229.000         181.000
 138415165.62648  90063762.61348  24436596.3674   24436598.1754   24436596.7664
       215.000         155.000
 130015524.18348 101310780.88448  24741142.9154   24741147.8654   24741144.0004
       205.000         143.000
 124365776.36448  96908388.79448  23666025.6774   23666029.3664   23666027.1904
       216.000         158.000
 129050646.45548 100558939.36848  24557528.2774   24557530.0984   24557526.6964
       213.000         154.000
 105667489.92548  82338293.90348  20107861.1584   20107863.5424   20107861.0744
       251.000         228.000
 141560049.32948  92514318.39648  25035049.0454   25035050.5184   25035048.4314
       208.000         161.000
 109068296.29948  84988279.15748  20755010.1894   20755011.6594   20755009.9864
       250.000         231.000
 124034079.80448  96649923.06048  23602905.8404   23602909.3164   23602906.3694
       227.000         182.000
 117035468.44848  91196454.29248  22271120.5974   22271124.0844   22271121.2044
       238.000         200.000
 115611852.53448  90087149.97448  22000209.4394   22000211.4864   22000209.3154
       242.000         207.000
 09  1  4  0 22  0.0000000  0 11G 9G18G24G 8G21G26G17G15G27G10G28
 119808468.19548  93357236.58048  22798803.6834   22798806.5864   22798803.8674
       231.000         183.000
 138319470.02748  89989194.58348  24418385.6064   24418386.7094   24418385.5924
       211.000         155.000
 130088642.23248 101367755.99048  24755055.8024   24755061.7584   24755055.5394
       206.000         147.000
 124454875.86848  96977816.92248  23682980.7094   23682984.8644   23682980.0824
       221.000         162.000
 129075478.98848 100578289.38548  24562254.2674   24562255.4674   24562256.7894
       214.000         158.000
 105677128.72048  82345804.64448  20109695.4704   20109697.6554   20109695.4244
       251.000         228.000
 141484427.12448  92455392.05348  25020657.7924   25020659.4554   25020657.5994
       205.000         157.000
 109029186.61548  84957804.07948  20747567.7494   20747569.2384   20747567.4414
       250.000         231.000
 124106722.27048  96706527.55248  23616729.1184   23616732.7224   23616728.9334
       230.000         185.000
 117130361.91648  91270397.25848  22289178.3794   22289181.5834   22289179.3154
       239.000         199.000
 115649697.97848  90116639.92948  22007411.3944   22007413.0634   22007412.1234
       240.000         207.000
 09  1  4  0 22 30.0000000  0 11G 9G18G24G 8G21G26G17G15G27G10G28
 119717608.12848  93286436.55148  22781513.4214   22781516.5174   22781513.4954
       230.000         182.000
 138224007.85748  89914808.48348  24400220.2154   24400221.1674   24400219.1844
       216.000         156.000
 130161875.28048 101424820.67948  24768993.4074   24768996.8184   24768993.6844
       211.000         148.000
 124544034.07648  97047290.84948  23699948.6194   23699950.8374   23699949.3584
       223.000         162.000
 129100748.17148 100597979.63648  24567062.2844   24567064.3074   24567062.0524
       212.000         155.000
 105687149.05748  82353612.69848  20111602.1784   20111604.4144   20111602.1414
       251.000         228.000
 141408898.02448  92396538.16948  25006285.4334   25006287.0544   25006284.6884
       214.000         161.000
 108990365.99448  84927554.24948  20740180.3264   20740182.1024   20740180.0524
       250.000         231.000
 124179388.85048  96763150.86548  23630558.4754   23630561.0844   23630558.8934
       233.000         186.000
 117225544.06848  91344565.16748  22307290.8404   22307294.1794   22307291.5344
       237.000         198.000
 115688027.60348  90146507.17548  22014705.1114   22014706.8914   22014705.3294
       241.000         207.000
 09  1  4  0 23  0.0000000  0 11G 9G18G24G 8G21G26G17G15G27G10G28
 119626958.98048  93215800.86248  22764263.3444   22764266.4414   22764263.5494
       231.000         184.000
 138128780.73048  89840605.54848  24382099.0124   24382100.1154   24382098.9344
       211.000         153.000
 130235219.51748 101481972.01648  24782951.2684   24782954.8414   24782952.2644
       211.000         150.000
 124633248.49048  97116808.54248  23716924.3244   23716928.2414   23716925.3394
       216.000         159.000
 129126451.08248 100618007.88848  24571953.7464   24571954.5174   24571953.3834
       215.000         156.000
 105697550.27248  82361717.53548  20113581.3394   20113583.6604   20113581.3234
       251.000         228.000
 141333463.72648  92337758.18748  24991931.3154   24991932.8824   24991931.1874
       209.000         163.000
 108951834.64748  84897529.82348  20732848.1394   20732849.7404   20732847.8544
       250.000         231.000
 124252077.87848  96819791.62848  23644389.4534   23644393.2084   23644390.1504
       226.000         182.000
 117321011.60148  91418955.44348  22325457.5674   22325461.1134   22325458.3654
       238.000         199.000
 115726839.01648  90176749.83248  22022090.5474   22022092.5844   22022091.1824
       239.000         206.000
 09  1  4  0 23 30.0000000  0 11G 9G18G24G 8G21G26G17G15G27G10G28
 119536522.55848  93145330.94848  22747054.1344   22747057.2414   22747054.7024
       230.000         184.000
 138033792.86548  89766589.05448  24364023.7974   24364025.3564   24364023.3754
       213.000         158.000
 130308673.08948 101539208.56048  24796927.9314   24796932.2924   24796928.2714
       208.000         148.000
 124722519.08748  97186370.00948  23733912.2154   23733915.5424   23733911.9954
       218.000         162.000
 129152587.12548 100638373.60448  24576926.6954   24576928.4784   24576927.6494
       214.000         153.000
 105708333.96548  82370120.41748  20115633.4414   20115635.7814   20115633.2564
       251.000         228.000
 141258128.79348  92279055.64148  24977594.9504   24977597.3624   24977594.3424
       208.000         162.000
 108913595.24048  84867732.88648  20725571.3584   20725573.0304   20725570.9964
       250.000         231.000
 124324789.78548  96876450.22948  23658226.5184   23658229.8094   23658226.0654
       231.000         185.000
 117416763.56848  91493567.37148  22343678.5014   22343682.0394   22343679.4584
       238.000         198.000
 115766131.87748  90207367.65848  22029567.2574   22029569.7444   22029567.2664
       240.000         205.000
 09  1  4  0 24  0.0000000  0 11G 9G18G24G 8G21G26G17G15G27G10G28
 119446301.89248  93075029.13048  22729885.8364   22729889.0204   22729885.9134
       229.000         184.000
 137939048.17148  89692762.03248  24345994.1254   24345996.5154   24345995.1654
       213.000         159.000
 130382235.36048 101596529.76948  24810925.5804   24810931.4524   24810926.3244
       206.000         143.000
 124811846.76548  97255975.98648  23750911.8574   23750913.9944   23750911.9754
       221.000         161.000
 129179156.85748 100659077.28648  24581982.7974   24581983.7624   24581984.2614
       211.000         153.000
 105719502.68348  82378823.30948  20117758.8144   20117761.2524   20117758.7564
       250.000         228.000
 141182897.93448  92220434.23348  24963279.2884   24963281.7434   24963278.6754
       213.000         160.000
 108875651.26748  84838166.15048  20718350.9894   20718352.4954   20718350.6014
       250.000         231.000
 124397526.03348  96933127.84348  23672068.9834   23672070.7984   23672069.6014
       231.000         183.000
 117512799.01448  91568400.17448  22361953.2764   22361957.1424   22361953.8264
       237.000         198.000
 115805906.85248  90238361.13648  22037136.4864   22037138.8374   22037137.2634
       239.000         206.000
 09  1  4  0 24 30.0000000  0 11G 9G18G24G 8G21G26G17G15G27G10G28
 119356296.83448  93004895.37148  22712758.3144   22712761.3704   22712758.8424
       230.000         185.000
 137844548.46948  89619125.92948  24328011.3754   24328013.0034   24328010.4764
       216.000         159.000
 130455902.55048 101653932.77648  24824944.9384   24824948.4424   24824946.0084
       209.000         143.000
 124901229.60248  97325624.92548  23767919.5434   23767922.6804   23767920.0084
       216.000         159.000
 129206157.52748 100680116.77948  24587120.2734   24587122.0844   24587119.2744
       208.000         150.000
 105731056.11348  82387825.98448  20119957.3024   20119959.7794   20119957.0734
       251.000         228.000
 141107773.54148  92161895.72348  24948983.2274   24948985.5194   24948983.8244
       211.000         161.000
 108838003.18348  84808829.98148  20711186.8014   20711188.4514   20711186.6914
       250.000         231.000
 124470285.07348  96989823.17048  23685912.9274   23685916.2784   23685913.1054
       229.000         181.000
 117609114.76648  91643451.39848  22380281.8714   22380285.3614   22380282.4714
       238.000         198.000
 115846161.79648  90269728.62648  22044796.9504   22044799.0144   22044797.3054
       241.000         206.000
 09  1  4  0 25  0.0000000  0 11G 9G18G24G 8G21G26G17G15G27G10G28
 119266505.10748  92934927.80248  22695671.9154   22695674.5324   22695672.3294
       229.000         185.000
 137750293.01548  89545680.13648  24310075.2074   24310077.2154   24310075.7134
       217.000         161.000
 130529668.49848 101711412.73248  24838983.0124   24838985.9004   24838983.5274
       210.000         143.000
 124990663.32148  97395313.48548  23784938.0514   23784942.3844   23784938.4484
       217.000         160.000
 129233584.03048 100701488.05448  24592340.1654   24592341.4594   24592340.1704
       206.000         149.000
 105742991.40048  82397126.19848  20122228.5754   20122230.9744   20122228.4754
       251.000         228.000
 141032755.30548  92103439.93248  24934708.6194   24934709.8774   24934707.8724
       214.000         164.000
 108800649.40848  84779723.14048  20704078.4904   20704080.1724   20704078.1934
       250.000         232.000
 124543063.22848  97046533.39548  23699762.5224   23699765.4654   23699762.4424
       229.000         182.000
 117705705.30748  91718716.75448  22398662.3344   22398665.9894   22398663.5174
       238.000         197.000
 115886891.92148  90301466.39648  22052547.7524   22052549.8274   22052548.4514
       240.000         206.000
 09  1  4  0 25 30.0000000  0 11G 9G18G24G 8G21G26G17G15G27G10G28
 119176928.57648  92865127.95348  22678625.2504   22678628.4014   22678625.6324
       230.000         185.000
 137656285.64148  89472427.66048  24292185.9544   24292187.5884   24292186.7224
       215.000         158.000
 130603531.65748 101768968.42748  24853038.1934   24853042.4854   24853037.4304
       213.000         146.000
 125080147.41248  97465041.34848  23801966.8294   23801970.9294   23801966.7924
       220.000         160.000
 129261435.51848 100723190.48048  24597639.1044   24597641.8174   24597639.9904
       209.000         150.000
 105755310.04648  82406725.13448  20124572.8684   20124575.1374   20124572.7174
       251.000         228.000
 140957847.17548  92045069.95248  24920454.0244   24920455.7314   24920454.3374
       214.000         163.000
 108763592.29148  84750847.46548  20697026.7914   20697028.5004   20697026.5784
       250.000         232.000
 124615860.79148  97103258.75948  23713615.4904   23713618.5854   23713616.1414
       228.000         181.000
 117802568.99148  91794194.94348  22417094.7294   22417098.4034   22417095.4084
       236.000         197.000
 115928096.82148  90333574.10948  22060388.5464   22060390.6144   22060388.9384
       241.000         206.000
 09  1  4  0 26  0.0000000  0 11G 9G18G24G 8G21G26G17G15G27G10G28
 119087568.42648  92795496.68148  22661620.7274   22661623.2744   22661620.8864
       231.000         185.000
 137562529.40048  89399370.83848  24274344.9804   24274346.5974   24274344.2804
       214.000         155.000
 130677489.25948 101826597.72348  24867111.9394   24867116.2054   24867113.4464
       210.000         150.000
 125169681.60648  97534808.22048  23819004.8084   23819007.9834   23819005.9024
       220.000         160.000
 129289710.26148 100745222.75348  24603020.4564   24603022.2894   24603020.1534
       208.000         154.000
 105768012.63148  82416623.25648  20126990.0484   20126992.4554   20126990.1054
       251.000         228.000
 140883052.35048  91986788.23648  24906220.1344   24906222.6584   24906220.2564
       216.000         163.000
 108726833.58248  84722204.31048  20690031.8404   20690033.6734   20690031.5994
       250.000         232.000
 124688677.38448  97159998.94548  23727471.5104   23727475.1284   23727471.9654
       226.000         180.000
 117899703.58048  91869884.23048  22435579.1774   22435582.8274   22435579.9394
       237.000         198.000
 115969775.11448  90366050.70148  22068319.7844   22068321.8234   22068320.3454
       239.000         205.000
 09  1  4  0 26 30.0000000  0 11G 9G18G24G 8G21G26G17G15G27G10G28
 118998425.26048  92726034.47848  22644657.4394   22644660.0074   22644657.7144
       231.000         185.000
 137469026.75548  89326511.65448  24256551.4684   24256553.8444   24256552.6904
       214.000         156.000
 130751538.37548 101884298.32548  24881202.3264   24881207.6684   24881201.2534
       203.000         147.000
 125259264.35548  97604612.92548  23836052.1724   23836055.1194   23836052.7004
       215.000         160.000
 129318406.57548 100767583.55048  24608480.9184   24608483.4634   24608481.4934
       208.000         155.000
 105781099.48948  82426820.79148  20129480.2474   20129482.7284   20129480.1924
       250.000         227.000
 140808373.74848  91928597.09648  24892009.6484   24892012.3394   24892010.8244
       215.000         160.000
 108690374.22248  84693794.41848  20683093.8804   20683095.5834   20683093.5464
       250.000         232.000
 124761512.31648  97216753.41148  23741331.7314   23741335.0804   23741331.9934
       226.000         181.000
 117997106.60648  91945782.68048  22454114.1924   22454118.1154   22454115.1544
       237.000         196.000
 116011925.42748  90398895.10148  22076340.9514   22076342.6884   22076341.3324
       240.000         205.000
 09  1  4  0 27  0.0000000  0 11G 9G18G24G 8G21G26G17G15G27G10G28
 118909500.40848  92656742.40448  22627735.7164   22627738.2814   22627736.1434
       231.000         187.000
 137375780.61448  89253852.30948  24238807.8074   24238809.4374   24238808.0894
       214.000         156.000
 130825676.51648 101942068.31648  24895309.9634   24895315.7084   24895310.3224
       205.000         147.000
 125348895.34748  97674455.24548  23853107.6224   23853111.5214   23853107.6164
       216.000         159.000
 129347522.76248 100790271.46248  24614021.1924   24614023.0484   24614022.6274
       213.000         154.000
 105794571.53548  82437318.49248  20132043.8674   20132046.3554   20132043.7584
       251.000         227.000
 140733814.94248  91870499.32048  24877821.0344   24877823.5544   24877820.4104
       216.000         165.000
 108654216.43748  84665619.52348  20676213.3614   20676214.9774   20676213.0544
       250.000         232.000
 124834365.64348  97273522.22848  23755195.3544   23755198.6334   23755195.2844
       228.000         180.000
 118094776.19648  92021888.84848  22472700.0204   22472703.8914   22472701.1634
       237.000         196.000
 116054546.61648  90432106.42348  22084451.2934   22084453.2764   22084451.4244
       241.000         204.000
 09  1  4  0 27 30.0000000  0 11G 9G18G24G 8G21G26G17G15G27G10G28
 118820794.35148  92587620.80748  22610855.7934   22610858.1064   22610855.7914
       231.000         186.000
 137282793.19748  89181394.60048  24221113.2714   24221115.0204   24221113.0544
       218.000         162.000
 130899900.37748 101999905.06748  24909434.2014   24909440.0124   24909434.8234
       205.000         149.000
 125438572.76248  97744333.70048  23870173.2254   23870176.9844   23870173.1144
       219.000         160.000
 129377056.88348 100813285.03448  24619641.8744   24619643.5534   24619642.6274
       208.000         151.000
 105808428.77048  82448116.33248  20134680.7864   20134683.3714   20134680.7354
       250.000         228.000
 140659378.42748  91812496.82548  24863657.3584   24863659.4214   24863657.1464
       212.000         163.000
 108618361.13848  84637680.32948  20669390.2624   20669391.7554   20669389.9624
       250.000         232.000
 124907236.45148  97330304.65648  23769062.2034   23769065.5374   23769062.7694
       224.000         178.000
 118192709.09548  92098200.18948  22491336.2474   22491339.8344   22491337.2244
       236.000         196.000
 116097636.87548  90465683.24748  22092651.2734   22092652.9404   22092651.8464
       241.000         204.000
 09  1  4  0 28  0.0000000  0 11G 9G18G24G 8G21G26G17G15G27G10G28
 118732307.59048  92518670.07248  22594017.1314   22594019.7504   22594017.3214
       233.000         187.000
 137190067.44348  89109140.79748  24203468.4734   24203469.8214   24203470.4244
       221.000         163.000
 130974207.51848 102057806.70548  24923575.2654   24923579.8294   24923574.0894
       208.000         149.000
 125528295.76248  97814247.71448  23887247.1454   23887250.6054   23887248.3644
       212.000         159.000
 129407007.00148 100836622.77148  24625341.6754   24625342.2774   24625340.9834
       211.000         154.000
 105822671.61348  82459214.63948  20137391.2254   20137393.7264   20137390.9974
       251.000         228.000
 140585067.34748  91754592.09948  24849515.5614   24849517.7434   24849514.9714
       215.000         158.000
 108582809.79048  84609977.98348  20662625.2984   20662626.7184   20662625.1894
       250.000         233.000
 124980124.09148  97387100.19048  23782931.7594   23782935.7184   23782932.2224
       224.000         178.000
 118290903.26248  92174715.12048  22510022.0754   22510025.4154   22510022.7644
       236.000         195.000
 116141194.33148  90499624.12848  22100939.9104   22100941.6264   22100940.3864
       241.000         204.000
 09  1  4  0 28 30.0000000  0 11G 9G18G24G 8G21G26G17G15G27G10G28
 118644041.48948  92449891.28248  22577220.7764   22577223.6074   22577221.1464
       231.000         188.000
 137097605.77448  89037092.72548  24185873.7194   24185874.2654   24185875.2584
       216.000         161.000
 131048595.27248 102115771.20848  24937731.1494   24937734.7694   24937731.8554
       198.000         147.000
 125618063.39248  97884196.48348  23904328.4334   23904332.2614   23904328.3224
       214.000         155.000
 129437371.21948 100860283.21048  24631119.4604   24631121.0554   24631120.8914
       206.000         154.000
 105837300.76148  82470613.96248  20140175.1864   20140177.5604   20140175.2114
       250.000         228.000
 140510884.72848  91696787.39048  24835400.1964   24835400.1294   24835400.0814
       215.000         160.000
 108547564.11648  84582513.81548  20655918.2444   20655919.7144   20655918.1054
       250.000         233.000
 125053028.15548  97443908.55548  23796805.5304   23796808.7864   23796805.6334
       227.000         179.000
 118389355.99948  92251431.53748  22528756.9684   22528760.4554   22528757.8324
       236.000         196.000
 116185217.82848  90533928.15048  22109317.5174   22109319.1274   22109317.9354
       242.000         204.000
 09  1  4  0 29  0.0000000  0 11G 9G18G24G 8G21G26G17G15G27G10G28
 118555997.07348  92381285.27448  22560466.1484   22560469.3794   22560466.3294
       230.000         189.000
 137005410.76048  88965252.48148  24168329.3304   24168330.2644   24168330.4174
       216.000         161.000
 131123060.54348 102173796.12348  24951899.9944   24951904.4594   24951900.7814
       199.000         139.000
 125707874.75648  97954179.29448  23921419.7794   23921422.9284   23921420.4684
       213.000         156.000
 129468148.14248 100884265.16048  24636976.0004   24636977.5264   24636974.1474
       213.000         156.000
 105852316.57248  82482314.58948  20143032.3544   20143034.9204   20143032.2154
       251.000         228.000
 140436833.43248  91639085.06448  24821308.2824   24821309.4174   24821307.8864
       215.000         161.000
 108512625.55048  84555288.96248  20649269.5524   20649271.1314   20649269.1684
       250.000         233.000
 125125948.32148  97500729.43648  23810682.0804   23810684.8844   23810681.9804
       228.000         179.000
 118488065.07448  92328347.68448  22547540.3434   22547544.1914   22547540.8964
       235.000         195.000
 116229706.07548  90568594.31248  22117783.2794   22117784.8794   22117784.1674
       240.000         203.000
 09  1  4  0 29 30.0000000  0 11G 9G18G24G 8G21G26G17G15G27G10G28
 118468174.92348  92312852.45948  22543753.9544   22543757.2734   22543753.5624
       228.000         187.000
 136913485.43048  88893622.32448  24150836.5284   24150837.4434   24150836.7194
       218.000         159.000
 131197600.98348 102231879.59748  24966085.4114   24966088.0354   24966084.2264
       205.000         137.000
 125797728.50048  98024195.21548  23938517.7464   23938521.5314   23938518.2084
       207.000         156.000
 129499335.38448 100908566.91448  24642910.4064   24642912.3554   24642911.3024
       210.000         152.000
 105867719.46848  82494316.84548  20145963.5834   20145966.0524   20145963.5804
       251.000         228.000
 140362917.15548  91581487.95848  24807241.9524   24807243.7984   24807242.0904
       216.000         161.000
 108477995.55448  84528304.54648  20642679.5494   20642681.1204   20642679.3524
       250.000         233.000
 125198883.97448  97557562.38748  23824561.0274   23824564.4534   23824561.1824
       227.000         179.000
 118587027.96148  92405461.60748  22566372.3574   22566376.0154   22566373.0424
       235.000         193.000
 116274657.56248  90603621.45548  22126336.9024   22126338.7874   22126336.8594
       239.000         203.000
 09  1  4  0 30  0.0000000  0 11G 9G18G24G 8G21G26G17G15G27G10G28
 118380576.42948  92244593.93048  22527084.1694   22527087.8094   22527084.0944
       230.000         186.000
 136821832.71648  88822204.63348  24133395.2304   24133396.9344   24133397.7694
       215.000         160.000
 131272214.45248 102290019.97348  24980284.0954   24980287.9414   24980285.3394
       206.000         135.000
 125887624.46148  98094243.97148  23955624.3454   23955627.9994   23955624.1524
       212.000         156.000
 129530931.56848 100933187.34548  24648922.8924   24648924.7944   24648923.9414
       212.000         156.000
 105883510.54848  82506621.57548  20148968.4804   20148970.9944   20148968.3314
       251.000         228.000
 140289139.15848  91523998.55148  24793203.1554   24793204.8244   24793203.1974
       220.000         165.000
 108443676.04048  84501562.06848  20636148.7594   20636150.3784   20636148.4634
       250.000         233.000
 125271835.14748  97614407.44048  23838443.5554   23838446.9044   23838443.8624
       228.000         180.000
 118686242.84748  92482771.90348  22585252.4374   22585255.7844   22585253.2134
       234.000         193.000
 116320070.68748  90639008.29748  22134978.6844   22134980.8854   22134979.1654
       239.000         203.000
 09  1  4  0 30 30.0000000  0 11G 9G18G24G 8G21G26G17G15G27G10G28
 118293201.77848  92176509.79448  22510457.7454   22510460.3454   22510458.1064
       231.000         185.000
 136730454.45848  88751000.80848  24116006.9984   24116008.3144   24116007.6374
       219.000         163.000
 131346896.88348 102348214.05448  24994494.9894   24994498.4454   24994496.9614
       207.000         138.000
 125977560.93448  98164324.30448  23972738.8664   23972741.8224   23972739.0474
       210.000         154.000
 129562934.07148 100958124.36548  24655013.0144   24655014.8744   24655013.1274
       208.000         149.000
 105899689.32248  82519228.40848  20152047.2374   20152049.7534   20152047.2214
       251.000         228.000
 140215501.92548  91466618.87748  24779189.9994   24779192.4984   24779190.6664
       214.000         162.000
 108409667.73348  84475062.09348  20629677.2514   20629678.8034   20629677.0814
       250.000         233.000
 125344800.62648  97671263.63148  23852328.4724   23852331.5554   23852328.3384
       227.000         178.000
 118785706.31048  92560275.90248  22604179.4154   22604182.6974   22604180.1404
       234.000         192.000
 116365943.56848  90674753.41248  22143707.8714   22143710.2254   22143707.9174
       239.000         203.000
 09  1  4  0 31  0.0000000  0 11G 9G18G24G 8G21G26G17G15G27G10G28
 118206051.66148  92108600.61548  22493873.5944   22493876.0404   22493873.5604
       231.000         185.000
 136639353.40148  88680012.98048  24098670.7374   24098671.7894   24098671.4434
       215.000         162.000
 131421645.51448 102406459.75048  25008720.8304   25008723.0814   25008721.2284
       208.000         140.000
 126067536.82248  98234435.37848  23989861.0034   23989864.3024   23989861.2824
       213.000         156.000
 129595340.90148 100983376.44948  24661179.3844   24661182.3564   24661180.2954
       201.000         145.000
 105916256.09148  82532137.57148  20155199.8724   20155202.2674   20155199.7264
       251.000         228.000
 140142007.81448  91409350.75348  24765204.1304   24765206.8174   24765204.4944
       213.000         162.000
 108375972.14348  84448805.78548  20623265.2674   20623266.6384   20623265.0844
       250.000         233.000
 125417779.91648  97728130.59848  23866215.8724   23866219.2914   23866216.2134
       225.000         178.000
 118885415.66748  92637971.50248  22623153.6214   22623157.2074   22623154.8774
       234.000         192.000
 116412274.35848  90710855.31748  22152524.4874   22152526.7364   22152524.9254
       241.000         203.000
 09  1  4  0 31 30.0000000  0 11G 9G18G24G 8G21G26G17G15G27G10G28
 118119126.53948  92040866.77748  22477332.7694   22477334.9974   22477332.9674
       231.000         187.000
 136548531.70048  88609242.81748  24081387.3444   24081389.2104   24081387.7874
       215.000         163.000
 131496457.26948 102464754.65048  25022955.7324   25022959.3474   25022955.8514
       205.000         142.000
 126157550.88748  98304576.19348  24006988.8904   24006993.6414   24006989.6844
       208.000         156.000
 129628149.95848 101008941.86848  24667423.0704   24667424.6494   24667421.9144
       208.000         145.000
 105933211.05648  82545349.23048  20158426.2894   20158428.6374   20158426.2624
       251.000         228.000
 140068660.27048  91352196.76648  24751247.0404   24751248.9544   24751246.6974
       219.000         166.000
 108342590.52448  84422794.12948  20616912.9034   20616914.4404   20616912.7714
       250.000         233.000
 125490772.27348  97785007.75048  23880105.8514   23880109.3024   23880106.2684
       225.000         179.000
 118985368.54348  92715856.85148  22642174.0234   22642177.8674   22642174.4394
       233.000         192.000
 116459061.43148  90747312.78248  22161428.0594   22161429.7044   22161428.6634
       238.000         202.000
 09  1  4  0 32  0.0000000  0 11G 9G18G24G 8G21G26G17G15G27G10G28
 118032428.31548  91973309.71648  22460834.2154   22460836.8564   22460834.1694
       231.000         188.000
 136457992.80548  88538693.06448  24064157.8764   24064160.5294   24064157.9934
       216.000         163.000
 131571330.18248 102523097.17148  25037203.2514   25037208.1694   25037205.0514
       208.000         144.000
 126247602.67748  98374746.36148  24024125.8224   24024130.7774   24024125.4804
       208.000         157.000
 129661359.96148 101034819.76748  24673743.3884   24673744.5764   24673744.4944
       206.000         146.000
 105950555.50448  82558864.37448  20161726.8364   20161729.1254   20161726.6954
       250.000         228.000
 139995462.80848  91295159.76148  24737318.2184   24737320.4874   24737318.6224
       216.000         161.000
 108309524.82748  84397028.66148  20610620.8134   20610622.1804   20610620.4174
       250.000         234.000
 125563777.94648  97841895.27348  23893998.3974   23894002.0724   23893998.1704
       225.000         178.000
 119085563.16048  92793930.56648  22661240.3264   22661244.4684   22661241.2444
       234.000         191.000
 116506303.87048  90784125.06648  22170417.7394   22170419.5844   22170417.7714
       240.000         202.000
 09  1  4  0 32 30.0000000  0 11G 9G18G24G 8G21G26G17G15G27G10G28
 117945956.64848  91905929.21748  22444379.2424   22444382.2954   22444380.0724
       232.000         191.000
 136367738.25148  88468364.82048  24046983.4074   24046985.5334   24046983.1064
       216.000         161.000
 131646260.41948 102581484.33148  25051463.0584   25051466.9044   25051463.0224
       212.000         148.000
 126337690.29248  98444944.45548  24041268.3344   24041273.3574   24041267.9694
       211.000         158.000
 129694967.85248 101061007.73548  24680138.4174   24680140.1584   24680139.5824
       208.000         146.000
 105968288.66448  82572682.41648  20165101.1694   20165103.7154   20165101.0254
       251.000         227.000
 139922417.43248  91238241.28748  24723418.1944   24723420.2764   24723417.5574
       215.000         164.000
 108276775.55248  84371509.74848  20604388.8674   20604390.2524   20604388.6634
       250.000         234.000
 125636795.33848  97898791.91648  23907892.6314   23907896.6434   23907892.8364
       224.000         176.000
 119185996.05748  92872189.95848  22680351.9354   22680356.0794   22680353.0074
       233.000         191.000
 116553998.85048  90821289.97848  22179493.9974   22179495.7094   22179495.0534
       239.000         201.000
 09  1  4  0 33  0.0000000  0 11G 9G18G24G 8G21G26G17G15G27G10G28
 117859712.38248  91838725.92948  22427967.6584   22427970.6564   22427967.8264
       233.000         192.000
 136277771.33548  88398260.76348  24029862.9704   24029865.7584   24029865.6694
       216.000         163.000
 131721245.48048 102639914.23948  25065731.3974   25065736.4864   25065731.4444
       202.000         142.000
 126427813.20948  98515170.08748  24058419.0444   24058422.6524   24058418.9274
       211.000         158.000
 129728971.59348 101087504.14848  24686609.1374   24686611.2564   24686609.9704
       197.000         141.000
 105986411.18148  82586803.85248  20168549.9784   20168552.2724   20168549.9164
       251.000         227.000
 139849527.44548  91181443.90748  24709547.6074   24709548.7704   24709548.2074
       213.000         160.000
 108244344.15048  84346238.51948  20598217.3954   20598218.8194   20598217.1494
       250.000         234.000
 125709824.19448  97955697.49748  23921789.6404   23921793.5124   23921790.5854
       223.000         175.000
 119286664.41148  92950632.83148  22699508.7194   22699512.4164   22699509.6144
       234.000         192.000
 116602145.10348  90858806.55348  22188655.5654   22188657.5144   22188655.7754
       239.000         201.000
 09  1  4  0 33 30.0000000  0 11G 9G18G24G 8G21G26G17G15G27G10G28
 117773696.06048  91771700.24248  22411599.1034   22411602.0914   22411598.9754
       232.000         191.000
 136188093.61248  88328382.02548  24012798.5814   24012800.4634   24012799.4914
       218.000         164.000
 131796282.19648 102698384.35648  25080010.8424   25080015.8074   25080011.0934
       203.000         141.000
 126517969.73148  98585421.90448  24075575.1294   24075578.6204   24075575.6324
       212.000         157.000
 129763368.52348 101114306.92548  24693154.0704   24693155.2194   24693152.4874
       206.000         139.000
 106004922.60348  82601228.33348  20172072.4284   20172074.9574   20172072.2184
       251.000         227.000
 139776795.31648  91124769.52748  24695706.6434   24695708.4134   24695706.1064
       217.000         166.000
 108212232.08048  84321216.12548  20592106.6654   20592108.0384   20592106.5934
       251.000         234.000
 125782863.53148  98012611.24748  23935689.0614   23935692.0114   23935688.4884
       224.000         175.000
 119387565.52548  93029257.07548  22718709.8824   22718713.8324   22718710.2434
       234.000         192.000
 116650740.48448  90896673.07748  22197903.0364   22197905.0084   22197903.5324
       238.000         202.000
 09  1  4  0 34  0.0000000  0 11G 9G18G24G 8G21G26G17G15G27G10G28
 117687908.40848  91704852.73748  22395274.5844   22395277.0174   22395274.5844
       233.000         190.000
 136098707.87248  88258730.78048  23995789.3084   23995790.6294   23995791.0844
       216.000         162.000
 131871367.82648 102756892.59048  25094299.8474   25094303.4374   25094299.1094
       202.000         139.000
 126608158.77348  98655699.04148  24092737.6514   24092741.5354   24092738.4604
       209.000         157.000
 129798156.82248 101141414.68348  24699774.9584   24699776.0694   24699776.3594
       201.000         136.000
 106023823.66548  82615956.42248  20175669.1584   20175671.7444   20175669.1554
       250.000         227.000
 139704224.17548  91068220.56648  24681897.6354   24681898.8804   24681898.4374
       217.000         163.000
 108180440.41848  84296443.40248  20586056.8324   20586058.3164   20586056.6764
       250.000         234.000
 125855913.06648  98069532.94748  23949589.7924   23949592.7914   23949590.1044
       226.000         174.000
 119488697.00548  93108060.82248  22737954.4784   22737958.2844   22737955.6394
       233.000         190.000
 116699783.17548  90934888.16748  22207235.8744   22207237.5564   22207236.7804
       239.000         202.000
 09  1  4  0 34 30.0000000  0 10G18G24G 8G21G26G17G15G27G10G28
 136009617.01448  88189309.34348  23978834.9694   23978837.4724   23978836.4144
       215.000         162.000
 131946499.58648 102815436.83748  25108596.1224   25108600.2974   25108595.2944
       199.000         133.000
 126698379.55848  98726000.92348  24109905.9434   24109910.2744   24109907.1734
       210.000         159.000
 129833334.41748 101168825.83048  24706467.9404   24706470.9364   24706467.7974
       212.000         142.000
 106043114.68248  82630988.38648  20179340.0424   20179342.6834   20179339.9804
       251.000         227.000
 139631816.76348  91011799.22648  24668117.9784   24668120.2794   24668118.7554
       213.000         162.000
 108148970.63848  84271921.49248  20580068.3764   20580069.8674   20580068.0274
       250.000         235.000
 125928972.46948  98126462.33148  23963492.3834   23963495.6974   23963493.1254
       220.000         173.000
 119590056.31848  93187042.09048  22757242.4254   22757246.4794   22757243.5364
       232.000         190.000
 116749271.59848  90973450.57048  22216653.1324   22216655.1124   22216653.5784
       239.000         202.000
 09  1  4  0 35  0.0000000  0 11G 9G18G24G 8G21G26G17G15G27G10G28
 117517023.03348  91571695.32248  22362755.7834   22362758.4784   22362756.3044
       234.000         191.000
 135920824.15148  88120120.12548  23961937.6044   23961941.3234   23961937.5284
       215.000         164.000
 132021675.43048 102874015.48948  25122901.6894   25122905.6574   25122900.1644
       200.000         131.000
 126788631.75848  98796327.24248  24127081.1134   24127084.6614   24127081.5504
       212.000         159.000
 129868900.28348 101196539.51048  24713236.5154   24713238.1874   24713237.1854
       204.000         146.000
 106062796.56348  82646324.90548  20183085.3874   20183088.0294   20183085.3874
       250.000         227.000
 139559577.40848  90955508.77648  24654371.6074   24654373.7794   24654371.8654
       214.000         167.000
 108117825.08148  84247652.22548  20574141.5264   20574143.0514   20574141.2154
       251.000         235.000
 126002041.89648  98183399.52748  23977396.8134   23977400.4744   23977396.0124
       221.000         172.000
 119691641.48448  93266199.35748  22776573.4454   22776577.4914   22776574.0944
       232.000         189.000
 116799204.79348  91012359.55148  22226154.9944   22226157.0184   22226155.1714
       238.000         202.000
 09  1  4  0 35 30.0000000  0  9G 9G 8G21G26G17G15G27G10G28
 117431927.29748  91505386.94748  22346562.9704   22346565.6174   22346563.4184
       233.000         192.000
 126878914.51648  98866677.45048  24144261.3034   24144265.4554   24144263.0784
       211.000         161.000
 129904851.70548 101224553.53448  24720078.4394   24720081.1774   24720078.1624
       215.000         154.000
 106082869.55648  82661966.19648  20186905.2564   20186907.7344   20186905.2614
       251.000         227.000
 139487508.55348  90899351.24148  24640657.1224   24640660.0574   24640657.0254
       215.000         164.000
 108087004.93848  84223636.52448  20568276.7134   20568278.0644   20568276.3064
       251.000         235.000
 126075120.64848  98240343.99448  23991303.4154   23991306.7744   23991303.9114
       223.000         172.000
 119793449.98448  93345530.65148  22795947.0344   22795950.7154   22795947.6744
       234.000         189.000
 116849580.96248  91051613.70748  22235741.3174   22235743.1354   22235741.5954
       240.000         202.000
 09  1  4  0 36  0.0000000  0 11G 9G18G24G 8G21G26G17G15G27G10G28
 117347063.61448  91439259.42848  22330413.5224   22330416.6054   22330413.7354
       230.000         191.000
 135744141.76948  87982445.55648  23928316.9964   23928319.2054   23928316.7744
       219.000         167.000
 132172147.31948 102991266.28448  25151535.3414   25151540.3434   25151535.2594
       206.000         135.000
 126969226.33548  98937050.25348  24161447.4114   24161450.6494   24161446.7574
       216.000         161.000
 129941186.19948 101252866.15648  24726992.1484   24726993.6594   24726994.0684
       214.000         155.000
 106103333.55148  82677912.15748  20190799.4634   20190801.8974   20190799.3904
       251.000         227.000
 139415612.85648  90843328.56748  24626976.1244   24626978.1164   24626976.5094
       217.000         164.000
 108056511.14148  84199875.12648  20562473.9264   20562475.2704   20562473.7134
       251.000         235.000
 126148207.95348  98297295.10948  24005211.9074   24005214.4064   24005212.2844
       224.000         172.000
 119895478.72248  93425033.55948  22815362.4784   22815366.2324   22815363.6524
       233.000         189.000
 116900397.83448  91091211.26548  22245411.5754   22245413.3064   22245412.3504
       238.000         201.000
 09  1  4  0 36 30.0000000  0 11G 9G18G24G 8G21G26G17G15G27G10G28
 117262432.78148  91373313.34948  22314308.8024   22314311.8784   22314308.3554
       231.000         191.000
 135656257.01448  87913963.93748  23911593.7664   23911594.4224   23911593.7484
       219.000         165.000
 132247437.10248 103049933.65948  25165862.1504   25165866.5774   25165863.4604
       201.000         138.000
 127059566.23248  99007444.95248  24178638.4114   24178641.7824   24178641.0964
       212.000         161.000
 129977901.49948 101281475.46148  24733978.9274   24733980.3924   24733979.1164
       211.000         152.000
 106124188.85348  82694163.04248  20194768.1484   20194770.5034   20194768.0874
       251.000         227.000
 139343893.12148  90787443.06848  24613328.1594   24613330.5214   24613328.8144
       214.000         165.000
 108026344.87148  84176368.94548  20556733.4284   20556734.9094   20556733.1264
       251.000         235.000
 126221303.41348  98354252.58148  24019121.0524   24019124.4774   24019121.0264
       223.000         173.000
 119997725.34448  93504706.24448  22834819.2844   22834823.0094   22834819.7584
       232.000         187.000
 116951653.52448  91131150.77148  22255164.9954   22255167.1124   22255165.0884
       239.000         202.000
 09  1  4  0 37  0.0000000  0 11G 9G18G24G 8G21G26G17G15G27G10G28
 117178035.71648  91307549.42748  22298248.6144   22298251.6514   22298248.2384
       231.000         191.000
 135568679.97648  87845722.05948  23894928.0634   23894928.8904   23894928.2304
       221.000         167.000
 132322759.36048 103108626.32348  25180195.9334   25180200.9034   25180197.2764
       201.000         143.000
 127149933.44348  99077860.92048  24195835.2844   24195838.1884   24195835.1824
       214.000         162.000
 130014995.76448 101310380.05648  24741038.0344   24741038.9514   24741037.0264
       209.000         145.000
 106145435.81248  82710719.11148  20198811.3084   20198813.5544   20198811.2844
       250.000         227.000
 139272352.71948  90731697.29448  24599714.8444   24599716.7044   24599714.6944
       220.000         166.000
 107996508.09448  84153119.50248  20551055.5874   20551057.1284   20551055.3724
       251.000         235.000
 126294406.76548  98411216.19848  24033032.4534   24033035.6864   24033032.2964
       221.000         171.000
 120100187.43048  93584546.83248  22854317.0544   22854320.5154   22854318.0684
       231.000         187.000
 117003346.48748  91171430.99448  22265002.0274   22265004.3594   22265002.4714
       237.000         202.000
 09  1  4  0 37 30.0000000  0 11G 9G18G24G 8G21G26G17G15G27G10G28
 117093872.89748  91241968.03048  22282232.9934   22282235.6614   22282232.6884
       234.000         190.000
 135481413.33548  87777722.10148  23878321.4534   23878323.4464   23878323.4294
       220.000         165.000
 132398111.01948 103167341.86448  25194534.4924   25194540.3584   25194535.0734
       207.000         146.000
 127240326.99048  99148297.41548  24213036.4784   24213039.5254   24213036.3544
       214.000         163.000
 130052466.71948 101339578.19848  24748168.1174   24748169.8114   24748168.8744
       204.000         142.000
 106167074.70148  82727580.57348  20202929.1594   20202931.3914   20202929.1814
       251.000         227.000
 139200994.47948  90676093.43748  24586136.6494   24586137.8084   24586136.6604
       218.000         165.000
 107967002.05848  84130127.78548  20545440.7434   20545442.2824   20545440.4814
       251.000         235.000
 126367517.12648  98468185.31348  24046944.7014   24046947.8474   24046945.0494
       218.000         169.000
 120202861.93248  93664552.92648  22873855.0544   22873859.0684   22873855.1374
       231.000         186.000
 117055474.63148  91212050.33148  22274921.6204   22274923.2664   22274921.9784
       237.000         200.000
 09  1  4  0 38  0.0000000  0 11G 9G18G24G 8G21G26G17G15G27G10G28
 117009944.74448  91176569.49948  22266261.9824   22266264.2884   22266263.3814
       234.000         191.000
 135394459.40348  87709965.76648  23861775.2604   23861776.5984   23861775.7834
       219.000         166.000
 132473489.09248 103226077.98348  25208879.9594   25208883.7654   25208880.2184
       205.000         144.000
 127330745.46748  99218753.35448  24230242.6554   24230245.3584   24230243.9654
       215.000         164.000
 130090311.69448 101369067.73948  24755369.7434   24755372.1464   24755370.7434
       203.000         141.000
 106189105.28748  82744747.25848  20207121.2954   20207123.8874   20207121.2654
       250.000         227.000
 139129820.96648  90620633.59548  24572592.0064   24572593.9114   24572592.3934
       220.000         167.000
 107937827.80548  84107394.59848  20539889.0974   20539890.5604   20539888.8914
       251.000         235.000
 126440633.93648  98525159.43748  24060858.6224   24060861.3764   24060858.0044
       219.000         170.000
 120305745.99048  93744722.31948  22893433.4224   22893436.9314   22893434.7144
       230.000         185.000
 117108036.32848  91253007.48648  22284923.6094   22284925.3864   22284923.9314
       239.000         200.000
 09  1  4  0 38 30.0000000  0 11G 9G18G24G 8G21G26G17G15G27G10G28
 116926252.05648  91111354.40648  22250336.1654   22250338.4664   22250335.9744
       235.000         193.000
 135307820.73148  87642455.15348  23845288.5654   23845290.2504   23845289.5574
       222.000         170.000
 132548890.80548 103284832.55748  25223228.2904   25223232.0244   25223228.7004
       198.000         138.000
 127421187.96348  99289227.97748  24247453.2854   24247456.8444   24247453.7614
       216.000         165.000
 130128528.66748 101398847.15448  24762643.1164   24762643.3554   24762643.0944
       203.000         145.000
 106211528.02348  82762219.52248  20211388.0634   20211390.8584   20211387.8324
       251.000         227.000
 139058835.47948  90565320.23648  24559084.7544   24559085.7774   24559084.8244
       215.000         163.000
 107908986.56648  84084920.90248  20534400.7284   20534402.3314   20534400.4694
       251.000         235.000
 126513756.80948  98582138.26848  24074773.3324   24074776.5214   24074773.5594
       221.000         170.000
 120408837.30848  93825053.20248  22913050.7744   22913054.5974   22913050.7534
       229.000         186.000
 117161029.41648  91294300.80148  22295007.9534   22295009.8354   22295008.7534
       238.000         200.000
 09  1  4  0 39  0.0000000  0 11G 9G18G24G 8G21G26G17G15G27G10G28
 116842795.72048  91046323.51648  22234454.6694   22234457.4084   22234454.7274
       234.000         194.000
 135221500.06248  87575192.28248  23828861.9354   23828863.5154   23828862.3494
       222.000         169.000
 132624313.74548 103343603.70248  25237580.7714   25237584.2604   25237581.2374
       192.000         130.000
 127511653.91348  99359720.85548  24264668.3084   24264671.6874   24264669.0054
       214.000         163.000
 130167115.39548 101428914.70848  24769984.6624   24769987.5894   24769984.7204
       200.000         146.000
 106234343.40448  82779997.73748  20215729.8134   20215732.5084   20215729.8674
       250.000         227.000
 138988041.09148  90510155.75248  24545612.5844   24545613.8744   24545611.9724
       215.000         166.000
 107880480.11448  84062708.07448  20528976.1734   20528977.6754   20528975.8994
       251.000         235.000
 126586885.62248  98639121.73448  24088689.5074   24088692.2284   24088689.8634
       219.000         169.000
 120512133.36248  93905543.62848  22932707.6504   22932711.4314   22932708.4934
       232.000         187.000
 117214452.43748  91335929.12948  22305173.9134   22305176.3084   22305174.3494
       237.000         200.000
 09  1  4  0 39 30.0000000  0 10G 9G18G 8G21G26G17G15G27G10G28
 116759576.97648  90981477.78048  22218618.3924   22218621.2664   22218618.8934
       232.000         192.000
 135135500.52548  87508179.65048  23812496.1914   23812498.1294   23812497.8034
       220.000         168.000
 127602142.54048  99430231.45148  24281887.1734   24281890.8384   24281887.3624
       211.000         160.000
 130206069.84848 101459268.83348  24777397.5214   24777400.6404   24777398.8384
       204.000         146.000
 106257551.73948  82798082.14648  20220146.2614   20220148.7914   20220146.0824
       250.000         227.000
 138917440.91148  90455142.59048  24532178.4894   24532179.5734   24532177.5824
       214.000         165.000
 107852310.10348  84040757.41148  20523615.6624   20523617.1944   20523615.2814
       251.000         235.000
 126660020.12348  98696109.63848  24102606.4734   24102609.0534   24102606.8284
       221.000         169.000
 120615631.70748  93986191.67848  22952402.5784   22952406.7404   22952403.3904
       230.000         185.000
 117268303.67848  91377891.13748  22315421.4344   22315423.6854   22315421.3824
       239.000         200.000
 09  1  4  0 40  0.0000000  0 10G 9G18G 8G21G26G17G15G27G10G28
 116676596.51048  90916817.68948  22202827.5984   22202830.9234   22202827.9474
       236.000         195.000
 135049824.15248  87441418.86548  23796193.1914   23796194.5084   23796193.2564
       225.000         172.000
 127692653.12348  99500759.12348  24299111.0534   24299114.4714   24299110.9894
       215.000         162.000
 130245390.31148 101489908.10848  24784879.9084   24784883.1184   24784880.1674
       200.000         140.000
 106281153.62548  82816473.21948  20224637.5434   20224640.0774   20224637.4914
       250.000         227.000
 138847038.02948  90400283.19048  24518779.5014   24518782.5094   24518778.1574
       212.000         162.000
 107824477.99648  84019070.04648  20518319.3824   20518320.8484   20518319.0274
       251.000         235.000
 126733160.03048  98753101.75948  24116524.5044   24116527.7314   24116524.8284
       220.000         169.000
 120719330.03648  94066995.56448  22972135.8154   22972139.6394   22972136.0204
       231.000         185.000
 117322581.60448  91420185.62748  22325750.2674   22325751.8134   22325751.0204
       239.000         200.000
 09  1  4  0 40 30.0000000  0 10G 9G18G 8G21G26G17G15G27G10G28
 116593854.79248  90852343.59848  22187083.1174   22187085.6794   22187082.8954
       237.000         197.000
 134964473.43148  87374911.79748  23779951.7154   23779953.2654   23779951.7764
       220.000         169.000
 127783184.57848  99571303.09448  24316338.7714   24316342.0084   24316339.8354
       213.000         163.000
 130285073.63548 101520830.17648  24792431.7224   24792434.3514   24792432.4984
       198.000         134.000
 106305148.96448  82835170.87648  20229203.6084   20229206.2384   20229203.4284
       251.000         226.000
 138776835.19148  90345579.66448  24505420.6264   24505423.4704   24505420.8564
       212.000         163.000
 107796984.77948  83997646.75248  20513087.5944   20513089.0744   20513087.1664
       251.000         235.000
 126806304.77448  98810097.64148  24130443.1674   24130446.9624   24130443.4314
       219.000         169.000
 120823225.57348  94147953.10948  22991906.7514   22991910.3924   22991907.6994
       230.000         184.000
 117377283.89648  91462810.78648  22336159.8654   22336161.5854   22336160.3904
       239.000         200.000
 09  1  4  0 41  0.0000000  0 10G 9G18G 8G21G26G17G15G27G10G28
 116511352.50948  90788056.12448  22171383.2094   22171385.9434   22171383.0904
       235.000         196.000
 134879450.93548  87308660.50248  23763772.0294   23763773.9414   23763771.5054
       220.000         168.000
 127873735.95048  99641862.56648  24333570.2834   24333573.5844   24333570.3884
       215.000         164.000
 130325117.82148 101552033.47748  24800052.6104   24800052.9284   24800053.4254
       183.000         122.000
 106329537.91848  82854175.25248  20233844.7464   20233847.3134   20233844.7404
       250.000         226.000
 138706835.56348  90291034.52148  24492099.4934   24492102.4174   24492098.2654
       216.000         162.000
 107769831.96248  83976488.70848  20507920.5864   20507921.9794   20507920.2834
       251.000         235.000
 126879453.69148  98867096.78548  24144363.2124   24144366.4744   24144363.6614
       218.000         167.000
 120927315.59648  94229062.22548  23011714.4754   23011717.8234   23011715.0344
       229.000         182.000
 117432408.89148  91505765.32148  22346649.7514   22346651.9074   22346650.3074
       239.000         201.000
 09  1  4  0 41 30.0000000  0  9G 9G18G 8G26G17G15G27G10G28
 116429089.92648  90723955.41848  22155728.7324   22155731.8894   22155729.1994
       233.000         194.000
 134794759.11648  87242666.87448  23747655.8224   23747657.3774   23747655.8904
       224.000         170.000
 127964305.91248  99712436.51348  24350804.9554   24350808.8644   24350805.5434
       212.000         163.000
 106354320.50348  82873486.34248  20238560.8744   20238563.3534   20238560.7914
       251.000         226.000
 138637041.75648  90236649.69948  24478820.1814   24478821.0064   24478820.2914
       215.000         165.000
 107743020.69748  83955596.80748  20502818.5504   20502819.9694   20502818.2864
       252.000         236.000
 126952606.37848  98924098.85148  24158283.5104   24158286.9064   24158283.5434
       221.000         165.000
 121031597.66148  94310320.98448  23031558.3054   23031562.0724   23031558.3234
       229.000         182.000
 117487954.52748  91549047.64048  22357220.1384   22357222.0874   22357220.9084
       240.000         201.000
 09  1  4  0 42  0.0000000  0  9G 9G18G 8G26G17G15G27G10G28
 116347067.76348  90660042.04948  22140120.3894   22140123.4594   22140120.8094
       234.000         195.000
 134710400.24148  87176932.68248  23731603.4204   23731604.3624   23731604.3614
       223.000         170.000
 128054893.42448  99783024.14848  24368042.5734   24368046.7794   24368042.5824
       215.000         164.000
 106379496.68548  82893104.14648  20243351.7104   20243354.1484   20243351.6904
       250.000         226.000
 138567456.26048  90182427.27848  24465577.1814   24465579.9404   24465577.0584
       215.000         165.000
 107716552.05048  83934971.88148  20497781.7454   20497783.2294   20497781.5464
       251.000         236.000
 127025762.10648  98981103.26948  24172204.6154   24172208.0164   24172205.4584
       218.000         164.000
 121136068.33448  94391726.70248  23051438.5364   23051442.4734   23051439.1414
       230.000         183.000
 117543918.67248  91592656.05948  22367869.6044   22367871.6724   22367870.0214
       240.000         201.000
 09  1  4  0 42 30.0000000  0  9G 9G18G 8G26G17G15G27G10G28
 116265287.11448  90596316.87548  22124558.2944   22124561.1114   22124558.3254
       235.000         195.000
 134626377.03248  87111460.08948  23715613.6694   23715615.6254   23715612.7854
       219.000         169.000
 128145498.19548  99853625.22148  24385284.7634   24385288.3954   24385284.9534
       215.000         165.000
 106405066.72848  82913028.84648  20248217.6074   20248219.9504   20248217.4504
       251.000         226.000
 138498082.52648  90128369.79248  24452376.1994   24452377.8834   24452376.1914
       212.000         161.000
 107690427.72148  83914615.25448  20492810.3894   20492812.0274   20492810.0404
       251.000         236.000
 127098920.83548  99038110.05648  24186126.4374   24186129.6654   24186126.5104
       217.000         164.000
 121240725.84348  94473278.00048  23071354.2284   23071358.4514   23071355.0044
       230.000         184.000
 117600298.76848  91636588.60148  22378598.1344   22378599.8644   22378598.2944
       239.000         201.000
 09  1  4  0 43  0.0000000  0  9G 9G18G 8G26G17G15G27G10G28
 116183749.27648  90532780.90048  22109042.1314   22109044.6774   22109041.6464
       236.000         195.000
 134542692.76248  87046251.54448  23699688.5424   23699690.8534   23699688.2014
       223.000         169.000
 128236119.73548  99924239.38448  24402528.7444   24402533.2814   24402528.3444
       214.000         164.000
 106431031.66648  82933261.26648  20253158.4174   20253160.8114   20253158.5104
       250.000         226.000
 138428924.03748  90074480.06548  24439215.3894   24439217.7244   24439214.6474
       217.000         166.000
 107664649.74948  83894528.51448  20487904.9874   20487906.7004   20487904.7824
       251.000         236.000
 127172082.97248  99095119.47848  24200048.9994   24200052.3924   24200049.6084
       221.000         166.000
 121345567.42748  94554972.72348  23091305.0354   23091309.3394   23091306.0844
       229.000         184.000
 117657094.12548  91680844.71648  22389406.1354   22389407.6514   22389406.9204
       239.000         201.000
 09  1  4  0 43 30.0000000  0  9G 9G18G 8G26G17G15G27G10G28
 116102453.64148  90469433.66948  22093572.2014   22093574.6954   22093572.6644
       235.000         196.000
 134459348.81748  86981308.20448  23683829.0354   23683830.6224   23683829.6914
       222.000         171.000
 128326755.99848  99994865.00148  24419777.0004   24419780.5344   24419776.1114
       219.000         166.000
 106457390.34748  82953800.49048  20258174.3024   20258176.6514   20258174.1284
       251.000         226.000
 138359982.74148  90020759.55248  24426097.2044   24426098.0764   24426097.2124
       213.000         163.000
 107639218.22048  83874711.72548  20483065.6504   20483067.1834   20483065.2984
       251.000         236.000
 127245246.72348  99152130.16848  24213971.9014   24213975.1714   24213972.2694
       221.000         168.000
 121450590.15248  94636808.60148  23111290.2154   23111294.3114   23111291.0554
       230.000         183.000
 117714302.17848  91725422.42248  22400292.4204   22400294.6814   22400293.0654
       240.000         201.000
 09  1  4  0 44  0.0000000  0  9G 9G18G 8G26G17G15G27G10G28
 116021400.85648  90406275.67948  22078148.1484   22078151.0874   22078148.5974
       236.000         196.000
 134376347.37348  86916631.77348  23668034.9654   23668036.3214   23668035.2354
       221.000         172.000
 128417406.13448 100065501.42348  24437026.8114   24437030.9424   24437027.3144
       220.000         166.000
 106484142.91948  82974646.64848  20263265.1324   20263267.5254   20263265.1364
       250.000         226.000
 138291261.45748  89967210.50348  24413018.9424   24413020.7014   24413017.6554
       220.000         167.000
 107614134.34448  83855165.84548  20478292.3934   20478293.8654   20478292.2104
       252.000         236.000
 127318411.56048  99209141.70748  24227894.8174   24227898.3104   24227895.3814
       218.000         165.000
 121555791.14448  94718783.38748  23131309.6114   23131313.1344   23131310.7834
       229.000         184.000
 117771920.60548  91770319.90148  22411257.0824   22411259.4744   22411257.4694
       239.000         201.000
 09  1  4  0 44 30.0000000  0  9G 9G18G 8G26G17G15G27G10G28
 115940591.95048  90343307.70448  22062770.9324   22062773.8954   22062771.5954
       237.000         197.000
 134293691.44748  86852224.57448  23652305.6674   23652307.6834   23652305.8564
       223.000         171.000
 128508069.63148 100136148.28648  24454279.1204   24454283.7264   24454280.0214
       219.000         167.000
 106511290.06348  82995800.26248  20268431.0854   20268433.5864   20268431.0934
       250.000         226.000
 138222763.52948  89913835.51248  24399984.5214   24399986.9244   24399984.8004
       217.000         169.000
 107589400.27148  83835892.52648  20473585.8394   20473587.1874   20473585.7474
       252.000         236.000
 127391577.62848  99266154.18248  24241817.4414   24241821.4094   24241818.5654
       215.000         166.000
 121661168.23348  94800895.40348  23151362.4684   23151365.7674   23151363.1594
       230.000         183.000
 117829947.82148  91815535.91048  22422299.2934   22422301.4774   22422299.4954
       239.000         200.000
 09  1  4  0 45  0.0000000  0  9G 9G18G 8G26G17G15G27G10G28
 115860027.75248  90280530.40048  22047440.1714   22047442.9194   22047440.4374
       236.000         196.000
 134211384.01448  86788088.91648  23636643.2244   23636644.9704   23636643.6264
       221.000         170.000
 128598746.27148 100206805.36948  24471534.9694   24471538.9974   24471534.5684
       217.000         169.000
 106538832.12548  83017261.60248  20273672.2244   20273674.6364   20273672.0634
       251.000         226.000
 138154492.26448  89860637.09848  24386993.1444   24386995.4194   24386992.5604
       214.000         169.000
 107565017.37548  83816892.85848  20468945.8464   20468947.3334   20468945.6634
       252.000         236.000
 127464744.97448  99323167.67748  24255740.8344   24255744.5884   24255741.2914
       219.000         166.000
 121766718.86648  94883142.63848  23171447.8944   23171451.0864   23171448.3854
       230.000         182.000
 117888382.05048  91861069.06848  22433418.6144   22433420.1794   22433419.4484
       239.000         199.000
 09  1  4  0 45 30.0000000  0  9G 9G18G 8G26G17G15G27G10G28
 115779709.32448  90217944.60548  22032155.8824   22032158.7234   22032156.5554
       235.000         198.000
 134129427.73148  86724226.88948  23621047.0224   23621049.0784   23621047.1154
       225.000         169.000
 128689434.81648 100277471.76248  24488792.0784   24488796.2364   24488791.7094
       217.000         166.000
 106566769.49748  83039030.97848  20278988.5354   20278990.8754   20278988.4474
       251.000         226.000
 138086450.59848  89807617.64548  24374044.8964   24374046.9454   24374044.7544
       217.000         171.000
 107540986.69248  83798167.64948  20464372.8724   20464374.4244   20464372.6284
       252.000         236.000
 127537913.39148  99380182.02048  24269664.1624   24269668.1104   24269664.3304
       217.000         165.000
 121872440.51148  94965523.13948  23191565.8174   23191569.1564   23191566.6834
       228.000         180.000
 117947221.55348  91906918.03048  22444615.1074   22444616.7904   22444615.4694
       238.000         198.000
 09  1  4  0 46  0.0000000  0  9G 9G18G 8G26G17G15G27G10G28
 115699636.97148  90155550.55548  22016918.4804   22016921.4234   22016918.4154
       236.000         197.000
 134047824.82848  86660640.19748  23605519.4044   23605520.1964   23605519.5714
       224.000         171.000
 128780134.50848 100348146.80948  24506051.9674   24506056.0744   24506052.3934
       220.000         168.000
 106595102.03948  83061108.27548  20284379.8714   20284382.4384   20284379.8434
       250.000         226.000
 138018641.14948  89754779.10548  24361142.2944   24361143.9724   24361142.0484
       218.000         170.000
 107517310.20348  83779718.43348  20459867.3684   20459868.7984   20459867.1314
       251.000         236.000
 127611082.31548  99437196.74848  24283587.3734   24283591.0824   24283587.8964
       215.000         163.000
 121978330.58148  95048034.88248  23211715.8484   23211719.1244   23211716.5084
       229.000         181.000
 118006463.92948  91953080.92648  22455888.8534   22455890.5444   22455889.0804
       241.000         198.000
 09  1  4  0 46 30.0000000  0  9G 9G18G 8G26G17G15G27G10G28
 115619811.48348  90093348.90248  22001728.1034   22001731.1454   22001728.1124
       236.000         197.000
 133966577.39248  86597330.49848  23590058.1994   23590059.1384   23590058.5164
       222.000         170.000
 128870844.60848 100418829.95648  24523314.0994   24523317.5134   24523314.5504
       221.000         168.000
 106623829.53248  83083493.33148  20289846.6244   20289849.1784   20289846.4264
       251.000         226.000
 137951067.02448  89702123.91948  24348282.3824   24348284.5114   24348282.2954
       220.000         171.000
 107493988.73848  83761545.85948  20455429.5074   20455430.9084   20455429.1254
       252.000         237.000
 127684251.28748  99494211.51448  24297511.4124   24297514.6704   24297511.9394
       217.000         164.000
 122084386.08648  95130675.54148  23231897.3934   23231901.3714   23231897.6844
       226.000         178.000
 118066107.44548  91999556.38748  22467238.6884   22467240.7884   22467240.0004
       239.000         198.000
 09  1  4  0 47  0.0000000  0  9G 9G18G 8G26G17G15G27G10G28
 115540234.66748  90031341.00548  21986585.5114   21986587.8234   21986586.1384
       237.000         198.000
 133885689.37048  86534300.87948  23574665.0654   23574667.4374   23574665.4174
       224.000         171.000
 128961565.03948 100489521.13448  24540577.4884   24540581.1744   24540577.7684
       222.000         167.000
 106652953.74348  83106187.51648  20295388.7534   20295391.3954   20295388.6544
       250.000         226.000
 137883732.17048  89649655.20148  24335469.7964   24335471.5074   24335469.5364
       214.000         169.000
 107471024.81048  83743651.88548  20451059.6934   20451061.0164   20451059.5854
       252.000         237.000
 127757421.05848  99551226.88548  24311434.6544   24311438.7704   24311435.1304
       217.000         162.000
 122190605.99548  95213444.28748  23252110.0974   23252114.3204   23252110.6554
       225.000         177.000
 118126151.25048  92046343.77448  22478664.5324   22478666.4124   22478664.7974
       238.000         197.000
 09  1  4  0 47 30.0000000  0  9G 9G18G 8G26G17G15G27G10G28
 115460906.03548  89969526.49048  21971489.5234   21971492.1964   21971489.8384
       236.000         199.000
 133805161.86448  86471552.18748  23559341.5294   23559343.8874   23559342.4604
       224.000         171.000
 129052293.80848 100560218.86348  24557842.6174   24557846.4694   24557843.1364
       219.000         167.000
 106682472.98848  83129189.51848  20301006.2404   20301008.6264   20301006.1364
       251.000         226.000
 137816638.04348  89597374.06048  24322701.3894   24322703.4524   24322700.7094
       217.000         170.000
 107448418.40148  83726036.49248  20446757.8854   20446759.1604   20446757.6044
       252.000         237.000
 127830589.90248  99608241.52448  24325358.7674   24325361.6814   24325359.3224
       216.000         161.000
 122296985.81048  95296337.63848  23272353.5544   23272357.3104   23272354.3124
       224.000         178.000
 118186591.57548  92093440.12148  22490165.9364   22490167.1564   22490165.8754
       238.000         196.000
 09  1  4  0 48  0.0000000  0  9G 9G18G 8G26G17G15G27G10G28
 115381825.74048  89907905.50348  21956441.1294   21956444.0634   21956441.6484
       237.000         199.000
 133724996.92048  86409086.00348  23544086.8284   23544088.1314   23544088.0924
       223.000         169.000
 129143029.61548 100630922.06748  24575108.7764   24575112.6794   24575109.2334
       223.000         168.000
 106712387.20448  83152499.29548  20306698.7194   20306701.0314   20306698.7134
       250.000         226.000
 137749787.43548  89545282.69648  24309980.2474   24309982.3304   24309981.0264
       214.000         169.000
 107426170.58748  83708700.53148  20442524.1834   20442525.6394   20442523.9784
       252.000         237.000
 127903757.12948  99665254.93448  24339281.8524   24339285.2434   24339282.2054
       213.000         161.000
 122403522.69748  95379353.40448  23292627.0514   23292630.8944   23292627.8904
       225.000         179.000
 118247426.31348  92140843.81548  22501742.4064   22501742.9434   22501742.3844
       238.000         195.000
 09  1  4  0 48 30.0000000  0  9G 9G18G 8G26G17G15G27G10G28
 115302994.74748  89846478.77348  21941440.2084   21941442.8994   21941440.9544
       237.000         199.000
 133645197.31248  86346904.50648  23528901.6344   23528902.8294   23528902.5974
       223.000         173.000
 129233772.71248 100701630.92348  24592376.7854   24592380.8684   24592377.7414
       220.000         166.000
 106742696.95648  83176117.28148  20312466.5064   20312468.8124   20312466.4814
       251.000         225.000
 137683183.63148  89493383.59348  24297306.0744   24297308.1634   24297305.7514
       215.000         168.000
 107404283.06748  83691645.31048  20438359.0484   20438360.5654   20438358.7894
       251.000         237.000
 127976923.02848  99722267.30748  24353204.8224   24353208.3274   24353205.1114
       214.000         160.000
 122510214.99248  95462490.23848  23312929.8224   23312934.4344   23312930.7154
       227.000         180.000
 118308654.05948  92188553.72948  22513393.8044   22513394.2654   22513393.7534
       239.000         196.000
 09  1  4  0 49  0.0000000  0  9G 9G18G 8G26G17G15G27G10G28
 115224413.74048  89785246.83748  21926486.8454   21926489.3984   21926487.0804
       238.000         199.000
 133565765.78148  86285009.81248  23513786.3374   23513787.7614   23513786.0094
       225.000         173.000
 129324521.68248 100772344.40948  24609645.1614   24609649.0754   24609645.3164
       217.000         162.000
 106773402.06248  83200043.33048  20318309.4934   20318311.8044   20318309.5344
       250.000         225.000
 137616829.11548  89441678.83148  24284678.9364   24284681.3754   24284678.4234
       213.000         169.000
 107382757.02748  83674871.77448  20434262.7454   20434264.4014   20434262.3884
       252.000         238.000
 128050087.10548  99779278.23248  24367126.9474   24367130.6884   24367127.4944
       213.000         160.000
 122617059.59748  95545745.78348  23333262.3444   23333265.9614   23333264.2864
       227.000         180.000
 118370272.59748  92236568.16648  22525119.5584   22525120.7544   22525120.8084
       239.000         196.000
 09  1  4  0 49 30.0000000  0  9G 9G18G 8G26G17G15G27G10G28
 115146083.66248  89724210.42548  21911580.7124   21911583.5174   21911581.2504
       238.000         199.000
 133486704.87648  86223403.90948  23498741.8794   23498743.1734   23498741.3024
       226.000         173.000
 129415276.08748 100843062.10748  24626915.3324   24626918.7404   24626915.3704
       217.000         164.000
 106804503.07948  83224277.88748  20324227.7254   20324230.1674   20324227.6544
       251.000         225.000
 137550727.58948  89390171.12048  24272100.5214   24272103.0974   24272099.6424
       214.000         168.000
 107361594.00048  83658381.09748  20430235.6124   20430237.1484   20430235.4584
       252.000         238.000
 128123249.24048  99836287.63048  24381049.0634   24381053.1984   24381048.9274
       213.000         158.000
 122724054.35848  95629118.31348  23353622.5514   23353626.2874   23353622.8224
       225.000         179.000
 118432280.01448  92284885.64348  22536919.0264   22536921.5454   22536919.8634
       237.000         197.000
 09  1  4  0 50  0.0000000  0  9G 9G18G 8G26G17G15G27G10G28
 115068005.36048  89663370.21648  21896723.3114   21896725.9804   21896723.7324
       238.000         200.000
 133408017.21948  86162088.85948  23483768.3404   23483769.3764   23483768.2024
       226.000         175.000
 129506035.67048 100913783.81848  24644186.7194   24644189.8054   24644187.1514
       220.000         165.000
 106836000.51448  83248821.34248  20330221.5094   20330223.9344   20330221.3954
       250.000         225.000
 137484881.99548  89338862.84748  24259570.9084   24259572.3524   24259569.9554
       216.000         168.000
 107340795.81648  83642174.71748  20426277.8044   20426279.3754   20426277.4934
       252.000         238.000
 128196409.59248  99893295.69748  24394972.1464   24394975.0164   24394971.9134
       211.000         158.000
 122831196.89148  95712606.01348  23374011.5414   23374014.4844   23374012.0564
       227.000         178.000
 118494674.68548  92333504.86648  22548792.0724   22548795.5304   22548792.6494
       238.000         197.000
 09  1  4  0 50 30.0000000  0  9G 9G18G 8G26G17G15G27G10G28
 114990178.49848  89602725.91648  21881913.2304   21881915.6864   21881913.2614
       237.000         200.000
 133329704.55348  86101066.00348  23468865.7454   23468867.2344   23468866.4444
       225.000         176.000
 129596798.37248 100984507.95048  24661458.6134   24661461.9704   24661459.6944
       220.000         167.000
 106867892.90948  83273672.55548  20336290.2864   20336292.8664   20336290.2084
       250.000         225.000
 137419294.21748  89287755.47948  24247089.5394   24247091.4884   24247089.5914
       213.000         164.000
 107320362.57048  83626252.69848  20422389.6184   20422391.0664   20422389.3804
       252.000         238.000
 128269566.85548  99950301.32348  24408893.0524   24408896.2554   24408893.0634
       211.000         159.000
 122938482.83748  95796205.46048  23394427.2884   23394430.3904   23394428.8424
       225.000         179.000
 118557453.49848  92382423.43248  22560738.8234   22560742.0764   22560739.3184
       236.000         198.000
 09  1  4  0 51  0.0000000  0  9G 9G18G 8G26G17G15G27G10G28
 114912604.84748  89542278.92748  21867151.3584   21867153.5744   21867151.5774
       237.000         198.000
 133251769.92448  86040337.74448  23454034.7794   23454036.6714   23454034.9514
       226.000         172.000
 129687564.60148 101055234.87448  24678730.3184   24678734.2464   24678730.1594
       217.000         165.000
 106900181.70248  83298832.64748  20342434.6594   20342437.2144   20342434.7524
       250.000         225.000
 137353968.13348  89236852.01948  24234657.8994   24234659.8274   24234657.4014
       213.000         164.000
 107300296.53648  83610616.82448  20418571.0664   20418572.5864   20418570.7874
       253.000         238.000
 128342721.88048 100007305.20148  24422813.6664   24422818.1064   24422813.3564
       210.000         157.000
 123045911.21148  95879915.87048  23414869.6534   23414873.9884   23414869.8924
       225.000         179.000
 118620615.55548  92431640.62148  22572757.9284   22572761.3884   22572757.6324
       237.000         197.000
 09  1  4  0 51 30.0000000  0  9G 9G18G 8G26G17G15G27G10G28
 114835284.37848  89482029.23448  21852437.3714   21852440.2914   21852437.6814
       236.000         199.000
 133174215.43148  85979905.67648  23439276.9414   23439277.9174   23439278.4644
       225.000         173.000
 129778333.40848 101125963.76848  24696002.9324   24696006.8964   24696003.1934
       219.000         162.000
 106932866.44648  83324301.27748  20348654.3414   20348656.8734   20348654.3244
       250.000         225.000
 137288906.31748  89186154.50948  24222277.4784   24222279.8594   24222277.4614
       213.000         164.000
 107280598.70648  83595267.85548  20414822.9154   20414824.2574   20414822.7414
       253.000         238.000
 128415873.60248 100064306.52548  24436734.8184   24436738.6564   24436735.4404
       211.000         156.000
 123153479.27748  95963735.15048  23435339.8344   23435343.6474   23435340.4944
       227.000         178.000
 118684158.19048  92481154.36448  22584849.8154   22584852.7264   22584850.2474
       237.000         196.000
 09  1  4  0 52  0.0000000  0  9G 9G18G 8G26G17G15G27G10G28
 114758217.96948  89421977.49948  21837772.6524   21837775.2984   21837772.9724
       237.000         201.000
 133097043.37548  85919771.61648  23424591.4584   23424592.7284   23424592.0014
       226.000         173.000
 129869103.71448 101196693.84648  24713276.5574   24713279.9264   24713276.8804
       218.000         161.000
 106965946.91348  83350078.25748  20354949.3194   20354951.8764   20354949.2894
       250.000         224.000
 137224111.37448  89135664.96348  24209947.0854   24209948.9714   24209946.4344
       218.000         168.000
 107261270.23248  83580206.70348  20411144.7464   20411146.2754   20411144.4944
       252.000         238.000
 128489021.60248 100121304.90548  24450654.3374   24450658.0334   24450653.9494
       211.000         156.000
 123261183.83848  96047660.80048  23455834.6984   23455838.6904   23455835.9774
       225.000         177.000
 118748079.33248  92530963.03748  22597013.9974   22597016.3594   22597014.9044
       238.000         195.000
 09  1  4  0 52 30.0000000  0  9G 9G18G 8G26G17G15G27G10G28
 114681405.82248  89362123.86748  21823155.6124   21823158.6124   21823155.6294
       236.000         201.000
 133020256.39248  85859937.61448  23409979.1604   23409980.7724   23409980.3104
       226.000         175.000
 129959874.36048 101267424.22248  24730549.0164   24730553.0214   24730550.1444
       218.000         160.000
 106999423.28248  83376163.73948  20361319.8294   20361322.2074   20361319.6914
       251.000         225.000
 137159585.95148  89085385.41748  24197668.3824   24197670.7554   24197668.1664
       215.000         166.000
 107242312.34848  83565434.31948  20407537.1684   20407538.6074   20407536.8184
       252.000         238.000
 128562165.49248 100178300.13948  24464573.4644   24464576.8784   24464573.4944
       214.000         155.000
 123369022.30748  96131690.76048  23476355.5264   23476359.9494   23476356.3264
       223.000         177.000
 118812376.47348  92581064.70448  22609249.1904   22609250.7764   22609250.0014
       238.000         192.000
 09  1  4  0 53  0.0000000  0  9G 9G18G 8G26G17G15G27G10G28
 114604849.58448  89302469.65148  21808587.2584   21808590.4354   21808587.2304
       238.000         201.000
 132943857.35848  85800405.90048  23395441.0354   23395442.8784   23395441.1404
       227.000         178.000
 130050645.63748 101338155.07148  24747822.5984   24747826.5424   24747822.7614
       221.000         162.000
 107033296.05948  83402558.11348  20367765.6184   20367768.0244   20367765.5784
       251.000         225.000
 137095333.84848  89035318.81548  24185442.0574   24185443.5064   24185440.8994
       217.000         168.000
 107223726.93048  83550952.16948  20404000.4354   20404001.9324   20404000.1224
       253.000         238.000
 128635305.88848 100235292.62948  24478490.7614   24478494.5854   24478492.5244
       209.000         155.000
 123476992.60848  96215823.46148  23496902.2524   23496906.1004   23496903.1954
       223.000         175.000
 118877048.60048  92631458.55448  22621555.8094   22621556.5794   22621556.6614
       236.000         190.000
 09  1  4  0 53 30.0000000  0  9G 9G18G 8G26G17G15G27G10G28
 114528548.74848  89243014.45348  21794067.7834   21794070.5034   21794068.1434
       238.000         201.000
 132867848.42748  85741178.15148  23380977.1074   23380978.7114   23380978.2684
       227.000         176.000
 130141416.23148 101408885.42048  24765096.2124   24765099.3874   24765097.3814
       219.000         162.000
 107067564.72348  83429260.96448  20374286.7644   20374289.1744   20374286.8614
       251.000         225.000
 137031357.13148  88985466.83748  24173267.4244   24173269.2974   24173267.1084
       218.000         170.000
 107205514.66648  83536760.78848  20400534.8794   20400536.2344   20400534.6714
       253.000         239.000
 128708441.87548 100292281.66348  24492409.2534   24492411.9154   24492409.8724
       215.000         157.000
 123585091.80248  96300056.62048  23517472.3404   23517476.1154   23517472.2974
       223.000         176.000
 118942092.84148  92682142.36748  22633933.4054   22633933.0114   22633934.1024
       237.000         189.000
 09  1  4  0 54  0.0000000  0  9G 9G18G 8G26G17G15G27G10G28
 114452504.71948  89183759.38848  21779596.9344   21779600.1314   21779596.7624
       238.000         203.000
 132792231.52448  85682255.88848  23366587.4564   23366589.5044   23366588.3004
       226.000         177.000
 130232185.81548 101479614.93748  24782368.5604   24782372.6204   24782368.9954
       217.000         162.000
 107102229.62148  83456272.57648  20380883.4234   20380885.7164   20380883.3574
       251.000         225.000
 136967659.15348  88935832.04048  24161146.5124   24161148.6514   24161146.4234
       220.000         171.000
 107187677.32748  83522861.55848  20397140.5684   20397142.0284   20397140.3304
       253.000         239.000
 128781573.76648 100349267.53748  24506324.9784   24506328.3644   24506325.4774
       209.000         155.000
 123693317.68048  96384388.48548  23538067.0424   23538070.8014   23538068.3274
       224.000         173.000
 119007507.59948  92733114.89248  22646381.2904   22646380.5444   22646381.5404
       235.000         188.000
 09  1  4  0 54 30.0000000  0 10G 9G18G 8G26G17G15G12G27G10G28
 114376718.20048  89124704.96848  21765175.5614   21765178.2164   21765175.5894
       240.000         202.000
 132717009.83948  85623641.58648  23352273.3844   23352275.0974   23352273.3244
       226.000         175.000
 130322953.71348 101550343.14648  24799641.4544   24799645.2384   24799641.4854
       217.000         160.000
 107137290.97748  83483593.11348  20387555.2364   20387557.6714   20387555.0554
       251.000         225.000
 136904242.97148  88886416.84148  24149079.2104   24149080.7034   24149079.2894
       219.000         172.000
 107170215.92648  83509255.26748  20393817.7634   20393819.2544   20393817.5884
       253.000         239.000
 140081782.79558  91362411.91258  24753752.3575   24753756.4225   24753750.3785
       204.000         153.000
 128854701.32548 100406250.04148  24520240.9724   24520244.3004   24520240.5624
       213.000         157.000
 123801667.50048  96468816.91448  23558685.1594   23558689.1454   23558686.3124
       222.000         174.000
 119073290.78748  92784374.50748  22658899.5004   22658899.0304   22658899.9704
       236.000         190.000
 09  1  4  0 55  0.0000000  0 10G 9G18G 8G26G17G15G12G27G10G28
 114301189.16348  89065851.17948  21750802.5724   21750805.4494   21750803.0924
       237.000         201.000
 132642184.88548  85565336.44548  23338034.1354   23338035.6854   23338034.1224
       228.000         174.000
 130413718.45748 101621068.92348  24816913.0214   24816916.8604   24816912.9064
       217.000         158.000
 107172748.02348  83511221.98348  20394302.3674   20394304.9444   20394302.2934
       250.000         225.000
 136841110.57448  88837222.76048  24137065.3384   24137067.2754   24137065.1414
       220.000         172.000
 107153131.48048  83495942.70748  20390566.5694   20390568.1474   20390566.4214
       253.000         239.000
 139967208.06148  91273132.94648  24731949.0054   24731953.2704   24731948.4554
       210.000         155.000
 128927823.69948 100463228.48148  24534156.6984   24534158.6314   24534158.4534
       213.000         157.000
 123910138.17548  96553339.52948  23579326.5214   23579330.6884   23579326.6814
       223.000         174.000
 119139439.64348  92835919.06148  22671487.1114   22671487.8904   22671487.2474
       235.000         191.000
 09  1  4  0 55 30.0000000  0 10G 9G18G 8G26G17G15G12G27G10G28
 114225916.78948  89007197.39048  21736478.7594   21736481.5694   21736478.8534
       239.000         202.000
 132567757.48448  85507341.07348  23323871.4884   23323872.7394   23323871.6844
       227.000         177.000
 130504477.88148 101691790.52948  24834183.6754   24834187.8354   24834184.6014
       217.000         157.000
 107208599.21548  83539157.97948  20401124.8044   20401127.1644   20401124.7074
       251.000         225.000
 136778263.41348  88788250.93348  24125105.8024   24125107.6834   24125105.3814
       218.000         172.000
 107136423.89448  83482923.79848  20387387.3624   20387388.7484   20387387.1704
       253.000         239.000
 139852698.07548  91183904.38348  24710158.8254   24710162.9504   24710160.1934
       212.000         155.000
 129000939.14848 100520201.51848  24548069.6524   24548072.5754   24548069.5944
       213.000         157.000
 124018725.45148  96637953.00548  23599990.2914   23599993.9794   23599991.4554
       223.000         172.000
 119205950.61248  92887745.77748  22684143.4794   22684145.3774   22684143.9734
       233.000         190.000
 09  1  4  0 56  0.0000000  0 10G 9G18G 8G26G17G15G12G27G10G28
 114150903.37148  88948745.39848  21722204.2514   21722206.9634   21722204.6794
       238.000         202.000
 132493732.17248  85449659.01448  23309785.2764   23309785.8674   23309785.3094
       231.000         177.000
 130595233.40748 101762509.11848  24851454.2604   24851457.7704   24851454.6004
       214.000         161.000
 107244846.48048  83567402.60248  20408022.5334   20408024.7904   20408022.5564
       250.000         225.000
 136715706.22048  88739505.04548  24113201.2184   24113203.4614   24113200.4204
       217.000         173.000
 107120095.97848  83470200.74148  20384280.1864   20384281.6204   20384279.9424
       253.000         239.000
 139738256.82848  91094729.38948  24688381.8564   24688384.7264   24688381.9044
       211.000         156.000
 129074049.15348 100577170.33348  24561981.5064   24561984.8834   24561981.5434
       210.000         158.000
 124127428.80848  96722656.93048  23620675.6824   23620679.5414   23620676.5804
       224.000         174.000
 119272823.40948  92939854.45648  22696868.9114   22696871.3184   22696868.6324
       234.000         193.000
 09  1  4  0 56 30.0000000  0 10G 9G18G 8G26G17G15G12G27G10G28
 114076150.36848  88890496.31248  21707979.3284   21707981.8814   21707979.6554
       238.000         202.000
 132420111.83548  85392292.52548  23295775.8554   23295777.1194   23295776.7324
       231.000         179.000
 130685985.12048 101833224.69048  24868723.4144   24868727.4084   24868724.2814
       215.000         162.000
 107281490.41648  83595956.32648  20414995.3264   20414997.9434   20414995.1794
       250.000         225.000
 136653442.65648  88690988.01248  24101353.0264   24101355.3944   24101352.4164
       217.000         173.000
 107104149.71648  83457775.07748  20381245.7154   20381247.1094   20381245.4454
       253.000         239.000
 139623887.45448  91005610.42648  24666618.4174   24666621.0214   24666618.5974
       216.000         162.000
 129147154.37648 100634135.42948  24575893.0944   24575896.3234   24575893.6484
       212.000         161.000
 124236246.11348  96807449.63448  23641382.9974   23641387.0784   23641383.9534
       224.000         174.000
 119340056.72048  92992244.04948  22709663.1494   22709666.0464   22709663.4894
       235.000         194.000
 09  1  4  0 57  0.0000000  0 10G 9G18G 8G26G17G15G12G27G10G28
 114001657.66748  88832450.04548  21693803.7744   21693806.3594   21693803.9724
       238.000         202.000
 132346898.15648  85335242.89248  23281843.4894   23281845.3014   23281844.0544
       229.000         180.000
 130776731.57648 101903936.22448  24885992.3994   24885996.1544   24885992.3094
       213.000         162.000
 107318530.35548  83624818.62248  20422043.8604   20422046.4864   20422043.7614
       251.000         225.000
 136591474.62948  88642701.24048  24089560.5734   24089562.6134   24089560.2794
       216.000         171.000
 107088585.81348  83445647.35848  20378283.9484   20378285.4514   20378283.7624
       252.000         239.000
 139509591.56748  90916548.73648  24644869.0194   24644870.3744   24644868.9804
       217.000         162.000
 129220253.76048 100691095.92548  24589804.0924   24589806.7024   24589804.6154
       217.000         160.000
 124345173.83348  96892328.39548  23662111.2634   23662115.2874   23662112.2604
       223.000         174.000
 119407647.38548  93044912.09648  22722525.1224   22722528.2194   22722525.5104
       234.000         193.000
 09  1  4  0 57 30.0000000  0 10G 9G18G 8G26G17G15G12G27G10G28
 113927426.47348  88774607.56648  21679677.8684   21679680.7794   21679678.1004
       239.000         203.000
 132274093.80248  85278512.22448  23267989.2344   23267991.6024   23267989.2604
       230.000         181.000
 130867472.39848 101974643.32748  24903259.9954   24903263.5494   24903260.7744
       218.000         166.000
 107355966.63148  83653989.74548  20429167.8924   20429170.3704   20429167.9724
       252.000         225.000
 136529805.45248  88594647.32648  24077825.1554   24077827.6534   24077824.4754
       217.000         173.000
 107073406.02148  83433818.94648  20375395.4484   20375396.8364   20375395.1314
       253.000         239.000
 139395372.15448  90827546.63348  24623133.9784   24623134.9234   24623133.4524
       214.000         161.000
 129293347.62748 100748052.16748  24603712.9274   24603715.8354   24603713.3864
       217.000         159.000
 124454210.29248  96977291.88648  23682860.5514   23682864.5984   23682860.8624
       224.000         174.000
 119475594.01148  93097857.52148  22735455.0394   22735457.9304   22735455.3974
       234.000         193.000
 09  1  4  0 58  0.0000000  0 10G 9G18G 8G26G17G15G12G27G10G28
 113853457.26648  88716969.21948  21665602.3544   21665604.7884   21665602.2784
       238.000         204.000
 132201701.02448  85222102.26448  23254213.5644   23254214.8314   23254213.9234
       230.000         179.000
 130958206.62848 102045345.34548  24920526.0184   24920529.8424   24920527.0504
       216.000         164.000
 107393799.14848  83683469.62448  20436367.1264   20436369.6374   20436367.0294
       250.000         225.000
 136468437.66948  88546828.27048  24066147.4044   24066149.5524   24066146.4494
       215.000         170.000
 107058611.14948  83422290.47048  20372580.1474   20372581.4334   20372579.9144
       255.000         239.000
 139281230.87348  90738605.41548  24601412.2944   24601414.1534   24601411.0844
       216.000         160.000
 129366435.68548 100805003.91048  24617620.6354   24617624.2594   24617621.6754
       209.000         159.000
 124563352.36148  97062337.66548  23703629.5054   23703633.4244   23703630.3484
       225.000         174.000
 119543894.36148  93151078.56848  22748452.1734   22748455.2224   22748453.0644
       234.000         194.000
 09  1  4  0 58 30.0000000  0 10G 9G18G 8G26G17G15G12G27G10G28
 113779750.30448  88659535.23648  21651575.9764   21651578.7874   21651576.2604
       238.000         203.000
 132129721.67648  85166014.46348  23240516.2644   23240517.2174   23240516.7624
       227.000         176.000
 131048933.32948 102116041.44948  24937790.6784   24937794.4934   24937791.8264
       218.000         167.000
 107432027.22848  83713257.73848  20443641.6864   20443644.0794   20443641.4004
       251.000         225.000
 136407373.68048  88499245.96248  24054527.1954   24054529.2724   24054527.1864
       215.000         168.000
 107044202.05948  83411062.60248  20369838.2244   20369839.5734   20369838.0234
       255.000         239.000
 139167169.86448  90649726.68348  24579707.6324   24579708.3684   24579706.5834
       211.000         159.000
 129439517.11748 100861950.45548  24631527.9944   24631531.7854   24631528.4924
       209.000         159.000
 124672597.09048  97147463.41248  23724417.5614   23724421.9694   23724419.2434
       222.000         171.000
 119612545.59548  93204573.04348  22761516.0834   22761519.1304   22761516.7244
       234.000         194.000
 09  1  4  0 59  0.0000000  0 10G 9G18G 8G26G17G15G12G27G10G28
 113706306.66348  88602306.45348  21637599.9434   21637602.9854   21637599.7994
       238.000         203.000
 132058158.70048  85110251.12948  23226897.5844   23226899.2294   23226898.3504
       228.000         178.000
 131139652.49448 102186731.67748  24955053.9984   24955057.6774   24955054.7294
       221.000         172.000
 107470651.34648  83743354.44948  20450991.5924   20450994.0434   20450991.5784
       251.000         225.000
 136346616.87648  88451902.99148  24042965.5364   24042967.8844   24042965.0694
       219.000         171.000
 107030180.59048  83400136.77848  20367169.9374   20367171.4744   20367169.6934
       255.000         240.000
 139053192.01648  90560912.85748  24558017.1794   24558018.4444   24558016.8444
       214.000         159.000
 129512592.52148 100918892.28548  24645433.3914   24645437.5694   24645432.2794
       214.000         160.000
 124781942.47948  97232667.61148  23745225.7104   23745229.7334   23745226.7464
       220.000         172.000
 119681546.21848  93258339.75348  22774646.6224   22774649.3744   22774647.3604
       234.000         194.000
 09  1  4  0 59 30.0000000  0 10G 9G18G 8G26G17G15G12G27G10G28
 113633125.67148  88545282.29848  21623674.5004   21623676.9854   21623674.9604
       240.000         204.000
 131987013.10148  85054812.99648  23213359.0324   23213361.1644   23213360.1904
       228.000         177.000
 131230362.44348 102257414.75048  24972315.0764   24972319.5434   24972315.1734
       218.000         165.000
 107509670.53548  83773759.00148  20458416.7554   20458419.2794   20458416.6604
       251.000         225.000
 136286168.91548  88404800.71448  24031462.4304   24031465.2904   24031462.0244
       217.000         171.000
 107016546.79148  83389513.03648  20364575.6314   20364577.0434   20364575.6074
       255.000         240.000
 138939298.43948  90472164.61448  24536345.4464   24536346.5084   24536345.4364
       218.000         164.000
 129585660.46048 100975828.30748  24659337.4374   24659341.6564   24659337.7944
       211.000         159.000
 124891385.11648  97317947.60648  23766051.5534   23766055.3034   23766051.5074
       222.000         170.000
 119750893.00848  93312376.21248  22787843.1374   22787845.4914   22787843.6174
       235.000         193.000
 09  1  4  1  0  0.0000000  0 10G 9G18G 8G26G17G15G12G27G10G28
 113560208.32548  88488463.57748  21609798.7414   21609801.5414   21609798.9584
       238.000         203.000
 131916288.15048  84999702.63948  23199900.7204   23199902.8434   23199901.5574
       229.000         178.000
 131321062.98148 102328090.49048  24989575.0804   24989578.8474   24989575.7424
       213.000         154.000
 107549084.89248  83804471.48248  20465916.8304   20465919.5854   20465916.7464
       250.000         224.000
 136226033.24848  88357941.73848  24020019.7654   24020021.5424   24020018.8424
       220.000         172.000
 107003302.57048  83379192.86048  20362055.2454   20362056.6884   20362055.0934
       254.000         240.000
 138825491.65048  90383484.03748  24514688.8194   24514690.2904   24514689.0244
       216.000         167.000
 129658721.14648 101032758.67648  24673240.9354   24673244.6384   24673242.3124
       212.000         161.000
 125000922.66448  97403301.53148  23786895.7674   23786899.6174   23786896.3954
       222.000         169.000
 119820584.40248  93366681.19848  22801104.7444   22801106.9334   22801105.1224
       233.000         192.000
 09  1  4  1  0 30.0000000  0 10G 9G18G 8G26G17G15G12G27G10G28
 113487555.42848  88431850.93348  21595973.1814   21595976.1744   21595973.2544
       237.000         204.000
 131845985.78448  84944921.58448  23186522.6244   23186524.5744   23186523.4584
       231.000         179.000
 131411753.29848 102398758.22648  25006833.1254   25006836.8234   25006833.9624
       205.000         142.000
 107588894.43548  83835491.89148  20473492.4914   20473494.9624   20473492.3774
       250.000         224.000
 136166212.35848  88311328.06148  24008636.3454   24008638.6614   24008636.3144
       218.000         173.000
 116990441.85758  73369168.97458  20359609.2005   20359610.8455   20359609.0805
       254.000         240.000
 138711774.09148  90294872.94948  24493049.3314   24493050.2884   24493048.4024
       217.000         165.000
 129731774.41248 101089683.25148  24687142.5854   24687146.4874   24687143.1824
       208.000         159.000
 125110552.31948  97488727.24948  23807758.1294   23807761.9744   23807758.7264
       225.000         173.000
 119890618.03048  93421252.85448  22814431.5164   22814433.6234   22814432.1234
       232.000         191.000
 09  1  4  1  1  0.0000000  0 10G 9G18G 8G26G17G15G12G27G10G28
 113415167.72348  88375444.94748  21582198.1464   21582201.1104   21582198.5874
       238.000         203.000
 131776108.76448  84890471.95048  23173225.6704   23173227.0374   23173225.8444
       227.000         179.000
 131502433.31048 102469417.95148  25024089.0524   25024093.1904   25024089.9124
       194.000         129.000
 107629099.38448  83866820.41348  20481143.3864   20481145.7254   20481143.2654
       251.000         224.000
 136106709.33648  88264962.10648  23997312.7054   23997316.2414   23997312.0384
       218.000         174.000
 116977980.16848  73359458.56548  20357237.6924   20357239.4644   20357237.3054
       255.000         240.000
 138598148.37748  90206333.46848  24471427.0634   24471428.4954   24471426.3184
       217.000         166.000
 129804820.36248 101146602.18148  24701042.8234   24701045.8634   24701042.4344
       208.000         156.000
 125220271.98448  97574223.10948  23828637.2814   23828640.9404   23828638.1154
       222.000         169.000
 119960991.97048  93476089.68348  22827823.1644   22827825.0084   22827823.0874
       233.000         191.000
 09  1  4  1  1 30.0000000  0 10G 9G18G 8G26G17G15G12G27G10G28
 113343045.95948  88319246.16448  21568474.0754   21568476.6104   21568473.7824
       240.000         204.000
 131706659.08548  84836355.32248  23160009.6734   23160011.6664   23160009.7824
       230.000         180.000
 141593137.43058  92540102.18858  25041342.1235   25041341.9625   25041343.6665
       185.000         122.000
 107669699.51048  83898456.86148  20488869.1054   20488871.7334   20488869.1254
       250.000         224.000
 136047527.21648  88218846.13948  23986051.8154   23986053.0234   23986051.1864
       219.000         172.000
  96965910.77658  93350053.62858  20354941.1605   20354942.7955   20354941.2815
                       240.000
 138484616.99348  90117867.48348  24449822.4214   24449824.6664   24449823.0674
       218.000         166.000
 129877859.02048 101203515.38348  24714940.8944   24714945.0284   24714940.4874
       210.000         157.000
 125330079.01348  97659787.03648  23849532.1714   23849535.7344   23849532.8484
       221.000         168.000
 120031704.39748  93531190.27448  22841279.6164   22841281.0614   22841280.3464
       233.000         190.000
 09  1  4  1  2  0.0000000  0  9G 9G18G26G17G15G12G27G10G28
 113271189.99048  88263254.50348  21554800.4814   21554802.8104   21554801.0314
       237.000         204.000
 131637638.32848  84782572.91548  23146875.6584   23146877.6654   23146876.8834
       229.000         182.000
 107710693.90748  83930400.54048  20496670.1524   20496672.6594   20496670.1694
       251.000         224.000
 135988667.76548  88172981.60948  23974850.6954   23974852.6034   23974851.0144
       217.000         173.000
 116954241.10858  73340961.48658  20352719.7075   20352721.0835   20352719.6165
       255.000         240.000
 138371181.25848  90029476.02148  24428236.5074   24428238.4564   24428236.5004
       216.000         164.000
 129950889.25848 101260422.04848  24728838.6464   24728842.2064   24728839.4294
       208.000         156.000
 125439970.13448  97745416.47148  23870443.4594   23870447.9474   23870444.4104
       220.000         168.000
 120102751.94848  93586551.99848  22854799.3904   22854800.9754   22854799.9104
       234.000         189.000
 09  1  4  1  2 30.0000000  0  8G 9G18G26G17G12G27G10G28
 113199600.90348  88207470.83248  21541176.9824   21541180.0644   21541177.0664
       238.000         204.000
 131569049.27248  84729126.89848  23133823.2904   23133825.4664   23133824.6194
       228.000         178.000
 107752083.21548  83962651.94148  20504546.3204   20504548.8114   20504546.2284
       251.000         224.000
 135930134.28948  88127371.11848  23963711.9634   23963714.4824   23963711.9334
       220.000         174.000
 138257844.35148  89941161.54948  24406668.8744   24406671.4444   24406668.2874
       216.000         166.000
 130023911.49348 101317322.48948  24742734.5404   24742737.5314   24742734.8044
       206.000         158.000
 125549943.03548  97831109.63448  23891371.0904   23891375.0524   23891371.3424
       220.000         171.000
 120174133.11548  93642173.67448  22868383.0204   22868384.3894   22868383.5334
       232.000         190.000
 09  1  4  1  3  0.0000000  0  9G 9G18G26G17G15G12G27G10G28
 113128279.45248  88151895.68048  21527604.9294   21527608.1454   21527604.5984
       239.000         204.000
 131500894.46248  84676019.26548  23120854.1034   23120856.0814   23120855.5074
       228.000         180.000
 107793867.47548  83995211.08948  20512497.4524   20512500.1304   20512497.3034
       250.000         224.000
 135871929.74648  88082016.93948  23952636.2614   23952638.0044   23952637.0164
       218.000         172.000
  96932081.87558  93323694.98358  20348502.6315   20348503.8765   20348502.4625
       255.000         240.000
 138144608.47848  89852925.80448  24385120.5784   24385122.9104   24385120.1204
       216.000         165.000
 130096926.11448 101374216.97048  24756628.3914   24756632.3894   24756627.6884
       213.000         159.000
 125659995.68048  97916864.94148  23912313.4794   23912317.0044   23912314.7414
       221.000         168.000
 120245846.14448  93698053.95248  22882029.6664   22882031.3354   22882029.9124
       232.000         190.000
 09  1  4  1  3 30.0000000  0  9G 9G18G26G17G15G12G27G10G28
 113057225.85948  88096529.26948  21514084.1144   21514087.0484   21514084.7144
       236.000         204.000
 131433175.69248  84623251.39948  23107967.3924   23107969.2574   23107968.7854
       226.000         179.000
 107836045.86948  84028077.37348  20520524.2504   20520526.3314   20520524.0874
       251.000         224.000
 135814056.43048  88036920.85848  23941623.3294   23941624.7294   23941624.1774
       220.000         173.000
  96921597.25348  93315525.14548  20346507.3984   20346508.7544   20346507.2154
       255.000         240.000
 138031475.44748  89764770.24048  24363591.0954   24363593.9764   24363591.4464
       213.000         164.000
 130169932.16648 101431104.77948  24770521.1154   24770525.3624   24770520.8824
       214.000         160.000
 125770124.97548  98002679.97548  23933270.5924   23933273.3344   23933272.3934
       221.000         167.000
 120317888.34548  93754190.73448  22895738.4484   22895740.2014   22895738.5894
       230.000         188.000
 09  1  4  1  4  0.0000000  0  9G 9G18G26G17G15G12G27G10G28
 112986440.78848  88041372.09548  21500613.8994   21500617.2724   21500613.6634
       239.000         205.000
 131365895.61548  84570825.37848  23095164.7774   23095166.1694   23095165.2964
       231.000         181.000
 107878618.59848  84061250.91348  20528624.7964   20528627.6564   20528624.5694
       250.000         224.000
 135756517.21248  87992085.11148  23930673.6244   23930675.7044   23930673.4744
       220.000         173.000
  96911511.42448  93307666.05648  20344587.9864   20344589.4814   20344587.7294
       255.000         239.000
 137918447.90748  89676696.82348  24342083.5364   24342085.4554   24342083.3534
       217.000         165.000
 130242929.92948 101487986.11548  24784412.4594   24784415.7164   24784412.6554
       213.000         161.000
 125880328.47248  98088552.83848  23954242.3064   23954245.5294   23954243.2204
       221.000         169.000
 120390257.65748  93810582.40148  22909509.4734   22909511.7414   22909509.1284
       232.000         189.000
 09  1  4  1  4 30.0000000  0  9G 9G18G26G17G15G12G27G10G28
 112915925.09448  87986424.80548  21487195.7184   21487198.4674   21487196.1514
       239.000         206.000
 131299056.19048  84518742.70348  23082445.9504   23082446.9074   23082446.5814
       227.000         179.000
 107921585.50848  84094731.62448  20536801.9084   20536804.0174   20536801.8274
       251.000         224.000
 135699314.88848  87947511.87348  23919788.0734   23919789.9904   23919787.7584
       218.000         172.000
  96901825.88048  93300118.87548  20342744.9434   20342746.4264   20342744.7454
       255.000         240.000
 137805528.24848  89588707.46348  24320596.7154   24320597.5834   24320595.8954
       215.000         165.000
 130315919.08248 101544860.75748  24798301.2834   24798306.0114   24798301.4634
       211.000         158.000
 125990603.73948  98174481.60848  23975225.8324   23975230.9834   23975226.9674
       217.000         166.000
 120462951.87948  93867227.24848  22923342.8404   22923344.8694   22923343.4174
       232.000         189.000
 09  1  4  1  5  0.0000000  0  9G 9G18G26G17G15G12G27G10G28
 112845679.48348  87931687.97048  21473828.2134   21473831.1424   21473828.4874
       239.000         205.000
 131232660.07148  84467005.46648  23069810.7114   23069812.6184   23069810.5844
       229.000         181.000
 107964946.82848  84128519.64448  20545052.6344   20545055.5054   20545052.6774
       251.000         224.000
 135642452.38948  87903203.45448  23908968.2374   23908969.7374   23908968.0874
       218.000         175.000
  96892542.03548  93292884.71348  20340978.4444   20340979.8184   20340978.4414
       255.000         240.000
 137692719.03948  89500804.22048  24299129.4364   24299131.0024   24299129.4254
       218.000         168.000
 130388900.04548 101601729.00448  24812190.0884   24812192.6854   24812190.3964
       215.000         160.000
 126100948.35748  98260464.41548  23996224.0654   23996227.7844   23996224.7434
       220.000         166.000
 120535969.40048  93924124.01748  22937237.6144   22937239.4944   22937237.8664
       233.000         189.000
 09  1  4  1  5 30.0000000  0  9G 9G18G26G17G15G12G27G10G28
 112775703.85048  87877161.52048  21460512.3444   21460514.9074   21460512.5344
       239.000         206.000
 131166708.60448  84415614.70248  23057259.9864   23057262.2914   23057259.9684
       226.000         179.000
 108008701.55148  84162614.22848  20553379.4224   20553381.7764   20553379.4714
       250.000         223.000
 135585931.64448  87859161.31748  23898212.0334   23898213.7074   23898211.2864
       219.000         173.000
  96883660.00548  93285963.64548  20339288.1774   20339289.6274   20339287.7104
       255.000         240.000
 137580021.70248  89412988.09748  24277683.9314   24277685.6164   24277684.6214
       220.000         170.000
 130461871.58948 101658589.92548  24826075.9844   24826079.1324   24826076.6164
       213.000         162.000
 126211359.03548  98346498.71348  24017235.0214   24017237.9734   24017235.7164
       222.000         169.000
 120609306.94748  93981270.14548  22951193.5504   22951195.0924   22951194.6614
       232.000         188.000
 09  1  4  1  6  0.0000000  0  9G 9G18G26G17G15G12G27G10G28
 112705999.27948  87822846.26848  21447248.0724   21447250.8874   21447247.9194
       239.000         205.000
 131101204.20148  84364572.30748  23044795.1384   23044797.0154   23044795.4504
       229.000         180.000
 108052849.56948  84197015.26948  20561780.0424   20561782.7714   20561779.8004
       251.000         224.000
 135529755.68048  87815387.85548  23887522.0324   23887524.3264   23887521.5294
       222.000         175.000
 116875180.64458  73279355.13258  20337674.7535   20337676.1305   20337674.9525
       255.000         240.000
 137467438.93748  89325261.28348  24256259.9414   24256262.2564   24256260.7864
       216.000         169.000
 130534834.13348 101715443.82048  24839960.5584   24839963.7684   24839960.8584
       213.000         163.000
 126321833.35948  98432582.58748  24038257.1344   24038261.6194   24038258.1784
       221.000         167.000
 120682962.84948  94038664.33448  22965209.9454   22965211.5714   22965210.8344
       231.000         188.000
 09  1  4  1  6 30.0000000  0  9G 9G18G26G17G15G12G27G10G28
 112636565.98848  87768742.41348  21434035.1174   21434038.2204   21434035.3484
       238.000         206.000
 131036148.82748  84313879.81048  23032416.0674   23032417.5254   23032417.0204
       227.000         180.000
 108097390.65348  84231722.59048  20570256.2674   20570258.6984   20570256.1574
       251.000         224.000
 135473927.25148  87771885.18748  23876898.6064   23876900.4554   23876898.6074
       217.000         174.000
  96867107.52158  93273065.59958  20336138.4275   20336139.7555   20336138.0255
       255.000         240.000
 137354972.96048  89237625.50548  24234857.6034   24234860.4774   24234856.1914
       215.000         169.000
 130607787.54148 101772290.60948  24853842.2674   24853846.1104   24853841.9784
       213.000         162.000
 126432369.01048  98518714.25748  24059290.7754   24059295.1354   24059292.4554
       216.000         164.000
 120756934.66048  94096304.71048  22979286.2954   22979287.8214   22979286.5294
       233.000         188.000
 09  1  4  1  7  0.0000000  0  9G 9G18G26G17G15G12G27G10G28
 112567404.90848  87714850.68048  21420874.1714   21420877.3254   21420874.6314
       241.000         207.000
 130971545.53548  84263539.60548  23020121.9504   23020123.7144   23020122.8214
       229.000         179.000
 108142325.27248  84266736.56548  20578807.1164   20578809.4664   20578806.9844
       251.000         224.000
 135418449.16148  87728655.52148  23866340.9964   23866343.7034   23866339.8614
       219.000         174.000
  96859439.70048  93267090.67048  20334679.1134   20334680.6934   20334678.8724
       255.000         240.000
 137242626.28748  89150082.64248  24213479.4354   24213481.3724   24213479.0414
       217.000         166.000
 130680732.07348 101829130.46648  24867723.5114   24867727.3524   24867723.9064
       214.000         163.000
 126542963.69348  98604891.91448  24080336.9074   24080340.2774   24080337.7174
       221.000         165.000
 120831220.54448  94154189.81248  22993422.3504   22993424.1674   22993423.0844
       231.000         187.000
 09  1  4  1  7 30.0000000  0  9G 9G18G26G17G15G12G27G10G28
 112498516.18148  87661171.15248  21407765.5714   21407767.9984   21407765.8794
       240.000         207.000
 130907395.77548  84213552.77248  23007915.3864   23007916.7504   23007915.8424
       231.000         183.000
 108187652.48248  84302056.46248  20587432.6834   20587435.0484   20587432.7804
       251.000         224.000
 135363323.67748  87685700.58448  23855851.3894   23855853.8564   23855850.5804
       219.000         176.000
  96852178.47248  93261432.57748  20333297.3334   20333298.8804   20333296.9304
       255.000         240.000
 137130400.77148  89062634.20248  24192123.5574   24192124.7294   24192124.4304
       212.000         163.000
 130753667.10448 101885962.93448  24881602.8214   24881606.1474   24881602.1844
       217.000         164.000
 126653614.13648  98691113.07948  24101393.4154   24101396.1044   24101395.0164
       218.000         162.000
 120905817.71248  94212317.46248  23007617.4564   23007619.9134   23007617.2994
       231.000         187.000
 09  1  4  1  8  0.0000000  0  9G 9G18G26G17G15G12G27G10G28
 112429900.47548  87607704.36748  21394708.0884   21394711.0364   21394708.3864
       239.000         207.000
 130843701.58748  84163920.93648  22995794.5944   22995796.0684   22995795.5754
       230.000         180.000
 108233372.01648  84337682.06348  20596132.8364   20596135.2224   20596132.7294
       250.000         223.000
 135308553.17548  87643022.28048  23845428.7704   23845431.2554   23845428.4214
       221.000         176.000
 116845322.86558  73256089.10558  20331993.2725   20331994.6975   20331993.2985
       255.000         240.000
 137018298.65248  88975281.94748  24170790.0374   24170792.1154   24170790.0694
       217.000         164.000
 130826592.50448 101942787.92548  24895480.5894   24895483.8394   24895481.3294
       215.000         165.000
 126764317.84248  98777375.68648  24122457.8064   24122462.9634   24122458.5194
       216.000         163.000
 120980724.14048  94270686.10348  23021871.7984   23021873.9434   23021871.8594
       231.000         188.000
 09  1  4  1  8 30.0000000  0  9G 9G18G26G17G15G12G27G10G28
 112361558.73048  87554451.06848  21381703.0774   21381706.0484   21381703.1194
       239.000         207.000
 130780465.38648  84114645.97448  22983761.1924   22983762.4394   22983761.9514
       229.000         181.000
 108279484.20548  84373613.63048  20604907.5504   20604909.9534   20604907.4964
       251.000         224.000
 135254141.09748  87600623.28048  23835074.3494   23835077.2734   23835074.3274
       222.000         176.000
 116838878.62748  73251067.61448  20330767.0174   20330768.4524   20330766.8524
       255.000         240.000
 136906322.91648  88888028.14448  24149483.0674   24149484.2584   24149483.4294
       219.000         168.000
 130899508.73348 101999605.77448  24909355.9834   24909358.8534   24909355.8954
       215.000         164.000
 126875073.24648  98863678.59948  24143534.4934   24143538.6324   24143534.5444
       216.000         164.000
 121055938.09348  94329294.37248  23036184.7394   23036186.5874   23036184.4564
       231.000         187.000
 09  1  4  1  9  0.0000000  0  9G 9G18G26G17G15G12G27G10G28
 112293491.11648  87501411.37048  21368749.9994   21368753.1624   21368750.0804
       240.000         207.000
 130717688.60548  84065728.99348  22971815.4474   22971816.2994   22971815.8904
       231.000         182.000
 108325988.13548  84409850.45048  20613757.0544   20613759.6114   20613757.0894
       250.000         223.000
 135200089.19248  87558504.91248  23824789.3644   23824790.9434   23824789.6214
       220.000         174.000
 116832844.08148  73246365.37048  20329618.5974   20329620.0584   20329618.2864
       255.000         240.000
 136794475.28548  88800874.16248  24128199.8634   24128200.4054   24128199.9394
       218.000         165.000
 130972415.02248 102056415.80748  24923229.3344   24923232.7364   24923229.3644
       215.000         162.000
 126985876.61948  98950018.91148  24164620.5864   24164624.0394   24164621.1304
       216.000         164.000
 121131456.88548  94388140.18748  23050555.3084   23050557.0684   23050556.1154
       230.000         186.000
 09  1  4  1  9 30.0000000  0  8G 9G18G26G17G12G27G10G28
 112225697.80848  87448585.42148  21355849.6794   21355852.3294   21355850.2304
       240.000         207.000
 130655373.55248  84017171.83048  22959957.2894   22959958.4904   22959959.3194
       232.000         181.000
 108372883.08748  84446391.96548  20622680.7264   20622683.2604   20622680.5174
       250.000         223.000
 135146400.13648  87516669.29048  23814571.6264   23814574.2644   23814570.8944
       221.000         174.000
 136682757.52648  88713821.34248  24106940.2334   24106941.2854   24106941.0714
       218.000         168.000
 131045310.90548 102113217.77748  24937100.6674   24937104.4024   24937101.2904
       213.000         163.000
 127096725.05448  99036394.25848  24185713.0274   24185717.6234   24185713.1104
       215.000         162.000
 121207277.66448  94447221.30748  23064983.3904   23064985.4234   23064983.4834
       228.000         185.000
 09  1  4  1 10  0.0000000  0  8G 9G18G26G17G12G27G10G28
 112158180.23548  87395974.32548  21343001.5614   21343004.0774   21343001.9534
       240.000         207.000
 130593522.92548  83968976.53248  22948186.9814   22948188.5784   22948188.1974
       230.000         181.000
 108420170.00548  84483238.90848  20631679.3164   20631681.5634   20631679.2034
       251.000         223.000
 135093077.10748  87475118.89048  23804425.6924   23804427.3854   23804425.8164
       222.000         176.000
 136571172.83948  88626872.22048  24085706.4944   24085707.5874   24085705.9284
       218.000         167.000
 131118197.28448 102170012.34348  24950969.8404   24950974.1174   24950970.4914
       212.000         163.000
 127207617.24248  99122803.73648  24206816.6684   24206819.3814   24206817.0534
       218.000         165.000
 121283399.20248  94506536.76948  23079468.7904   23079470.6774   23079468.8214
       230.000         185.000
 09  1  4  1 10 30.0000000  0  9G 9G18G26G17G15G12G27G10G28
 112090938.20648  87343577.96248  21330205.3414   21330208.4554   21330205.7424
       240.000         208.000
 130532138.05548  83921144.16848  22936505.7434   22936507.3404   22936507.4154
       228.000         179.000
 108467847.79848  84520390.42648  20640751.9864   20640754.4614   20640752.0304
       250.000         223.000
 135040122.08948  87433855.24048  23794348.1624   23794349.7264   23794349.3454
       221.000         174.000
  96817211.60758  93234185.64758  20326643.5725   20326644.8315   20326643.2735
       255.000         240.000
 136459722.65648  88540027.96348  24064496.9834   24064499.5894   24064497.7074
       218.000         167.000
 131191073.60548 102226799.05348  24964838.7374   24964842.1004   24964838.7624
       218.000         165.000
 127318549.81148  99209244.70248  24227926.3424   24227929.3104   24227926.8454
       220.000         161.000
 121359818.77748  94566084.49648  23094011.1444   23094012.8404   23094011.8214
       230.000         185.000
 09  1  4  1 11  0.0000000  0  8G 9G18G26G17G12G27G10G28
 112023972.61848  87291397.00248  21317462.6204   21317465.4664   21317462.4974
       241.000         208.000
 130471221.44548  83873676.68348  22924913.6124   22924915.2474   22924914.1374
       229.000         182.000
 108515916.51448  84557846.55648  20649899.0864   20649901.6274   20649898.9734
       250.000         223.000
 134987538.12348  87392880.73848  23784341.3504   23784344.1674   23784341.7434
       221.000         175.000
 136348409.91448  88453290.74848  24043315.6924   24043317.0824   24043315.9434
       222.000         169.000
 131263940.02848 102283578.06948  24978704.1884   24978708.0054   24978704.6094
       216.000         166.000
 127429520.77948  99295715.59948  24249042.3224   24249046.4864   24249043.8924
       215.000         157.000
 121436534.37948  94625862.87648  23108609.4274   23108611.3904   23108609.7074
       230.000         185.000
 09  1  4  1 11 30.0000000  0  8G 9G18G26G17G12G27G10G28
 111957284.39248  87239432.16448  21304772.2914   21304774.6284   21304772.3834
       240.000         208.000
 130410775.48048  83826575.92348  22913411.4124   22913412.9584   22913411.5244
       230.000         182.000
 108564376.18648  84595607.33048  20659120.7104   20659123.1764   20659120.5674
       250.000         223.000
 134935327.89248  87352197.44648  23774406.1964   23774408.5584   23774406.9424
       221.000         177.000
 136237237.05548  88366662.56448  24022160.0844   24022161.2274   24022158.8984
       217.000         166.000
 131336796.69248 102340349.51448  24992569.2344   24992572.4434   24992568.9784
       217.000         165.000
 127540527.83848  99382214.58148  24270166.4114   24270170.3104   24270167.3664
       218.000         162.000
 121513544.21548  94685870.52948  23123264.0414   23123265.8064   23123265.1004
       231.000         184.000
 09  1  4  1 12  0.0000000  0  8G 9G18G26G17G12G27G10G28
 111890873.70748  87187683.58948  21292134.5844   21292137.2014   21292134.0874
       240.000         209.000
 130350801.43448  83779842.90748  22901998.6114   22902000.6574   22901999.2044
       230.000         183.000
 108613225.94348  84633672.06848  20668416.4304   20668418.9794   20668416.2114
       250.000         223.000
 134883493.23248  87311806.80548  23764542.5144   23764544.7414   23764542.9434
       222.000         177.000
 136126206.25848  88280145.07648  24001030.5954   24001032.9044   24001030.4224
       219.000         165.000
 131409643.00548 102397112.85848  25006431.1194   25006434.5694   25006430.8604
       217.000         164.000
 127651567.24648  99468738.81048  24291297.3694   24291300.5384   24291297.9714
       217.000         160.000
 121590845.22348  94746105.07448  23137974.4344   23137975.5864   23137975.8714
       230.000         184.000
 09  1  4  1 12 30.0000000  0  8G 9G18G26G17G12G27G10G28
 111824741.26848  87136151.83448  21279550.1554   21279552.7224   21279549.9944
       241.000         209.000
 130291302.03548  83733479.74048  22890676.8914   22890678.3604   22890677.3714
       232.000         183.000
 108662465.89348  84672040.85148  20677786.5164   20677789.0654   20677786.3984
       250.000         223.000
 134832037.44548  87271711.40048  23754750.7964   23754752.9844   23754750.6564
       223.000         180.000
 136015319.38348  88193739.72548  23979929.2604   23979932.2194   23979928.8994
       218.000         168.000
 131482479.34148 102453868.42248  25020290.9934   25020294.8794   25020291.5274
       215.000         166.000
 127762637.50348  99555287.02848  24312432.3474   24312436.4744   24312432.5744
       215.000         162.000
 121668435.88548  94806565.32548  23152739.0944   23152740.6804   23152739.6834
       230.000         183.000
 09  1  4  1 13  0.0000000  0  8G 9G18G26G17G12G27G10G28
 111758887.47948  87084837.20948  21267018.7284   21267021.0434   21267019.0124
       240.000         209.000
 130232278.69648  83687487.52648  22879445.0834   22879446.1004   22879446.6104
       231.000         183.000
 108712095.31448  84710713.13048  20687230.6074   20687233.1454   20687230.5434
       249.000         222.000
 134780962.77648  87231912.94748  23745031.7394   23745033.5694   23745031.7314
       223.000         180.000
 135904578.74048  88107448.31548  23958856.7154   23958859.1884   23958855.0624
       221.000         173.000
 131555305.08148 102510615.73048  25034149.7664   25034153.4344   25034149.3234
       218.000         167.000
 127873735.80348  99641857.09648  24333574.3074   24333577.7044   24333575.1504
       217.000         162.000
 121746313.66948  94867249.31248  23167558.7724   23167560.3064   23167559.0924
       228.000         184.000
 09  1  4  1 13 30.0000000  0  8G 9G18G26G17G12G27G10G28
 111693312.78648  87033740.07648  21254540.0194   21254542.7234   21254539.9714
       242.000         209.000
 130173733.68148  83641868.04148  22868304.1924   22868305.5214   22868304.7684
       232.000         184.000
 108762114.01348  84749688.72748  20696748.9114   20696751.4874   20696748.6644
       250.000         222.000
 134730271.55848  87192413.31348  23735385.3324   23735387.5744   23735385.6194
       226.000         180.000
 135793986.76548  88021272.75848  23937812.6554   23937814.5094   23937812.8194
       222.000         175.000
 131628120.54448 102567355.00648  25048005.8344   25048009.4854   25048005.8084
       218.000         167.000
 127984859.42148  99728446.89948  24354720.5684   24354723.7584   24354722.1114
       217.000         160.000
 121824476.07848  94928155.07748  23182432.7824   23182434.3574   23182433.2564
       230.000         184.000
 09  1  4  1 14  0.0000000  0  8G 9G18G26G17G12G27G10G28
 111628016.75948  86982860.07648  21242114.6114   21242117.2854   21242115.3334
       242.000         209.000
 130115667.90248  83596621.97348  22857254.4274   22857255.7644   22857254.9294
       230.000         183.000
 108812520.77348  84788966.71748  20706341.0634   20706343.4884   20706341.0564
       250.000         222.000
 134679965.53148  87153213.82048  23725812.6364   23725814.9364   23725813.0374
       224.000         181.000
 135683544.73848  87935214.05348  23916796.0504   23916797.0004   23916796.5714
       221.000         171.000
 131700924.72748 102624085.51548  25061860.4384   25061863.7714   25061860.5334
       218.000         164.000
 128096005.21148  99815054.00048  24375869.7304   24375874.4014   24375870.7874
       213.000         155.000
 121902920.37048  94989280.49248  23197359.9814   23197361.4124   23197361.3204
       231.000         183.000
 09  1  4  1 14 30.0000000  0  9G 9G18G26G17G15G12G27G10G28
 111563001.72648  86932199.00648  21229742.5924   21229745.3744   21229742.9634
       242.000         209.000
 130058084.94348  83551752.14148  22846296.2354   22846298.2254   22846296.7514
       229.000         182.000
 108863316.52548  84828547.81448  20716007.1034   20716009.6994   20716007.0334
       250.000         222.000
 134630048.61248  87114317.54048  23716313.5484   23716315.8284   23716313.1864
       224.000         180.000
 116793819.13658  73215956.85458  20322192.8465   20322194.3445   20322192.4495
       255.000         241.000
 135573256.31648  87849275.01848  23895808.1704   23895808.5854   23895807.5644
       222.000         169.000
 131773718.95648 102680808.28748  25075712.9964   25075715.5564   25075712.8934
       218.000         165.000
 128207171.89748  99901677.43348  24397023.8734   24397027.6764   24397024.3324
       212.000         155.000
 121981645.59048  95050624.81448  23212341.1394   23212342.3894   23212341.8434
       229.000         183.000
 09  1  4  1 15  0.0000000  0  8G 9G18G26G17G12G27G10G28
 111498267.81148  86881756.99848  21217424.2964   21217426.8264   21217424.8824
       242.000         210.000
 130000986.36048  83507259.72748  22835431.1344   22835432.6544   22835431.4294
       229.000         182.000
 108914500.85348  84868431.69548  20725747.0984   20725749.7904   20725746.8434
       249.000         223.000
 134580523.00448  87075726.16648  23706889.4624   23706891.2974   23706888.8564
       223.000         178.000
 135463123.54848  87763457.26448  23874850.2544   23874851.6654   23874851.0324
       219.000         170.000
 131846503.11048 102737523.21048  25089562.3374   25089565.8714   25089561.8744
       216.000         163.000
 128318356.98948  99988315.16948  24418182.1464   24418186.2014   24418183.3394
       213.000         158.000
 122060648.98348  95112185.89548  23227374.6684   23227376.4394   23227374.8534
       230.000         181.000
 09  1  4  1 15 30.0000000  0  9G 9G18G26G17G15G12G27G10G28
 111433815.13548  86831534.14048  21205159.3564   21205162.0794   21205159.5514
       242.000         210.000
 129944373.72448  83463145.98548  22824657.5424   22824659.6034   22824658.2524
       228.000         182.000
 108966072.81348  84908617.62048  20735561.2574   20735563.6984   20735561.1484
       250.000         223.000
 134531390.76148  87037441.30948  23697539.4104   23697541.4544   23697538.7484
       224.000         178.000
  96792175.64458  93214676.21058  20321880.0525   20321881.5675   20321879.7855
                       241.000
 135353148.22648  87677762.22648  23853922.9944   23853924.9304   23853922.9844
       221.000         172.000
 131919276.57448 102794229.77448  25103410.5904   25103414.9894   25103410.6474
       215.000         164.000
 128429557.28348 100074964.69648  24439343.0944   24439348.4544   24439343.8534
       214.000         163.000
 122139928.05548  95173961.79648  23242460.7534   23242462.8554   23242462.3684
       228.000         182.000
 09  1  4  1 16  0.0000000  0  9G 9G18G26G17G15G12G27G10G28
 111369644.61148  86781531.14448  21192948.0304   21192950.5724   21192948.3024
       242.000         210.000
 129888249.20248  83419412.59248  22813977.4954   22813979.3494   22813977.3504
       229.000         182.000
 109018032.32448  84949105.53848  20745448.8094   20745451.1314   20745448.9954
       250.000         222.000
 134482654.64148  86999465.10948  23688265.6554   23688267.2984   23688265.2414
       224.000         178.000
 116791991.91358  73214533.48258  20321844.7475   20321846.1535   20321844.6665
       255.000         241.000
 135243333.07248  87592191.97548  23833026.4534   23833028.4774   23833026.2934
       220.000         173.000
 131992039.99548 102850928.53748  25117257.5514   25117260.9404   25117257.7234
       219.000         167.000
 128540770.68248 100161624.46348  24460507.6284   24460511.4904   24460508.2134
       214.000         161.000
 122219481.18348  95235951.23848  23257599.5524   23257601.4344   23257599.7394
       230.000         183.000
 09  1  4  1 16 30.0000000  0  8G 9G18G26G17G12G27G10G28
 111305755.95548  86731747.79348  21180790.3594   21180793.0554   21180791.0704
       242.000         210.000
 129832614.08648  83376060.54948  22803390.9454   22803392.0184   22803391.2314
       231.000         183.000
 109070378.53948  84989894.79048  20755409.9404   20755412.3444   20755409.8884
       250.000         222.000
 134434316.30848  86961798.87448  23679067.1794   23679069.2834   23679066.5174
       225.000         179.000
 135133679.61148  87506747.72348  23812159.8424   23812161.7554   23812159.5314
       219.000         173.000
 132064792.45148 102907618.76248  25131101.6424   25131105.7734   25131102.6624
       216.000         164.000
 128651993.97148 100248291.95848  24481672.7274   24481675.2784   24481673.8964
       211.000         156.000
 122299305.30248  95298151.84148  23272789.7964   23272791.3554   23272790.6164
       231.000         182.000
 09  1  4  1 17  0.0000000  0  8G 9G18G26G17G12G27G10G28
 111242149.55248  86682184.38048  21168686.0894   21168689.1804   21168686.7134
       243.000         210.000
 129777469.93248  83333091.07248  22792897.3914   22792898.5474   22792898.5374
       229.000         184.000
 109123110.58148  85030984.69148  20765444.3184   20765447.0174   20765444.2104
       249.000         222.000
 134386377.94448  86924444.30748  23669944.7174   23669946.7344   23669944.8464
       226.000         179.000
 135024189.77348  87421430.98048  23791324.5394   23791326.2524   23791324.3714
       221.000         174.000
 132137533.42048 102964300.01348  25144944.1394   25144947.8284   25144944.7074
       220.000         166.000
 128763224.09148 100334964.78448  24502837.8224   24502841.0924   24502838.3184
       211.000         153.000
 122379397.81348  95360561.59048  23288030.8714   23288032.5024   23288032.4174
       227.000         180.000
 09  1  4  1 17 30.0000000  0  9G 9G18G26G17G15G12G27G10G28
 111178826.84448  86632842.01048  21156636.6324   21156639.2784   21156636.8764
       242.000         211.000
 129722819.58348  83290506.38448  22782497.6574   22782499.2154   22782497.8664
       232.000         185.000
 109176228.83448  85072375.53148  20775552.3044   20775554.9144   20775552.1214
       249.000         221.000
 134338843.01248  86887404.10848  23660899.3684   23660901.2354   23660899.5594
       226.000         180.000
  96793987.20858  93216088.24158  20322224.5115   20322225.9645   20322224.3025
       254.000         241.000
 134914866.51148  87336244.04648  23770520.9634   23770522.5724   23770521.3954
       219.000         174.000
 132210263.73748 103020972.96448  25158783.9794   25158787.7964   25158784.6464
       219.000         165.000
 128874459.55448 100421641.76448  24524004.6064   24524008.9664   24524005.8564
       212.000         153.000
 122459757.30548  95423179.35348  23303322.8504   23303324.4784   23303322.3484
       228.000         181.000
 09  1  4  1 18  0.0000000  0  9G 9G18G26G17G15G12G27G10G28
 111115788.19448  86583720.99348  21144640.8244   21144643.2594   21144640.6554
       242.000         211.000
 129668664.60948  83248307.69448  22772192.4814   22772194.1684   22772192.6564
       232.000         186.000
 109229732.73748  85114066.86248  20785733.9564   20785736.4944   20785734.0154
       249.000         222.000
 134291713.64348  86850679.93948  23651930.8224   23651932.7484   23651930.7354
       226.000         180.000
  96795506.42348  93217272.04048  20322513.6704   20322515.0814   20322513.3714
       254.000         241.000
 134805712.14048  87251188.70648  23749749.5474   23749750.8134   23749749.6074
       222.000         175.000
 132282983.26848 103077637.51848  25172622.3674   25172625.7774   25172623.0044
       218.000         164.000
 128985697.83948 100508320.93148  24545173.0204   24545177.5334   24545173.8254
       210.000         153.000
 122540381.52648  95486003.42248  23318665.2254   23318666.5754   23318665.0194
       228.000         182.000
 09  1  4  1 18 30.0000000  0  9G 9G18G26G17G15G12G27G10G28
 111053034.15748  86534821.74348  21132699.0394   21132701.6004   21132698.8374
       243.000         212.000
 129615006.52348  83206496.17548  22761981.5834   22761983.1434   22761982.7864
       232.000         186.000
 109283622.04248  85156058.52448  20795988.7904   20795991.2004   20795988.6864
       249.000         221.000
 134244992.10148  86814273.54348  23643039.9124   23643041.6084   23643039.2674
       226.000         179.000
  96797454.81548  93218790.26748  20322884.4464   20322885.7604   20322884.2534
       254.000         241.000
 134696728.72948  87166266.59148  23729010.8124   23729012.2784   23729010.5364
       223.000         176.000
 132355692.07548 103134293.73048  25186457.8234   25186462.0394   25186458.6744
       218.000         164.000
 129096936.21448 100595000.18348  24566342.1024   24566344.9744   24566341.4834
       211.000         151.000
 122621268.15548  95549031.96348  23334057.4124   23334058.5914   23334057.3954
       228.000         180.000
 09  1  4  1 19  0.0000000  0  9G 9G18G26G17G15G12G27G10G28
 110990564.86948  86486144.38648  21120811.5044   21120814.1634   21120811.6914
       242.000         211.000
 129561847.53948  83165073.59948  22751865.7184   22751867.4654   22751866.8184
       231.000         186.000
 109337896.05648  85198349.96148  20806316.7914   20806319.1274   20806316.6434
       251.000         221.000
 134198680.68648  86778186.72948  23634227.3024   23634228.5484   23634227.3554
       225.000         179.000
  96799832.59348  93220643.07848  20323336.8164   20323338.2514   20323336.6174
       254.000         241.000
 134587918.62248  87081479.48848  23708304.4094   23708306.5414   23708304.2374
       225.000         177.000
 132428390.17648 103190941.58048  25200291.7644   25200296.0494   25200292.1944
       215.000         163.000
 129208172.38248 100681677.74548  24587508.6514   24587512.1414   24587508.9344
       212.000         153.000
 122702414.85948  95612263.15048  23349499.0384   23349500.3634   23349499.2094
       228.000         179.000
 09  1  4  1 19 30.0000000  0  9G 9G18G26G17G15G12G27G10G28
 110928380.85448  86437689.32748  21108977.8954   21108980.9844   21108977.8544
       243.000         211.000
 129509189.11348  83124041.05748  22741845.2634   22741846.9774   22741845.7204
       230.000         185.000
 109392554.34048  85240940.83148  20816717.9244   20816720.2894   20816718.0074
       249.000         221.000
 134152781.82848  86742421.40448  23625492.9384   23625495.3134   23625492.6774
       229.000         181.000
  96802640.93548  93222831.39148  20323871.2844   20323872.6984   20323870.9594
       254.000         241.000
 134479283.70648  86996828.89148  23687632.1924   23687633.6104   23687632.4914
       225.000         175.000
 132501077.42648 103247580.97748  25214124.2734   25214127.7544   25214124.4214
       218.000         165.000
 129319403.64748 100768351.47948  24608675.4834   24608679.0444   24608676.5434
       210.000         154.000
 122783819.28548  95675695.16148  23364989.7084   23364991.2074   23364990.0414
       228.000         179.000
 09  1  4  1 20  0.0000000  0  9G 9G18G26G17G15G12G27G10G28
 110866482.58148  86389456.91848  21097199.1494   21097201.9074   21097199.3524
       242.000         212.000
 129457033.12048  83083400.01848  22731920.0574   22731921.8094   22731920.4854
       231.000         186.000
 109447596.15348  85283830.54048  20827191.9304   20827194.4884   20827191.8024
       249.000         221.000
 134107297.76548  86706979.27248  23616838.0084   23616839.6334   23616838.5774
       228.000         180.000
  96805880.53548  93225355.75048  20324487.7784   20324489.1614   20324487.3394
       254.000         241.000
 134370826.15848  86912316.53348  23666993.8034   23666994.7344   23666993.5524
       224.000         176.000
 132573753.56248 103304211.74448  25227954.2954   25227956.9394   25227955.0254
       216.000         161.000
 129430627.38948 100855019.28048  24629839.3984   24629844.9944   24629839.8604
       204.000         151.000
 122865478.98248  95739326.08748  23380529.2524   23380530.6484   23380528.8074
       229.000         180.000
 09  1  4  1 20 30.0000000  0 10G 9G18G 5G26G17G15G12G27G10G28
 110804870.90148  86341447.83548  21085475.0534   21085477.9274   21085475.0684
       243.000         213.000
 129405381.31948  83043151.87348  22722090.8554   22722093.1954   22722091.0244
       232.000         187.000
 140999569.25058  92077570.80658  24928400.3595   24928403.6695   24928400.6095
       217.000         157.000
 109503021.23448  85327018.90248  20837739.1214   20837741.6694   20837739.0534
       248.000         221.000
 134062230.71448  86671862.11448  23608261.7474   23608263.3014   23608261.8944
       229.000         181.000
  96809552.16448  93228216.75948  20325186.3994   20325187.8864   20325186.2014
       254.000         241.000
 134262548.37548  86827944.23148  23646390.0174   23646390.4734   23646389.2964
       226.000         176.000
 132646418.83548 103360833.99848  25241781.5854   25241785.6954   25241782.5264
       217.000         162.000
 129541841.58848 100941679.67548  24651003.1864   24651008.0474   24651004.1804
       211.000         152.000
 122947391.98248  95803154.40348  23396116.6124   23396118.0434   23396116.9824
       228.000         177.000
 09  1  4  1 21  0.0000000  0 10G 9G18G 5G26G17G15G12G27G10G28
 110743545.96448  86293662.18148  21073805.1904   21073807.9354   21073805.4764
       243.000         212.000
 129354235.30948  83003297.83948  22712358.3704   22712360.2294   22712359.3624
       232.000         186.000
 140884300.98248  91987751.40348  24906465.7344   24906468.8204   24906466.1394
       216.000         158.000
 109558828.90948  85370505.39048  20848358.9014   20848361.4334   20848358.7194
       250.000         221.000
 134017582.59948  86637071.38748  23599765.2174   23599767.5884   23599765.5364
       228.000         181.000
  96813656.85248  93231415.21048  20325967.6064   20325969.0234   20325967.4454
       254.000         241.000
 134154452.19448  86743713.46648  23625819.9814   23625820.9044   23625820.0674
       225.000         175.000
 132719072.98848 103417447.60348  25255607.4804   25255610.9404   25255608.1714
       219.000         167.000
 129653042.77548 101028329.97548  24672164.8304   24672169.3404   24672166.2414
       213.000         152.000
 123029555.68948  95867178.05248  23411751.5304   23411753.1374   23411752.0444
       227.000         176.000
 09  1  4  1 21 30.0000000  0 10G 9G18G 5G26G17G15G12G27G10G28
 110682508.28548  86246100.36748  21062190.0764   21062193.1544   21062190.5244
       244.000         213.000
 129303596.66748  82963839.16948  22702721.6844   22702723.4924   22702722.8964
       231.000         185.000
 140769105.82648  91897988.96948  24884544.1444   24884547.8944   24884545.8594
       214.000         158.000
 109615018.65948  85414289.61248  20859051.5254   20859054.0744   20859051.6214
       249.000         221.000
 133973356.21648  86602609.28148  23591349.1714   23591350.7594   23591349.5214
       229.000         181.000
  96818195.18948  93234951.57748  20326831.2604   20326832.5754   20326830.9344
       254.000         241.000
 134046540.10648  86659626.14848  23605284.0484   23605285.3984   23605284.5294
       226.000         176.000
 132791716.14448 103474052.66448  25269430.4474   25269434.9984   25269430.8304
       218.000         167.000
 129764229.01448 101114968.61948  24693323.2584   24693326.2554   24693323.5764
       209.000         150.000
 123111968.23048  95931395.62348  23427434.5264   23427435.6954   23427435.0364
       228.000         177.000
 09  1  4  1 22  0.0000000  0 10G 9G18G 5G26G17G15G12G27G10G28
 110621756.53848  86198761.36648  21050629.5454   21050632.3354   21050629.6524
       244.000         213.000
 129253465.55148  82924775.95048  22693182.3424   22693184.3214   22693182.3464
       230.000         187.000
 140653983.67248  91808283.42448  24862636.6974   24862640.1544   24862636.3304
       213.000         155.000
 109671588.17848  85458369.75348  20869816.0374   20869818.8204   20869815.8774
       248.000         220.000
 133929551.77848  86568475.96148  23583013.5104   23583015.5944   23583013.6594
       230.000         181.000
  96823166.24248  93238825.12848  20327777.0214   20327778.4814   20327776.8194
       254.000         241.000
 133938812.44848  86575682.51648  23584784.0894   23584785.8774   23584784.0144
       223.000         178.000
 132864346.42348 103530647.65348  25283252.0084   25283255.4784   25283251.5564
       220.000         164.000
 129875396.17248 101201592.36748  24714477.0154   24714480.9334   24714478.1194
       209.000         152.000
 123194625.22448  95995803.66448  23443163.2454   23443165.1514   23443164.3994
       227.000         178.000
 09  1  4  1 22 30.0000000  0 10G 9G18G 5G26G17G15G12G27G10G28
 110561293.61948  86151647.42048  21039123.9634   21039126.6464   21039123.7544
       243.000         214.000
 129203846.15048  82886111.49248  22683740.0664   22683742.1904   22683740.0874
       232.000         187.000
 140538939.04648  91718638.28748  24840743.6404   24840747.3254   24840743.7704
       215.000         156.000
 109728539.65948  85502747.52248  20880653.6294   20880656.2574   20880653.3764
       247.000         220.000
 133886174.18848  86534675.23648  23574758.9574   23574761.4154   23574758.9764
       228.000         181.000
  96828573.32448  93243038.43948  20328805.9414   20328807.4044   20328805.7234
       254.000         241.000
 133831273.93948  86491886.27248  23564319.2664   23564321.8364   23564318.4374
       224.000         177.000
 132936966.32648 103587234.57948  25297070.9394   25297074.8574   25297071.0754
       214.000         158.000
 129986543.95048 101288200.99448  24735628.4194   24735632.4414   24735628.7554
       210.000         155.000
 123277527.03148  96060402.47748  23458938.7134   23458941.0754   23458938.9224
       228.000         177.000
 09  1  4  1 23  0.0000000  0 10G 9G18G 5G26G17G15G12G27G10G28
 110501120.82848  86104759.54548  21027673.3484   21027675.9734   21027673.3794
       245.000         214.000
 129154740.52848  82847847.35348  22674395.7954   22674397.3794   22674396.7174
       230.000         187.000
 140423974.62448  91629055.61848  24818868.3314   24818870.2714   24818869.3094
       213.000         157.000
 109785872.84848  85547422.71548  20891563.9344   20891566.7014   20891563.7124
       247.000         220.000
 133843226.20148  86501209.27948  23566586.1964   23566587.9244   23566585.5824
       228.000         181.000
  96834417.95848  93247592.69748  20329918.2294   20329919.5854   20329918.0664
       254.000         241.000
 133723927.50748  86408239.69348  23543892.3464   23543894.3724   23543892.7354
       224.000         178.000
 133009576.34948 103643813.80948  25310888.2764   25310891.9444   25310888.6664
       210.000         152.000
 130097670.53348 101374793.15148  24756775.1484   24756779.3944   24756776.1004
       206.000         153.000
 123360672.09348  96125190.81848  23474760.7364   23474763.0234   23474761.8564
       227.000         177.000
 09  1  4  1 23 30.0000000  0 10G 9G18G 5G26G17G15G12G27G10G28
 110441237.29448  86058097.06248  21016277.8374   21016280.5514   21016278.3844
       244.000         213.000
 129106149.36948  82809984.10548  22665149.0764   22665150.7044   22665149.1604
       233.000         188.000
 140309091.05548  91539535.99748  24797006.3914   24797009.2074   24797007.0454
       212.000         157.000
 109843586.28348  85592394.21848  20902546.2404   20902549.0834   20902545.9594
       248.000         220.000
 133800708.94948  86468078.97548  23558495.1174   23558497.5544   23558495.0904
       228.000         182.000
  96840699.70548  93252487.56548  20331113.5994   20331114.9924   20331113.3904
       254.000         241.000
 133616773.83948  86324743.35248  23523501.5584   23523503.7134   23523501.5564
       226.000         179.000
 133082175.52548 103700384.61748  25324703.2794   25324707.9574   25324703.5054
       209.000         147.000
 130208773.10948 101461366.56148  24777916.3444   24777921.0434   24777916.5734
       206.000         150.000
 123444056.98048  96190166.05348  23490628.5124   23490630.5734   23490629.0244
       226.000         176.000
 09  1  4  1 24  0.0000000  0 10G 9G18G 5G26G17G15G12G27G10G28
 110381644.28648  86011660.96748  21004937.4674   21004940.2054   21004937.5874
       244.000         214.000
 129058074.91348  82772523.49548  22656000.8074   22656002.7134   22656001.6364
       232.000         187.000
 140194290.95248  91450081.39948  24775160.2554   24775164.0054   24775160.3494
       208.000         153.000
 109901679.83248  85637661.91348  20913601.2544   20913603.8994   20913601.2994
       249.000         220.000
 133758625.29748  86435286.53548  23550487.5274   23550489.3804   23550486.9694
       228.000         183.000
  96847419.77148  93257723.98348  20332392.3864   20332393.7704   20332392.0744
       254.000         240.000
 133509815.74448  86241399.35948  23503149.2364   23503149.5764   23503148.6774
       225.000         178.000
 133154764.44548 103756947.33948  25338516.9094   25338521.3694   25338517.5574
       207.000         141.000
 130319849.03648 101547919.23348  24799053.2694   24799057.3044   24799053.1234
       210.000         150.000
 123527679.88048  96255326.74548  23506541.2264   23506543.5664   23506542.0294
       228.000         176.000
 09  1  4  1 24 30.0000000  0 10G 9G18G 5G26G17G15G12G27G10G28
 110322341.89248  85965451.32548  20993652.8244   20993655.5754   20993653.2004
       244.000         214.000
 129010518.38548  82735466.45048  22646951.1774   22646952.9164   22646951.4444
       233.000         189.000
 140079576.11548  91360693.23248  24753329.9784   24753334.4294   24753330.0024
       207.000         152.000
 109960152.73948  85683225.20948  20924728.2594   20924730.9284   20924728.0924
       249.000         219.000
 133716977.05448  86402833.36548  23542562.1164   23542563.5784   23542561.4784
       228.000         181.000
  96854578.75648  93263302.41048  20333754.7614   20333756.0124   20333754.5094
       254.000         240.000
 133403055.18648  86158209.32348  23482833.2084   23482833.5724   23482832.3274
       226.000         178.000
 133227342.82448 103813501.92748  25352326.3164   25352332.2594   25352328.0644
       198.000         132.000
 130430895.37648 101634448.88648  24820185.3924   24820189.2184   24820187.0224
       211.000         149.000
 123611538.32148  96320670.97848  23522499.6134   23522501.1244   23522500.3254
       227.000         175.000
 09  1  4  1 25  0.0000000  0 10G 9G18G 5G26G17G15G12G27G10G28
 110263330.25148  85919468.24248  20982423.2234   20982425.8444   20982423.5884
       245.000         214.000
 128963481.08548  82698814.00948  22638000.4114   22638002.2694   22638001.2794
       232.000         190.000
 139964948.03648  91271372.66148  24731517.0324   24731521.5034   24731518.2464
       209.000         152.000
 110019004.09148  85729083.40348  20935927.3454   20935929.7564   20935927.2784
       248.000         220.000
 133675765.87848  86370720.75448  23534719.8484   23534721.2454   23534719.1054
       227.000         181.000
  96862177.11448  93269223.20248  20335200.6344   20335201.9494   20335200.3424
       254.000         240.000
 133296493.95148  86075174.60048  23462555.2834   23462555.8314   23462554.9564
       227.000         178.000
 143299888.38258  93870027.07058  25366139.2525   25366138.6245   25366140.3405
       198.000         127.000
 130541909.48848 101720953.39148  24841310.8794   24841314.8674   24841312.5124
       210.000         151.000
 123695629.80848  96386196.82848  23538501.2724   23538503.4364   23538501.0574
       227.000         176.000
 09  1  4  1 25 30.0000000  0 10G 9G18G 5G26G17G15G12G27G10G28
 110204609.95548  85873712.17448  20971249.1114   20971251.7994   20971249.5344
       245.000         214.000
 128916964.47148  82662567.30048  22629148.6564   22629150.2534   22629149.7694
       235.000         189.000
 139850408.89648  91182121.39748  24709720.9944   24709724.6614   24709723.1464
       206.000         153.000
 110078233.42248  85775236.11748  20947198.3994   20947200.9164   20947198.3974
       248.000         219.000
 133634994.27448  86338950.68748  23526960.9714   23526963.1174   23526960.4994
       228.000         180.000
  96870215.62648  93275486.96948  20336730.3304   20336731.6484   20336730.0844
       253.000         240.000
 133190134.43748  85992297.08748  23442315.3074   23442316.6304   23442315.6824
       225.000         179.000
 143372445.07548  93926564.74048  25379944.5864   25379950.4014   25379946.0184
       192.000         126.000
 130652889.05348 101807430.95148  24862429.3204   24862434.7474   24862430.2264
       213.000         159.000
 123779952.04648  96451902.45148  23554547.4984   23554549.3464   23554548.2164
       227.000         176.000
 09  1  4  1 26  0.0000000  0  9G 9G18G 5G26G17G15G12G10G28
 110146181.62048  85828183.61948  20960130.6794   20960133.2554   20960131.1084
       245.000         215.000
 128870970.29848  82626727.68848  22620396.3064   22620398.2464   22620397.4524
       233.000         189.000
 139735960.58848  91092940.94148  24687942.5954   24687945.1684   24687941.6694
       216.000         157.000
 110137840.05648  85821682.83548  20958540.9984   20958543.7664   20958540.7344
       248.000         219.000
 133594664.36948  86307524.79748  23519286.4474   23519288.3174   23519285.8804
       229.000         181.000
  96878694.97448  93282094.24248  20338343.8204   20338345.2704   20338343.6244
       254.000         240.000
 133083978.93448  85909578.52148  23422114.2754   23422116.3474   23422113.5934
       225.000         180.000
 130763831.77648 101893879.82248  24883541.7544   24883546.3724   24883541.9744
       211.000         159.000
 123864502.84748  96517786.19548  23570637.0224   23570638.6744   23570637.6494
       228.000         176.000
 09  1  4  1 26 30.0000000  0  9G 9G18G 5G26G17G15G12G10G28
 110088046.07448  85782883.21048  20949067.6584   20949070.1204   20949067.7504
       245.000         215.000
 128825500.25948  82591296.47848  22611743.2134   22611745.3154   22611743.7214
       232.000         189.000
 139621605.25348  91003832.89848  24666182.8004   24666183.7164   24666183.4444
       211.000         156.000
 110197823.58748  85868423.23648  20969955.6294   20969958.1814   20969955.6544
       248.000         219.000
 133554778.10648  86276444.59348  23511696.5594   23511698.1904   23511696.4494
       231.000         182.000
  96887616.23048  93289045.86848  20340041.5654   20340042.9244   20340041.3104
       254.000         240.000
 132978029.69048  85827020.67848  23401953.0344   23401954.9074   23401953.0664
       225.000         181.000
 130874735.17648 101980298.06448  24904644.7244   24904649.2124   24904646.2334
       204.000         144.000
 123949280.18448  96583846.42548  23586769.3144   23586771.4284   23586770.3994
       226.000         176.000
 09  1  4  1 27  0.0000000  0  9G 9G18G 5G26G17G15G12G10G28
 110030203.35948  85737810.98148  20938060.7914   20938063.0254   20938061.2504
       246.000         215.000
 128780555.71048  82556274.74348  22603190.7554   22603192.8494   22603191.9874
       233.000         190.000
 139507344.80248  90914798.80848  24644439.2484   24644440.7444   24644438.7854
       212.000         155.000
 110258183.20048  85915456.70148  20981441.4884   20981444.1424   20981441.3604
       248.000         219.000
 133515337.76648  86245711.86148  23504191.3094   23504192.9884   23504191.3564
       230.000         182.000
  96896979.77048  93296342.12448  20341823.4264   20341824.7054   20341823.1274
       253.000         240.000
 132872288.52148  85744624.96248  23381831.3044   23381833.3884   23381831.4084
       228.000         182.000
 130985597.06648 102066683.94648  24925740.4394   24925743.9384   24925740.0304
       207.000         140.000
 124034281.84648  96650081.47048  23602944.8534   23602946.3794   23602944.9754
       227.000         175.000
 09  1  4  1 27 30.0000000  0  9G 9G18G 5G26G17G15G12G10G28
 109972654.30948  85692967.56548  20927109.4684   20927111.8244   20927109.7534
       246.000         215.000
 128736138.60348  82521664.00648  22594738.8564   22594740.1664   22594739.3584
       235.000         191.000
 139393181.58548  90825840.47148  24622714.0944   24622716.8114   24622715.7114
       210.000         155.000
 110318918.82948  85962783.15948  20992999.1944   20993001.8544   20992999.1074
       248.000         218.000
 133476345.92748  86215328.63448  23496771.0544   23496772.6504   23496771.2464
       231.000         182.000
  96906786.55848  93303983.77448  20343689.5074   20343690.9664   20343689.1534
       253.000         240.000
 132766757.94948  85662393.35348  23361749.4294   23361751.2944   23361749.4894
       227.000         182.000
 131096414.65948 102153035.42048  24946829.8544   24946832.0674   24946830.7224
       217.000         154.000
 124119505.86748  96716489.80048  23619162.3374   23619164.1454   23619163.9134
       228.000         175.000
 09  1  4  1 28  0.0000000  0  9G 9G18G 5G26G17G15G12G10G28
 109915399.34048  85648353.31048  20916214.0554   20916216.8594   20916214.2184
       246.000         216.000
 128692250.21848  82487465.25948  22586387.1344   22586388.5654   22586387.5774
       235.000         191.000
 139279117.11448  90736959.08948  24601007.7384   24601010.8124   24601008.0554
       213.000         157.000
 110380029.48448  86010401.84248  21004628.1424   21004630.7354   21004628.1514
       248.000         218.000
 133437804.21348  86185296.12848  23489437.2304   23489438.8544   23489437.1534
       231.000         184.000
  96917037.25648  93311971.33148  20345640.0964   20345641.7224   20345639.6894
       253.000         240.000
 132661439.87748  85580327.31348  23341708.1084   23341709.5284   23341708.1564
       227.000         182.000
 131207185.75948 102239350.58248  24967908.1114   24967912.6174   24967909.3854
       209.000         155.000
 124204949.72148  96783069.42948  23635421.9714   23635423.0434   23635422.6184
       228.000         174.000
 09  1  4  1 28 30.0000000  0  9G 9G18G 5G26G17G15G12G10G28
 109858438.86548  85603968.53248  20905374.9614   20905377.5324   20905375.4054
       246.000         216.000
 128648891.85448  82453679.52148  22578135.8364   22578137.5164   22578136.2954
       234.000         190.000
 139165153.37948  90648156.19348  24579321.1744   24579324.7794   24579322.4194
       212.000         158.000
 110441514.43848  86058312.19248  21016328.4054   21016330.8964   21016328.2224
       248.000         218.000
 133399714.58948  86155615.91348  23482188.6994   23482190.4704   23482189.0794
       231.000         183.000
  96927732.32348  93320305.14548  20347675.3394   20347676.8684   20347675.0564
       254.000         240.000
 132556336.43048  85498428.52348  23321707.6394   23321708.9604   23321707.3824
       226.000         182.000
 131317908.11248 102325627.66848  24988977.1864   24988982.4884   24988976.7424
       203.000         146.000
 124290610.97448  96849818.45748  23651722.6104   23651724.1144   23651722.6854
       226.000         173.000
 09  1  4  1 29  0.0000000  0  9G 9G18G 5G26G17G15G12G10G28
 109801773.53848  85559813.73248  20894591.9524   20894594.3174   20894592.2334
       247.000         215.000
 128606064.99848  82420307.95848  22569986.3804   22569988.2174   22569986.7224
       235.000         191.000
 139051292.57948  90559433.50448  24557653.5134   24557658.0414   24557655.4344
       211.000         159.000
 110503373.10548  86106513.74048  21028099.8284   21028102.4794   21028099.8444
       247.000         218.000
 133362079.31848  86126289.75648  23475027.2444   23475029.2384   23475027.2724
       232.000         184.000
  96938872.69348  93328985.94848  20349795.4094   20349796.7694   20349795.3134
       253.000         240.000
 132451450.02248  85416698.86048  23301748.3224   23301749.8924   23301748.1394
       228.000         183.000
 131428578.69248 102411864.46248  25010037.7814   25010041.4444   25010037.7424
       214.000         148.000
 124376487.64848  96916735.34048  23668064.4554   23668065.9874   23668064.7054
       226.000         175.000
 09  1  4  1 29 30.0000000  0  9G 9G18G 5G26G17G15G12G10G28
 109745403.39348  85515888.94848  20883865.0664   20883867.4394   20883865.6054
       246.000         216.000
 128563771.00748  82387351.59748  22561938.3474   22561939.9124   22561938.7344
       234.000         191.000
 138937536.43448  90470792.36748  24536006.7894   24536010.9444   24536006.6664
       212.000         161.000
 110565604.95648  86155006.08748  21039941.9994   21039944.7264   21039941.8944
       248.000         218.000
 133324900.48748  86097319.24548  23467951.8074   23467954.1244   23467951.7744
       228.000         183.000
  96950458.66948  93338013.97648  20351999.9104   20352001.5384   20351999.6544
       252.000         240.000
 132346782.44648  85335139.70048  23281830.6704   23281832.7334   23281831.4254
       224.000         183.000
 131539195.26148 102498059.29948  25031088.2764   25031090.9104   25031089.8054
       214.000         148.000
 124462577.30148  96983818.17648  23684447.0004   23684448.4884   23684447.2584
       227.000         176.000
 09  1  4  1 30  0.0000000  0  9G 9G18G 5G26G17G15G12G10G28
 109689328.70248  85472194.38648  20873194.3734   20873196.8034   20873194.6494
       246.000         216.000
 128522011.13548  82354811.43848  22553991.1964   22553993.0844   22553991.7074
       234.000         190.000
 138823886.70648  90382234.14948  24514380.3734   24514383.9684   24514381.3204
       214.000         162.000
 110628208.69948  86203788.21048  21051855.1244   21051857.9504   21051854.9924
       247.000         218.000
 133288179.61048  86068705.58748  23460964.2494   23460966.2774   23460964.2344
       229.000         184.000
  96962490.81548  93347389.67248  20354289.6004   20354291.1194   20354289.2934
       253.000         239.000
 132242335.68148  85253752.63148  23261954.7424   23261957.4034   23261954.2754
       225.000         182.000
 131649755.51748 102584210.17948  25052126.7394   25052130.4964   25052127.7074
       209.000         148.000
 124548877.57148  97051065.12248  23700869.3394   23700870.9344   23700870.1264
       227.000         174.000
 09  1  4  1 30 30.0000000  0  9G 9G18G 5G26G17G15G12G10G28
 109633550.29148  85428730.67748  20862580.1334   20862582.5124   20862580.4134
       246.000         216.000
 128480787.05048  82322688.77248  22546146.8314   22546148.0074   22546147.3514
       235.000         191.000
 138710345.49348  90293760.51248  24492774.6854   24492777.4954   24492774.8294
       213.000         162.000
 110691184.14748  86252859.97948  21063838.8484   21063841.6124   21063838.5084
       248.000         217.000
 133251918.91848  86040450.50848  23454064.0234   23454066.2824   23454063.8164
       228.000         183.000
  96974969.84348  93357113.58748  20356664.4744   20356665.6494   20356664.3774
       253.000         239.000
 132138112.05948  85172539.40748  23242121.6924   23242123.9544   23242121.8814
       226.000         183.000
 131760257.17448 102670315.30948  25073153.8924   25073158.0344   25073155.1224
       210.000         148.000
 124635386.33148  97118474.52548  23717331.4774   23717332.9414   23717331.8544
       227.000         173.000
 09  1  4  1 31  0.0000000  0  9G 9G18G 5G26G17G15G12G10G28
 109578068.95548  85385498.47348  20852022.2644   20852024.8554   20852022.3524
       247.000         216.000
 128440100.42048  82290984.89948  22538404.3234   22538405.8264   22538404.9084
       234.000         191.000
 138596915.17248  90205373.30648  24471189.3614   24471192.6544   24471189.7384
       215.000         162.000
 110754530.82248  86302221.01948  21075893.6024   21075895.9344   21075893.5274
       248.000         217.000
 133216120.95048  86012555.98648  23447251.3854   23447253.8024   23447250.6464
       228.000         181.000
  96987897.07448  93367186.75048  20359124.3374   20359125.6894   20359124.1824
       253.000         239.000
 132034113.94948  85091501.93448  23222331.8394   23222333.6264   23222331.7194
       227.000         184.000
 131870698.01148 102756373.09748  25094171.2164   25094173.9784   25094172.2954
       213.000         151.000
 124722101.94648  97186045.13648  23733832.6904   23733834.1834   23733832.8254
       225.000         173.000
 09  1  4  1 31 30.0000000  0  9G 9G18G 5G26G17G15G12G10G28
 109522885.08348  85342498.06448  20841521.1924   20841523.6534   20841521.0344
       247.000         217.000
 128399952.38748  82259700.72348  22530764.5134   22530765.9444   22530765.3294
       235.000         191.000
 138483597.65948  90117073.97848  24449625.5744   24449628.8564   24449625.7244
       215.000         160.000
 110818248.10148  86351870.83648  21088018.3394   21088021.1074   21088018.1834
       248.000         217.000
 133180787.39148  85985023.35948  23440528.0664   23440529.9284   23440527.6434
       230.000         181.000
  97001272.49448  93377609.14848  20361669.5834   20361671.1134   20361669.3204
       252.000         239.000
 131930343.58048  85010641.91248  23202585.2974   23202586.6394   23202585.0494
       228.000         184.000
 131981075.37848 102842381.46848  25115175.5704   25115178.8494   25115176.9644
       212.000         149.000
 124809021.64148  97253774.78048  23750372.8344   23750374.7224   23750372.3674
       226.000         174.000
 09  1  4  1 32  0.0000000  0  9G 9G18G 5G26G17G15G12G10G28
 109467998.54148  85299729.33148  20831076.7594   20831079.1794   20831076.9464
       247.000         217.000
 128360344.02648  82228837.05448  22523227.3844   22523228.7664   22523227.9484
       235.000         191.000
 138370394.30448  90028863.55648  24428083.9654   24428086.9174   24428083.8704
       216.000         161.000
 110882334.49948  86401808.27748  21100213.7074   21100216.2804   21100213.5344
       248.000         217.000
 133145919.62248  85957853.66548  23433892.8694   23433895.0634   23433893.1894
       229.000         181.000
  97015096.41148  93388381.02048  20364300.2054   20364301.7314   20364299.8314
       252.000         239.000
 131826802.28548  84929960.37448  23182882.0584   23182883.2504   23182881.4674
       228.000         186.000
 132091386.63248 102928338.30148  25136166.7614   25136169.8244   25136167.0064
       207.000         145.000
 124896143.04048  97321661.56348  23766951.2924   23766953.5694   23766951.7864
       228.000         173.000
 09  1  4  1 32 30.0000000  0  9G 9G18G 5G26G17G15G12G10G28
 109413409.39648  85257192.34948  20820688.5764   20820691.0684   20820688.5154
       246.000         217.000
 128321275.83848  82198394.32048  22515792.8574   22515794.7494   22515793.4764
       234.000         191.000
 138257306.72848  89940743.37548  24406563.5164   24406567.0714   24406565.6344
       217.000         161.000
 110946789.22148  86452032.73348  21112478.9634   21112481.5074   21112478.9864
       247.000         216.000
 133111519.20448  85931048.16248  23427346.8594   23427349.0394   23427346.6764
       230.000         183.000
  97029368.73248  93399502.30848  20367016.0824   20367017.7054   20367015.7804
       253.000         239.000
 131723491.85948  84849458.76148  23163222.7294   23163224.2884   23163222.9454
       229.000         188.000
 132201629.26048 103014241.59348  25157144.6484   25157149.0074   25157145.6004
       213.000         146.000
 124983463.16148  97389703.21548  23783568.3444   23783569.7254   23783569.7964
       227.000         173.000
 09  1  4  1 33  0.0000000  0  9G 9G18G 5G26G17G15G12G10G28
 109359118.64148  85214887.87448  20810357.4294   20810359.8594   20810357.2704
       249.000         216.000
 128282749.89348  82168374.10148  22508461.6274   22508462.9734   22508461.7004
       235.000         192.000
 138144337.19648  89852715.19648  24385066.8974   24385069.7024   24385067.1254
       216.000         163.000
 111011611.59948  86502543.66548  21124814.2494   21124816.8534   21124814.1574
       248.000         216.000
 133077588.45648  85904608.62048  23420890.1944   23420891.9734   23420890.1244
       231.000         184.000
  97044090.88148  93410974.10748  20369817.7544   20369819.2724   20369817.5424
       252.000         239.000
 131620414.94248  84769139.08848  23143607.8884   23143609.2734   23143608.2124
       229.000         187.000
 132311800.81248 103100089.52748  25178110.6384   25178113.8694   25178112.2244
       216.000         150.000
 125070981.02148  97457898.93048  23800222.3004   23800223.7154   23800222.8744
       226.000         170.000
 09  1  4  1 33 30.0000000  0  9G 9G18G 5G26G17G15G12G10G28
 109305127.11448  85172816.57048  20800083.0134   20800085.6764   20800083.3554
       249.000         217.000
 128244767.53148  82138777.44748  22501233.6824   22501235.1724   22501234.5864
       236.000         193.000
 138031487.96248  89764780.76948  24363592.2024   24363595.6444   24363593.3484
       218.000         163.000
 111076801.38648  86553340.89448  21137219.5614   21137222.0724   21137219.6374
       248.000         216.000
 133044129.50648  85878536.71948  23414523.2084   23414524.8164   23414523.4864
       230.000         184.000
  97059263.43348  93422796.87348  20372704.8654   20372706.3624   20372704.5654
       252.000         239.000
 131517573.80048  84689003.13548  23124037.6514   23124039.2324   23124037.6044
       228.000         187.000
 132421899.16148 103185880.42748  25199061.9334   25199064.3774   25199063.7314
       214.000         148.000
 125158694.13848  97526246.81848  23816913.7884   23816914.9374   23816914.7324
       225.000         169.000
 09  1  4  1 34  0.0000000  0  9G 9G18G 5G26G17G15G12G10G28
 109251434.79548  85130978.40648  20789865.8874   20789868.5374   20789865.7664
       249.000         218.000
 128207329.98048  82109605.32948  22494110.1864   22494111.6234   22494110.7964
       236.000         194.000
 137918760.82048  89676941.45848  24342141.7274   24342144.3384   24342143.4094
       215.000         162.000
 111142357.64148  86604423.68248  21149694.4094   21149697.2184   21149694.4324
       247.000         216.000
 133011143.94448  85852833.69148  23408246.3944   23408248.5474   23408246.2374
       231.000         186.000
  97074886.78848  93434970.90748  20375677.9064   20375679.3024   20375677.5844
       252.000         239.000
 131414970.36848  84609052.44548  23104512.6274   23104514.8904   23104511.9194
       227.000         186.000
 132531921.95448 103271612.44448  25219997.5754   25220000.8784   25219998.7374
       209.000         143.000
 125246600.05348  97594744.95248  23833641.5974   23833642.5774   23833641.9614
       226.000         169.000
 09  1  4  1 34 30.0000000  0  9G 9G18G 5G26G17G15G12G10G28
 109198042.88648  85089374.31748  20779705.9094   20779708.2174   20779706.1244
       249.000         218.000
 128170438.91048  82080859.04448  22487089.7564   22487091.3714   22487090.5114
       236.000         193.000
 137806158.20448  89589199.21048  24320712.8694   24320716.4794   24320712.6484
       216.000         161.000
 111208280.29148  86655791.97248  21162239.1184   21162241.8464   21162238.9134
       246.000         216.000
 132978634.38348  85827501.59048  23402059.8314   23402062.2394   23402060.0264
       229.000         186.000
  97090961.94448  93447497.00148  20378736.7904   20378738.4704   20378736.5594
       252.000         239.000
 131312606.99548  84529288.77548  23085033.6434   23085035.7444   23085033.1874
       229.000         187.000
 132641867.50948 103357284.25148  25240919.0994   25240921.7274   25240918.6824
       203.000         139.000
 125334697.21148  97663392.06348  23850406.1424   23850407.0994   23850406.9904
       226.000         170.000
 09  1  4  1 35  0.0000000  0  9G 9G18G 5G26G17G15G12G10G28
 109144951.74648  85048004.61348  20769602.8464   20769605.6524   20769603.1584
       248.000         218.000
 128134095.42148  82052539.44648  22480173.4644   22480175.0754   22480173.8594
       236.000         192.000
 137693682.12848  89501555.49648  24299309.3544   24299312.9714   24299309.9774
       215.000         163.000
 111274568.31548  86707444.96748  21174853.2654   21174855.8724   21174853.0384
       246.000         215.000
 132946602.81748  85802541.95048  23395964.6914   23395966.5614   23395964.6864
       231.000         186.000
  97107489.41448  93460375.54048  20381882.0794   20381883.6294   20381881.8854
       252.000         239.000
 131210486.05648  84449714.02348  23065601.0564   23065602.8234   23065600.8974
       230.000         188.000
 132751733.45048 103442894.02648  25261827.1594   25261829.5004   25261826.5814
       207.000         143.000
 125422983.59648  97732186.65348  23867206.5284   23867207.5134   23867207.5404
       225.000         171.000
 09  1  4  1 35 30.0000000  0  9G 9G18G 5G26G17G15G12G10G28
 109092161.67548  85006869.49048  20759557.4464   20759559.8714   20759557.6314
       249.000         218.000
 128098300.68948  82024647.43948  22473362.3184   22473363.6044   22473362.6254
       235.000         193.000
 137581334.37748  89414011.79448  24277930.4864   24277933.9534   24277930.1194
       219.000         167.000
 111341220.83848  86759381.98948  21187536.8344   21187539.4724   21187536.6914
       246.000         215.000
 132915050.67848  85777955.86548  23389960.1784   23389962.3374   23389960.0084
       229.000         185.000
  97124469.75948  93473606.97148  20385113.3594   20385114.7824   20385113.0954
       252.000         238.000
 131108609.35748  84370329.58948  23046214.6214   23046215.7544   23046215.0934
       230.000         188.000
 132861517.46848 103528439.98848  25282717.0824   25282720.6794   25282718.1474
       206.000         146.000
 125511456.49848  97801126.56048  23884041.6614   23884043.8014   23884042.0674
       225.000         173.000
 09  1  4  1 36  0.0000000  0  9G 9G18G 5G26G17G15G12G10G28
 109039673.43748  84965969.58248  20749568.8424   20749571.5654   20749569.0604
       249.000         218.000
 128063055.80948  81997183.90848  22466655.1784   22466656.9834   22466656.3874
       235.000         192.000
 137469116.93148  89326569.65248  24256576.6774   24256579.8974   24256577.2524
       216.000         166.000
 111408237.28048  86811602.59148  21200289.7054   21200292.2614   21200289.6994
       247.000         215.000
 132883979.88148  85753744.87848  23384047.3324   23384049.5834   23384047.1914
       229.000         184.000
  97141903.44448  93487191.65148  20388430.6844   20388432.2544   20388430.4614
       252.000         238.000
 131006979.17948  84291137.24748  23026875.1284   23026876.1544   23026874.8814
       230.000         189.000
 132971217.06748 103613920.17348  25303591.8534   25303595.9534   25303591.7074
       207.000         145.000
 125600114.07948  97870210.38348  23900912.8104   23900914.4884   23900913.0424
       224.000         170.000
 09  1  4  1 36 30.0000000  0  9G 9G18G 5G26G17G15G12G10G28
 108987487.40048  84925305.14048  20739638.4274   20739640.8454   20739638.6664
       248.000         218.000
 128028361.84848  81970149.64048  22460053.0864   22460054.6084   22460053.0994
       235.000         192.000
 137357031.47348  89239230.35148  24235246.9294   24235250.6704   24235247.9044
       216.000         164.000
 111475616.68248  86864106.00748  21213111.5444   21213114.2534   21213111.3094
       246.000         215.000
 132853391.96148  85729910.13748  23378226.7674   23378228.8444   23378226.9404
       230.000         183.000
  97159790.29248  93501129.44648  20391834.5484   20391836.0124   20391834.2994
       252.000         238.000
 130905597.18448  84212138.30348  23007582.7874   23007583.4904   23007582.4814
       230.000         187.000
 133080829.50948 103699332.44148  25324451.5414   25324454.3144   25324450.6394
       210.000         144.000
 125688953.93548  97939436.22848  23917818.5174   23917820.1974   23917818.9784
       224.000         168.000
 09  1  4  1 37  0.0000000  0  9G 9G18G 5G26G17G15G12G10G28
 108935602.84948  84884875.62648  20729765.0844   20729767.4334   20729764.9434
       249.000         219.000
 127994219.20648  81943544.97848  22453556.0874   22453557.6824   22453556.7144
       236.000         192.000
 137245079.24748  89151994.85448  24213943.4954   24213946.5414   24213946.1324
       215.000         161.000
 111543357.20048  86916890.82148  21226002.2794   21226004.7324   21226002.4764
       246.000         215.000
 132823288.18148  85706452.65248  23372498.3324   23372500.3874   23372498.1084
       231.000         184.000
  97178130.46148  93515420.47848  20395324.5414   20395325.9324   20395324.3284
       252.000         238.000
 130804464.90648  84133333.93048  22988337.9494   22988338.2334   22988338.1154
       230.000         189.000
 133190352.14048 103784674.70948  25345293.4644   25345295.9944   25345292.4834
       209.000         142.000
 125777973.17748  98008801.86548  23934758.3464   23934759.5094   23934759.5934
       222.000         164.000
 09  1  4  1 37 30.0000000  0  9G 9G18G 5G26G17G15G12G10G28
 108884021.17648  84844682.11748  20719949.4554   20719951.9444   20719949.4804
       248.000         219.000
 127960629.77148  81917371.38748  22447164.2924   22447165.6294   22447164.8234
       236.000         191.000
 137133263.10848  89064865.39248  24192665.2044   24192668.4264   24192664.5744
       215.000         161.000
 111611459.00748  86969957.15848  21238961.4844   21238964.1584   21238961.4354
       246.000         214.000
 132793670.73448  85683374.13048  23366862.6864   23366864.0604   23366862.4434
       231.000         185.000
  97196925.24548  93530065.75648  20398901.0194   20398902.4874   20398900.8104
       252.000         237.000
 130703585.00248  84054726.22548  22969140.7934   22969142.1914   22969140.3944
       229.000         189.000
 133299782.79748 103869945.31548  25366117.8914   25366119.4444   25366117.9624
       210.000         142.000
 125867170.38148  98078306.17948  23951732.1504   23951733.1444   23951732.8724
       223.000         165.000
 09  1  4  1 38  0.0000000  0  9G 9G18G 5G26G17G15G12G10G28
 108832742.95748  84804725.06048  20710191.5584   20710194.1324   20710191.5404
       250.000         220.000
 127927594.87148  81891629.90748  22440878.2414   22440878.9704   22440878.7864
       234.000         191.000
 137021584.91048  88977843.43448  24171413.4294   24171416.2604   24171414.3634
       220.000         163.000
 111679921.63348  87023304.64648  21251989.6004   21251992.1344   21251989.5034
       245.000         214.000
 132764541.52448  85660676.04848  23361319.1914   23361320.9664   23361318.9014
       230.000         185.000
  97216174.99748  93545065.55648  20402564.1834   20402565.6124   20402564.1064
       251.000         237.000
 130602959.51948  83976316.75348  22949992.6884   22949993.8394   22949992.4944
       230.000         188.000
 133409119.56148 103955142.80948  25386922.5624   25386926.0754   25386923.9654
       204.000         136.000
 125956543.27448  98147947.39948  23968739.2734   23968740.1104   23968740.5454
       221.000         163.000
 09  1  4  1 38 30.0000000  0  9G 9G18G 5G26G17G15G12G10G28
 108781768.62548  84765004.80348  20700491.6054   20700493.8274   20700492.1964
       250.000         220.000
 127895115.32748  81866321.16648  22434696.7644   22434698.4024   22434697.3684
       234.000         192.000
 136910046.68048  88890930.52748  24150189.2244   24150191.4934   24150189.4734
       221.000         168.000
 111748743.94848  87076932.41948  21265085.7864   21265088.5334   21265085.5354
       245.000         213.000
 132735902.35948  85638359.82248  23355869.4284   23355871.0724   23355868.9114
       231.000         185.000
  97235880.29748  93560420.33248  20406313.8084   20406315.4214   20406313.4034
       251.000         237.000
 130502590.57548  83898107.19448  22930892.7254   22930894.1724   22930892.4884
       231.000         190.000
 133518360.29748 104040265.45548  25407709.8114   25407712.9744   25407711.4554
       202.000         137.000
 126046090.01148  98217724.07248  23985779.4564   23985780.6324   23985779.9884
       221.000         165.000
 09  1  4  1 39  0.0000000  0  9G 9G18G 5G26G17G15G12G10G28
 108731098.71848  84725521.76748  20690849.2574   20690851.8194   20690849.5234
       249.000         220.000
 127863192.09948  81841445.91548  22428622.3944   22428624.3244   22428622.9764
       237.000         193.000
 136798650.19448  88804128.10548  24128991.3574   24128993.6484   24128991.9794
       222.000         168.000
 111817925.06348  87130839.77448  21278250.7454   21278253.2314   21278250.4764
       247.000         214.000
 132707754.75648  85616426.64248  23350512.9554   23350514.5374   23350512.8234
       231.000         185.000
  97256041.35848  93576130.24248  20410150.6074   20410152.0744   20410150.4344
       251.000         238.000
 130402480.15948  83820099.10948  22911842.1554   22911844.1554   22911842.3024
       229.000         189.000
 133627502.47848 104125311.26248  25428481.0934   25428484.0954   25428480.6754
       203.000         140.000
 126135808.03248  98287634.22348  24002852.5134   24002853.4944   24002852.3504
       221.000         164.000
 09  1  4  1 39 30.0000000  0  9G 9G18G 5G26G17G15G12G10G28
 108680733.71848  84686276.32448  20681265.0184   20681267.6724   20681264.8954
       250.000         220.000
 127831826.02248  81817004.81148  22422653.9344   22422655.2784   22422654.6314
       235.000         193.000
 136687397.30348  88717437.54548  24107820.6194   24107822.7384   24107821.9234
       220.000         168.000
 111887464.21148  87185026.11448  21291483.7054   21291486.1034   21291483.7624
       245.000         214.000
 132680100.48048  85594877.86348  23345250.4674   23345252.4114   23345250.2874
       233.000         187.000
  97276658.36148  93592195.43148  20414073.7534   20414075.3764   20414073.4594
       251.000         237.000
 130302630.08948  83742293.88248  22892840.7004   22892843.1484   22892840.3834
       229.000         191.000
 133736543.79448 104210278.49648  25449229.6424   25449233.5754   25449230.2554
       207.000         142.000
 126225695.31248  98357676.23548  24019957.0994   24019958.5904   24019957.7454
       219.000         165.000
 09  1  4  1 40  0.0000000  0  9G 9G18G 5G26G17G15G12G10G28
 108630673.59248  84647268.44148  20671738.8674   20671741.4264   20671739.3254
       249.000         220.000
 127801018.40448  81792998.88848  22416791.1774   22416792.5584   22416792.1544
       235.000         191.000
 136576290.03148  88630860.45648  24086677.2514   24086679.9264   24086676.7024
       221.000         168.000
 111957360.47048  87239490.72648  21304784.4634   21304787.0854   21304784.2424
       245.000         214.000
 132652940.95848  85573714.60448  23340082.3504   23340084.3164   23340083.1024
       231.000         186.000
  97297731.42348  93608615.99748  20418083.7834   20418085.4414   20418083.4164
       252.000         237.000
 130203042.63148  83664693.28248  22873890.3014   22873892.0514   22873890.0304
       231.000         191.000
 133845481.95548 104295165.39948  25469959.8564   25469964.3814   25469960.6594
       207.000         144.000
 126315749.49748  98427848.30448  24037093.6394   24037095.7374   24037094.3884
       218.000         165.000
 09  1  4  1 40 30.0000000  0  9G 9G18G 5G26G17G15G12G10G28
 108580918.74348  84608498.43448  20662271.0184   20662273.4564   20662271.2824
       251.000         220.000
 127770769.92048  81769428.62048  22411034.9714   22411036.7664   22411035.1584
       234.000         192.000
 136465329.99048  88544398.10348  24065561.7404   24065565.2774   24065562.7174
       219.000         167.000
 112027612.62748  87294232.64948  21318153.2424   21318155.6764   21318153.2984
       246.000         214.000
 132626277.51048  85552937.90448  23335008.4564   23335010.4534   23335009.0394
       230.000         187.000
  97319261.23548  93625392.46548  20422180.9354   20422182.4064   20422180.8124
       251.000         237.000
 130103719.40348  83587298.56248  22854989.9444   22854991.6694   22854990.0714
       230.000         191.000
 133954314.67448 104379970.08548  25490670.3394   25490674.5594   25490671.3284
       205.000         139.000
 126405968.39748  98498148.73548  24054261.6974   24054264.0254   24054263.1424
       219.000         163.000
 09  1  4  1 41  0.0000000  0  9G 9G18G 5G26G17G15G12G10G28
 108531469.86548  84569966.85948  20652861.1074   20652863.5164   20652861.9814
       249.000         221.000
 127741081.67948  81746294.94048  22405385.2654   22405387.0404   22405386.0844
       236.000         193.000
 136354519.09948  88458051.93648  24044475.2514   24044478.5314   24044476.5934
       218.000         168.000
 112098220.15148  87349251.49748  21331589.0954   21331591.9134   21331588.8914
       246.000         214.000
 132600111.95548  85532549.17548  23330029.0934   23330031.3244   23330029.3484
       231.000         187.000
  97341248.24148  93642525.19348  20426364.7874   20426366.3224   20426364.5354
       251.000         236.000
 130004662.46948  83510111.34648  22836139.9754   22836141.6774   22836139.8454
       231.000         192.000
 134063039.49048 104464690.72648  25511360.0234   25511362.5794   25511362.2694
       205.000         137.000
 126496349.96848  98568575.93348  24071461.0024   24071463.1454   24071462.3854
       218.000         165.000
 09  1  4  1 41 30.0000000  0  9G 9G18G 5G26G17G15G12G10G28
 108482327.03948  84531673.75248  20643509.6254   20643511.9534   20643509.9424
       250.000         220.000
 127711954.44248  81723598.38448  22399842.8394   22399844.3074   22399843.0514
       236.000         193.000
 136243859.45748  88371823.66848  24023417.3364   24023420.8334   24023418.1204
       217.000         169.000
 112169182.02148  87404546.45348  21345092.9824   21345095.4564   21345092.8874
       246.000         213.000
 132574446.04348  85512549.76148  23325144.9844   23325146.9354   23325144.7614
       232.000         188.000
  97363692.48748  93660014.20548  20430635.8064   20430637.2754   20430635.5694
       251.000         236.000
 129905873.90748  83433133.25648  22817341.1244   22817342.5734   22817341.5634
       230.000         191.000
 134171654.22848 104549325.53848  25532030.4384   25532031.5844   25532031.1054
       208.000         138.000
 126586892.04548  98639128.19248  24088690.1894   24088693.0564   24088690.9844
       215.000         161.000
 09  1  4  1 42  0.0000000  0 10G 9G18G 5G22G26G17G15G12G10G28
 108433490.60748  84493619.40048  20634215.9884   20634218.8754   20634216.2894
       249.000         221.000
 127683388.75848  81701339.41748  22394406.5584   22394408.5814   22394407.6404
       235.000         192.000
 136133352.38048  88285714.27048  24002388.8034   24002392.0864   24002389.1484
       220.000         170.000
 138229194.98958  89918854.78158  24401202.5545   24401202.1405   24401204.0755
       218.000         159.000
 112240496.89348  87460116.48148  21358663.6364   21358666.1944   21358663.5474
       245.000         213.000
 132549280.70248  85492940.41448  23320356.5904   23320358.1614   23320356.7024
       230.000         187.000
  97386593.70048  93677859.30348  20434993.7934   20434995.3244   20434993.6124
       251.000         237.000
 129807355.24348  83356365.48148  22798593.6634   22798594.9884   22798592.9684
       230.000         191.000
 134280155.85248 104633872.25748  25552676.2544   25552679.7874   25552678.1914
       203.000         137.000
 126677592.07648  98709803.52148  24105949.6014   24105952.3964   24105950.5294
       216.000         160.000
 09  1  4  1 42 30.0000000  0 10G 9G18G 5G22G26G17G15G12G10G28
 108384960.65348  84455803.85748  20624981.1854   20624983.9014   20624981.0744
       248.000         221.000
 127655385.02948  81679518.31948  22389077.9464   22389079.5244   22389078.1404
       238.000         193.000
 136022999.65748  88199725.13048  23981389.6614   23981392.4304   23981390.6764
       221.000         170.000
 138155937.03548  89861770.58948  24387262.0984   24387261.4754   24387262.9824
       221.000         164.000
 112312163.61348  87515960.67148  21372301.4224   21372304.0374   21372301.5544
       245.000         213.000
 132524617.35748  85473722.23848  23315662.7374   23315664.8794   23315662.4924
       230.000         188.000
  97409952.38448  93696060.86948  20439438.7944   20439440.3384   20439438.4944
       251.000         236.000
 129709108.16148  83279809.33248  22779897.8014   22779899.4534   22779897.2364
       229.000         193.000
 134388542.30648 104718329.18248  25573300.8614   25573306.0044   25573301.7924
       205.000         141.000
 126768447.73748  98780600.10248  24123239.4894   24123241.9654   24123240.8744
       214.000         157.000
 09  1  4  1 43  0.0000000  0  9G 9G18G 5G22G26G17G15G12G28
 108336738.70848  84418228.32248  20615805.0114   20615807.6154   20615805.5814
       248.000         221.000
 127627945.33348  81658136.72848  22383856.6954   22383857.7834   22383857.7784
       238.000         194.000
 135912804.06948  88113858.42948  23960419.9454   23960422.8624   23960420.4304
       222.000         171.000
 138083060.67848  89804983.84048  24373393.6194   24373393.9134   24373393.0304
       214.000         166.000
 112384182.15648  87572079.01348  21386005.8204   21386008.6934   21386005.7404
       244.000         212.000
 132500458.30048  85454897.01348  23311065.8054   23311067.7154   23311065.3344
       231.000         188.000
  97433769.56948  93714619.71248  20443971.1404   20443972.4924   20443970.9744
       251.000         236.000
 129611135.65448  83203467.13948  22761254.4434   22761256.1594   22761254.0774
       232.000         194.000
 126859457.48948  98851516.80548  24140558.0224   24140560.1534   24140558.2154
       215.000         159.000
 09  1  4  1 43 30.0000000  0  9G 9G18G 5G22G26G17G15G12G28
 108288826.21648  84380893.91148  20606687.5834   20606690.0974   20606687.4504
       248.000         221.000
 127601071.34648  81637195.95848  22378742.6594   22378744.0194   22378743.5324
       236.000         194.000
 135802768.53348  88028116.46648  23939480.8514   23939483.6544   23939481.5244
       224.000         171.000
 138010568.71348  89748496.62148  24359598.3854   24359599.8544   24359597.7604
       221.000         166.000
 112456552.68848  87628471.62848  21399777.4434   21399780.0494   21399777.0924
       244.000         212.000
 132476806.28948  85436466.89048  23306564.8464   23306566.7824   23306563.7994
       231.000         187.000
  97458046.46548  93733536.76748  20448590.9054   20448592.3454   20448590.6124
       251.000         236.000
 129513440.51448  83127341.07248  22742663.3894   22742665.5004   22742663.4624
       231.000         194.000
 126950620.53548  98922552.92848  24157905.3554   24157908.2744   24157905.5434
       216.000         159.000
 09  1  4  1 44  0.0000000  0  9G 9G18G 5G22G26G17G15G12G28
 108241222.87948  84343800.40248  20597629.0714   20597631.4464   20597629.4024
       248.000         222.000
 127574763.53648  81616696.36248  22373736.5834   22373738.0104   22373736.8564
       237.000         194.000
 135692894.33748  87942500.21948  23918572.3654   23918575.3354   23918572.5204
       221.000         170.000
 137938462.92148  89692310.19748  24345878.2384   24345879.0634   24345878.4134
       218.000         167.000
 112529273.63248  87685137.28548  21413615.8524   21413618.6734   21413615.8144
       244.000         212.000
 132453662.05648  85418432.41848  23302160.8284   23302162.7184   23302160.2224
       231.000         188.000
  97482782.79148  93752811.81648  20453297.9814   20453299.5664   20453297.8184
       251.000         236.000
 129416024.03848  83051432.12648  22724125.6944   22724127.6114   22724125.2154
       235.000         195.000
 127041934.04448  98993706.30448  24175282.3034   24175284.6304   24175283.5574
       215.000         159.000
 09  1  4  1 44 30.0000000  0  9G 9G18G 5G22G26G17G15G12G28
 108193928.60148  84306947.72148  20588629.0274   20588631.5954   20588629.1534
       248.000         221.000
 127549021.81948  81596637.87848  22368837.8524   22368839.2474   22368838.3434
       237.000         193.000
 135583182.63648  87857010.59248  23897695.0184   23897698.0274   23897695.0374
       221.000         171.000
 137866745.00448  89636426.17748  24332230.0654   24332230.4114   24332230.5064
       217.000         168.000
 112602343.39148  87742074.75248  21427520.7304   21427523.3704   21427520.4314
       244.000         212.000
 132431026.40448  85400794.26348  23297853.0564   23297855.0194   23297852.7844
       229.000         186.000
  97507978.05448  93772444.48348  20458092.4404   20458094.0624   20458092.0834
       251.000         236.000
 129318887.62448  82975741.43248  22705641.4494   22705643.3584   22705642.0004
       234.000         195.000
 127133395.14248  99064974.69948  24192686.3604   24192688.5224   24192686.6374
       215.000         157.000
 09  1  4  1 45  0.0000000  0  9G 9G18G 5G22G26G17G15G12G28
 108146943.95448  84270336.32348  20579688.0764   20579690.7164   20579688.3394
       248.000         222.000
 127523847.15448  81577021.25848  22364047.0174   22364048.9434   22364047.6934
       235.000         193.000
 135473635.58248  87771649.24048  23876848.9514   23876851.8754   23876849.1644
       223.000         172.000
 137795416.72048  89580845.69148  24318656.7534   24318658.1104   24318656.4434
       214.000         165.000
 112675761.17248  87799283.40648  21441491.8404   21441494.1784   21441491.7904
       244.000         212.000
 132408900.99548  85383553.70248  23293642.5494   23293644.6154   23293641.9604
       230.000         188.000
  97533632.60348  93792435.03448  20462974.4374   20462975.9854   20462974.2414
       251.000         236.000
 129222033.65148  82900270.81848  22687210.9504   22687212.6434   22687210.7404
       233.000         196.000
 127225001.87848  99136356.56348  24210118.4984   24210121.0514   24210120.7414
       213.000         156.000
 09  1  4  1 45 30.0000000  0  9G 9G18G 5G22G26G17G15G12G28
 108100269.41748  84233966.55748  20570806.0854   20570808.8394   20570806.1404
       247.000         221.000
 127499240.33248  81557847.10948  22359364.5314   22359366.1614   22359364.6384
       237.000         194.000
 135364255.04248  87686417.64148  23856034.5184   23856037.4414   23856035.1574
       222.000         173.000
 137724480.62648  89525570.84248  24305158.9044   24305159.3694   24305157.8734
       218.000         172.000
 112749526.11748  87856762.57848  21455528.6254   21455531.1914   21455528.3874
       244.000         211.000
 132387287.20748  85366711.78748  23289529.8164   23289531.9124   23289529.1284
       230.000         188.000
  97559746.67948  93812783.65948  20467943.8994   20467945.3294   20467943.7044
       251.000         236.000
 129125463.63948  82825021.46948  22668834.2724   22668835.9984   22668834.0414
       233.000         197.000
 127316752.29048  99207850.37048  24227577.9414   24227580.2834   24227578.5464
       210.000         155.000
 09  1  4  1 46  0.0000000  0  9G 9G18G 5G22G26G17G15G12G28
 108053905.85148  84197839.11548  20561983.5124   20561986.1324   20561983.6774
       248.000         222.000
 127475202.34348  81539116.19748  22354790.5364   22354792.1474   22354791.2154
       237.000         195.000
 135255043.32048  87601317.61248  23835251.9434   23835255.4844   23835251.8064
       220.000         172.000
 137653939.41448  89470603.67548  24291735.3354   24291735.1674   24291736.0224
       224.000         168.000
 112823637.54548  87914511.73148  21469631.5274   21469634.1674   21469631.5044
       243.000         211.000
 132366186.84648  85350269.95548  23285514.7324   23285516.7234   23285514.2584
       232.000         191.000
  97586321.29148  93833491.14748  20473000.7474   20473002.3214   20473000.5714
       250.000         235.000
 129029180.06848  82749995.34848  22650511.6394   22650513.6294   22650511.6284
       233.000         196.000
 127408644.64348  99279454.78848  24245063.9494   24245066.7044   24245063.5034
       210.000         152.000
 09  1  4  1 46 30.0000000  0  9G 9G18G 5G22G26G17G15G12G28
 108007852.81348  84161953.62948  20553219.9904   20553222.5094   20553219.9924
       249.000         222.000
 127451733.49648  81520828.78648  22350324.6904   22350326.0114   22350325.0244
       237.000         194.000
 135146001.84348  87516350.24648  23814501.8114   23814505.8504   23814502.3474
       223.000         174.000
 137583794.39748  89415945.23848  24278386.8884   24278386.0704   24278386.3624
       220.000         165.000
 112898094.19748  87972529.89348  21483800.1134   21483802.7654   21483800.0914
       245.000         211.000
 132345600.87448  85334228.94148  23281597.3084   23281599.4444   23281597.0464
       231.000         189.000
  97613355.85748  93854557.03948  20478145.0904   20478146.7664   20478144.5964
       251.000         235.000
 128933184.48648  82675193.58348  22632244.2394   22632246.0654   22632244.1874
       233.000         196.000
 127500676.46848  99351167.88248  24262578.1304   24262579.4774   24262577.9854
       212.000         155.000
 09  1  4  1 47  0.0000000  0  9G 9G18G 5G22G26G17G15G12G28
 107962110.90448  84126310.58248  20544515.7454   20544518.1294   20544515.8504
       249.000         223.000
 127428834.50548  81502985.41448  22345966.8254   22345968.9584   22345967.4544
       235.000         194.000
 135037132.24448  87431516.80848  23793784.8934   23793788.6854   23793785.6244
       222.000         174.000
 137514047.78948  89361597.19548  24265114.5004   24265114.4734   24265113.1174
       218.000         165.000
 112972894.85948  88030816.11648  21498034.3134   21498037.1184   21498034.4514
       242.000         210.000
 132325530.49248  85318589.69048  23277777.7684   23277780.1134   23277777.3954
       232.000         191.000
  97640849.91748  93875980.97848  20483377.1834   20483378.7564   20483376.9614
       250.000         235.000
 128837478.56848  82600617.55248  22614032.0024   22614034.0044   22614031.8064
       234.000         197.000
 127592845.26148  99422987.72948  24280116.5424   24280118.7544   24280117.4784
       213.000         155.000
 09  1  4  1 47 30.0000000  0  9G 9G18G 5G22G26G17G15G12G28
 107916679.79148  84090909.71348  20535870.4274   20535872.9004   20535870.6144
       249.000         222.000
 127406505.08248  81485585.84848  22341717.8504   22341719.4364   22341718.0564
       237.000         194.000
 134928435.85648  87346818.30448  23773100.8334   23773104.3214   23773101.1454
       226.000         174.000
 137444700.75048  89307560.51048  24251917.7624   24251918.3894   24251919.7354
       220.000         168.000
 113048037.79548  88089369.05048  21512333.2524   21512336.3564   21512332.9894
       243.000         210.000
 132305976.05848  85303352.49548  23274057.0624   23274058.8044   23274057.0424
       231.000         191.000
  97668803.76048  93897763.19648  20488696.4844   20488698.2484   20488696.1054
       250.000         235.000
 128742063.52948  82526268.20948  22595875.1614   22595877.4304   22595874.9324
       233.000         197.000
 127685148.32948  99494912.16248  24297681.1694   24297683.7964   24297683.5084
       213.000         155.000
 09  1  4  1 48  0.0000000  0  9G 9G18G 5G22G26G17G15G12G28
 107871560.60748  84055751.90648  20527284.5224   20527286.8324   20527284.7764
       249.000         223.000
 127384746.45048  81468631.08248  22337577.4764   22337578.8594   22337578.3274
       237.000         194.000
 134819915.04848  87262256.64148  23752449.9344   23752452.9894   23752451.8654
       222.000         175.000
 137375756.17848  89253837.51848  24238798.4084   24238798.9874   24238797.5044
       215.000         165.000
 113123522.71748  88148188.45948  21526697.6554   21526700.6274   21526697.6334
       241.000         210.000
 132286939.90948  85288519.13748  23270434.2554   23270436.4324   23270433.3614
       231.000         190.000
  97697217.97948  93919904.14048  20494103.6664   20494105.2234   20494103.3694
       251.000         235.000
 128646941.91248  82452147.46848  22577774.3724   22577775.9604   22577774.1894
       235.000         197.000
 127777584.37848  99566940.26148  24315271.7464   24315273.4294   24315273.2874
       209.000         154.000
 09  1  4  1 48 30.0000000  0  9G 9G18G 5G22G26G17G15G12G28
 107826755.29848  84020838.68148  20518758.2874   20518760.8954   20518758.4764
       249.000         223.000
 127363560.57948  81452122.60848  22333545.5704   22333547.3844   22333545.9364
       236.000         192.000
 134711573.11948  87177834.37148  23731832.9474   23731836.3414   23731832.4974
       223.000         174.000
 137307217.43348  89200430.74448  24225755.9124   24225756.0464   24225756.4654
       218.000         166.000
 113199349.96648  88207274.61948  21541127.0644   21541129.9484   21541126.7404
       243.000         210.000
 132268424.08848  85274091.24048  23266910.8674   23266913.0754   23266910.3384
       232.000         191.000
  97726093.68648  93942404.68548  20499598.5754   20499600.1084   20499598.2994
       250.000         235.000
 128552116.85148  82378257.81048  22559729.5704   22559731.6094   22559729.4144
       235.000         198.000
 127870152.74148  99639071.44848  24332886.1454   24332888.6554   24332884.5844
       208.000         151.000
 09  1  4  1 49  0.0000000  0  9G 9G18G 5G22G26G17G15G12G28
 107782263.54648  83986169.79048  20510291.9054   20510294.3224   20510292.2144
       249.000         223.000
 127342947.43448  81436060.41448  22329623.0624   22329625.0064   22329624.1194
       236.000         193.000
 134603411.06448  87093552.28848  23711250.1934   23711253.9024   23711250.7674
       225.000         176.000
 137239085.77248  89147341.14148  24212790.3764   24212791.4194   24212792.5424
       216.000         169.000
 113275517.55848  88266625.98048  21555621.4584   21555624.2054   21555621.4524
       244.000         210.000
 132250429.67048  85260069.60948  23263486.3564   23263488.6934   23263485.9034
       229.000         189.000
  97755430.04848  93965264.18248  20505181.0604   20505182.7704   20505180.8304
       251.000         235.000
 128457589.36048  82304600.03748  22541741.4494   22541743.5714   22541741.2194
       234.000         199.000
 127962850.29648  99711303.31348  24350525.9954   24350528.5214   24350526.6304
       206.000         149.000
 09  1  4  1 49 30.0000000  0  9G 9G18G 5G22G26G17G15G12G28
 107738085.66548  83951745.46548  20501884.9314   20501887.6574   20501885.0114
       249.000         223.000
 127322907.45148  81420444.82648  22325809.4974   22325811.6404   22325809.8114
       236.000         194.000
 134495430.80048  87009411.81448  23690702.6484   23690705.3524   23690703.0614
       224.000         173.000
 137171363.55048  89094570.56148  24199903.4184   24199904.9834   24199902.8194
       218.000         170.000
 113352024.67048  88326241.90148  21570180.4834   21570183.0674   21570180.3454
       244.000         209.000
 132232957.95848  85246455.30548  23260161.6234   23260163.8184   23260160.7584
       231.000         189.000
  97785227.85148  93988483.24248  20510851.3004   20510853.0634   20510851.1854
       249.000         234.000
 128363361.35348  82231175.64648  22523810.4544   22523812.5594   22523810.2104
       236.000         200.000
 128055675.12448  99783634.31748  24368189.7604   24368192.6774   24368188.3594
       205.000         148.000
 09  1  4  1 50  0.0000000  0  9G 9G18G 5G22G26G17G15G12G28
 107694221.30848  83917565.46048  20493537.9144   20493540.4374   20493538.2874
       249.000         223.000
 127303440.75048  81405275.96248  22322105.2504   22322107.2664   22322105.7814
       236.000         194.000
 134387633.59748  86925414.01348  23670189.2324   23670192.0974   23670190.2064
       223.000         173.000
 137104051.85048  89042119.91248  24187094.9214   24187095.7234   24187095.7764
       220.000         170.000
 113428869.66648  88386121.11348  21584803.4454   21584806.1234   21584803.5144
       242.000         209.000
 132216009.30048  85233248.57448  23256936.5704   23256938.7244   23256936.8934
       231.000         189.000
  97815486.49348  94012061.39848  20516609.2154   20516611.0964   20516608.7594
       250.000         234.000
 128269434.37048  82157985.79848  22505937.1354   22505938.2964   22505937.5414
       237.000         199.000
 128148624.17148  99856062.15248  24385877.5114   24385879.9324   24385877.9324
       206.000         145.000
 09  1  4  1 50 30.0000000  0  7G 9G18G 5G22G26G12G28
 107650670.73448  83883629.94648  20485250.5514   20485253.1144   20485250.7634
       248.000         223.000
 127284547.17948  81390553.70248  22318509.6754   22318511.6774   22318510.6124
       235.000         193.000
 134280020.92048  86841559.96248  23649711.1344   23649714.1484   23649711.2004
       223.000         174.000
 137037152.59248  88989990.63348  24174364.8884   24174364.1054   24174365.0724
       223.000         170.000
 113506051.12448  88446262.49348  21599490.4224   21599493.1824   21599490.0644
       241.000         209.000
 128175809.70348  82085031.52348  22488120.8864   22488121.9934   22488120.7594
       238.000         199.000
 128241695.59448  99928585.31348  24403588.9034   24403591.5604   24403589.7764
       209.000         148.000
 09  1  4  1 51  0.0000000  0  9G 9G18G 5G22G26G17G15G12G28
 107607434.98448  83849939.75548  20477022.6574   20477025.6184   20477022.6964
       248.000         223.000
 127266228.04048  81376279.03948  22315023.8114   22315025.2854   22315024.1634
       235.000         192.000
 134172595.22248  86757851.63648  23629268.9154   23629272.1684   23629269.9674
       224.000         176.000
 136970668.09648  88938184.49448  24161713.0184   24161712.9734   24161712.8104
       222.000         170.000
 113583568.37748  88506665.54448  21614241.5594   21614244.3604   21614241.4294
       242.000         209.000
 132183686.19548  85208061.74248  23250785.8464   23250787.7154   23250785.7114
       232.000         191.000
  97877385.40648  94060294.31148  20528388.4494   20528389.9104   20528388.2644
       250.000         234.000
 128082489.83748  82012314.74548  22470362.5964   22470363.5434   22470362.4574
       238.000         198.000
 128334887.80248 100001202.61648  24421323.3494   24421325.1084   24421323.7314
       212.000         151.000
 09  1  4  1 51 30.0000000  0  9G 9G18G 5G22G26G17G15G12G28
 107564514.51248  83816495.23048  20468855.3944   20468858.1834   20468855.5094
       248.000         224.000
 127248483.72148  81362452.29148  22311647.0134   22311648.7694   22311647.3384
       237.000         193.000
 134065358.34948  86674290.44448  23608862.4594   23608865.6294   23608863.0174
       225.000         176.000
 136904600.12148  88886702.99248  24149140.4564   24149140.7744   24149141.8794
       218.000         166.000
 113661420.65048  88567329.64248  21629056.3924   21629059.1694   21629056.4114
       242.000         208.000
 132168314.26748  85196083.62148  23247860.4604   23247862.8634   23247860.3874
       231.000         192.000
  97909025.97748  94084949.29648  20534409.4224   20534411.0134   20534409.1164
       250.000         234.000
 127989476.41548  81939836.75848  22452662.7394   22452663.7684   22452662.5114
       240.000         200.000
 128428198.42748 100073912.15848  24439080.2094   24439082.3874   24439081.0204
       209.000         153.000
 09  1  4  1 52  0.0000000  0  9G 9G18G 5G22G26G17G15G12G28
 107521909.77248  83783296.73548  20460747.9874   20460750.8884   20460748.2134
       249.000         224.000
 127231314.48648  81349073.65948  22308379.8454   22308381.9404   22308380.4614
       236.000         192.000
 133958311.93548  86590877.64848  23588492.2944   23588495.4654   23588492.8324
       226.000         179.000
 136838951.28548  88835548.05148  24136647.4724   24136647.6484   24136647.5714
       217.000         165.000
 113739606.62448  88628253.76948  21643934.7454   21643937.3644   21643934.5314
       241.000         208.000
 132153470.28348  85184516.89148  23245035.8184   23245037.7834   23245035.7034
       231.000         192.000
  97941127.51748  94109963.47048  20540518.1374   20540519.8254   20540517.8464
       250.000         234.000
 127896771.23648  81867598.96148  22435021.6184   22435022.8614   22435021.5744
       238.000         202.000
 128521625.67948 100146712.61148  24456858.5354   24456860.3444   24456858.8834
       209.000         152.000
 09  1  4  1 52 30.0000000  0  9G 9G18G 5G22G26G17G15G12G28
 107479622.07448  83750345.29648  20452701.1424   20452703.6154   20452701.6064
       249.000         224.000
 127214721.87948  81336144.35748  22305222.6954   22305224.3964   22305223.3604
       237.000         194.000
 133851459.07548  86507615.68348  23568159.0534   23568161.9774   23568158.8164
       225.000         179.000
 136773724.15948  88784721.70848  24124235.6084   24124235.3264   24124236.5664
       219.000         165.000
 113818126.41548  88689438.01548  21658876.4304   21658879.3334   21658876.3274
       243.000         209.000
 132139156.48748  85173363.29748  23242311.9784   23242313.8794   23242311.6574
       231.000         191.000
  97973691.19648  94135337.76348  20546714.8674   20546716.4184   20546714.6604
       250.000         234.000
 127804377.42948  81795603.78548  22417439.5824   22417441.2244   22417439.3054
       238.000         202.000
 128615168.46448 100219603.07748  24474659.3464   24474661.1714   24474658.8774
       209.000         151.000
 09  1  4  1 53  0.0000000  0  9G 9G18G 5G22G26G17G15G12G28
 107437650.55248  83717640.20848  20444714.3224   20444716.6614   20444714.0684
       249.000         224.000
 127198705.30648  81323663.90248  22302175.0544   22302176.5864   22302175.6924
       237.000         193.000
 133744800.60548  86424505.20148  23547862.0294   23547865.8994   23547862.7664
       223.000         177.000
 136708919.90948  88734224.91548  24111903.0954   24111903.2964   24111903.8484
       218.000         167.000
 113896977.83648  88750880.67548  21673881.5894   21673884.2844   21673881.4514
       242.000         208.000
 132125372.95248  85162622.90048  23239688.8104   23239691.1694   23239688.9554
       231.000         192.000
  98006715.87448  94161071.27048  20552999.2694   20553000.7694   20552999.0744
       250.000         233.000
 127712295.56648  81723851.68948  22399916.6884   22399918.8314   22399916.5164
       238.000         201.000
 128708823.76348 100292581.22048  24492481.6204   24492482.6034   24492483.2024
       211.000         152.000
 09  1  4  1 53 30.0000000  0  9G 9G18G 5G22G26G17G15G12G28
 107395996.17748  83685182.26148  20436787.5964   20436790.0364   20436787.6814
       250.000         224.000
 127183265.25748  81311632.69548  22299236.5424   22299238.5764   22299237.0474
       236.000         193.000
 133638338.39348  86341547.63848  23527603.1474   23527606.5174   23527602.8764
       225.000         177.000
 136644540.88948  88684059.41648  24099652.3974   24099653.1324   24099651.2874
       218.000         168.000
 113976159.98448  88812581.04448  21688949.4094   21688952.0994   21688949.2334
       241.000         208.000
 132112120.89548  85152296.62648  23237167.2284   23237169.4874   23237167.2394
       233.000         192.000
  98040201.81648  94187164.20348  20559371.2374   20559372.9304   20559370.8734
       250.000         233.000
 127620527.75848  81652344.30648  22382453.7864   22382455.8204   22382453.5884
       238.000         201.000
 128802589.71848 100365645.58648  24510324.2414   24510325.9774   24510324.8954
       210.000         149.000
 09  1  4  1 54  0.0000000  0  9G 9G18G 5G22G26G17G15G12G28
 107354659.44948  83652971.83348  20428921.4464   20428923.8554   20428921.5584
       250.000         224.000
 127168402.24548  81300051.11048  22296408.0684   22296409.8604   22296408.5894
       235.000         193.000
 133532074.50548  86258744.61348  23507381.8174   23507385.3904   23507383.6174
       224.000         178.000
 136580589.04148  88634226.82548  24087482.2634   24087484.1034   24087484.2914
       218.000         172.000
 114055671.96248  88874538.42048  21704080.0174   21704082.6594   21704079.6404
       242.000         206.000
 132099401.61448  85142385.49648  23234746.8694   23234748.9784   23234746.6674
       231.000         192.000
  98074148.79648  94213616.38548  20565831.3414   20565832.7524   20565831.0704
       250.000         233.000
 127529075.75548  81581083.01648  22365050.9324   22365053.3284   22365050.6074
       239.000         202.000
 128896464.52148 100438794.77148  24528187.6994   24528188.9984   24528188.4194
       208.000         146.000
 09  1  4  1 54 30.0000000  0  9G 9G18G 5G22G26G17G15G12G28
 107313640.20148  83621008.79148  20421115.6274   20421118.2364   20421115.9804
       250.000         224.000
 127154115.82648  81288918.83748  22293689.5044   22293691.6434   22293690.0614
       236.000         194.000
 133426010.03448  86176096.97848  23487198.2884   23487202.0364   23487198.5534
       225.000         179.000
 136517065.49248  88584727.97148  24075395.4434   24075395.7274   24075395.8034
       222.000         171.000
 114135511.77148  88936751.25648  21719273.0094   21719275.6454   21719272.8034
       242.000         206.000
 132087215.36348  85132889.72848  23232428.0314   23232429.9994   23232427.8704
       231.000         192.000
  98108556.33348  94240427.45348  20572378.9414   20572380.3544   20572378.7954
       250.000         233.000
 127437940.86448  81510068.81748  22347708.8414   22347711.0394   22347708.7234
       240.000         204.000
 128990445.29348 100512026.53948  24546072.5474   24546072.4674   24546073.9094
       210.000         148.000
 09  1  4  1 55  0.0000000  0  9G 9G18G 5G22G26G17G15G12G28
 107272939.17948  83589293.71848  20413370.6934   20413372.9834   20413370.8464
       250.000         225.000
 127140406.70148  81278236.40148  22291081.0424   22291083.0464   22291081.6894
       236.000         194.000
 133320147.29248  86093606.52848  23467053.4274   23467057.0254   23467054.4374
       225.000         179.000
 136453972.57948  88535564.66148  24063388.5194   24063388.6624   24063388.3874
       219.000         168.000
 114215679.02448  88999219.23748  21734528.2234   21734530.9664   21734528.1914
       241.000         206.000
 132075563.74348  85123810.55348  23230210.4884   23230212.7294   23230210.6634
       231.000         191.000
  98143425.10648  94267597.92148  20579014.1094   20579015.7404   20579013.7624
       250.000         233.000
 127347125.31048  81439303.44848  22330427.6964   22330429.0394   22330427.3304
       240.000         204.000
 129084530.76548 100585339.89048  24563976.1914   24563977.0374   24563977.6284
       209.000         146.000
 09  1  4  1 55 30.0000000  0  9G 9G18G 5G22G26G17G15G12G28
 107232556.43448  83557826.65048  20405686.0714   20405688.6154   20405686.2644
       250.000         225.000
 127127275.16248  81268004.02848  22288581.8734   22288583.8124   22288582.5314
       235.000         193.000
 133214487.81948  86011274.47448  23446947.4654   23446950.4194   23446947.8324
       226.000         179.000
 136391312.30348  88486738.50448  24051464.8654   24051464.9974   24051465.2054
       224.000         174.000
 114296172.26348  89061941.23148  21749845.5114   21749848.2914   21749845.5194
       240.000         206.000
 132064447.33548  85115148.43548  23228095.3134   23228096.9514   23228095.6084
       232.000         191.000
  98178754.63848  94295127.42148  20585737.0594   20585738.8094   20585736.6304
       249.000         233.000
 127256630.52348  81368788.03748  22313206.8014   22313208.2294   22313206.9494
       239.000         203.000
 129178718.76548 100658733.13248  24581899.3324   24581900.0594   24581899.7434
       209.000         145.000
 09  1  4  1 56  0.0000000  0  9G 9G18G 5G22G26G17G15G12G28
 107192492.86548  83526608.27648  20398062.1894   20398064.6814   20398062.4924
       250.000         225.000
 127114721.67948  81258222.07848  22286193.0994   22286195.0254   22286193.1534
       235.000         194.000
 133109033.81548  85929102.51748  23426879.9864   23426883.1674   23426881.1644
       226.000         177.000
 136329086.77448  88438251.05948  24039624.2444   24039624.2604   24039624.6664
       221.000         172.000
 114376990.65448  89124916.58748  21765224.8304   21765227.5884   21765224.6244
       242.000         207.000
 132053867.57848  85106904.47548  23226082.1304   23226083.8564   23226082.2694
       233.000         191.000
  98214544.86048  94323015.89348  20592547.6644   20592549.6124   20592547.4544
       250.000         232.000
 127166458.49848  81298524.12948  22296047.5474   22296049.1164   22296047.2744
       237.000         202.000
 129273007.22948 100732204.66848  24599841.0904   24599842.5464   24599843.2774
       210.000         147.000
 09  1  4  1 56 30.0000000  0  9G 9G18G 5G22G26G17G15G12G28
 107152748.71748  83495638.81948  20390499.1334   20390501.7214   20390499.4804
       249.000         225.000
 127102746.29548  81248890.61348  22283914.6684   22283916.1964   22283915.1944
       237.000         195.000
 133003786.76848  85847091.83448  23406852.0844   23406855.3714   23406852.3204
       223.000         178.000
 136267297.86048  88390103.85348  24027866.0104   24027866.0864   24027865.7324
       220.000         169.000
 114458132.98848  89188144.36948  21780666.0964   21780668.5034   21780666.1224
       242.000         206.000
 132043824.96448  85099079.06548  23224171.2094   23224172.8604   23224171.1554
       234.000         193.000
  98250795.63148  94351263.23848  20599445.8954   20599447.8054   20599445.7554
       250.000         232.000
 127076610.76248  81228512.92248  22278950.0344   22278951.5254   22278949.6604
       239.000         203.000
 129367394.27648 100805753.00548  24617802.7004   24617804.7114   24617804.6454
       206.000         147.000
 09  1  4  1 57  0.0000000  0  9G 9G18G 5G22G26G17G15G12G28
 107113324.58548  83464918.72848  20382996.8654   20382999.3754   20382996.7774
       250.000         225.000
 127091349.21148  81240009.76548  22281745.7974   22281747.6284   22281746.3714
       236.000         195.000
 132898748.89748  85765244.14348  23386863.7774   23386867.0244   23386864.8194
       224.000         178.000
 136205947.45148  88342298.35948  24016191.1234   24016191.3504   24016191.2674
       222.000         169.000
 114539598.35248  89251623.87648  21796168.0204   21796170.7634   21796167.8614
       241.000         205.000
 132034320.96548  85091673.34748  23222362.5584   23222364.5034   23222362.7664
       231.000         192.000
  98287507.11848  94379869.57948  20606432.0004   20606433.5854   20606431.6754
       249.000         232.000
 126987089.60348  81158756.19348  22261914.7944   22261916.3804   22261914.7374
       239.000         204.000
 129461878.40248 100879376.99548  24635782.6444   24635784.4874   24635784.0654
       209.000         148.000
 09  1  4  1 57 30.0000000  0  9G 9G18G 5G22G26G17G15G12G28
 107074220.68248  83434448.16048  20375555.6664   20375558.3184   20375555.8304
       250.000         225.000
 127080530.59848  81231579.67348  22279686.8664   22279688.6044   22279687.6304
       234.000         193.000
 132793921.63548  85683560.56448  23366916.2614   23366919.2044   23366916.1854
       224.000         180.000
 136145037.28048  88294835.88648  24004600.9714   24004600.2504   24004601.6814
       221.000         167.000
 114621385.23748  89315353.89948  21811731.7754   21811734.3684   21811731.7544
       241.000         206.000
 132025355.95448  85084687.64548  23220656.6914   23220658.4294   23220656.5534
       233.000         193.000
  98324678.95048  94408834.63448  20613505.6124   20613507.0554   20613505.1484
       249.000         232.000
 126897896.16748  81089254.82548  22244941.7024   22244943.4604   22244941.6264
       239.000         205.000
 129556456.94048 100953074.56748  24653780.3634   24653782.1064   24653781.1654
       207.000         149.000
 09  1  4  1 58  0.0000000  0  9G 9G18G 5G22G26G17G15G12G28
 107035438.18748  83404228.03848  20368175.6584   20368178.0414   20368176.1164
       249.000         225.000
 127070290.81048  81223600.61148  22277738.1074   22277739.9024   22277738.5204
       235.000         193.000
 132689307.18048  85602042.80548  23347008.6604   23347011.7804   23347008.9564
       227.000         180.000
 136084569.40148  88247718.06348  23993093.6414   23993093.9794   23993095.1664
       223.000         169.000
 114703492.71548  89379333.75148  21827356.1694   21827358.9054   21827355.7994
       240.000         204.000
 132016931.21248  85078122.93648  23219053.5194   23219055.2244   23219053.6344
       231.000         192.000
  98362311.05448  94438158.34548  20620666.7394   20620668.3594   20620666.5684
       250.000         232.000
 126809032.75148  81020010.61748  22228031.6554   22228033.3754   22228031.2684
       239.000         206.000
 129651128.39648 101026844.49248  24671796.5004   24671797.6074   24671797.7704
       205.000         148.000
 09  1  4  1 58 30.0000000  0  9G 9G18G 5G22G26G17G15G12G28
 106996976.85448  83374258.17748  20360856.7554   20360859.1414   20360856.7164
       250.000         226.000
 127060629.75548  81216072.51048  22275899.8614   22275901.4364   22275900.4504
       235.000         193.000
 132584907.02648  85520692.05448  23327142.1464   23327145.0264   23327142.7204
       226.000         180.000
 136024545.35748  88200946.05248  23981671.2064   23981671.7504   23981670.4294
       223.000         170.000
 114785919.47948  89443562.39048  21843041.6664   21843044.2764   21843041.5774
       241.000         205.000
 132009047.35748  85071979.67648  23217553.1794   23217555.0914   23217553.1694
       232.000         193.000
  98400403.62848  94467840.86248  20627915.5874   20627917.1034   20627915.3554
       249.000         232.000
 126720500.66748  80951024.58448  22211184.6214   22211186.3774   22211184.8314
       239.000         205.000
 129745890.59648 101100685.15948  24689829.5504   24689830.4524   24689830.2324
       203.000         150.000
 09  1  4  1 59  0.0000000  0  9G 9G18G 5G22G26G17G15G12G28
 106958837.51548  83344539.21048  20353598.9964   20353601.3984   20353599.3644
       250.000         225.000
 127051547.97848  81208995.79848  22274171.5624   22274173.2454   22274172.1484
       235.000         194.000
 132480723.39948  85439510.01848  23307316.6404   23307319.6614   23307317.7314
       226.000         180.000
 135964967.17248  88154521.52148  23970333.9894   23970334.3634   23970333.4704
       221.000         172.000
 114868664.84648  89508039.28948  21858787.4254   21858790.1524   21858787.5484
       240.000         205.000
 132001705.85948  85066259.04548  23216156.2834   23216158.0354   23216155.9024
       233.000         193.000
  98438956.45748  94497882.02348  20635251.9454   20635253.5484   20635251.6144
       249.000         232.000
 126632302.08748  80882298.43448  22194400.9934   22194402.6064   22194400.6894
       239.000         205.000
 129840741.83848 101174595.22148  24707878.3364   24707880.6454   24707877.3054
       208.000         151.000
 09  1  4  1 59 30.0000000  0  9G 9G18G 5G22G26G17G15G12G28
 106921020.57148  83315071.46048  20346402.7414   20346405.1784   20346402.8244
       250.000         226.000
 127043045.31048  81202370.33348  22272553.4364   22272555.5664   22272554.1214
       236.000         194.000
 132376758.02048  85358498.03348  23287532.6584   23287535.1344   23287532.9174
       227.000         179.000
 135905837.03648  88108446.07348  23959081.9914   23959082.3574   23959081.7694
       219.000         168.000
 114951727.45548  89572763.39148  21874593.7284   21874596.4994   21874593.3644
       240.000         204.000
 131994907.03248  85060961.25848  23214862.2774   23214864.1604   23214862.4404
       233.000         194.000
  98477969.48348  94528281.76748  20642675.8664   20642677.5314   20642675.6184
       249.000         231.000
 126544438.66448  80813833.44048  22177681.0864   22177682.7924   22177681.2864
       240.000         206.000
 129935680.37448 101248573.30348  24725944.8064   24725946.9924   24725945.8384
       206.000         151.000
 09  1  4  2  0  0.0000000  0  9G 9G18G 5G22G26G17G15G12G28
 106883525.26448  83285854.33348  20339267.4834   20339270.2384   20339267.2994
       249.000         225.000
 127035120.93348  81196195.48348  22271045.8554   22271047.5344   22271046.2604
       237.000         194.000
 132273011.50148  85277656.59548  23267790.3744   23267793.3144   23267791.0174
       228.000         182.000
 135847155.65048  88062720.31148  23947914.9884   23947915.9954   23947916.7684
       221.000         171.000
 115035105.12248  89637732.99948  21890460.1014   21890462.6994   21890459.9504
       241.000         204.000
 131988651.06248  85056086.49148  23213672.3304   23213673.6524   23213672.5384
       233.000         195.000
  98517441.25748  94559038.99448  20650186.8444   20650188.6704   20650186.6604
       248.000         231.000
 126456911.02548  80745630.09548  22161025.3334   22161026.8624   22161025.2664
       241.000         206.000
 130030703.05348 101322616.89848  24744026.5164   24744029.0004   24744028.4254
       206.000         151.000
 09  1  4  2  0 30.0000000  0  9G 9G18G 5G22G26G17G15G12G28
 106846352.32548  83256888.41948  20332193.5534   20332196.3024   20332193.6834
       250.000         225.000
 127027774.90948  81190471.29448  22269648.0544   22269649.5804   22269648.9174
       237.000         194.000
 132169485.88548  85196987.28248  23248090.0704   23248093.1994   23248091.1154
       225.000         179.000
 135788924.84248  88017345.68448  23936834.7504   23936834.9074   23936835.3124
       225.000         176.000
 115118796.67748  89702947.19048  21906385.8994   21906388.5044   21906385.6834
       239.000         203.000
 131982938.53048  85051635.17948  23212585.0284   23212586.7194   23212584.9464
       233.000         194.000
  98557371.75148  94590153.65148  20657785.3734   20657787.2214   20657784.9404
       249.000         231.000
 126369720.92648  80677689.75748  22144433.6884   22144435.0634   22144433.7914
       241.000         207.000
 130125808.06448 101396724.69748  24762124.5734   24762127.0974   24762124.3714
       205.000         152.000
 09  1  4  2  1  0.0000000  0  9G 9G18G 5G22G26G17G15G12G28
 106809503.27048  83228174.88048  20325181.3634   20325184.0284   20325181.6654
       250.000         225.000
 127021008.09248  81185198.44848  22268360.2484   22268362.0004   22268360.6244
       236.000         194.000
 132066183.89248  85116492.25948  23228432.3934   23228435.6264   23228432.5894
       228.000         182.000
 135731147.51148  87972324.40848  23925840.2034   23925840.6384   23925839.3694
       221.000         175.000
 115202802.14648  89768406.00048  21922371.7124   21922374.1114   21922371.3864
       241.000         203.000
 131977771.31348  85047608.79048  23211601.6394   23211603.1284   23211601.7614
       233.000         192.000
  98597761.98348  94621626.55248  20665471.4104   20665473.2224   20665471.0944
       249.000         230.000
 126282870.89048  80610014.40648  22127906.4884   22127907.8634   22127906.2114
       239.000         206.000
 130220994.65348 101470896.06548  24780238.4244   24780240.4564   24780238.8114
       206.000         153.000
 09  1  4  2  1 30.0000000  0  9G 9G18G 5G22G26G17G15G12G28
 106772978.53048  83199714.04748  20318231.2444   20318233.6514   20318231.2184
       250.000         225.000
 127014820.54148  81180376.97248  22267182.6044   22267184.6304   22267183.4074
       235.000         194.000
 131963107.30848  85036172.86148  23208817.5954   23208820.7484   23208818.5524
       227.000         182.000
 135673825.23248  87927657.70048  23914931.6994   23914932.0184   23914931.6194
       224.000         173.000
 115287120.19648  89834108.36948  21938416.8484   21938419.5274   21938416.5244
       240.000         204.000
 131973150.23948  85044007.96748  23210722.1514   23210724.0034   23210722.0524
       232.000         193.000
  98638611.46248  94653457.30548  20673244.9194   20673246.7604   20673244.6064
       250.000         231.000
 126196362.49648  80542605.27648  22111444.0044   22111445.8324   22111443.9214
       239.000         206.000
 130316260.80348 101545129.40448  24798366.4104   24798368.8224   24798366.5234
       209.000         154.000
 09  1  4  2  2  0.0000000  0  9G 9G18G 5G22G26G17G15G12G28
 106736778.19348  83171506.00848  20311342.3374   20311344.8334   20311342.8384
       250.000         225.000
 127009212.27948  81176006.88948  22266115.5494   22266117.5334   22266116.2484
       235.000         194.000
 131860257.71448  84956030.33948  23189245.5324   23189249.0184   23189246.0534
       224.000         180.000
 135616959.67848  87883346.89048  23904110.5884   23904110.6454   23904112.9374
       224.000         174.000
 115371749.30048  89900053.11348  21954521.2884   21954524.0344   21954521.1924
       242.000         204.000
 131969075.51948  85040832.87148  23209946.8974   23209948.7944   23209946.3964
       232.000         193.000
  98679919.37748  94685645.28648  20681105.7264   20681107.3584   20681105.5674
       249.000         231.000
 126110197.72148  80475463.91148  22095047.5384   22095049.1404   22095047.1174
       239.000         206.000
 130411604.52048 101619423.18948  24816509.6884   24816512.3334   24816509.8674
       206.000         154.000
 09  1  4  2  2 30.0000000  0  9G 9G18G 5G22G26G17G15G12G28
 106700902.42948  83143550.86548  20304515.3754   20304517.9984   20304515.4404
       250.000         225.000
 127004182.79948  81172087.81948  22265158.4064   22265160.1114   22265158.8614
       237.000         193.000
 131757636.57648  84876065.82948  23169717.3114   23169720.8524   23169717.4744
       226.000         182.000
 135560552.22348  87839393.02848  23893376.2234   23893376.7844   23893376.9804
       224.000         171.000
 115456687.92048  89966239.04848  21970684.7464   21970687.3294   21970684.6054
       241.000         203.000
 131965547.56448  85038083.81048  23209275.6004   23209277.1024   23209275.0334
       231.000         191.000
  98721685.58248  94718190.37148  20689053.5914   20689055.1374   20689053.3044
       250.000         230.000
 126024377.60448  80408591.10448  22078716.2794   22078718.2514   22078716.0234
       240.000         207.000
 130507023.45648 101693775.59248  24834667.4214   24834669.8214   24834668.4974
       209.000         156.000
 09  1  4  2  3  0.0000000  0  9G 9G18G 5G22G26G17G15G12G28
 106665351.48848  83115848.84148  20297750.3474   20297752.8604   20297750.6294
       250.000         226.000
 126999732.08048  81168619.72048  22264311.3674   22264313.3004   22264312.0634
       236.000         194.000
 131655245.57348  84796280.65248  23150232.8434   23150236.5274   23150233.7364
       228.000         181.000
 135504604.69548  87795797.53648  23882730.0334   23882730.5554   23882729.4664
       224.000         175.000
 115541935.02548  90032665.35948  21986906.6504   21986909.4284   21986906.3604
       240.000         203.000
 131962567.25848  85035761.51248  23208708.1454   23208709.8004   23208707.6534
       230.000         192.000
  98763909.77648  94751092.33848  20697088.6164   20697090.0614   20697088.3384
       249.000         230.000
 125938903.87148  80341988.20448  22062451.7574   22062453.1854   22062451.6814
       240.000         208.000
 130602515.87748 101768185.24648  24852839.4934   24852841.0284   24852841.2554
       211.000         157.000
 09  1  4  2  3 30.0000000  0  9G 9G18G 5G22G26G17G15G12G28
 106630126.04348  83088400.45048  20291047.2844   20291049.7144   20291047.5624
       251.000         226.000
 126995859.59648  81165602.18948  22263574.7144   22263576.2504   22263575.0854
       236.000         194.000
 131553086.47648  84716676.15748  23130792.7214   23130795.6094   23130793.2804
       226.000         179.000
 135449118.67248  87752561.67048  23872171.4654   23872171.5004   23872171.9624
       222.000         170.000
 115627489.11848  90099330.88048  22003186.8804   22003189.8204   22003187.0024
       239.000         202.000
 131960134.75248  85033866.07148  23208245.1374   23208247.1814   23208245.0184
       230.000         193.000
  98806591.50148  94784350.81848  20705210.3934   20705212.0874   20705210.0464
       248.000         229.000
 125853777.68948  80275656.12548  22046252.8464   22046254.1264   22046252.8104
       240.000         208.000
 130698079.86548 101842650.68248  24871024.2024   24871025.9684   24871025.5564
       211.000         157.000
 09  1  4  2  4  0.0000000  0  9G 9G18G 5G22G26G17G15G12G28
 106595226.06848  83061205.65948  20284405.9984   20284408.3814   20284406.0854
       251.000         226.000
 126992565.04448  81163035.00048  22262947.7314   22262949.2784   22262948.6354
       235.000         194.000
 131451160.66648  84637253.46748  23111397.1914   23111399.9564   23111397.3534
       226.000         180.000
 135394095.53748  87709686.51248  23861700.7214   23861700.5884   23861702.1384
       224.000         173.000
 115713348.74248  90166234.47948  22019525.4644   22019527.9504   22019525.2534
       239.000         201.000
 131958250.66548  85032397.95748  23207886.7574   23207888.8424   23207886.7274
       232.000         193.000
  98849730.24348  94817965.41248  20713419.4254   20713421.1514   20713419.0924
       249.000         229.000
 125769000.60448  80209596.06548  22030120.0344   22030121.4014   22030119.9764
       240.000         208.000
 130793712.75148 101917169.81348  24889222.8134   24889224.1284   24889224.0344
       210.000         158.000
 09  1  4  2  4 30.0000000  0  9G 9G18G 5G22G26G17G15G12G28
 106560652.64048  83034265.33148  20277826.9344   20277829.2774   20277827.3824
       250.000         226.000
 126989848.70048  81160918.36848  22262431.0244   22262432.3834   22262431.7644
       236.000         195.000
 131349470.37548  84558014.29248  23092045.5884   23092048.9284   23092046.2944
       226.000         180.000
 135339537.61148  87667173.81548  23851318.8354   23851318.9504   23851318.5714
       224.000         175.000
 115799513.26048  90233375.66648  22035922.0784   22035924.7724   22035921.9154
       239.000         202.000
 131956916.31648  85031358.21348  23207632.9514   23207634.8824   23207632.8594
       230.000         193.000
  98893325.90248  94851936.05348  20721715.5574   20721717.1754   20721715.4894
       249.000         229.000
 125684574.95648  80143809.84248  22014054.4744   22014055.7694   22014054.3904
       239.000         208.000
 130889413.73048 101991742.00548  24907433.5704   24907435.3004   24907434.2464
       212.000         161.000
 09  1  4  2  5  0.0000000  0  9G 9G18G 5G22G26G17G15G12G28
 106526406.41848  83007579.96448  20271310.0454   20271312.6204   20271310.0374
       251.000         227.000
 126987710.89348  81159252.53348  22262023.9784   22262025.8734   22262024.4134
       236.000         194.000
 131248017.65548  84478960.21448  23072740.0484   23072743.1174   23072739.9874
       226.000         182.000
 135285446.68148  87625025.05048  23841025.5164   23841026.1074   23841025.8494
       221.000         172.000
 115885981.44148  90300753.46148  22052376.3394   22052379.3554   22052376.1644
       239.000         202.000
 131956132.19848  85030747.24248  23207483.2044   23207485.6804   23207483.0414
       229.000         193.000
  98937378.62348  94886262.83748  20730098.4754   20730100.1994   20730098.3204
       249.000         229.000
 125600502.34848  80078298.73048  21998055.6834   21998057.4664   21998055.1924
       240.000         208.000
 130985181.16948 102066365.96848  24925657.7584   24925659.2424   24925658.6704
       215.000         160.000
 09  1  4  2  5 30.0000000  0  9G 9G18G 5G22G26G17G15G12G28
 106492487.00748  82981149.25348  20264855.4374   20264857.8334   20264855.7704
       252.000         227.000
 126986150.75048  81158036.82048  22261726.9384   22261728.9674   22261727.8134
       234.000         193.000
 131146803.70148  84400092.23348  23053479.7334   23053483.1504   23053480.6394
       228.000         183.000
 135231823.81948  87583240.98148  23830821.4644   23830821.8174   23830821.6674
       223.000         173.000
 115972751.69348  90368366.63648  22068888.3124   22068891.1674   22068888.1394
       239.000         201.000
 131955898.14048  85030564.86548  23207438.9944   23207441.2554   23207438.8144
       231.000         192.000
  98981887.68748  94920945.21748  20738568.2064   20738570.0284   20738567.8894
       249.000         229.000
 125516783.87048  80013063.56348  21982124.5734   21982126.3414   21982124.3294
       240.000         209.000
 131081012.46148 102141039.69348  24943894.0614   24943895.1294   24943896.0024
       214.000         160.000
 09  1  4  2  6  0.0000000  0  9G 9G18G 5G22G26G17G15G12G28
 106458895.48148  82954974.03848  20258463.3414   20258465.7604   20258463.5484
       251.000         227.000
 126985168.10748  81157271.11248  22261540.1674   22261541.7144   22261540.1014
       236.000         194.000
 131045830.31448  84321411.67548  23034265.4654   23034268.3514   23034266.0714
       227.000         183.000
 135178670.80148  87541823.03148  23820707.3264   23820707.0464   23820707.8784
       224.000         173.000
 116059822.67648  90436214.15948  22085457.1184   22085460.1094   22085457.1384
       238.000         200.000
 131956215.15248  85030811.90748  23207499.3764   23207501.1874   23207499.6474
       231.000         191.000
  99026852.48748  94955982.72148  20747124.8314   20747126.5644   20747124.4334
       249.000         229.000
 125433421.14948  79948105.59948  21966261.4784   21966263.0534   21966261.4354
       241.000         209.000
 131176905.94848 102215761.89148  24962142.1714   24962143.0564   24962142.6084
       212.000         159.000
 09  1  4  2  6 30.0000000  0  9G 9G18G 5G22G26G17G15G12G28
 106425632.53848  82929054.86948  20252133.4684   20252135.8114   20252133.7844
       251.000         226.000
 126984763.16748  81156955.56948  22261463.3354   22261464.8204   22261464.4844
       235.000         194.000
 130945099.76648  84242920.35148  23015096.8284   23015100.1014   23015097.1234
       228.000         182.000
 135125989.73248  87500772.89248  23810682.1174   23810682.7184   23810683.9594
       222.000         174.000
 116147193.69848  90504295.46648  22102083.3154   22102086.1044   22102082.9224
       238.000         200.000
 131957084.20448  85031489.10148  23207664.3714   23207666.4334   23207664.4054
       230.000         191.000
  99072273.03548  94991375.34448  20755768.1354   20755769.8414   20755767.9824
       249.000         229.000
 125350416.31348  79883426.51348  21950465.8684   21950467.6254   21950465.6784
       240.000         209.000
 131272860.46148 102290531.64948  24980400.9904   24980402.8784   24980399.9564
       213.000         162.000
 09  1  4  2  7  0.0000000  0  9G 9G18G 5G22G26G17G15G12G28
 106392697.96348  82903391.56148  20245866.0534   20245868.6174   20245866.0644
       251.000         227.000
 126984934.86148  81157089.33348  22261495.5924   22261497.7684   22261496.0364
       236.000         194.000
 130844613.16748  84164619.11848  22995974.8714   22995978.1604   22995975.6454
       227.000         181.000
 135073781.64248  87460091.24648  23800747.0114   23800747.6434   23800746.9854
       226.000         176.000
 116234862.95548  90572609.16948  22118766.3044   22118768.9214   22118766.0454
       239.000         200.000
 131958504.88748  85032596.13648  23207934.7094   23207936.9534   23207934.8194
       229.000         191.000
  99118148.63648  95027122.55848  20764498.0724   20764499.5954   20764497.8094
       249.000         229.000
 125267770.18148  79819026.92648  21934739.1194   21934740.6104   21934739.1214
       242.000         211.000
 131368873.36248 102365346.88748  24998671.3744   24998673.7214   24998670.4754
       214.000         162.000
 09  1  4  2  7 30.0000000  0  9G 9G18G 5G22G26G17G15G12G28
 106360091.84448  82877984.19448  20239661.4064   20239663.8124   20239661.7784
       250.000         226.000
 126985682.74748  81157672.08148  22261638.1264   22261639.9844   22261638.8264
       235.000         194.000
 130744371.85148  84086509.02848  22976899.5474   22976902.8574   22976900.2244
       228.000         182.000
 135022048.08348  87419779.37748  23790902.4504   23790903.0824   23790901.9624
       219.000         173.000
 116322828.75348  90641153.95548  22135505.7134   22135508.3804   22135505.6224
       239.000         200.000
 131960477.58448  85034133.31348  23208310.0904   23208312.2084   23208310.0284
       230.000         191.000
  99164478.51648  95063223.76048  20773314.2514   20773315.7794   20773314.0314
       249.000         228.000
 125185484.19148  79754907.98448  21919081.0544   21919082.0604   21919081.2104
       240.000         211.000
 131464942.59448 102440206.03748  25016952.9834   25016955.2654   25016953.4424
       212.000         161.000
 09  1  4  2  8  0.0000000  0  9G 9G18G 5G22G26G17G15G12G28
 106327815.31448  82852833.65248  20233519.3864   20233521.8304   20233519.2734
       251.000         227.000
 126987007.33448  81158704.22448  22261890.4504   22261891.6964   22261891.0304
       236.000         194.000
 130644378.47748  84008592.10648  22957871.5604   22957874.4794   22957871.8484
       228.000         183.000
 134970791.35148  87379839.08948  23781148.1814   23781149.1894   23781147.0074
       227.000         176.000
 116411090.67448  90709929.46648  22152301.3264   22152304.1674   22152301.0394
       240.000         200.000
 131963003.44448  85036101.49948  23208791.0944   23208792.8504   23208790.6364
       231.000         192.000
  99211263.03448  95099679.22248  20782217.0194   20782218.6844   20782216.8004
       248.000         228.000
 125103560.47148  79691071.35348  21903490.6864   21903492.4084   21903490.4234
       239.000         209.000
 131561067.34648 102515108.41748  25035245.0104   25035247.5474   25035245.6304
       214.000         162.000
 09  1  4  2  8 30.0000000  0  9G 9G18G 5G22G26G17G15G12G28
 106295867.47248  82827939.23748  20227439.9834   20227442.3654   20227440.4914
       251.000         227.000
 126988907.08848  81160184.55848  22262251.8414   22262253.1514   22262252.5604
       236.000         193.000
 130544633.41648  83930868.68348  22938890.9034   22938893.9304   22938891.4824
       228.000         184.000
 134920011.80748  87340270.57748  23771486.7244   23771485.8514   23771486.8154
       227.000         178.000
 116499646.24148  90778933.79548  22169152.9724   22169155.6434   22169153.3244
       239.000         199.000
 131966081.53948  85038500.03848  23209376.6494   23209378.7784   23209376.2734
       231.000         192.000
  99258500.53248  95136487.65148  20791205.9954   20791207.8964   20791205.6674
       248.000         228.000
 125021999.56448  79627517.41248  21887970.0194   21887971.9064   21887969.5954
       240.000         210.000
 131657244.38448 102590051.56248  25053546.8994   25053549.3354   25053546.7604
       212.000         160.000
 09  1  4  2  9  0.0000000  0  9G 9G18G 5G22G26G17G15G12G28
 106264249.36648  82803301.75348  20221423.2804   20221425.7154   20221423.1874
       251.000         227.000
 126991381.97248  81162113.02948  22262722.6744   22262724.3514   22262723.2704
       236.000         193.000
 130445138.72548  83853340.35548  22919957.0744   22919960.4064   22919957.6554
       227.000         184.000
 134869711.13248  87301075.27548  23761913.6074   23761914.2134   23761912.7794
       223.000         176.000
 116588494.26548  90848166.02548  22186060.1184   22186062.7014   22186059.9634
       238.000         198.000
 131969712.62348  85041329.45848  23210067.5274   23210069.7844   23210067.4674
       229.000         192.000
  99306190.74348  95173648.85348  20800281.1374   20800282.8914   20800280.9854
       248.000         228.000
 124940803.15748  79564247.48748  21872519.1744   21872520.8304   21872519.2724
       240.000         211.000
 131753472.22148 102665034.28848  25071857.9234   25071860.7824   25071857.7124
       212.000         159.000
 09  1  4  2  9 30.0000000  0  9G 9G18G 5G22G26G17G15G12G28
 106232962.31748  82778922.24048  20215469.3994   20215471.9024   20215469.5674
       251.000         227.000
 126994432.08348  81164489.72648  22263303.1854   22263304.5494   22263303.6274
       235.000         193.000
 130345896.93148  83776009.11548  22901071.7274   22901075.5554   22901071.9234
       227.000         184.000
 134819891.63048  87262254.85148  23752433.8894   23752433.2994   23752432.7224
       226.000         176.000
 116677634.36948  90917625.84448  22203022.9434   22203025.4874   22203022.9734
       237.000         198.000
 131973898.16948  85044590.91848  23210864.2074   23210866.4684   23210863.4894
       229.000         192.000
  99354334.20248  95211163.22448  20809442.4764   20809444.1944   20809442.1284
       249.000         228.000
 124859973.70548  79501263.50548  21857137.8774   21857139.6464   21857137.4964
       240.000         211.000
 131849750.13148 102740056.01648  25090179.5114   25090181.7754   25090177.8344
       210.000         158.000
 09  1  4  2 10  0.0000000  0  9G 9G18G 5G22G26G17G15G12G28
 106202005.75848  82754800.24848  20209578.6774   20209581.2174   20209578.8714
       252.000         227.000
 126998056.25948  81167313.75948  22263993.1594   22263994.3344   22263993.7694
       235.000         193.000
 130246908.72948  83698875.44948  22882235.1284   22882238.3144   22882235.8694
       227.000         185.000
 134770553.81548  87223809.80448  23743044.7214   23743044.8654   23743045.3504
       226.000         175.000
 116767064.36148  90987311.54948  22220040.8864   22220043.4914   22220041.1054
       238.000         199.000
 131978637.29348  85048283.77048  23211765.7334   23211767.9794   23211765.6044
       227.000         191.000
  99402929.23348  95249029.47848  20818689.7844   20818691.5104   20818689.4354
       248.000         228.000
 124779511.46848  79438565.66348  21841826.2064   21841828.1504   21841826.1254
       240.000         210.000
 131946075.17648 102815114.49848  25108509.1954   25108511.8914   25108508.1084
       211.000         158.000
 09  1  4  2 10 30.0000000  0  9G 9G18G 5G22G26G17G15G12G28
 106171380.57448  82730936.46948  20203750.9984   20203753.3644   20203751.1114
       252.000         228.000
 127002254.44148  81170585.06148  22264791.4244   22264793.1974   22264792.0474
       235.000         192.000
 130148176.36848  83621941.16848  22863446.8954   22863450.4884   22863446.8844
       228.000         185.000
 134721699.89048  87185741.79548  23733748.4884   23733748.3974   23733748.4394
       226.000         176.000
 116856783.36948  91057222.45848  22237113.9724   22237116.4114   22237113.7934
       237.000         197.000
 131983930.62648  85052408.44248  23212772.9594   23212775.4394   23212771.7294
       230.000         191.000
  99451975.91848  95287247.67248  20828023.0914   20828024.8554   20828022.7684
       248.000         227.000
 124699418.53848  79376155.58848  21826585.0474   21826586.6584   21826584.9294
       240.000         210.000
 132042446.17448 102890208.78748  25126847.8904   25126850.3324   25126847.0724
       212.000         155.000
 09  1  4  2 11  0.0000000  0  9G 9G18G 5G22G26G17G15G12G28
 106141085.74248  82707330.10348  20197986.1374   20197988.5174   20197986.4644
       252.000         227.000
 127007025.00648  81174302.36548  22265699.3774   22265701.1344   22265699.4864
       234.000         193.000
 130049700.36348  83545206.62648  22844707.8444   22844710.9694   22844708.7864
       230.000         187.000
 134673330.29548  87148051.19848  23724543.4154   23724544.2434   23724544.8434
       220.000         173.000
 116946788.82448  91127356.57848  22254241.4574   22254244.0094   22254241.4384
       238.000         198.000
 131989777.61348  85056964.54748  23213885.8094   23213887.8324   23213885.8304
       232.000         192.000
  99501472.59548  95325816.50248  20837442.0304   20837443.9514   20837441.8894
       247.000         227.000
 124619695.20648  79314033.52748  21811414.2034   21811416.0404   21811414.4744
       240.000         211.000
 132138860.20848 102965336.60848  25145194.7794   25145197.3624   25145195.5304
       212.000         153.000
 09  1  4  2 11 30.0000000  0  9G 9G18G 5G22G26G17G15G12G28
 106111123.21048  82683982.67548  20192284.3584   20192286.7134   20192284.6124
       252.000         227.000
 127012368.45048  81178466.07748  22266716.2524   22266718.1724   22266716.7324
       235.000         193.000
 129951483.32548  83468673.85948  22826018.3114   22826020.7644   22826018.4894
       231.000         186.000
 134625447.18748  87110739.70548  23715430.6324   23715432.3354   23715430.7994
       221.000         172.000
 117037080.30348  91197713.57048  22271423.5144   22271426.0174   22271423.2954
       238.000         198.000
 131996179.23648  85061952.82348  23215104.3244   23215105.9024   23215104.4064
       232.000         192.000
  99551419.85648  95364736.44148  20846946.6224   20846948.4684   20846946.0654
       248.000         227.000
 124540344.15048  79252201.55048  21796314.3064   21796316.2064   21796313.8354
       240.000         211.000
 132235316.34048 103040497.20748  25163549.7644   25163552.5574   25163552.6534
       214.000         153.000
 09  1  4  2 12  0.0000000  0  9G 9G18G 5G22G26G17G15G12G28
 106081493.12148  82660894.29348  20186645.9584   20186648.2134   20186646.3204
       251.000         227.000
 127018284.22948  81183075.77148  22267842.1154   22267843.8824   22267842.6324
       237.000         194.000
 129853526.76948  83392344.08148  22807377.6044   22807380.3594   22807378.8054
       231.000         186.000
 134578051.99048  87073808.37348  23706412.8594   23706412.8104   23706412.6484
       225.000         176.000
 117127656.42848  91268292.35348  22288659.3744   22288661.8554   22288659.1734
       237.000         197.000
 132003135.75048  85067373.50848  23216427.9854   23216429.7474   23216428.2114
       230.000         191.000
  99601816.67848  95404006.69048  20856536.9974   20856538.6374   20856536.7724
       248.000         227.000
 124461366.24048  79190660.33148  21781285.1734   21781286.9184   21781285.1234
       241.000         211.000
 132331812.75948 103115689.23348  25181912.8124   25181914.7564   25181914.1424
       207.000         150.000
 09  1  4  2 12 30.0000000  0  9G 9G18G 5G22G26G17G15G12G28
 106052195.62648  82638065.06648  20181070.6144   20181073.1854   20181070.4384
       252.000         227.000
 127024771.49648  81188130.79248  22269076.6234   22269078.3934   22269077.1784
       236.000         193.000
 129755832.18548  83316218.46148  22788786.5894   22788789.7794   22788787.3834
       232.000         188.000
 134531146.00048  87037258.25848  23697486.8284   23697487.0514   23697486.8564
       224.000         176.000
 117218515.54748  91339091.67248  22305949.2194   22305951.9434   22305949.3734
       238.000         197.000
 132010647.32548  85073226.68148  23217857.3764   23217859.1414   23217856.8924
       232.000         191.000
  99652662.21448  95443626.57848  20866212.3174   20866214.3154   20866212.0004
       248.000         227.000
 124382762.97548  79129411.04448  21766327.6264   21766329.1344   21766327.5564
       240.000         212.000
 132428347.78948 103190911.29848  25200282.7614   25200283.8834   25200281.8024
       207.000         146.000
 09  1  4  2 13  0.0000000  0  9G 9G18G 5G22G26G17G15G12G28
 106023231.35348  82615495.50148  20175559.0684   20175561.3524   20175559.3064
       252.000         228.000
 127031829.82248  81193630.77848  22270419.5984   22270421.4124   22270420.2594
       235.000         194.000
 129658401.45448  83240298.41948  22770246.6894   22770249.6164   22770247.4664
       233.000         189.000
 134484730.92148  87001090.66148  23688654.0864   23688655.0204   23688655.4634
       227.000         177.000
 117309656.59948  91410110.67548  22323292.7774   22323295.5564   22323292.4564
       236.000         196.000
 132018713.99848  85079512.40848  23219392.2114   23219394.3314   23219392.4574
       231.000         190.000
  99703956.58648  95483596.20648  20875973.4914   20875975.3134   20875973.1514
       248.000         227.000
 124304535.96848  79068454.95248  21751441.5704   21751443.1044   21751441.1754
       240.000         212.000
 132524919.62848 103266162.10948  25218660.4284   25218660.7284   25218660.3184
       211.000         146.000
 09  1  4  2 13 30.0000000  0  9G 9G18G 5G22G26G17G15G12G28
 105994601.02648  82593186.15248  20170110.9044   20170113.5104   20170111.2424
       251.000         228.000
 127039458.82948  81199575.46448  22271871.6914   22271873.0454   22271871.8664
       236.000         195.000
 129561236.34448  83164585.36448  22751756.5784   22751759.5894   22751757.4554
       233.000         188.000
 134438808.41448  86965306.89148  23679915.7564   23679916.0824   23679915.9784
       226.000         180.000
 117401078.43348  91481348.45748  22340689.8414   22340692.6984   22340689.3534
       236.000         196.000
 132027336.27048  85086231.07948  23221033.0084   23221034.9134   23221032.5664
       230.000         190.000
  99755699.57848  95523915.41948  20885819.8484   20885821.6494   20885819.8114
       248.000         226.000
 124226686.74348  79007793.22148  21736627.3544   21736628.9384   21736627.0744
       240.000         212.000
 132621527.02148 103341440.62448  25237043.2894   25237044.5504   25237047.2284
       209.000         146.000
 09  1  4  2 14  0.0000000  0 10G 9G18G 5G30G22G26G17G15G12G28
 105966305.18148  82571137.44248  20164726.4404   20164728.8264   20164726.5404
       252.000         228.000
 127047657.86548  81205964.32448  22273431.6594   22273433.4604   22273432.6034
       234.000         193.000
 129464338.59648  83089080.63048  22733317.2254   22733320.2924   22733318.0214
       231.000         187.000
 141468474.40958  92442951.89358  25017630.7205   25017633.9455   25017630.9355
       215.000         152.000
 134393379.34348  86929907.60448  23671271.2404   23671270.8624   23671270.7954
       227.000         180.000
 117492779.67348  91552803.96448  22358140.0804   22358142.5944   22358140.1924
       236.000         195.000
 132036514.48048  85093382.94148  23222779.5134   23222781.4604   23222779.4684
       230.000         190.000
  99807890.11548  95564583.36548  20895751.3444   20895753.0434   20895750.9404
       247.000         226.000
 124149216.89648  78947427.12048  21721885.0774   21721886.7164   21721884.8544
       241.000         213.000
 132718168.06848 103416745.35448  25255433.5524   25255434.8884   25255435.9844
       208.000         146.000
 09  1  4  2 14 30.0000000  0 10G 9G18G 5G30G22G26G17G15G12G28
 105938343.86048  82549349.39748  20159405.4594   20159407.9174   20159405.6024
       252.000         228.000
 127056426.17448  81212796.77248  22275100.0134   22275101.9244   22275100.6744
       234.000         193.000
 129367709.83248  83013785.50648  22714929.4664   22714932.5854   22714929.2074
       232.000         189.000
 141356257.28948  92355509.98448  24996276.1574   24996279.6944   24996276.2154
       212.000         150.000
 134348445.53448  86894894.26048  23662720.5414   23662720.7144   23662720.9714
       226.000         179.000
 117584758.83248  91624476.04248  22375643.1194   22375645.7204   22375643.0704
       237.000         195.000
 132046248.65548  85100968.01148  23224632.4414   23224633.9744   23224632.4414
       231.000         191.000
  99860527.16948  95605599.24548  20905767.8104   20905769.5304   20905767.4614
       248.000         226.000
 124072127.44848  78887357.43648  21707215.4934   21707217.1754   21707215.1044
       242.000         214.000
 132814840.99848 103492074.88648  25273830.7894   25273831.6004   25273831.0584
       209.000         146.000
