     2.11           OBSERVATION DATA    G (GPS)             RINEX VERSION / TYPE
teqc  2008Oct2      gpsops              20090122 00:05:46UTCPGM / RUN BY / DATE
    30.0000                                                 INTERVAL
     1     1                                                WAVELENGTH FACT L1/2
     7    L1    L2    P1    P2    C1    S1    S2            # / TYPES OF OBSERV
Linux 2.4.20-8|Pentium IV|gcc -static|Linux|486/DX+         COMMENT
     2.10           OBSERVATION DATA    GPS                 COMMENT
soc2rnx ver 1.20    gpsops              22-Jan-2009 00:05:42COMMENT
S1, if present, is the SNR for the C/A data stream on L1.   COMMENT
 SNR is mapped to RINEX snr flag value [1,4-9]              COMMENT
    SNR:   >316  >100  >31.6  >10  >3.2    >0 bad=0         COMMENT
L1 & L2:      9     8     7     6     5     4     1         COMMENT
                                                            COMMENT
This data is provided as a public service by NASA/JPL.      COMMENT
No warranty is expressed or implied regarding suitability   COMMENT
for use.  For further information, contact:                 COMMENT
Dave Stowers, NASA/JPL m/s 238-600                          COMMENT
4800 Oak Grove Drive, Pasadena CA 91109 USA                 COMMENT
                                                            COMMENT
Forced Modulo Decimation to 30 seconds                      COMMENT
  2009     1    21     0     0    0.0000000     GPS         TIME OF FIRST OBS
DSN                 JPL                                     OBSERVER / AGENCY
451-U               AOAD/M_T        NONE                    ANT # / TYPE
  4849202.3940  -360328.9929  4114913.1862                  APPROX POSITION XYZ
        0.0254        0.0000        0.0000                  ANTENNA: DELTA H/E/N
LP03574             ASHTECH Z-XII3      CC00                REC # / TYPE / VERS
MADR                                                        MARKER NAME
13407S012                                                   MARKER NUMBER
                                                            END OF HEADER
 09  1 21  0  0  0.0000000  0  9G 9G26G27G28G18G15G17G12G10
 112173939.59848  87408257.20748  21345993.9524   21345996.3054   21345993.9034
       243.000         208.000
 108412516.11848  84477276.74948  20630222.2894   20630224.4784   20630222.5154
       252.000         224.000
 125777688.58348  98008573.93348  23934708.6534   23934711.4124   23934708.4104
       226.000         173.000
 121339478.68048  94550238.24948  23090138.1604   23090139.4854   23090139.2824
       228.000         183.000
 120868699.50948  94183399.76348  23000551.0994   23000552.6164   23000550.8204
       232.000         184.000
 106827671.97048  83242334.07348  20328634.8094   20328635.9754   20328634.5394
       254.000         240.000
 125147384.30748  97517436.88248  23814758.6624   23814760.3054   23814758.7094
       219.000         171.000
 126921062.81148  98899510.29848  24152291.3604   24152293.3134   24152291.0344
       219.000         171.000
 126803529.29748  98807921.12348  24129926.7854   24129931.5304   24129928.1504
       217.000         162.000
 09  1 21  0  0 30.0000000  0  9G 9G26G27G28G18G15G17G12G10
 112106592.80748  87355779.20648  21333178.1714   21333180.5854   21333178.6394
       242.000         209.000
 108460253.11548  84514474.40448  20639306.2634   20639308.4914   20639306.2444
       251.000         224.000
 125846580.26048  98062255.73448  23947817.8094   23947820.4674   23947818.2604
       223.000         171.000
 121415934.50348  94609814.21948  23104687.1124   23104688.6194   23104687.9484
       227.000         183.000
 120806019.72248  94134558.36248  22988623.7744   22988624.9394   22988624.2054
       233.000         186.000
 106823329.08148  83238950.00748  20327808.3804   20327809.5894   20327808.0894
       254.000         241.000
 125094595.63548  97476302.86748  23804713.5114   23804715.5034   23804712.6734
       219.000         172.000
 126809240.92848  98812376.37448  24131012.7554   24131014.3864   24131012.9574
       220.000         171.000
 126914228.74548  98894180.39548  24150991.4924   24150996.9344   24150992.6664
       213.000         163.000
 09  1 21  0  1  0.0000000  0  9G 9G26G27G28G18G15G17G12G10
 112039522.48048  87303516.62648  21320414.8324   21320417.7874   21320414.8614
       242.000         209.000
 108508380.13848  84551975.97848  20648464.3564   20648466.6374   20648464.1304
       250.000         224.000
 125915493.87748  98115954.61848  23960931.1604   23960934.1304   23960931.2384
       225.000         172.000
 121492685.87848  94669620.47548  23119292.4404   23119293.6834   23119292.8744
       228.000         183.000
 120743801.86248  94086076.91948  22976784.0184   22976785.5984   22976785.3164
       233.000         185.000
 106819400.34248  83235888.64648  20327060.7004   20327061.9554   20327060.5064
       254.000         241.000
 125042177.62148  97435457.65848  23794738.9054   23794741.0474   23794738.8434
       220.000         174.000
 126697549.65748  98725344.25148  24109758.6794   24109760.3004   24109757.4264
       219.000         170.000
 127024974.75648  98980475.96848  24172066.8584   24172071.0814   24172066.6584
       220.000         165.000
 09  1 21  0  1 30.0000000  0  9G 9G26G27G28G18G15G17G12G10
 111972728.89448  87251469.67948  21307704.7564   21307707.3754   21307704.5404
       242.000         209.000
 108556896.93648  84589781.27448  20657696.7914   20657699.2114   20657696.6084
       251.000         224.000
 125984429.03448  98169670.28748  23974049.0374   23974051.8544   23974049.4424
       223.000         171.000
 121569730.58648  94729655.30648  23133953.6004   23133954.9184   23133954.6554
       230.000         184.000
 120682047.76448  94037956.85048  22965032.2824   22965034.4994   22965033.0374
       232.000         187.000
 106815886.38748  83233150.50048  20326391.9444   20326393.1934   20326391.6424
       254.000         241.000
 124990132.83848  97394903.28748  23784834.9534   23784837.2834   23784835.2274
       220.000         174.000
 126585991.42048  98638415.78148  24088529.1274   24088531.4114   24088527.9534
       217.000         171.000
 127135764.61448  99066805.71548  24193150.3594   24193154.0684   24193151.8834
       220.000         166.000
 09  1 21  0  2  0.0000000  0  9G 9G26G27G28G18G15G17G12G10
 111906212.70648  87199638.88248  21295046.9824   21295049.5104   21295046.6494
       242.000         209.000
 108605803.37648  84627890.18348  20667003.5984   20667005.8674   20667003.4614
       251.000         224.000
 126053385.53148  98223402.60948  23987171.2844   23987173.6084   23987171.7564
       221.000         168.000
 121647066.24148  94789916.85148  23148670.0574   23148671.5004   23148671.1474
       229.000         184.000
 120620759.87648  93990200.04448  22953369.6424   22953371.1214   22953371.1334
       231.000         183.000
 106812788.48448  83230736.54848  20325802.5484   20325803.6744   20325802.3524
       255.000         241.000
 124938463.75348  97354641.66648  23775002.3964   23775004.6274   23775002.6534
       219.000         176.000
 126474568.49848  98551592.75148  24067325.7694   24067328.9684   24067325.3474
       222.000         173.000
 127246595.80148  99153167.65048  24214240.3184   24214244.6534   24214241.2194
       222.000         165.000
 09  1 21  0  2 30.0000000  0  9G 9G26G27G28G18G15G17G12G10
 111839974.72648  87148024.88948  21282442.2154   21282445.0704   21282442.0184
       242.000         209.000
 108655099.29748  84666302.59148  20676384.0874   20676386.4974   20676384.0954
       250.000         224.000
 126122363.44648  98277151.58448  24000297.2374   24000299.6404   24000297.3464
       220.000         169.000
 121724690.83848  94850403.54648  23163441.5884   23163442.8594   23163441.8154
       230.000         183.000
 120559940.23748  93942808.12548  22941795.7184   22941797.6954   22941797.2424
       232.000         186.000
 106810107.76548  83228647.67448  20325292.4964   20325293.6114   20325292.4494
       254.000         241.000
 124887173.64048  97314675.35848  23765242.4324   23765244.6424   23765242.1234
       218.000         175.000
 126363283.21948  98464876.99348  24046149.2264   24046151.8464   24046148.9234
       222.000         172.000
 127357465.90648  99239559.95048  24235339.0984   24235341.7734   24235339.0764
       222.000         164.000
 09  1 21  0  3  0.0000000  0  9G 9G26G27G28G18G15G17G12G10
 111774015.68248  87096628.23048  21269890.8494   21269893.2724   21269891.6924
       242.000         209.000
 108704784.37148  84705018.23748  20685838.8044   20685841.2954   20685838.7284
       250.000         224.000
 126191362.83248  98330917.32248  24013426.9224   24013429.7624   24013426.7044
       221.000         169.000
 121802602.19248  94911113.69648  23178267.7484   23178268.9124   23178267.7854
       229.000         184.000
 120499590.92348  93895782.68148  22930311.6414   22930313.2064   22930312.4294
       231.000         185.000
 106807845.19548  83226884.63248  20324861.7124   20324863.1084   20324861.4684
       254.000         241.000
 124836264.68648  97275006.06548  23755554.8604   23755557.0034   23755554.2634
       221.000         176.000
 126252137.97248  98378270.28748  24024999.5884   24025001.5474   24024999.8194
       224.000         174.000
 127468372.29248  99325980.53648  24256442.9844   24256446.5404   24256444.3884
       218.000         160.000
 09  1 21  0  3 30.0000000  0  9G 9G26G27G28G18G15G17G12G10
 111708336.07248  87045449.33048  21257392.3214   21257394.7314   21257393.0594
       241.000         209.000
 108754858.31248  84744036.87748  20695367.6404   20695370.1064   20695367.4604
       250.000         223.000
 126260383.29748  98384699.47748  24026561.2774   24026564.0954   24026560.6314
       219.000         168.000
 121880798.02148  94972045.49448  23193147.6764   23193148.8394   23193148.1704
       229.000         182.000
 120439714.03248  93849125.37048  22918917.6274   22918919.2974   22918917.6334
       232.000         186.000
 106806001.64848  83225448.10648  20324510.8384   20324512.2694   20324510.5554
       255.000         241.000
 124785739.57548  97235635.84148  23745940.4114   23745942.0824   23745939.6724
       220.000         177.000
 126141134.97648  98291774.45048  24003876.4894   24003878.2614   24003876.6224
       222.000         173.000
 127579312.41648  99412427.34848  24277553.9894   24277558.1904   24277554.8564
       220.000         162.000
 09  1 21  0  4  0.0000000  0  9G 9G26G27G28G18G15G17G12G10
 111642935.68848  86994488.00648  21244946.9664   21244949.4834   21244947.5304
       243.000         210.000
 108805320.41848  84783358.00348  20704970.1394   20704972.6444   20704969.9454
       250.000         223.000
 126329424.32148  98438497.65148  24039699.2524   24039702.9814   24039699.3734
       221.000         168.000
 121959275.89748  95033197.09448  23208081.7774   23208082.7134   23208082.9274
       230.000         184.000
 120380311.25848  93802837.50948  22907613.8904   22907615.3034   22907614.2264
       233.000         185.000
 106804578.08148  83224338.83148  20324240.0864   20324241.3894   20324239.9884
       254.000         241.000
 124735600.20248  97196566.21548  23736398.8214   23736401.2144   23736398.6294
       220.000         177.000
 126030276.30448  98205391.06748  23982781.5534   23982782.1954   23982781.1514
       224.000         173.000
 127690283.72748  99498898.49148  24298671.6114   24298675.4284   24298672.8434
       219.000         162.000
 09  1 21  0  4 30.0000000  0  9G 9G26G27G28G18G15G17G12G10
 111577815.60048  86943745.08348  21232555.1224   21232557.5284   21232555.2514
       241.000         209.000
 108856170.51248  84822981.45448  20714646.7204   20714649.0474   20714646.6644
       251.000         223.000
 126398486.14548  98492312.05448  24052841.4834   24052844.7414   24052841.6524
       218.000         169.000
 122038033.83848  95094566.91148  23223068.8514   23223070.1854   23223069.4524
       229.000         182.000
 120321384.51748  93756920.54948  22896400.5294   22896401.7364   22896400.9574
       233.000         187.000
 106803575.89848  83223557.90948  20324049.3514   20324050.6594   20324049.0574
       254.000         241.000
 124685849.50648  97157799.45048  23726931.7414   23726933.8704   23726931.3614
       220.000         176.000
 125919564.33848  98119122.04548  23961712.9554   23961714.3274   23961713.9174
       224.000         174.000
 127801283.96648  99585392.18048  24319794.3454   24319798.5334   24319795.6134
       219.000         162.000
 09  1 21  0  5  0.0000000  0  9G 9G26G27G28G18G15G17G12G10
 111512976.12948  86893220.82348  21220216.4074   21220218.9504   21220216.4644
       242.000         209.000
 108907407.99248  84862906.75248  20724396.8754   20724399.2604   20724396.7874
       251.000         223.000
 126467568.28248  98546142.27948  24065987.0944   24065990.5824   24065987.1964
       217.000         166.000
 122117069.02248  95156152.75748  23238108.6814   23238110.1054   23238109.5434
       230.000         182.000
 120262935.82848  93711376.12748  22885278.0494   22885279.5854   22885278.8394
       232.000         187.000
 106802995.47248  83223105.62548  20323938.9014   20323940.1264   20323938.7224
       254.000         241.000
 124636489.73148  97119337.28148  23717539.1264   23717540.5144   23717538.7984
       221.000         176.000
 125809001.25848  98032969.00148  23940673.5074   23940674.6134   23940673.5754
       223.000         174.000
 127912310.11848  99671906.03148  24340921.5914   24340925.5674   24340921.7934
       217.000         163.000
 09  1 21  0  5 30.0000000  0  9G 9G26G27G28G18G15G17G12G10
 111448418.32748  86842916.04648  21207931.7234   21207934.0464   21207932.3294
       243.000         210.000
 108959033.25648  84903134.22948  20734220.9014   20734223.3544   20734220.8804
       250.000         224.000
 126536671.39848  98599988.81348  24079137.1594   24079140.8254   24079136.6774
       219.000         164.000
 122196380.07548  95217953.58348  23253200.9834   23253202.5374   23253202.0954
       229.000         184.000
 120204967.96948  93666206.36448  22874246.9134   22874248.3804   22874246.9424
       233.000         187.000
 106802838.48348  83222983.29248  20323909.0484   20323910.2244   20323908.7994
       254.000         241.000
 124587524.03148  97081182.22048  23708221.1724   23708223.0614   23708220.7914
       222.000         176.000
 125698590.06148  97946934.29248  23919662.6924   23919663.7074   23919661.6324
       222.000         172.000
 128023359.98448  99758438.39248  24362054.1154   24362057.9174   24362054.1614
       219.000         162.000
 09  1 21  0  6  0.0000000  0  9G 9G26G27G28G18G15G17G12G10
 111384142.35448  86792830.88248  21195700.3634   21195702.7764   21195700.6764
       243.000         210.000
 109011045.52348  84943663.26448  20744118.7544   20744120.8374   20744118.7404
       251.000         224.000
 126605794.82948  98653851.22348  24092291.0704   24092294.3424   24092291.0744
       217.000         164.000
 122275964.47348  95279967.39848  23268345.3044   23268347.4384   23268345.7134
       229.000         183.000
 120147482.25348  93621412.29548  22863307.9224   22863309.1014   22863308.3444
       233.000         185.000
 106803105.41948  83223191.29448  20323959.8794   20323961.1134   20323959.6264
       255.000         241.000
 124538954.07248  97043335.53748  23698978.7894   23698980.4594   23698978.2364
       222.000         177.000
 125588331.98148  97861018.91248  23898680.4374   23898682.3814   23898680.4384
       223.000         174.000
 128134431.02248  99844987.25348  24383189.6494   24383194.2544   24383190.9914
       217.000         156.000
 09  1 21  0  6 30.0000000  0  9G 9G26G27G28G18G15G17G12G10
 111320149.10948  86742966.01748  21183522.8614   21183525.2434   21183523.0244
       243.000         211.000
 109063444.57548  84984493.69448  20754089.8664   20754091.9584   20754089.8434
       251.000         224.000
 126674938.92448  98707729.72548  24105448.5174   24105452.5834   24105448.1754
       218.000         165.000
 122355820.43648  95342192.81248  23283541.4884   23283543.4104   23283542.6164
       229.000         183.000
 120090480.93048  93576995.67748  22852461.1334   22852462.2284   22852461.1384
       233.000         186.000
 106803797.78348  83223730.79748  20324091.5954   20324092.8984   20324091.3814
       255.000         241.000
 124490782.90448  97005799.54148  23689811.9364   23689813.4414   23689811.5564
       224.000         177.000
 125478230.19548  97775225.30648  23877729.2544   23877731.3734   23877728.0544
       221.000         176.000
 128245521.20948  99931551.06048  24404329.0224   24404334.5054   24404330.6954
       215.000         154.000
 09  1 21  0  7  0.0000000  0  9G 9G26G27G28G18G15G17G12G10
 111256438.21048  86693321.17748  21171398.8784   21171401.5374   21171399.2124
       243.000         210.000
 109116228.89548  85025624.32348  20764134.3654   20764136.7174   20764134.1714
       250.000         224.000
 126744102.46748  98761623.34848  24118610.0254   24118613.8594   24118610.0734
       220.000         164.000
 122435944.46348  95404627.11348  23298788.6384   23298790.4944   23298789.3304
       227.000         182.000
 120033964.92448  93532957.24148  22841705.7574   22841707.5614   22841706.8054
       231.000         185.000
 106804915.16148  83224601.47448  20324304.3714   20324305.5294   20324304.2474
       254.000         241.000
 124443011.77148  96968575.30948  23680721.7074   23680723.5444   23680722.1804
       223.000         179.000
 125368285.67448  97689554.26548  23856808.0054   23856810.2184   23856807.9514
       225.000         176.000
 128356626.37248 100018126.44348  24425471.8084   24425476.2274   24425473.2944
       218.000         159.000
 09  1 21  0  7 30.0000000  0  9G 9G26G27G28G18G15G17G12G10
 111193010.99948  86643897.37948  21159329.1184   21159331.5604   21159329.1654
       244.000         211.000
 109169398.75548  85067055.38048  20774252.0634   20774254.7724   20774251.9114
       250.000         223.000
 126813285.70348  98815532.33148  24131775.8604   24131778.9964   24131775.9414
       222.000         164.000
 122516334.78148  95467268.91248  23314086.6684   23314087.9904   23314086.5264
       227.000         182.000
 119977936.67848  93489298.86448  22831044.1894   22831045.9674   22831044.7964
       229.000         185.000
 106806459.31348  83225804.70348  20324598.1184   20324599.4014   20324597.8654
       254.000         241.000
 124395643.69148  96931665.12048  23671707.5844   23671709.4114   23671707.3494
       223.000         177.000
 125258501.23848  97604007.95848  23835916.6604   23835918.7884   23835917.8924
       223.000         176.000
 128467744.80348 100104712.23548  24446618.3294   24446621.7884   24446619.3274
       220.000         163.000
 09  1 21  0  8  0.0000000  0  9G 9G26G27G28G18G15G17G12G10
 111129867.31148  86594694.50748  21147313.6544   21147315.8294   21147313.3914
       244.000         211.000
 109222953.34448  85108786.22348  20784443.3064   20784445.6584   20784443.2504
       251.000         223.000
 126882488.08248  98869456.23848  24144944.6604   24144947.5604   24144945.0004
       221.000         164.000
 122596988.80848  95530116.20148  23329434.6954   23329435.7264   23329434.3824
       227.000         181.000
 119922397.84848  93446021.86448  22820475.2534   22820476.7614   22820475.8644
       229.000         184.000
 106808430.61148  83227340.77148  20324973.1294   20324974.5174   20324972.8284
       254.000         241.000
 124348680.64948  96895070.55648  23662770.9224   23662771.9744   23662771.0374
       225.000         176.000
 125148878.71848  97518587.80248  23815055.7714   23815057.8714   23815055.6184
       223.000         174.000
 128578873.77448 100191306.22648  24467764.9014   24467769.8244   24467765.9584
       215.000         160.000
 09  1 21  0  8 30.0000000  0  9G 9G26G27G28G18G15G17G12G10
 111067008.37948  86545713.54348  21135351.8384   21135354.1244   21135352.2914
       244.000         212.000
 109276893.27848  85150817.34448  20794707.7054   20794709.9654   20794707.5414
       251.000         223.000
 126951710.60448  98923395.85948  24158117.1944   24158120.2754   24158117.7804
       221.000         162.000
 122677905.56748  95593168.21848  23344832.5334   23344833.6394   23344832.9404
       226.000         180.000
 119867350.95148  93403128.16148  22810000.3954   22810002.1964   22810000.5644
       228.000         185.000
 106810830.91048  83229211.13248  20325429.9704   20325431.3124   20325429.7664
       254.000         241.000
 124302126.24348  96858794.41548  23653911.4324   23653913.3914   23653911.6634
       222.000         176.000
 125039421.25148  97433296.27248  23794226.6794   23794228.2424   23794226.2194
       224.000         177.000
 128690011.98648 100277907.38748  24488912.6024   24488918.7464   24488912.7434
       212.000         154.000
 09  1 21  0  9  0.0000000  0  9G 9G26G27G28G18G15G17G12G10
 111004434.33648  86496954.54148  21123444.3744   21123446.6174   21123444.8524
       243.000         212.000
 109331217.52448  85193147.92448  20805045.1974   20805047.6794   20805044.9894
       250.000         223.000
 127020952.53848  98977350.60648  24171293.6574   24171296.0674   24171294.4504
       219.000         162.000
 122759081.92148  95656422.50248  23360279.6734   23360281.0824   23360280.3314
       227.000         180.000
 119812797.82348  93360619.23948  22799619.0324   22799621.0884   22799619.6084
       231.000         186.000
 106813660.49548  83231416.00048  20325968.4964   20325969.7194   20325968.3454
       254.000         241.000
 124255982.12448  96822837.96948  23645130.7604   23645132.8154   23645130.2524
       223.000         178.000
 124930130.74548  97348134.83648  23773429.5444   23773431.0054   23773429.8774
       223.000         177.000
 128801155.82948 100364512.95648  24510063.0974   24510067.4854   24510063.8764
       215.000         154.000
 09  1 21  0  9 30.0000000  0  9G 9G26G27G28G18G15G17G12G10
 110942145.51448  86448417.81748  21111590.7324   21111593.7384   21111590.5174
       243.000         212.000
 109385925.25648  85235777.32048  20815455.7824   20815458.0764   20815455.6884
       249.000         223.000
 127090213.53448  99031320.16048  24184473.7434   24184476.4084   24184474.3064
       220.000         161.000
 122840515.47948  95719877.22648  23375775.9014   23375777.2194   23375776.0824
       228.000         181.000
 119758739.53048  93318495.88948  22789332.5014   22789333.8714   22789332.2724
       233.000         188.000
 106816920.05548  83233955.91448  20326588.7384   20326589.9654   20326588.5724
       254.000         241.000
 124210250.21948  96787202.70448  23636428.6454   23636429.9664   23636428.5804
       223.000         178.000
 124821009.05648  97263104.95048  23752664.2654   23752665.9814   23752664.2604
       222.000         177.000
 128912302.89248 100451121.06248  24531214.5274   24531217.5614   24531215.2124
       218.000         157.000
 09  1 21  0 10  0.0000000  0 10G 9G 5G26G27G28G18G15G17G12G10
 110880143.07348  86400104.22848  21099792.3124   21099794.7254   21099791.8874
       243.000         212.000
 141199294.58958  92233204.36558  24966404.8605   24966407.8055   24966405.6215
       216.000         157.000
 109441016.44048  85278705.50548  20825939.3704   20825941.6394   20825939.2774
       250.000         223.000
 127159493.88448  99085304.84848  24197656.8034   24197660.2264   24197657.1464
       214.000         161.000
 122922204.38648  95783530.90348  23391320.8244   23391322.2284   23391320.1684
       225.000         179.000
 119705178.36548  93276759.93048  22779140.2954   22779141.8314   22779141.3154
       233.000         188.000
 106820610.74648  83236831.77248  20327291.0204   20327292.2904   20327290.7124
       254.000         241.000
 124164933.15048  96751890.70748  23627804.7314   23627806.9144   23627804.2024
       224.000         180.000
 124712058.91648  97178208.77148  23731931.5514   23731934.0634   23731931.2814
       223.000         179.000
 129023450.72048 100537729.73448  24552365.3744   24552368.9444   24552366.9854
       216.000         154.000
 09  1 21  0 10 30.0000000  0 10G 9G 5G26G27G28G18G15G17G12G10
 110818426.79948  86352013.64148  21088048.0874   21088050.7484   21088048.1804
       244.000         213.000
 141083921.86348  92143303.57148  24944449.3704   24944452.6924   24944450.2544
       214.000         157.000
 109496490.27548  85321931.86348  20836495.6694   20836498.0004   20836495.5214
       251.000         222.000
 127228793.43648  99139304.46348  24210844.4044   24210848.0634   24210844.7184
       214.000         161.000
 123004146.31048  95847381.74648  23406913.5184   23406915.0524   23406913.5594
       226.000         178.000
 119652116.13848  93235412.72648  22769042.9914   22769044.1364   22769043.4324
       233.000         188.000
 106824733.50248  83240044.30548  20328075.6084   20328076.8454   20328075.3474
       254.000         240.000
 124120033.56048  96716904.03148  23619260.6174   23619262.5204   23619260.8274
       224.000         178.000
 124603282.25848  97093447.75248  23711232.7074   23711234.3064   23711231.9674
       226.000         180.000
 129134597.01348 100624337.24248  24573515.6824   24573519.3814   24573516.6334
       215.000         154.000
 09  1 21  0 11  0.0000000  0 10G 9G 5G26G27G28G18G15G17G12G10
 110756997.46148  86304146.63248  21076358.6634   21076361.0854   21076359.1204
       244.000         213.000
 140968620.39948  92053458.30548  24922509.3254   24922512.1814   24922510.7284
       212.000         158.000
 109552346.22148  85365455.97648  20847124.7314   20847127.0844   20847124.7174
       250.000         222.000
 127298111.73948  99193318.71248  24224034.8864   24224037.9354   24224034.4964
       214.000         159.000
 123086338.51548  95911427.61948  23422554.3184   23422555.8384   23422554.9094
       227.000         180.000
 119599553.87748  93194455.12648  22759040.7484   22759042.3424   22759041.4874
       233.000         189.000
 106829288.73648  83243593.83348  20328942.3394   20328943.6764   20328942.0544
       254.000         240.000
 124075553.01448  96682243.87648  23610795.8984   23610797.5734   23610795.8644
       224.000         177.000
 124494680.53548  97008823.03648  23690567.0654   23690568.1394   23690567.0014
       228.000         181.000
 129245738.94648 100710941.36448  24594665.4144   24594668.7334   24594666.3324
       217.000         157.000
 09  1 21  0 11 30.0000000  0 10G 9G 5G26G27G28G18G15G17G12G10
 110695855.43948  86256503.51048  21064723.4434   21064726.0674   21064723.9474
       246.000         214.000
 140853392.33548  91963670.25648  24900581.1344   24900584.5924   24900582.6604
       212.000         158.000
 109608583.72948  85409277.40948  20857826.1404   20857828.6344   20857825.9524
       250.000         222.000
 127367448.73748  99247347.50748  24237229.6474   24237232.0734   24237230.0734
       212.000         158.000
 123168778.75848  95975666.75748  23438242.3094   23438244.1064   23438242.7204
       227.000         180.000
 119547494.01348  93153888.99648  22749134.1684   22749135.6524   22749134.6124
       231.000         188.000
 106834277.14148  83247480.90248  20329891.7344   20329892.9504   20329891.5954
       254.000         240.000
 124031494.07748  96647912.23848  23602412.2624   23602414.3064   23602412.2894
       224.000         180.000
 124386257.08348  96924337.22948  23669934.6724   23669936.3384   23669934.7654
       231.000         181.000
 129356873.94848 100797540.03548  24615812.9024   24615817.1944   24615814.0884
       210.000         156.000
 09  1 21  0 12  0.0000000  0 10G 9G 5G26G27G28G18G15G17G12G10
 110634999.90748  86209083.62948  21053143.3524   21053145.8294   21053143.6334
       245.000         214.000
 140738238.12848  91873939.73448  24878667.6964   24878671.1504   24878668.0644
       210.000         155.000
 109665200.91048  85453394.67948  20868600.0894   20868602.6014   20868600.0254
       248.000         222.000
 127436802.93748  99301389.70248  24250427.1734   24250429.5634   24250427.6474
       213.000         158.000
 123251463.73348  96040096.61648  23453976.6204   23453978.7624   23453977.2524
       227.000         180.000
 119495936.62148  93113714.42148  22739322.7164   22739324.0894   22739323.1354
       233.000         187.000
 106839698.33748  83251705.20948  20330923.3184   20330924.5104   20330923.1474
       254.000         240.000
 123987857.64548  96613909.83048  23594108.1244   23594110.2934   23594108.6884
       223.000         179.000
 124278011.73648  96839990.19848  23649336.0264   23649338.0574   23649336.7614
       225.000         181.000
 129467998.43348 100884130.47148  24636959.6544   24636963.8564   24636958.8664
       213.000         154.000
 09  1 21  0 12 30.0000000  0 10G 9G 5G26G27G28G18G15G17G12G10
 110574434.17448  86161889.55548  21041617.8944   21041620.5804   21041618.0374
       245.000         214.000
 140623162.67548  91784270.57848  24856768.8094   24856772.4394   24856768.2094
       210.000         153.000
 109722200.08548  85497809.60748  20879446.7304   20879449.2564   20879446.4144
       248.000         222.000
 127506176.99748  99355447.37048  24263628.6174   24263631.8254   24263629.4674
       213.000         157.000
 123334393.79148  96104717.43148  23469757.6944   23469759.6984   23469758.1094
       229.000         180.000
 119444886.42748  93073935.03248  22729607.9954   22729609.5304   22729608.5454
       231.000         186.000
 106845555.81448  83256269.47048  20332037.9074   20332039.1954   20332037.6354
       254.000         241.000
 123944648.72148  96580240.55448  23585886.2094   23585887.4584   23585886.1414
       223.000         180.000
 124169949.59748  96755785.92548  23628771.6904   23628774.3704   23628770.4984
       224.000         180.000
 129579112.01048 100970712.48448  24658103.8804   24658107.5544   24658104.7414
       217.000         154.000
 09  1 21  0 13  0.0000000  0 10G 9G 5G26G27G28G18G15G17G12G10
 110514158.13948  86114921.22448  21030147.6814   21030150.3414   21030147.6934
       245.000         214.000
 140508167.56348  91694664.00448  24834886.5004   24834888.7984   24834888.0954
       212.000         154.000
 109779580.42348  85542521.55048  20890365.9354   20890368.4294   20890365.8174
       249.000         222.000
 127575570.52248  99409520.23448  24276833.9494   24276837.1734   24276833.5884
       213.000         158.000
 123417566.48648  96169527.30448  23485584.7494   23485586.8164   23485586.0854
       227.000         178.000
 119394344.73148  93034551.91548  22719989.6774   22719992.0484   22719990.7124
       229.000         185.000
 106851850.07748  83261174.09048  20333235.7444   20333237.0244   20333235.6444
       254.000         241.000
 123901869.24048  96546905.88348  23577745.0904   23577747.6504   23577745.3424
       226.000         180.000
 124062072.95948  96671726.21148  23608243.0684   23608245.9664   23608242.5344
       223.000         177.000
 129690212.22448 101057284.12648  24679246.0834   24679248.8414   24679247.2804
       218.000         154.000
 09  1 21  0 13 30.0000000  0 10G 9G 5G26G27G28G18G15G17G12G10
 110454171.51548  86068178.41248  21018732.7294   21018735.1114   21018732.7094
       246.000         214.000
 140393254.06448  91605121.04848  24813019.2874   24813021.7354   24813019.9684
       214.000         154.000
 109837340.40648  85587529.33048  20901357.0264   20901359.8424   20901356.8034
       249.000         221.000
 127644982.51148  99463607.48248  24290042.5774   24290045.2434   24290042.1924
       212.000         155.000
 123500978.66248  96234523.81348  23501457.8364   23501459.4074   23501458.4634
       227.000         179.000
 119344312.18248  92995565.49648  22710469.3484   22710470.9164   22710469.5074
       232.000         187.000
 106858581.08848  83266419.02648  20334516.5344   20334517.8384   20334516.2224
       254.000         240.000
 123859520.27548  96513906.71548  23569686.5414   23569688.1354   23569686.7484
       226.000         179.000
 123954382.99048  96587811.95048  23587750.5464   23587752.7654   23587750.7424
       228.000         181.000
 129801295.80048 101143842.77648  24700384.4564   24700387.6214   24700385.4774
       216.000         153.000
 09  1 21  0 14  0.0000000  0 10G 9G 5G26G27G28G18G15G17G12G10
 110394474.70948  86021661.42848  21007372.6084   21007374.9944   21007372.8014
       245.000         214.000
 140278423.85648  91515643.00248  24791168.4874   24791171.5864   24791170.4234
       212.000         155.000
 109895479.41748  85632832.45748  20912420.5614   20912423.2304   20912420.3974
       249.000         221.000
 127714412.77448  99517708.94148  24303254.9334   24303257.5664   24303255.5304
       211.000         157.000
 123584627.86348  96299704.99348  23517375.7924   23517377.3014   23517377.0244
       227.000         177.000
 119294790.45248  92956977.12948  22701045.6424   22701047.5444   22701045.8774
       229.000         186.000
 106865749.53348  83272004.82148  20335880.6334   20335881.9094   20335880.3624
       253.000         240.000
 123817604.14048  96481244.78248  23561710.2204   23561711.7954   23561709.9794
       224.000         180.000
 123846881.78148  96504044.78648  23567294.4204   23567295.7084   23567294.7944
       226.000         180.000
 129912360.03248 101230386.28948  24721518.9974   24721523.8224   24721520.3204
       213.000         157.000
 09  1 21  0 14 30.0000000  0 10G 9G 5G26G27G28G18G15G17G12G10
 110335068.88148  85975371.18048  20996068.2154   20996070.7204   20996068.2344
       246.000         215.000
 140163679.47348  91426231.83548  24769333.0454   24769336.0584   24769334.1574
       209.000         153.000
 109953997.44248  85678430.91448  20923556.3164   20923558.7804   20923556.3454
       249.000         221.000
 127783861.83048  99571825.06348  24316470.2414   24316473.5394   24316470.5894
       209.000         157.000
 123668512.49348  96365069.64748  23533338.6154   23533340.2474   23533338.1484
       227.000         179.000
 119245781.81348  92918788.57648  22691719.4904   22691721.3874   22691719.2724
       232.000         188.000
 106873356.38648  83277932.23448  20337328.2044   20337329.5074   20337327.8914
       254.000         240.000
 123776123.60548  96448922.29548  23553816.9464   23553818.5014   23553816.0424
       224.000         180.000
 123739572.41048  96420427.10648  23546873.8684   23546875.0784   23546873.6434
       227.000         181.000
 130023403.12348 101316913.34048  24742649.4774   24742654.5394   24742650.1794
       214.000         158.000
 09  1 21  0 15  0.0000000  0 10G 9G 5G26G27G28G18G15G17G12G10
 110275954.12448  85929307.75048  20984818.9234   20984821.6434   20984819.6094
       246.000         214.000
 140049022.56748  91336888.81448  24747513.7754   24747517.6334   24747514.7014
       204.000         151.000
 110012893.37548  85724323.84848  20934763.8744   20934766.3954   20934763.8304
       249.000         221.000
 127853329.13748  99625955.39948  24329689.1064   24329693.2834   24329689.3694
       211.000         155.000
 123752629.81648  96430615.59648  23549345.4634   23549347.4334   23549345.7964
       227.000         179.000
 119197287.66248  92881000.93148  22682491.7444   22682493.0564   22682492.1484
       233.000         188.000
 106881402.45648  83284201.89348  20338859.4004   20338860.6214   20338859.1744
       254.000         240.000
 123735080.17048  96416940.43048  23546005.9124   23546008.4074   23546005.5144
       225.000         180.000
 123632455.97648  96336959.76548  23526490.3244   23526491.9074   23526489.9004
       228.000         181.000
 130134422.15348 101403421.68048  24763776.6264   24763780.5054   24763777.0984
       212.000         157.000
 09  1 21  0 15 30.0000000  0 10G 9G 5G26G27G28G18G15G17G12G10
 110217130.98548  85883471.54848  20973625.2974   20973627.7454   20973625.9384
       246.000         215.000
 139934455.25448  91247615.63348  24725711.8334   24725716.1514   24725711.5094
       212.000         153.000
 110072167.05648  85770511.13048  20946043.1954   20946045.8314   20946043.0254
       249.000         221.000
 127922814.82948  99680100.07748  24342911.8254   24342915.9514   24342911.7654
       208.000         156.000
 123836978.01248  96496341.46848  23565396.6464   23565398.1834   23565398.1114
       227.000         179.000
 119149309.53648  92843615.38248  22673361.7844   22673363.0524   22673362.5614
       233.000         188.000
 106889888.47448  83290814.37148  20340474.1934   20340475.4644   20340474.0604
       254.000         240.000
 123694476.61148  96385301.30048  23538279.6724   23538281.4524   23538279.2544
       224.000         181.000
 123525535.11748  96253644.81648  23506144.0054   23506145.9554   23506144.1504
       226.000         183.000
 130245414.78348 101489909.44248  24784897.7384   24784902.0714   24784898.7834
       210.000         153.000
 09  1 21  0 16  0.0000000  0 10G 9G 5G26G27G28G18G15G17G12G10
 110158599.44048  85837862.55448  20962487.2274   20962489.6344   20962487.4294
       246.000         215.000
 139819979.27048  91158413.60848  24703927.8894   24703931.5604   24703928.2784
       210.000         154.000
 110131817.55448  85816992.03448  20957394.4324   20957396.9054   20957394.4184
       249.000         221.000
 127992318.46448  99734258.75548  24356137.8124   24356142.4064   24356138.5884
       206.000         156.000
 123921554.30548  96562245.06248  23581490.6274   23581492.7414   23581491.7524
       226.000         178.000
 119101848.90648  92806633.06748  22664330.0074   22664331.7314   22664329.8774
       233.000         188.000
 106898814.88748  83297770.01448  20342172.8454   20342174.1304   20342172.6334
       254.000         240.000
 123654314.68148  96354006.29948  23530637.4334   23530638.8324   23530637.0894
       227.000         181.000
 123418811.79748  96170483.80748  23485834.8144   23485837.4954   23485834.3804
       226.000         183.000
 130356378.53648 101576374.67348  24806011.9184   24806016.7124   24806011.7404
       209.000         147.000
 09  1 21  0 16 30.0000000  0 10G 9G 5G26G27G28G18G15G17G12G10
 110100360.94448  85792481.91548  20951404.8004   20951407.1824   20951405.1554
       247.000         215.000
 139705596.87148  91069284.47148  24682162.5414   24682164.7374   24682162.5934
       214.000         153.000
 110191844.49448  85863766.27348  20968817.1544   20968819.6754   20968816.9844
       249.000         221.000
 128061840.31948  99788431.60448  24369367.7194   24369371.2304   24369369.0814
       209.000         157.000
 124006356.80348  96628324.89748  23597628.1064   23597630.2374   23597628.5184
       227.000         177.000
 119054907.62248  92770055.43848  22655397.5814   22655398.9334   22655398.2774
       230.000         187.000
 106908182.73148  83305069.62548  20343955.5244   20343956.7364   20343955.3444
       254.000         240.000
 123614596.77748  96323057.29448  23523079.2684   23523080.6114   23523079.4504
       223.000         180.000
 123312288.55748  96087478.70648  23465564.4094   23465566.7704   23465564.1114
       225.000         182.000
 130467311.12648 101662815.67248  24827121.3934   24827124.9454   24827122.0184
       210.000         146.000
 09  1 21  0 17  0.0000000  0 10G 9G 5G26G27G28G18G15G17G12G10
 110042415.07348  85747329.29348  20940378.0224   20940380.2674   20940378.4344
       246.000         215.000
 139591309.65248  90980229.51048  24660414.7744   24660416.1204   24660415.2454
       214.000         153.000
 110252246.81348  85910833.01248  20980311.4304   20980313.7314   20980311.3734
       249.000         220.000
 128131380.07448  99842618.37748  24382600.6244   24382604.6014   24382600.8814
       209.000         156.000
 124091382.97048  96694579.04848  23613808.3244   23613809.7624   23613809.5334
       228.000         176.000
 119008486.83648  92733883.39048  22646564.3044   22646565.4434   22646564.7874
       233.000         188.000
 106917992.06448  83312713.25848  20345822.0954   20345823.4714   20345821.8284
       254.000         240.000
 123575324.25648  96292455.32948  23515605.8404   23515607.3234   23515604.8434
       225.000         182.000
 123205966.86348  96004630.65748  23445331.5754   23445334.2194   23445331.6604
       227.000         183.000
 130578208.99248 101749229.59948  24848225.7744   24848229.0464   24848227.2104
       214.000         153.000
 09  1 21  0 17 30.0000000  0 10G 9G 5G26G27G28G18G15G17G12G10
 109984762.19748  85702404.98248  20929407.1584   20929409.3214   20929407.4654
       246.000         216.000
 139477119.23948  90891249.98648  24638684.3554   24638686.5544   24638686.0684
       212.000         152.000
 110313023.54448  85958191.50848  20991876.7204   20991879.2254   20991876.7974
       249.000         220.000
 128200937.28848  99896818.79448  24395837.2644   24395840.1394   24395837.4444
       205.000         155.000
 124176630.20248  96761005.46048  23630030.3914   23630031.7964   23630031.3994
       226.000         178.000
 118962587.96648  92698118.04748  22637829.6564   22637831.7534   22637830.4244
       233.000         188.000
 106928243.56348  83320701.44148  20347772.8514   20347774.3534   20347772.6084
       254.000         240.000
 123536499.19148  96262202.04948  23508217.2534   23508219.4824   23508216.5494
       224.000         181.000
 123099848.70448  95921941.20148  23425138.4834   23425140.3424   23425138.7774
       226.000         181.000
 130689070.18748 101835614.90048  24869322.0334   24869326.0154   24869323.1174
       215.000         160.000
 09  1 21  0 18  0.0000000  0 10G 9G 5G26G27G28G18G15G17G12G10
 109927403.55848  85657709.95448  20918491.9274   20918494.5984   20918492.3994
       247.000         216.000
 139363028.47348  90802348.12048  24616973.8664   24616976.2064   24616974.6154
       215.000         156.000
 110374175.15548  86005842.10948  21003513.5474   21003515.9824   21003513.3234
       248.000         220.000
 128270512.80348  99951033.44548  24409076.6164   24409080.7604   24409077.3604
       207.000         154.000
 124262096.89848  96827602.88348  23646294.2514   23646295.3734   23646294.4434
       226.000         177.000
 118917213.05648  92662760.97848  22629195.3614   22629196.8464   22629196.2074
       234.000         189.000
 106938938.45048  83329035.10948  20349808.1624   20349809.4444   20349807.9004
       254.000         240.000
 123498124.74548  96232299.89448  23500914.8324   23500916.8454   23500914.1744
       227.000         182.000
 122993937.21248  95839412.79648  23404984.0254   23404985.4494   23404983.5084
       227.000         181.000
 130799892.98748 101921970.30748  24890410.4894   24890414.6784   24890411.5054
       212.000         156.000
 09  1 21  0 18 30.0000000  0 10G 9G 5G26G27G28G18G15G17G12G10
 109870339.05548  85613244.11648  20907633.0644   20907635.5624   20907633.2824
       247.000         216.000
 139249038.58148  90713524.86048  24595282.5244   24595285.5774   24595283.7744
       215.000         159.000
 110435700.14448  86053783.66348  21015221.2254   21015223.7884   21015221.1754
       248.000         219.000
 128340105.79548 100005261.75848  24422319.3414   24422323.3264   24422320.3384
       208.000         157.000
 124347780.38848  96894369.23448  23662599.0794   23662600.4784   23662599.6254
       225.000         176.000
 118872362.92648  92627812.82348  22620660.7784   22620662.0734   22620661.4414
       236.000         190.000
 106950076.70748  83337714.26948  20351927.5654   20351929.0544   20351927.3494
       254.000         240.000
 123460201.89148  96202749.63448  23493698.6784   23493700.7244   23493698.5454
       225.000         181.000
 122888233.77348  95757046.49848  23384869.6054   23384870.3694   23384869.3484
       228.000         182.000
 130910673.97948 102008293.12348  24911491.0534   24911494.6984   24911490.7494
       201.000         140.000
 09  1 21  0 19  0.0000000  0 10G 9G 5G26G27G28G18G15G17G12G10
 109813569.87648  85569008.39448  20896830.2084   20896832.7624   20896830.3624
       247.000         216.000
 139135152.53648  90624782.52948  24573610.0954   24573614.1624   24573610.6054
       211.000         160.000
 110497598.81948  86102016.39348  21027000.1834   21027002.6394   21027000.0884
       248.000         219.000
 128409717.29048 100059504.46848  24435567.0074   24435569.9384   24435567.4704
       211.000         158.000
 124433679.30748  96961303.45548  23678945.1034   23678946.6384   23678944.5394
       225.000         177.000
 118828040.42648  92593275.81948  22612226.1384   22612227.7804   22612226.6874
       234.000         189.000
 106961660.31448  83346740.45548  20354131.8274   20354133.3844   20354131.6794
       253.000         240.000
 123422733.80648  96173553.73248  23486568.5564   23486570.4614   23486567.6274
       227.000         181.000
 122782741.62548  95674844.85648  23364794.6424   23364795.6694   23364795.0674
       228.000         182.000
 131021412.04148 102094582.57948  24932563.0454   24932565.4484   24932563.4034
       208.000         139.000
 09  1 21  0 19 30.0000000  0 10G 9G 5G26G27G28G18G15G17G12G10
 109757098.20348  85525004.48848  20886083.9174   20886086.3624   20886084.5104
       247.000         216.000
 139021373.94348  90536123.89048  24551958.5334   24551962.3384   24551958.4234
       213.000         160.000
 110559872.21248  86150541.10648  21038850.3994   21038853.0934   21038850.2254
       248.000         219.000
 128479348.81548 100113762.77448  24448817.2834   24448820.6234   24448816.6694
       212.000         159.000
 124519793.27348  97028405.22748  23695332.1014   23695333.7334   23695332.5224
       224.000         175.000
 118784248.50248  92559152.23048  22603892.8234   22603894.0994   22603893.5674
       234.000         189.000
 106973690.88248  83356114.91248  20356421.4214   20356422.7204   20356421.2774
       253.000         240.000
 123385724.13748  96144715.04248  23479525.9584   23479527.8184   23479526.0634
       226.000         181.000
 122677464.05048  95592810.41148  23344761.2694   23344762.2894   23344760.9694
       228.000         185.000
 131132106.23248 102180837.83748  24953627.8164   24953632.2594   24953629.1774
       214.000         154.000
 09  1 21  0 20  0.0000000  0 10G 9G 5G26G27G28G18G15G17G12G10
 109700921.74948  85481230.63948  20875393.9824   20875396.4294   20875394.1324
       247.000         217.000
 138907702.00048  90447548.36448  24530327.2264   24530331.1984   24530327.6554
       217.000         161.000
 110622516.81448  86199355.07748  21050771.2664   21050774.0224   21050771.0504
       248.000         219.000
 128548997.61248 100168034.54248  24462070.5454   24462073.9484   24462070.4134
       207.000         156.000
 124606117.02048  97095670.49048  23711758.7844   23711760.4624   23711759.1814
       225.000         175.000
 118740985.73948  92525440.99048  22595660.4674   22595661.6084   22595660.6224
       235.000         190.000
 106986166.92848  83365836.50948  20358795.5104   20358796.7374   20358795.2684
       253.000         240.000
 123349172.08848  96116232.94348  23472569.8674   23472572.3134   23472570.0304
       226.000         182.000
 122572400.62248  95510942.84248  23324768.8134   23324770.1484   23324768.3534
       229.000         186.000
 131242751.40348 102267054.83348  24974683.1864   24974688.1084   24974684.0394
       212.000         156.000
 09  1 21  0 20 30.0000000  0 10G 9G 5G26G27G28G18G15G17G12G10
 109645041.01748  85437687.20648  20864760.3624   20864762.5944   20864760.6054
       247.000         216.000
 138794138.54248  90359057.35248  24508717.7534   24508720.8704   24508718.6504
       216.000         162.000
 110685531.88048  86248457.72048  21062762.7234   21062765.1574   21062762.5764
       248.000         219.000
 128618663.66148 100222319.78448  24475327.2084   24475331.0374   24475327.1874
       207.000         155.000
 124692648.25748  97163097.43248  23728225.3194   23728226.6704   23728225.8514
       225.000         175.000
 118698253.38548  92492143.05248  22587528.7534   22587530.3054   22587529.3524
       235.000         191.000
 106999088.82748  83375905.51548  20361254.4714   20361255.6544   20361254.3114
       254.000         240.000
 123313079.62048  96088108.96248  23465701.6244   23465703.5254   23465701.3554
       226.000         180.000
 122467553.55348  95429243.85548  23304816.7734   23304818.6834   23304816.5884
       229.000         186.000
 131353345.24748 102353231.79048  24995729.8184   24995732.7584   24995730.8044
       208.000         149.000
 09  1 21  0 21  0.0000000  0 10G 9G 5G26G27G28G18G15G17G12G10
 109589456.94148  85394374.93848  20854182.7824   20854185.2074   20854183.0204
       247.000         217.000
 138680686.16948  90270652.95348  24487128.9564   24487132.1274   24487129.6934
       217.000         164.000
 110748917.30348  86297848.95448  21074824.6094   21074826.8894   21074824.4154
       249.000         219.000
 128688347.43648 100276618.79048  24488587.7014   24488591.3774   24488588.0814
       209.000         157.000
 124779385.53248  97230684.89948  23744730.6734   23744732.5744   23744730.3024
       226.000         175.000
 118656053.59648  92459260.08748  22579498.5674   22579499.9694   22579498.9324
       234.000         192.000
 107012457.74448  83386322.84848  20363798.3254   20363799.7634   20363798.0884
       253.000         239.000
 123277449.37148  96060345.12948  23458921.7714   23458924.0394   23458921.6954
       227.000         182.000
 122362925.45648  95347715.48748  23284906.6404   23284908.6824   23284906.1224
       228.000         185.000
 131463885.45148 102439366.98048  25016764.0834   25016766.7244   25016766.1714
       213.000         148.000
 09  1 21  0 21 30.0000000  0 10G 9G 5G26G27G28G18G15G17G12G10
 109534166.63948  85351291.58548  20843661.5204   20843663.9184   20843661.2634
       247.000         217.000
 138567343.33248  90182333.88548  24465560.7084   24465563.9734   24465562.2704
       217.000         164.000
 110812669.12148  86347525.69148  21086956.0834   21086958.5834   21086956.1054
       248.000         218.000
 128758045.44348 100330928.91848  24501852.2234   24501854.6024   24501852.9064
       213.000         158.000
 124866323.04048  97298428.40648  23761274.1194   23761276.5304   23761274.5424
       225.000         177.000
 118614384.46948  92426790.63648  22571568.7584   22571570.5184   22571569.1714
       234.000         191.000
 107026270.95448  83397086.38048  20366426.8664   20366428.3534   20366426.4474
       253.000         239.000
 123242279.23848  96032939.84448  23452229.1954   23452231.3354   23452229.4674
       227.000         181.000
 122258515.14548  95266356.82948  23265037.7434   23265039.5834   23265038.4944
       230.000         187.000
 131574366.13048 102525455.89648  25037788.9204   25037790.1474   25037789.3384
       213.000         149.000
 09  1 21  0 22  0.0000000  0 10G 9G 5G26G27G28G18G15G17G12G10
 109479174.76848  85308440.78148  20833196.8874   20833199.3614   20833197.0714
       248.000         217.000
 138454116.19248  90094104.95648  24444013.1084   24444017.1714   24444014.3534
       216.000         161.000
 110876790.60448  86397490.47948  21099157.9694   21099160.5264   21099157.7114
       248.000         218.000
 128827761.85948 100385253.37748  24515117.8804   24515121.6774   24515118.3654
       211.000         158.000
 124953462.67348  97366329.40148  23777856.6304   23777858.5584   23777857.8154
       226.000         175.000
 118573251.41248  92394738.91348  22563741.7834   22563742.8414   22563742.4974
       235.000         192.000
 107040532.77048  83408199.47648  20369140.9754   20369142.2604   20369140.8144
       254.000         239.000
 123207575.90148  96005898.28748  23445625.6754   23445626.9774   23445625.5314
       227.000         181.000
 122154328.63148  95185172.56548  23245212.1564   23245214.0004   23245211.8294
       229.000         186.000
 131684789.19748 102611499.87148  25058801.4064   25058804.1954   25058802.7824
       209.000         146.000
 09  1 21  0 22 30.0000000  0 10G 9G 5G26G27G28G18G15G17G12G10
 109424481.91948  85265822.97948  20822789.0954   20822791.7974   20822789.4264
       247.000         217.000
 138341007.12948  90005967.99548  24422489.1674   24422492.9594   24422489.4514
       214.000         161.000
 110941281.41748  86447743.06448  21111430.1414   21111432.6214   21111430.1114
       247.000         218.000
 128897497.07248 100439592.50148  24528388.0784   24528391.6274   24528388.3424
       211.000         160.000
 125040802.86648  97434386.72148  23794476.7164   23794478.4474   23794477.3984
       224.000         171.000
 118532656.24248  92363106.32248  22556017.0374   22556017.8564   22556017.4954
       236.000         192.000
 107055244.37048  83419663.05848  20371940.3784   20371941.7484   20371940.3104
       253.000         239.000
 123173341.63848  95979222.23948  23439110.9974   23439112.3894   23439110.9424
       228.000         182.000
 122050368.50748  95104164.70948  23225428.7344   23225430.8014   23225428.5964
       230.000         185.000
 131795152.43148 102697497.08548  25079801.3734   25079806.3044   25079802.0504
       205.000         145.000
 09  1 21  0 23  0.0000000  0 10G 9G 5G26G27G28G18G15G17G12G10
 109370088.45748  85223438.46548  20812438.5554   20812440.8174   20812438.4494
       248.000         217.000
 138228017.59348  89917924.18548  24400988.0524   24400991.6484   24400987.5364
       216.000         161.000
 111006140.60148  86498282.68548  21123772.4474   21123775.0444   21123772.2844
       248.000         218.000
 128967250.58848 100493945.86648  24541661.6074   24541665.5124   24541662.0314
       211.000         160.000
 125128340.72648  97502598.02648  23811134.8114   23811136.4994   23811134.8364
       225.000         168.000
 118492599.90048  92331893.58448  22548394.4284   22548395.2704   22548395.2044
       235.000         192.000
 107070405.82248  83431477.16948  20374825.3994   20374826.8124   20374825.2154
       253.000         238.000
 123139578.11248  95952913.00048  23432685.8284   23432687.6494   23432685.8404
       227.000         182.000
 121946636.60048  95023334.65348  23205689.5914   23205690.8394   23205690.2714
       228.000         184.000
 131905453.96148 102783446.31448  25100791.2394   25100794.9974   25100791.3204
       212.000         150.000
 09  1 21  0 23 30.0000000  0 10G 9G 5G26G27G28G18G15G17G12G10
 109315994.18148  85181287.08748  20802144.5094   20802146.9924   20802144.9154
       247.000         217.000
 138115148.96848  89829974.59448  24379510.7404   24379513.5114   24379512.4664
       215.000         162.000
 111071366.49248  86549108.05048  21136184.6824   21136187.1404   21136184.5964
       248.000         218.000
 129037021.73048 100548312.96448  24554938.7054   24554942.3824   24554939.8204
       211.000         161.000
 125216073.52548  97570961.25948  23827830.1124   23827831.0924   23827830.6914
       225.000         168.000
 118453082.97748  92301101.18548  22540874.0634   22540876.0294   22540874.7244
       233.000         192.000
 107086017.05248  83443641.75648  20377796.1454   20377797.5604   20377795.9164
       253.000         238.000
 123106286.47848  95926971.47348  23426350.9414   23426353.0524   23426350.2664
       227.000         185.000
 121843134.36748  94942683.58248  23185993.0914   23185994.8764   23185992.6704
       229.000         185.000
 132015689.70848 102869344.34348  25121769.4754   25121772.1854   25121769.9754
       208.000         147.000
 09  1 21  0 24  0.0000000  0 10G 9G 5G26G27G28G18G15G17G12G10
 109262199.74648  85139369.35048  20791907.8384   20791910.4644   20791907.6474
       247.000         218.000
 138002403.25248  89742120.82248  24358055.7294   24358058.8754   24358055.6334
       217.000         163.000
 111136958.59648  86600218.77748  21148666.3004   21148668.7944   21148666.3754
       248.000         217.000
 129106810.78248 100602694.04348  24568219.2514   24568222.3954   24568218.5174
       213.000         162.000
 125303999.13448  97639474.72748  23844561.5994   23844562.6444   23844561.8804
       225.000         170.000
 118414106.85348  92270730.17948  22533457.0514   22533459.1214   22533457.5414
       235.000         192.000
 107102078.85548  83456157.44848  20380852.6204   20380854.1054   20380852.4144
       253.000         238.000
 123073468.51648  95901399.06148  23420105.6094   23420107.5874   23420105.5524
       226.000         185.000
 121739863.86748  94862213.08148  23166341.4264   23166343.5654   23166341.0414
       230.000         187.000
 132125857.56348 102955189.44148  25142733.5994   25142736.4404   25142734.4564
       206.000         144.000
 09  1 21  0 24 30.0000000  0 10G 9G 5G26G27G28G18G15G17G12G10
 109208705.96048  85097685.88348  20781728.4344   20781730.7374   20781728.6034
       248.000         218.000
 137889783.05248  89654364.83348  24336625.2514   24336627.8254   24336625.3004
       218.000         164.000
 111202916.84648  86651614.81348  21161217.6554   21161220.2374   21161217.5774
       247.000         217.000
 129176617.97148 100657089.24348  24581503.0254   24581506.1064   24581502.8704
       216.000         161.000
 125392116.01248  97708137.22948  23861330.1424   23861330.9234   23861330.5474
       226.000         174.000
 118375673.57548  92240782.16948  22526143.6634   22526145.2254   22526144.5684
       235.000         193.000
 107118592.01048  83469024.83648  20383995.0314   20383996.4234   20383994.8584
       253.000         238.000
 123041126.57248  95876197.55548  23413951.5144   23413953.1124   23413950.8634
       228.000         185.000
 121636827.85148  94781925.29248  23146734.4274   23146736.6964   23146734.5884
       229.000         188.000
 132235956.21648 103040980.54648  25163683.8464   25163687.9084   25163685.3114
       208.000         148.000
 09  1 21  0 25  0.0000000  0 10G 9G 5G26G27G28G18G15G17G12G10
 109155512.46348  85056236.40248  20771606.3244   20771608.6344   20771606.3304
       248.000         219.000
 137777289.42448  89566707.43948  24315217.6724   24315220.8454   24315217.8964
       218.000         165.000
 111269239.58148  86703294.86448  21173838.4834   21173841.0674   21173838.2304
       248.000         217.000
 129246442.63248 100711498.03948  24594790.1814   24594793.5954   24594791.1344
       214.000         160.000
 125480421.11448  97776946.38148  23878133.8134   23878135.0784   23878134.3554
       225.000         173.000
 118337783.28548  92211257.27348  22518933.3194   22518934.8354   22518934.2524
       235.000         193.000
 107135556.26048  83482243.72548  20387223.2034   20387224.5684   20387223.0114
       253.000         238.000
 123009261.34748  95851367.51148  23407887.6434   23407889.5484   23407887.2614
       228.000         185.000
 121534027.57348  94701821.18648  23127171.9514   23127173.9934   23127171.0924
       230.000         188.000
 132345982.02748 103126714.89648  25184621.5784   25184625.8084   25184621.8154
       209.000         148.000
 09  1 21  0 25 30.0000000  0 10G 9G 5G26G27G28G18G15G17G12G10
 109102620.00448  85015021.50748  20761540.8364   20761543.5034   20761541.0314
       248.000         218.000
 137664924.52648  89479150.34848  24293835.2824   24293838.4744   24293835.4194
       217.000         165.000
 111335926.05448  86755258.34748  21186528.5264   21186531.0004   21186528.4874
       248.000         217.000
 129316284.87848 100765920.55848  24608080.8234   24608083.8454   24608081.8944
       215.000         161.000
 125568912.27748  97845900.52948  23894973.1294   23894974.3894   23894973.7824
       224.000         170.000
 118300437.67148  92182156.79348  22511826.6774   22511828.5044   22511827.0734
       235.000         192.000
 107152972.43948  83495814.77548  20390537.3604   20390538.7524   20390537.0854
       252.000         238.000
 122977875.35448  95826910.90248  23401915.1384   23401916.3344   23401915.0404
       230.000         185.000
 121431465.28048  94621902.52148  23107655.3874   23107656.8054   23107655.2534
       227.000         186.000
 132455933.07448 103212391.07448  25205545.1654   25205548.1774   25205546.2404
       210.000         148.000
 09  1 21  0 26  0.0000000  0 10G 9G 5G26G27G28G18G15G17G12G10
 109050029.10948  84974041.58748  20751533.2444   20751535.6694   20751533.5964
       248.000         218.000
 137552690.49448  89391695.26148  24272477.6204   24272481.3954   24272478.5334
       218.000         165.000
 111402975.80848  86807504.90948  21199287.7394   21199290.3134   21199287.6074
       247.000         217.000
 129386145.14348 100820357.10748  24621374.5584   24621378.1014   24621374.3814
       215.000         161.000
 125657587.62548  97914998.21348  23911847.2084   23911848.1214   23911847.1424
       222.000         166.000
 118263638.02648  92153481.74548  22504823.6534   22504825.4224   22504824.0314
       235.000         192.000
 107170840.92948  83509738.26948  20393937.6084   20393938.9994   20393937.2984
       252.000         238.000
 122946970.54748  95802829.23148  23396033.7634   23396036.0644   23396033.9124
       229.000         186.000
 121329142.98748  94542170.88648  23088183.8624   23088185.7614   23088183.8264
       230.000         187.000
 132565806.97148 103298007.10548  25226453.0204   25226457.3164   25226454.5124
       206.000         144.000
 09  1 21  0 26 30.0000000  0 10G 9G 5G26G27G28G18G15G17G12G10
 108997739.85048  84933296.71948  20741582.7194   20741585.4244   20741582.8604
       248.000         218.000
 137440588.66148  89304343.19548  24251145.3634   24251148.6654   24251147.3304
       217.000         164.000
 111470387.61548  86860033.57248  21212115.7334   21212118.2814   21212115.5274
       247.000         216.000
 129456022.92248 100874807.29048  24634671.9214   24634675.4124   24634671.7834
       217.000         163.000
 125746444.48848  97984237.32248  23928755.9814   23928756.7844   23928757.0484
       223.000         164.000
 118227385.11848  92125232.72648  22497925.1604   22497927.1394   22497925.9524
       235.000         194.000
 107189161.70148  83524014.18948  20397424.0284   20397425.3594   20397423.7944
       252.000         238.000
 122916548.26648  95779123.56548  23390244.7374   23390246.5184   23390244.6354
       229.000         185.000
 121227062.39048  94462627.57548  23068759.2554   23068760.2954   23068759.9954
       229.000         188.000
 132675600.71848 103383560.65248  25247345.7134   25247349.7384   25247346.3764
       204.000         141.000
 09  1 21  0 27  0.0000000  0 10G 9G 5G26G27G28G18G15G17G12G10
 108945752.76648  84892787.30148  20731690.1274   20731692.3974   20731690.2644
       248.000         219.000
 137328621.10348  89217095.75448  24229839.2174   24229842.2104   24229840.1714
       217.000         165.000
 111538160.59248  86912843.68548  21225012.7294   21225014.8144   21225012.8074
       247.000         216.000
 129525918.19148 100929271.11948  24647972.4454   24647976.2664   24647973.4094
       216.000         163.000
 125835480.70748  98053616.21948  23945699.0414   23945699.6714   23945700.2754
       222.000         162.000
 118191680.06848  92097410.61748  22491130.7134   22491132.6244   22491131.3794
       234.000         193.000
 107207935.79848  83538643.35548  20400996.5744   20400997.9464   20400996.4564
       252.000         237.000
 122886610.35448  95755795.33248  23384547.8074   23384549.1144   23384547.9894
       229.000         184.000
 121125225.89448  94383274.47848  23049380.0914   23049381.4704   23049380.3034
       229.000         190.000
 132785312.20348 103469050.11948  25268223.9424   25268227.7834   25268223.1604
       207.000         142.000
 09  1 21  0 27 30.0000000  0 10G 9G 5G26G27G28G18G15G17G12G10
 108894068.57848  84852513.90648  20721854.9554   20721857.4844   20721854.8414
       248.000         219.000
 137216790.13548  89129954.73248  24208558.0204   24208561.6684   24208558.1094
       217.000         164.000
 111606294.43448  86965934.98548  21237978.2284   21237980.5684   21237978.1194
       248.000         216.000
 129595831.31648 100983748.85748  24661276.6544   24661280.3574   24661277.2014
       217.000         163.000
 125924694.44648  98123133.42748  23962675.6174   23962676.7134   23962675.8474
       219.000         165.000
 118156524.43148  92070016.61248  22484441.0404   22484442.7524   22484441.3424
       236.000         194.000
 107227163.62048  83553626.06748  20404655.4794   20404656.8034   20404655.2784
       252.000         237.000
 122857158.70948  95732846.00048  23378942.9684   23378945.1844   23378942.7144
       229.000         184.000
 121023635.49448  94304113.14648  23030047.7674   23030049.6484   23030047.3384
       230.000         190.000
 132894939.80548 103554474.21848  25289085.0804   25289088.0754   25289085.6494
       209.000         146.000
 09  1 21  0 28  0.0000000  0 10G 9G 5G26G27G28G18G15G17G12G10
 108842688.69548  84812477.63248  20712077.6134   20712080.1324   20712077.6084
       249.000         220.000
 137105098.70348  89042922.43548  24187303.7124   24187307.3864   24187304.6074
       217.000         165.000
 111674789.05948  87019307.41848  21251012.0834   21251014.5824   21251012.0284
       248.000         216.000
 129665763.40148 101038241.38848  24674584.6644   24674587.9044   24674584.8624
       218.000         164.000
 126014084.42148  98192787.97048  23979686.1744   23979686.9244   23979684.7034
       222.000         164.000
 118121920.40048  92043052.42748  22477856.2974   22477857.5724   22477857.3334
       236.000         194.000
 107246846.37948  83568963.27648  20408401.0084   20408402.3944   20408400.8094
       252.000         237.000
 122828195.98348  95710277.65348  23373431.8024   23373433.2654   23373430.9624
       231.000         184.000
 120922294.32648  94225146.00448  23010763.6784   23010764.9974   23010763.4544
       230.000         189.000
 133004481.85248 103639831.62848  25309930.7634   25309934.6914   25309933.0734
       209.000         146.000
 09  1 21  0 28 30.0000000  0 10G 9G 5G26G27G28G18G15G17G12G10
 108791611.97348  84772677.59448  20702358.2104   20702360.6234   20702358.5744
       248.000         220.000
 136993547.08648  88955999.09748  24166076.0884   24166079.4954   24166076.7204
       221.000         167.000
 111743642.20348  87072959.21448  21264114.3344   21264116.7454   21264114.2494
       246.000         215.000
 129735712.65548 101092747.26448  24687895.1614   24687898.6734   24687895.4554
       214.000         161.000
 126103646.65648  98262576.72048  23996729.4174   23996730.4834   23996730.6874
       224.000         167.000
 118087867.33148  92016517.56448  22471376.1504   22471377.5914   22471376.1924
       235.000         194.000
 107266982.85548  83584654.03148  20412232.8294   20412234.3424   20412232.6354
       252.000         237.000
 122799722.18848  95688090.28748  23368013.3264   23368014.9874   23368012.7974
       231.000         185.000
 120821202.98148  94146373.53248  22991526.5614   22991528.0224   22991526.8914
       230.000         189.000
 133113934.38348 103725119.28748  25330758.5934   25330761.9864   25330759.2014
       204.000         143.000
 09  1 21  0 29  0.0000000  0 10G 9G 5G26G27G28G18G15G17G12G10
 108740839.65148  84733114.75048  20692696.4394   20692698.7244   20692696.8324
       249.000         220.000
 136882137.78948  88869186.68048  24144876.0424   24144879.1014   24144876.9924
       220.000         167.000
 111812853.85948  87126890.36548  21277284.9084   21277287.4464   21277284.5294
       247.000         216.000
 129805679.96348 101147267.25248  24701209.4704   24701212.9354   24701209.6024
       217.000         164.000
 126193380.40448  98332499.11948  24013805.2874   24013806.3424   24013806.6124
       223.000         165.000
 118054367.12948  91990413.51148  22465001.3054   22465002.6164   22465001.8754
       237.000         193.000
 107287574.37748  83600699.36348  20416151.2484   20416152.7344   20416150.9744
       252.000         237.000
 122771739.82548  95666285.85448  23362688.6834   23362690.2644   23362688.6564
       229.000         186.000
 120720364.22448  94067797.89448  22972337.4554   22972339.2104   22972337.3764
       230.000         190.000
 133223295.66648 103810335.85148  25351569.3164   25351571.8564   25351570.2514
       209.000         142.000
 09  1 21  0 29 30.0000000  0 10G 9G 5G26G27G28G18G15G17G12G10
 108690371.37648  84693788.83048  20683092.5184   20683095.1754   20683092.4524
       248.000         220.000
 136770872.17848  88782486.21548  24123703.2444   24123705.6134   24123703.8904
       224.000         170.000
 111882422.13748  87181099.41148  21290523.5694   21290525.9124   21290523.5894
       247.000         215.000
 129875664.63948 101201800.74948  24714527.6594   24714530.8064   24714527.9324
       219.000         166.000
 126283282.13748  98402552.42548  24030912.7794   24030914.4454   24030913.3874
       222.000         167.000
 118021419.98948  91964740.40848  22458731.8614   22458732.9774   22458732.4514
       237.000         194.000
 107308620.65748  83617099.06448  20420156.2544   20420157.6564   20420155.9634
       252.000         237.000
 122744249.77848  95644865.04648  23357457.2054   23357458.9554   23357457.3274
       229.000         186.000
 120619779.16648  93989419.93648  22953196.7594   22953198.2874   22953196.4904
       230.000         191.000
 133332562.76948 103895479.07048  25372362.0794   25372364.9214   25372364.1154
       209.000         139.000
 09  1 21  0 30  0.0000000  0 10G 9G 5G26G27G28G18G15G17G12G10
 108640208.62448  84654700.97448  20673546.9434   20673549.2894   20673547.1554
       247.000         220.000
 136659753.24148  88695900.04648  24102558.0584   24102560.7364   24102558.5314
       221.000         170.000
 111952347.51948  87235586.72048  21303829.8344   21303832.2844   21303829.9584
       245.000         215.000
 129945667.75448 101256348.59648  24727848.4564   24727852.3094   24727849.3384
       217.000         165.000
 126373351.03548  98472735.98548  24048052.3724   24048054.1864   24048053.0114
       222.000         165.000
 117989028.24748  91939500.09048  22452567.8104   22452569.2134   22452568.2724
       236.000         194.000
 107330123.12548  83633854.22648  20424248.0234   20424249.3804   20424247.8874
       251.000         236.000
 122717254.89848  95623830.10548  23352320.2684   23352321.9754   23352320.3054
       230.000         187.000
 120519450.83348  93911242.03648  22934104.3984   22934106.4194   22934104.3784
       231.000         190.000
 133441734.07848 103980547.64448  25393136.7904   25393140.1784   25393139.3204
       205.000         138.000
 09  1 21  0 30 30.0000000  0 10G 9G 5G26G27G28G18G15G17G12G10
 108590351.75948  84615851.47548  20664059.3754   20664062.1424   20664059.3624
       249.000         221.000
 136548782.55448  88609429.39348  24081440.8494   24081443.5984   24081442.2054
       221.000         170.000
 112022628.92648  87290351.44448  21317204.0204   21317206.4764   21317203.8664
       247.000         215.000
 130015689.10148 101310910.67348  24741173.1494   24741176.0384   24741173.4784
       218.000         165.000
 126463584.57648  98543047.83648  24065223.3834   24065225.0684   24065224.4704
       220.000         165.000
 117957192.57048  91914693.05748  22446509.8224   22446510.8014   22446510.4304
       236.000         193.000
 107352081.88848  83650964.94548  20428426.6414   20428428.0564   20428426.3604
       253.000         236.000
 122690756.53348  95603182.03748  23347277.6334   23347279.4534   23347277.4874
       231.000         188.000
 120419381.18648  93833265.68548  22915061.8114   22915063.4794   22915061.5074
       229.000         189.000
 133550807.27548 104065539.73848  25413892.2514   25413895.4964   25413893.2754
       204.000         139.000
 09  1 21  0 31  0.0000000  0 10G 9G 5G26G27G28G18G15G17G12G10
 108540800.69748  84577240.26248  20654630.2964   20654632.5624   20654630.9864
       249.000         220.000
 136437961.68048  88523075.47048  24060352.2744   24060355.0704   24060352.6384
       220.000         169.000
 112093264.78648  87345392.36848  21330645.6194   21330648.0034   21330645.6434
       246.000         215.000
 130085728.14748 101365486.51148  24754501.3104   24754504.2804   24754501.4324
       218.000         166.000
 126553980.14748  98613485.94748  24082424.9734   24082427.4434   24082425.3264
       219.000         165.000
 117925913.57948  91890319.81848  22440557.2434   22440558.6984   22440557.7794
       235.000         192.000
 107374496.78548  83668431.09448  20432691.9664   20432693.5234   20432691.6834
       252.000         236.000
 122664755.98548  95582921.89048  23342330.3504   23342331.6184   23342330.2474
       233.000         189.000
 120319571.82848  93755492.17048  22896068.6774   22896070.4264   22896069.0214
       230.000         190.000
 133659779.74648 104150453.32148  25434629.8554   25434632.9624   25434630.8874
       208.000         140.000
 09  1 21  0 31 30.0000000  0 10G 9G 5G26G27G28G18G15G17G12G10
 108491556.96448  84538868.51648  20645259.4744   20645262.0264   20645259.8484
       249.000         221.000
 136327293.59548  88436840.61848  24039292.6924   24039295.8004   24039292.7274
       222.000         172.000
 112164255.41448  87400709.74348  21344154.4484   21344156.8944   21344154.4804
       246.000         214.000
 130155786.05948 101420077.08348  24767833.1924   24767836.0534   24767832.9564
       218.000         165.000
 126644536.97748  98684049.71048  24099657.1544   24099659.1274   24099658.9504
       220.000         162.000
 117895193.33348  91866381.96448  22434711.2544   22434712.6884   22434711.5264
       236.000         193.000
 107397368.96448  83686253.56748  20437044.5194   20437046.0274   20437044.1954
       253.000         236.000
 122639255.66448  95563051.51148  23337477.5924   23337479.4504   23337477.7134
       233.000         189.000
 120220025.61048  93677923.69948  22877125.9144   22877127.6554   22877125.9114
       230.000         191.000
 133768650.39748 104235287.61148  25455346.0074   25455351.7294   25455347.9304
       205.000         141.000
 09  1 21  0 32  0.0000000  0 10G 9G 5G26G27G28G18G15G17G12G10
 108442619.20948  84500735.20548  20635946.8634   20635949.3444   20635947.2164
       248.000         221.000
 136216778.49848  88350724.97548  24018262.1584   24018265.7054   24018263.0844
       220.000         171.000
 112235598.38948  87456301.65948  21357730.9344   21357733.2744   21357731.0804
       246.000         215.000
 130225861.41248 101474681.21248  24781167.2684   24781171.1324   24781166.9904
       218.000         165.000
 126735251.21648  98754736.13248  24116919.5934   24116921.7464   24116920.4844
       218.000         163.000
 117865030.99548  91842878.84348  22428971.7314   22428973.3604   22428972.2554
       236.000         194.000
 107420696.90348  83704431.18348  20441483.6944   20441485.1954   20441483.3964
       252.000         236.000
 122614255.25848  95543570.69348  23332720.1394   23332721.9414   23332720.1114
       233.000         189.000
 120120742.95248  93600560.60848  22858232.7184   22858235.0944   22858232.6664
       230.000         191.000
 133877415.26348 104320039.43948  25476044.5734   25476049.0584   25476045.0034
       206.000         143.000
 09  1 21  0 32 30.0000000  0 11G 9G 5G26G27G28G18G15G17G12G22G10
 108393988.57748  84462841.20948  20626692.8094   20626695.3744   20626692.8844
       248.000         221.000
 136106419.05248  88264730.62848  23997261.6274   23997264.9594   23997261.7654
       222.000         172.000
 112307293.34948  87512167.85948  21371373.7684   21371376.3304   21371373.8544
       246.000         214.000
 130295954.97348 101529299.55848  24794506.4354   24794509.6544   24794506.0264
       219.000         167.000
 126826120.99948  98825543.74648  24134211.4314   24134213.6584   24134211.1104
       218.000         164.000
 117835428.32448  91819811.83248  22423338.4964   22423340.0554   22423338.8864
       237.000         194.000
 107444482.10248  83722965.10348  20446009.7904   20446011.3474   20446009.5564
       253.000         236.000
 122589757.19148  95524481.31448  23328058.0484   23328060.0404   23328058.0424
       231.000         188.000
 120021726.64648  93523405.07048  22839390.5904   22839392.7074   22839390.6924
       230.000         192.000
 138203991.35058  89899216.99458  24396406.8775   24396405.7765   24396408.2315
       222.000         160.000
 133986072.61948 104404707.46048  25496720.8224   25496725.0224   25496722.5164
       204.000         140.000
 09  1 21  0 33  0.0000000  0 11G 9G 5G26G27G28G18G15G17G12G22G10
 108345665.14048  84425186.58148  20617497.1444   20617499.8904   20617497.5554
       248.000         222.000
 135996216.45148  88178858.51548  23976290.3204   23976294.0244   23976291.4604
       221.000         172.000
 112379338.77048  87568307.13348  21385083.7624   21385086.0604   21385083.8334
       245.000         213.000
 130366066.08048 101583931.59848  24807848.4534   24807851.1384   24807849.0064
       219.000         168.000
 126917143.69048  98896470.52848  24151532.5574   24151534.6984   24151533.2964
       219.000         162.000
 117806385.51848  91797181.06048  22417811.7604   22417813.4404   22417812.3624
       236.000         194.000
 107468724.06548  83741854.93848  20450622.8844   20450624.3864   20450622.6664
       252.000         236.000
 122565762.49048  95505784.16248  23323492.3024   23323494.0934   23323491.7474
       231.000         189.000
 119922978.29348  93446458.30548  22820599.4244   22820601.4274   22820598.8604
       232.000         193.000
 138130851.50048  89842224.84348  24382487.9204   24382487.9084   24382488.8264
       221.000         167.000
 134094619.64548 104489289.55148  25517377.3524   25517379.5234   25517377.7114
       195.000         137.000
 09  1 21  0 33 30.0000000  0 11G 9G 5G26G27G28G18G15G17G12G22G10
 108297650.23548  84387772.37148  20608360.0684   20608362.9314   20608360.1394
       249.000         222.000
 135886173.51948  88093110.80648  23955350.0584   23955353.5684   23955350.2684
       222.000         172.000
 112451734.61648  87624719.48148  21398860.0264   21398862.2504   21398859.7884
       245.000         213.000
 130436195.50948 101638577.88848  24821193.1114   24821196.3034   24821192.7704
       219.000         165.000
 127008318.17648  98967515.57348  24168882.5924   24168884.6114   24168883.8324
       217.000         164.000
 117777904.50348  91774988.05848  22412391.8364   22412393.6084   22412392.5784
       236.000         193.000
 107493423.86548  83761101.53248  20455323.0934   20455324.5054   20455322.7584
       253.000         236.000
 122542273.42848  95487481.00148  23319022.6034   23319024.3004   23319022.1004
       232.000         189.000
 119824500.08648  93369722.04948  22801859.8834   22801861.6014   22801860.1074
       232.000         192.000
 138058093.56648  89785530.38548  24368642.0624   24368643.0414   24368640.3444
       210.000         165.000
 134203055.02948 104573784.62048  25538010.4514   25538014.8044   25538010.9804
       201.000         135.000
 09  1 21  0 34  0.0000000  0 11G 9G 5G26G27G28G18G15G17G12G22G10
 108249944.66048  84350599.19348  20599282.4534   20599284.7924   20599282.6764
       249.000         222.000
 135776292.76348  88007489.47048  23934440.7434   23934443.8924   23934442.3174
       222.000         173.000
 112524480.62148  87681404.66548  21412703.1124   21412705.5284   21412703.0564
       245.000         213.000
 130506344.08148 101693239.10448  24834542.1184   24834544.7824   24834542.9464
       220.000         167.000
 127099642.90748  99038677.69348  24186261.2354   24186263.4264   24186260.4694
       220.000         162.000
 117749986.49748  91753233.75248  22407079.6114   22407080.7924   22407079.9874
       237.000         193.000
 107518582.49848  83780705.65248  20460110.7234   20460112.2444   20460110.6234
       253.000         236.000
 122519292.09248  95469573.46648  23314649.0534   23314650.8034   23314648.8034
       232.000         188.000
 119726294.93448  93293198.56148  22783171.8764   22783173.8564   22783171.3494
       231.000         193.000
 137985720.56248  89729135.82848  24354870.2684   24354871.7904   24354869.5764
       222.000         165.000
 134311376.80048 104658191.21048  25558623.1514   25558627.3704   25558623.5894
       196.000         133.000
 09  1 21  0 34 30.0000000  0 10G 9G 5G26G27G28G18G15G17G12G22
 108202549.00248  84313667.51448  20590263.0864   20590265.7294   20590263.3614
       248.000         222.000
 135666576.24048  87921996.12848  23913562.2574   23913565.6494   23913562.7254
       223.000         172.000
 112597575.87048  87738361.99648  21426612.7524   21426615.2564   21426612.7754
       245.000         213.000
 130576511.94048 101747915.33348  24847894.8024   24847897.4214   24847895.5144
       218.000         165.000
 127191116.10948  99109955.48648  24203668.4494   24203670.0234   24203669.2974
       219.000         162.000
 117722632.73048  91731919.13548  22401874.4594   22401875.5584   22401875.5794
       236.000         193.000
 107544199.96948  83800667.31548  20464985.4934   20464987.0464   20464985.1814
       252.000         235.000
 122496820.13248  95452062.86548  23310372.9514   23310374.9174   23310372.1894
       232.000         189.000
 119628364.83648  93216889.41748  22764536.5744   22764538.5614   22764536.6264
       231.000         194.000
 137913734.61648  89673042.82548  24341172.1044   24341171.6944   24341172.3824
       216.000         163.000
 09  1 21  0 35  0.0000000  0 10G 9G 5G26G27G28G18G15G17G12G22
 108155461.97048  84276976.32048  20581302.6324   20581305.1274   20581302.9274
       249.000         222.000
 135557024.05148  87836630.82848  23892715.2574   23892718.6304   23892716.6924
       224.000         175.000
 112671017.76048  87795589.43448  21440588.3464   21440590.7874   21440588.1864
       244.000         213.000
 130646697.43148 101802605.31448  24861250.4954   24861253.3224   24861251.2324
       217.000         163.000
 127282733.55548  99181345.70548  24221102.2344   24221104.0854   24221103.1764
       215.000         161.000
 117695842.25848  91711043.44548  22396776.1414   22396777.5394   22396776.7704
       236.000         193.000
 107570274.94648  83820985.47348  20469947.4354   20469948.8604   20469947.0964
       253.000         235.000
 122474857.08148  95434948.80248  23306193.4644   23306195.1794   23306193.2434
       233.000         189.000
 119530709.92348  93140794.70148  22745953.5194   22745955.5164   22745953.6634
       232.000         195.000
 137842136.23048  89617251.91848  24327547.5514   24327547.4454   24327547.3314
       218.000         167.000
 09  1 21  0 35 30.0000000  0 10G 9G 5G26G27G28G18G15G17G12G22
 118108650.66858  74240495.25658  20572401.2745   20572404.1345   20572401.5785
       248.000         222.000
 115447629.85558 107751386.40958  23871899.7215   23871903.6735   23871899.2785
       223.000         175.000
 122744798.95258  77853079.50258  21454629.8255   21454632.4005   21454629.8755
       244.000         213.000
 140716912.48758  91857322.54158  24874610.5095   24874612.9325   24874610.3115
       220.000         164.000
 137374495.80858  89252848.95758  24238564.2665   24238565.8535   24238564.6845
       219.000         160.000
 127669616.49158  81690606.53958  22391785.6855   22391787.2985   22391786.5195
       237.000         193.000
 117596809.61058  73841664.83258  20474996.7585   20474998.2275   20474996.4725
       253.000         235.000
 132453405.15858  85418232.81058  23302111.8675   23302112.7865   23302112.7135
       234.000         190.000
 129433399.11458  83064980.48058  22727423.8165   22727425.1215   22727423.3465
       233.000         195.000
 117770918.27958 109561754.03458  24313997.7605   24313997.5895   24313996.9175
       218.000         168.000
 09  1 21  0 36  0.0000000  0 10G 9G 5G26G27G28G18G15G17G12G22
 118062184.18048  74204287.60648  20563559.0854   20563561.6744   20563559.1874
       249.000         222.000
 115338414.26448 107666283.39948  23851116.5084   23851120.4904   23851117.0814
       221.000         174.000
 122818933.36848  77910846.57148  21468737.0734   21468739.6824   21468736.8814
       244.000         212.000
 140787135.73248  91912041.92948  24887972.8784   24887976.2004   24887973.5224
       218.000         162.000
 137466397.86648  89324460.94648  24256052.0564   24256054.0284   24256054.9394
       217.000         159.000
 127643957.12448  81670612.21448  22386902.7124   22386904.5354   22386903.2524
       236.000         193.000
 117623802.63048  73862698.34948  20480133.3614   20480134.9134   20480133.0464
       253.000         235.000
 132432466.67148  85401917.11048  23298127.0064   23298128.7594   23298127.1394
       234.000         191.000
 129336303.19048  82989321.32548  22708947.1704   22708948.1264   22708946.8724
       234.000         194.000
 117700103.70048 109506573.84748  24300521.6454   24300522.3874   24300520.5094
       217.000         167.000
 09  1 21  0 36 30.0000000  0 10G 9G 5G26G27G28G18G15G17G12G22
 118016029.27748  74168322.74848  20554776.2034   20554778.6834   20554776.2114
       249.000         222.000
 115229370.02148 107581313.89948  23830366.1694   23830370.2144   23830366.9684
       221.000         176.000
 122893413.01848  77968882.65648  21482910.1754   21482912.5994   21482910.1634
       244.000         212.000
 140857378.21148  91966776.30648  24901339.7394   24901342.5484   24901340.2004
       217.000         162.000
 137558439.39948  89396181.61848  24273566.9454   24273568.8754   24273567.7444
       215.000         160.000
 127618864.58848  81651059.58348  22382128.0184   22382129.0264   22382128.8004
       237.000         194.000
 117651255.14848  73884089.92048  20485357.5694   20485359.0084   20485357.4984
       252.000         235.000
 132412042.73848  85386002.36548  23294240.2644   23294242.5334   23294240.5294
       232.000         192.000
 129239489.65248  82913882.22648  22690524.0004   22690525.0714   22690524.3124
       233.000         194.000
 117629684.38148 109451701.62548  24287121.7474   24287121.0254   24287122.8854
       224.000         169.000
 09  1 21  0 37  0.0000000  0 10G 9G 5G26G27G28G18G15G17G12G22
 117970186.22848  74132600.89348  20546052.6064   20546055.0744   20546052.7914
       249.000         223.000
 115120498.95048 107496479.34648  23809648.8334   23809652.5874   23809649.0134
       223.000         176.000
 122968236.49048  78027186.65448  21497148.6014   21497151.3614   21497148.5924
       243.000         212.000
 140927639.98648  92021525.71748  24914709.9424   24914713.1554   24914710.9434
       219.000         166.000
 137650618.37648  89468009.35748  24291107.6584   24291109.8844   24291108.9394
       212.000         157.000
 127594339.40448  81631949.04448  22377461.0324   22377462.3074   22377461.4404
       236.000         194.000
 117679167.20948  73905839.57648  20490668.9934   20490670.4584   20490668.8014
       252.000         235.000
 132392134.75748  85370489.66948  23290452.0364   23290453.7944   23290452.0154
       233.000         192.000
 129142960.52148  82838664.73248  22672154.7214   22672156.0244   22672154.3794
       234.000         195.000
 117559662.42448 109397139.05148  24273796.6744   24273796.1304   24273795.8784
       219.000         165.000
 09  1 21  0 37 30.0000000  0 10G 9G 5G26G27G28G18G15G17G12G22
 117924655.43248  74097122.35648  20537388.3924   20537390.9324   20537388.3334
       249.000         223.000
 115011802.98448 107411781.19348  23788964.7274   23788968.1034   23788965.9674
       224.000         176.000
 123043403.27548  78085758.17348  21511452.2684   21511454.9474   21511452.1494
       244.000         211.000
 140997921.00848  92076290.13648  24928084.7414   24928086.8664   24928085.3464
       220.000         164.000
 137742932.40948  89539942.38448  24308674.2724   24308676.7564   24308672.9194
       211.000         157.000
 127570382.71948  81613281.50148  22372902.0354   22372903.5764   22372902.5864
       236.000         194.000
 117707538.68948  73927947.21748  20496067.9624   20496069.3824   20496067.6754
       253.000         235.000
 132372743.60448  85355379.68548  23286762.3634   23286763.8964   23286762.1804
       234.000         192.000
 129046717.64848  82763670.29948  22653840.2974   22653841.8704   22653840.3134
       234.000         195.000
 117490040.08448 109342887.86248  24260547.4054   24260547.8174   24260546.3854
       221.000         165.000
 09  1 21  0 38  0.0000000  0 10G 9G 5G26G27G28G18G15G17G12G22
 117879435.60648  74061886.12748  20528783.2084   20528785.6674   20528783.5264
       249.000         222.000
 114903282.31248 107327219.65448  23768313.6134   23768317.1094   23768314.7774
       223.000         176.000
 123118910.30848  78144594.81148  21525820.6584   21525823.4834   21525820.4044
       243.000         211.000
 141068219.67348  92131068.32948  24941462.3134   24941464.6124   24941462.7264
       219.000         167.000
 137835377.96048  89611977.87148  24326265.7394   24326268.1554   24326265.4704
       213.000         155.000
 127546993.45048  81595056.07448  22368451.1344   22368452.8294   22368451.5194
       235.000         194.000
 117736368.68548  73950412.14448  20501554.1394   20501555.4964   20501554.0214
       253.000         235.000
 132353869.39548  85340672.51648  23283170.7254   23283172.3374   23283170.5304
       234.000         193.000
 128950761.13848  82688899.00648  22635580.4944   22635581.9594   22635580.6844
       235.000         196.000
 117420817.49348 109288948.16648  24247375.5124   24247375.8864   24247378.3774
       220.000         169.000
 09  1 21  0 38 30.0000000  0 10G 9G 5G26G27G28G18G15G17G12G22
 117834528.70448  74026893.73848  20520237.8464   20520240.1944   20520238.1364
       250.000         223.000
 114794940.34248 107242797.34148  23747696.8484   23747700.4764   23747697.4414
       223.000         176.000
 123194758.35148  78203697.18248  21540254.1944   21540256.8184   21540253.9434
       243.000         211.000
 141138537.81448  92185861.64048  24954842.4664   24954845.6054   24954842.2964
       221.000         166.000
 137927954.45848  89684115.34748  24343882.9474   24343884.8634   24343885.6624
       209.000         151.000
 127524173.78948  81577274.50748  22364108.9594   22364110.5374   22364109.2294
       235.000         194.000
 117765658.60448  73973235.45448  20507127.6374   20507129.2254   20507127.3044
       252.000         235.000
 132335515.05348  85326370.44748  23279677.5514   23279679.7574   23279677.5164
       233.000         192.000
 128855094.73148  82614353.76448  22617375.8944   22617377.3474   22617375.6004
       235.000         196.000
 117351998.67648 109235323.09248  24234279.6344   24234279.7484   24234278.2944
       215.000         164.000
 09  1 21  0 39  0.0000000  0 10G 9G 5G26G27G28G18G15G17G12G22
 117789935.77248  73992146.00148  20511752.1174   20511754.4524   20511752.2954
       251.000         223.000
 114686779.48748 107158516.17048  23727114.5514   23727117.8044   23727115.2584
       225.000         177.000
 123270946.87248  78263064.85548  21554752.3874   21554754.9874   21554752.3334
       243.000         211.000
 141208875.75748  92240670.40148  24968228.0664   24968230.2244   24968228.4984
       220.000         165.000
 138020660.23548  89756353.61448  24361523.8324   24361526.2824   24361524.5254
       207.000         151.000
 127501924.87848  81559937.68448  22359875.1334   22359876.5904   22359875.5194
       236.000         195.000
 117795408.88548  73996417.48448  20512788.8974   20512790.6184   20512788.6914
       252.000         235.000
 132317682.03648  85312474.62048  23276284.0794   23276286.0194   23276283.8874
       233.000         192.000
 128759720.59448  82540036.27648  22599226.7684   22599228.4294   22599226.8754
       235.000         196.000
 117283586.09748 109182014.61248  24221260.1264   24221261.6064   24221261.2674
       215.000         166.000
 09  1 21  0 39 30.0000000  0 10G 9G 5G26G27G28G18G15G17G12G22
 117745656.42148  73957642.61648  20503325.8734   20503328.5074   20503326.3474
       250.000         223.000
 114578801.12448 107074377.19848  23706567.1244   23706570.2784   23706568.3114
       225.000         176.000
 123347474.36348  78322696.66248  21569315.2014   21569317.8774   21569315.1234
       243.000         211.000
 141279233.22648  92295494.39348  24981616.8234   24981619.3264   24981618.0944
       219.000         165.000
 138113493.05748  89828690.86048  24379189.7264   24379192.1674   24379188.9564
       207.000         152.000
 127480246.88348  81543045.74148  22355749.9184   22355751.6524   22355751.0164
       236.000         195.000
 117825619.59648  74019958.29448  20518537.8564   20518539.4524   20518537.7034
       252.000         234.000
 132300371.13648  85298985.61748  23272990.0524   23272992.1494   23272990.0394
       233.000         192.000
 128664640.30048  82465947.75548  22581133.4154   22581135.2774   22581133.3384
       234.000         197.000
 117215581.05748 109129023.67548  24208318.8774   24208321.2114   24208320.7864
       220.000         170.000
 09  1 21  0 40  0.0000000  0 10G 9G 5G26G27G28G18G15G17G12G22
 117701691.27948  73923384.07148  20494959.7204   20494962.1094   20494960.0414
       250.000         223.000
 114471007.01148 106990381.80948  23686054.5294   23686057.6174   23686055.3244
       226.000         177.000
 123424339.66348  78382591.70648  21583942.0434   21583944.9224   21583941.8294
       243.000         211.000
 141349610.29048  92350333.66048  24995009.1144   24995012.0944   24995010.3524
       218.000         165.000
 138206450.35148  89901125.09848  24396879.6694   24396881.1944   24396880.7764
       211.000         152.000
 127459139.93948  81526598.76648  22351733.5704   22351735.3004   22351733.2584
       238.000         196.000
 117856290.27348  74043857.52048  20524374.3444   20524375.8334   20524374.1214
       252.000         234.000
 132283583.57248  85285904.41648  23269795.3774   23269797.3344   23269795.2614
       235.000         192.000
 128569855.58548  82392089.55348  22563096.3314   22563098.3174   22563095.8204
       234.000         197.000
 117147985.70248 109076351.96548  24195457.2074   24195457.9664   24195456.6644
       218.000         170.000
 09  1 21  0 40 30.0000000  0 10G 9G 5G26G27G28G18G15G17G12G22
 117658040.48148  73889370.47348  20486652.9544   20486655.7254   20486653.2124
       251.000         223.000
 114363398.67748 106906531.17348  23665577.6144   23665580.4104   23665577.9384
       224.000         177.000
 123501541.48048  78442748.95448  21598633.0304   21598635.7844   21598632.9944
       243.000         210.000
 141420006.67448  92405187.95048  25008404.1194   25008408.1824   25008404.3234
       216.000         160.000
 138299529.86848  89973654.59948  24414592.3644   24414593.7824   24414593.7704
       213.000         155.000
 127438604.65948  81510597.23948  22347826.1644   22347827.3554   22347826.8604
       237.000         196.000
 117887420.78348  74068115.05948  20530298.3034   20530299.7644   20530298.0764
       252.000         234.000
 132267320.26348  85273231.71448  23266700.5744   23266702.3554   23266700.6084
       234.000         192.000
 128475368.02548  82318462.89948  22545115.7394   22545117.7054   22545115.5154
       236.000         197.000
 117080801.78348 109024000.89548  24182672.4944   24182672.9694   24182673.2564
       221.000         171.000
 09  1 21  0 41  0.0000000  0 10G 9G 5G26G27G28G18G15G17G12G22
 117614704.62248  73855602.28348  20478406.4864   20478409.2114   20478406.7054
       250.000         223.000
 114255978.24648 106822826.96748  23645136.1064   23645139.0434   23645136.5814
       226.000         179.000
 123579078.86348  78503167.69148  21613388.0264   21613390.6144   21613387.9484
       243.000         210.000
 141490422.80648  92460057.64948  25021803.8994   25021806.8434   25021803.3324
       216.000         160.000
 138392730.08348  90046278.13348  24432327.7844   24432329.1714   24432327.3944
       209.000         154.000
 127418642.04648  81495041.95348  22344027.2384   22344028.6444   22344028.2524
       235.000         195.000
 117919011.43748  74092731.15348  20536309.8154   20536311.2094   20536309.5614
       252.000         234.000
 132251582.19348  85260968.30448  23263705.7334   23263707.5664   23263705.7164
       233.000         192.000
 128381179.52648  82245069.26748  22527192.8594   22527193.9364   22527192.8994
       236.000         198.000
 117014031.60648 108971972.16548  24169967.0724   24169966.8554   24169967.2274
       222.000         172.000
 09  1 21  0 41 30.0000000  0 10G 9G 5G26G27G28G18G15G17G12G22
 117571683.72848  73822079.50948  20470219.9334   20470222.5874   20470220.0774
       249.000         223.000
 114148747.22748 106739270.33148  23624730.4794   23624733.4734   23624730.9664
       225.000         177.000
 123656950.62048  78563846.97048  21628206.6234   21628209.0334   21628206.4894
       243.000         210.000
 141560858.36148  92514942.52048  25035207.6914   25035211.2094   25035208.1424
       218.000         162.000
 138486048.31048  90118993.59448  24450085.7804   24450087.7234   24450084.9644
       214.000         155.000
 127399251.59448  81479932.49348  22340337.1614   22340338.7514   22340337.4224
       235.000         195.000
 117951061.86348  74117705.50848  20542408.6064   20542410.2694   20542408.4404
       252.000         234.000
 132236371.06448  85249115.48948  23260810.9804   23260812.9304   23260810.6484
       231.000         191.000
 128287291.77348  82171909.98548  22509326.6394   22509328.0544   22509326.5054
       236.000         200.000
 116947676.69748 108920267.01148  24157340.2614   24157340.3074   24157340.8634
       224.000         172.000
 09  1 21  0 42  0.0000000  0 10G 9G 5G26G27G28G18G15G17G12G22
 117528979.02748  73788803.13148  20462093.4174   20462096.2404   20462093.3344
       251.000         224.000
 114041708.38748 106655863.46048  23604361.7964   23604364.7924   23604362.1784
       226.000         180.000
 123735156.39048  78624786.53848  21643088.6694   21643091.0614   21643088.5984
       243.000         209.000
 141631314.40348  92569843.34648  25048614.8054   25048618.4484   25048615.2074
       217.000         162.000
 138579483.51248  90191800.23348  24467866.3114   24467867.4734   24467866.5084
       214.000         156.000
 127380435.39848  81465270.51648  22336756.4344   22336758.3004   22336756.8244
       237.000         195.000
 117983572.89648  74143038.77148  20548595.5034   20548596.9964   20548595.2734
       252.000         234.000
 132221688.54348  85237674.58548  23258017.0684   23258018.6974   23258016.7954
       230.000         191.000
 128193707.54348  82098987.24148  22491517.8774   22491519.6114   22491517.7834
       236.000         200.000
 116881740.14848 108868887.89948  24144792.3104   24144792.3494   24144793.8304
       219.000         164.000
 09  1 21  0 42 30.0000000  0 10G 9G 5G26G27G28G18G15G17G12G22
 117486589.60448  73755772.41748  20454027.1454   20454029.8114   20454027.6394
       251.000         224.000
 113934861.96448 106572606.52748  23584029.4534   23584032.7094   23584030.4854
       224.000         179.000
 123813693.76648  78685984.48248  21658033.9994   21658036.3504   21658033.9354
       244.000         210.000
 141701789.24248  92624758.76548  25062026.2384   25062029.5874   25062026.3424
       221.000         164.000
 138673032.01348  90264695.13148  24485668.6274   24485669.0054   24485669.5714
       213.000         155.000
 127362191.98548  81451054.85748  22333284.8564   22333286.6584   22333285.7204
       235.000         195.000
 118016543.01448  74168729.77348  20554869.5054   20554870.8834   20554869.1864
       252.000         234.000
 132207533.82948  85226644.94948  23255323.4244   23255325.1844   23255323.0354
       233.000         192.000
 128100426.97048  82026301.10448  22473767.1164   22473769.0114   22473767.1324
       237.000         199.000
 116816222.56548 108817835.20748  24132323.9014   24132324.4264   24132324.4174
       216.000         162.000
 09  1 21  0 43  0.0000000  0 10G 9G 5G26G27G28G18G15G17G12G22
 117444517.08248  73722988.63748  20446020.9634   20446023.4954   20446020.8544
       251.000         224.000
 113828211.02348 106489501.91948  23563734.4324   23563737.6484   23563734.8284
       227.000         180.000
 123892562.67348  78747440.78048  21673042.0984   21673044.6464   21673042.1464
       243.000         209.000
 141772284.34148  92679690.02648  25075440.9534   25075443.5124   25075442.1814
       216.000         160.000
 138766693.18148  90337677.85348  24503491.3594   24503492.3674   24503491.6324
       214.000         154.000
 127344523.03948  81437286.84748  22329922.5164   22329924.2774   22329923.3454
       235.000         196.000
 118049973.57948  74194779.55948  20561231.1534   20561232.5484   20561231.0174
       252.000         234.000
 132193909.52448  85216028.61748  23252730.8784   23252732.7494   23252731.1274
       232.000         193.000
 128007453.17648  81953854.00548  22456074.6664   22456076.4064   22456074.9124
       236.000         199.000
 116751126.68448 108767111.17348  24119936.8234   24119937.0174   24119937.8584
       221.000         166.000
 09  1 21  0 43 30.0000000  0 10G 9G 5G26G27G28G18G15G17G12G22
 117402761.85748  73690452.10248  20438075.2594   20438077.7654   20438075.3074
       250.000         224.000
 113721757.30048 106406550.98148  23543477.0764   23543480.2124   23543477.5864
       226.000         181.000
 123971762.03748  78809154.55748  21688113.0214   21688115.7694   21688112.8024
       241.000         209.000
 141842799.76248  92734637.10648  25088859.7104   25088863.1364   25088859.7404
       218.000         164.000
 138860464.77348  90410746.62448  24521334.8724   24521336.3914   24521335.9854
       216.000         151.000
 127327429.09348  81423966.88248  22326669.7334   22326671.3914   22326670.2294
       236.000         195.000
 118083864.65448  74221188.18848  20567680.2964   20567681.8224   20567680.1644
       252.000         234.000
 132180816.45348  85205826.24848  23250239.4034   23250241.3394   23250239.0374
       232.000         193.000
 127914787.75848  81881647.18648  22438441.3194   22438442.7614   22438441.1674
       237.000         201.000
 116686454.49448 108716717.24348  24107630.3214   24107630.7984   24107630.3844
       218.000         165.000
 09  1 21  0 44  0.0000000  0 10G 9G 5G26G27G28G18G15G17G12G22
 117361324.83248  73658163.51848  20430189.9634   20430192.4974   20430189.9934
       250.000         224.000
 113615503.20048 106323755.60948  23523257.3114   23523261.1454   23523257.7084
       224.000         181.000
 124051291.24548  78871125.36348  21703246.9184   21703249.5254   21703246.6964
       243.000         208.000
 141913336.23348  92789600.56248  25102282.4264   25102285.5374   25102282.6974
       218.000         165.000
 138954345.18448  90483900.18048  24539200.0514   24539200.5424   24539200.7654
       211.000         149.000
 127310910.99148  81411095.62748  22323526.5234   22323528.1124   22323527.1274
       236.000         196.000
 118118216.56548  74247955.90948  20574217.3324   20574218.7394   20574216.9744
       251.000         233.000
 132168256.33248  85196039.16048  23247849.7194   23247851.0484   23247849.3274
       234.000         194.000
 127822433.41848  81809682.79048  22420866.8004   22420868.2104   22420866.7704
       238.000         202.000
 116622208.54548 108666655.43348  24095404.3794   24095405.5114   24095403.9904
       218.000         166.000
 09  1 21  0 44 30.0000000  0 10G 9G 5G26G27G28G18G15G17G12G22
 117320204.87448  73626121.99448  20422365.0574   20422367.7294   20422365.3114
       251.000         224.000
 113509449.03648 106241116.02148  23503075.9794   23503079.6904   23503076.3144
       226.000         182.000
 124131147.80448  78933351.25848  21718443.3844   21718445.7864   21718443.3384
       243.000         208.000
 141983892.32748  92844579.32748  25115708.8414   25115711.0464   25115709.0224
       218.000         160.000
 139048331.26648  90557136.10748  24557085.0704   24557085.4584   24557085.7514
       212.000         149.000
 127294967.72948  81398672.30648  22320492.4444   22320494.5124   22320492.9784
       235.000         195.000
 118153027.50648  74275081.32148  20580841.4984   20580843.1494   20580841.1414
       252.000         233.000
 132156228.67348  85186666.97548  23245560.5684   23245562.1104   23245560.4634
       233.000         193.000
 127730390.09148  81737960.72248  22403351.4514   22403352.9314   22403351.3864
       238.000         201.000
 116558389.46448 108616926.30848  24083260.8054   24083261.3204   24083261.8014
       221.000         171.000
 09  1 21  0 45  0.0000000  0 10G 9G 5G26G27G28G18G15G17G12G22
 117279403.74848  73594328.91048  20414600.8094   20414603.4924   20414600.9314
       251.000         225.000
 113403597.88048 106158634.61148  23482933.2474   23482936.8424   23482933.7964
       228.000         181.000
 124211331.71648  78995832.21648  21733701.8234   21733704.3814   21733701.8174
       242.000         208.000
 142054469.25548  92899574.30748  25129138.9294   25129142.5874   25129139.6124
       213.000         160.000
 139142421.95948  90630453.52348  24574989.1014   24574990.0924   24574988.6354
       208.000         146.000
 127279600.68248  81386697.97148  22317568.0034   22317569.8984   22317568.8084
       235.000         195.000
 118188298.99748  74302565.58848  20587553.4054   20587555.1154   20587553.2664
       251.000         233.000
 132144735.59748  85177711.33348  23243373.4044   23243375.0044   23243372.8634
       233.000         191.000
 127638660.90348  81666483.45448  22385895.8564   22385897.5094   22385895.7164
       239.000         201.000
 116495000.36048 108567532.21548  24071198.7754   24071198.6374   24071198.3814
       219.000         170.000
 09  1 21  0 45 30.0000000  0 10G 9G 5G26G27G28G18G15G17G12G22
 117238921.49848  73562784.30448  20406897.4104   20406899.9784   20406897.6824
       251.000         225.000
 113297951.30348 106076312.62348  23462829.2964   23462832.5704   23462830.1214
       228.000         180.000
 124291841.73248  79058567.28748  21749022.2254   21749024.7994   21749021.9404
       242.000         208.000
 142125066.93048  92954585.53648  25142572.8814   25142576.8004   25142572.7674
       213.000         160.000
 139236615.18048  90703850.84548  24592913.5114   24592913.7084   24592913.7804
       207.000         146.000
 127264810.15448  81375172.87548  22314753.9784   22314755.4724   22314754.1074
       237.000         196.000
 118224030.53948  74330408.34348  20594352.7264   20594354.6084   20594352.4204
       250.000         233.000
 132133778.10348  85169173.03548  23241288.6534   23241289.8614   23241288.8944
       232.000         192.000
 127547247.48848  81595252.23748  22368500.4804   22368502.0404   22368500.5644
       238.000         202.000
 116432042.98748 108518474.53648  24059217.6394   24059217.7034   24059216.4874
       221.000         169.000
 09  1 21  0 46  0.0000000  0 10G 9G 5G26G27G28G18G15G17G12G22
 117198758.65648  73531488.59048  20399254.7114   20399257.2644   20399255.1124
       251.000         224.000
 113192510.91148 105994151.29148  23442764.9334   23442768.0524   23442766.1424
       226.000         181.000
 124372676.46148  79121555.38448  21764404.6914   21764407.2624   21764404.5114
       242.000         208.000
 142195685.44548  93009612.89048  25156010.8824   25156014.7514   25156010.1654
       214.000         160.000
 139330908.60448  90777326.25648  24610856.9004   24610857.7644   24610855.8674
       206.000         147.000
 127250596.15948  81364097.03748  22312048.8484   22312050.7904   22312049.5464
       236.000         195.000
 118260221.78148  74358609.30548  20601239.7494   20601241.5514   20601239.2724
       251.000         233.000
 132123356.73648  85161052.50748  23239305.3034   23239306.9784   23239305.1934
       233.000         193.000
 127456151.36448  81524268.26948  22351165.7394   22351166.9474   22351165.2054
       239.000         202.000
 116369518.83848 108469754.41448  24047319.5544   24047320.5924   24047320.3854
       222.000         171.000
 09  1 21  0 46 30.0000000  0 10G 9G 5G26G27G28G18G15G17G12G22
 117158914.98648  73500441.57748  20391672.6404   20391675.1474   20391672.8574
       251.000         225.000
 113087278.36548 105912151.91448  23422739.7404   23422742.6024   23422739.8024
       228.000         181.000
 124453834.45848  79184795.37748  21779848.6644   21779850.9974   21779848.6434
       243.000         207.000
 142266324.50248  93064656.34248  25169453.5434   25169457.0354   25169453.6024
       217.000         159.000
 139425300.23348  90850878.15848  24628818.2134   24628820.2094   24628818.7044
       204.000         145.000
 127236958.72848  81353470.46248  22309453.6024   22309455.0554   22309454.0684
       236.000         194.000
 118296872.43648  74387168.26048  20608214.3694   20608215.8594   20608214.1514
       252.000         233.000
 132113472.43848  85153350.45848  23237424.1814   23237426.1414   23237423.9194
       232.000         192.000
 127365374.09948  81453532.74948  22333891.4914   22333892.2394   22333891.3564
       241.000         204.000
 116307429.82748 108421373.36148  24035504.9614   24035505.0934   24035506.1844
       222.000         172.000
 09  1 21  0 47  0.0000000  0 10G 9G 5G26G27G28G18G15G17G12G22
 117119391.07948  73469643.72448  20384151.4404   20384154.1044   20384151.3404
       251.000         224.000
 112982255.38048 105830315.82948  23402754.7114   23402757.4504   23402755.3804
       226.000         182.000
 124535314.65748  79248286.44048  21795353.6924   21795356.1584   21795353.7064
       241.000         206.000
 142336984.34248  93119715.98148  25182899.7654   25182903.4224   25182900.4934
       212.000         158.000
 139519788.01748  90924504.97748  24646799.5304   24646800.4154   24646799.8234
       208.000         148.000
 127223898.00648  81343293.25948  22306968.2654   22306970.0624   22306969.1164
       236.000         195.000
 118333982.34348  74416085.06448  20615276.2084   20615277.6404   20615275.9614
       252.000         233.000
 132104125.85248  85146067.41948  23235645.6944   23235647.3744   23235645.4794
       233.000         193.000
 127274917.46348  81383047.07048  22316677.9984   22316679.1624   22316678.0314
       241.000         204.000
 116245777.68448 108373332.76148  24023772.1684   24023772.5474   24023771.9054
       220.000         167.000
 09  1 21  0 47 30.0000000  0 10G 9G 5G26G27G28G18G15G17G12G22
 117080188.22148  73439096.04848  20376691.4414   20376693.9904   20376691.5064
       251.000         225.000
 112877444.29648 105748644.88048  23382809.2234   23382812.7934   23382809.5904
       227.000         180.000
 124617116.43948  79312028.07948  21810919.9654   21810922.8044   21810919.9984
       242.000         206.000
 142407665.58648  93174792.28048  25196350.1504   25196353.0414   25196349.8204
       218.000         160.000
 139614370.58348  90998205.69548  24664797.9974   24664799.0284   24664798.6414
       204.000         147.000
 127211414.87948  81333566.14748  22304593.2754   22304594.5094   22304593.7004
       238.000         196.000
 118371551.89948  74445360.04548  20622425.4824   20622426.9224   20622425.2494
       251.000         232.000
 132095318.37748  85139204.47248  23233969.9404   23233971.3504   23233969.9424
       232.000         192.000
 127184783.58148  81312812.88148  22299525.9684   22299527.3624   22299525.8264
       240.000         203.000
 116184564.86248 108325634.44848  24012124.6014   24012124.3364   24012124.7404
       223.000         171.000
 09  1 21  0 48  0.0000000  0 10G 9G 5G26G27G28G18G15G17G12G22
 117041305.57848  73408797.89448  20369292.4194   20369295.0054   20369292.8964
       251.000         225.000
 112772846.13648 105667139.83248  23362905.0274   23362908.2914   23362905.8364
       226.000         181.000
 124699237.81348  79376018.75848  21826547.3074   21826549.7834   21826547.6044
       240.000         205.000
 142478367.43648  93229884.66948  25209804.5604   25209806.8534   25209805.8844
       217.000         156.000
 139709045.04648  91071978.00748  24682813.6824   24682815.6624   24682812.5194
       204.000         149.000
 127199508.88548  81324288.74348  22302327.7114   22302329.0914   22302328.4424
       237.000         196.000
 118409580.27948  74474992.54148  20629662.0294   20629663.4604   20629661.8104
       251.000         232.000
 132087050.40548  85132761.88848  23232396.5494   23232397.9334   23232396.1814
       232.000         193.000
 127094973.53648  81242831.03948  22282435.2024   22282436.9864   22282435.1184
       239.000         203.000
 116123792.44348 108278279.33348  24000560.0954   24000560.2544   24000560.9674
       221.000         167.000
 09  1 21  0 48 30.0000000  0 10G 9G 5G26G27G28G18G15G17G12G22
 117002744.27048  73378750.11948  20361954.4534   20361956.8224   20361954.4704
       251.000         225.000
 112668463.32748 105585802.60848  23343041.2794   23343044.9584   23343041.5634
       225.000         181.000
 124781678.43548  79440258.19748  21842235.1754   21842237.6524   21842234.7914
       242.000         206.000
 142549090.90948  93284993.88848  25223262.5204   25223265.6464   25223263.5144
       217.000         163.000
 139803810.08848  91145820.87848  24700847.4754   24700848.6724   24700849.1154
       208.000         151.000
 127188180.50048  81315461.42748  22300171.4534   22300173.2624   22300171.9514
       236.000         195.000
 118448067.89148  74504982.88848  20636985.6694   20636987.4704   20636985.3114
       251.000         232.000
 132079323.02348  85126740.56448  23230925.7894   23230927.4814   23230925.3054
       233.000         193.000
 127005489.56848  81173103.28648  22265407.0994   22265409.1164   22265406.9374
       241.000         205.000
 116063463.16148 108231269.48448  23989078.8654   23989079.4174   23989080.3214
       218.000         165.000
 09  1 21  0 49  0.0000000  0 10G 9G 5G26G27G28G18G15G17G12G22
 116964504.54448  73348952.94048  20354677.5304   20354680.0444   20354677.7714
       251.000         225.000
 112564297.25048 105504634.25048  23323219.4054   23323222.8384   23323220.1444
       227.000         182.000
 124864436.49548  79504744.98448  21857983.5624   21857986.2194   21857983.6084
       242.000         206.000
 142619835.65748  93340119.64848  25236723.9144   25236727.9884   25236724.2994
       215.000         157.000
 139898663.14748  91219732.32648  24718898.0224   24718899.0244   24718899.8884
       210.000         152.000
 127177429.71648  81307084.18048  22298125.5504   22298127.5184   22298125.7104
       236.000         194.000
 118487014.04948  74535330.53448  20644396.8744   20644398.7144   20644396.4494
       250.000         231.000
 132072136.97048  85121141.04848  23229558.5584   23229560.0724   23229558.0584
       232.000         194.000
 126916333.12648  81103630.74048  22248441.6824   22248443.4684   22248441.6394
       241.000         205.000
 116003578.05148 108184605.74848  23977683.1594   23977683.3154   23977682.0944
       222.000         172.000
 09  1 21  0 49 30.0000000  0 10G 9G 5G26G27G28G18G15G17G12G22
 116926587.12348  73319406.89748  20347462.2624   20347464.5584   20347462.4974
       250.000         225.000
 112460350.01548 105423636.40048  23303439.0174   23303442.2024   23303439.4334
       227.000         183.000
 124947511.12948  79569478.45448  21873791.9704   21873794.7444   21873791.6314
       243.000         205.000
 142690602.06848  93395262.29448  25250190.6914   25250193.8294   25250191.5234
       212.000         153.000
 139993602.94448  91293711.42748  24736964.3754   24736965.7944   24736965.1324
       209.000         153.000
 127167257.08148  81299157.45148  22296190.0554   22296191.6344   22296190.6804
       236.000         196.000
 118526418.89048  74566035.60448  20651895.3864   20651897.2404   20651895.0614
       250.000         231.000
 132065493.33748  85115964.20248  23228294.3164   23228295.9024   23228294.2834
       233.000         194.000
 126827506.22348  81034414.97748  22231538.4724   22231540.0434   22231538.2414
       242.000         206.000
 115944139.46948 108138289.99948  23966372.7224   23966373.6104   23966372.9644
       219.000         169.000
 09  1 21  0 50  0.0000000  0 10G 9G 5G26G27G28G18G15G17G12G22
 116888991.96748  73290111.97548  20340307.9264   20340310.7434   20340307.9004
       250.000         226.000
 112356623.03948 105342810.19948  23283700.3524   23283703.8614   23283700.9384
       225.000         181.000
 125030900.81948  79634457.43448  21889660.8154   21889663.2324   21889660.8174
       243.000         205.000
 142761389.83548  93450421.64748  25263661.0604   25263663.3264   25263660.9144
       216.000         154.000
 140088627.16448  91367756.27148  24755045.8374   24755048.3934   24755045.8184
       204.000         152.000
 127157662.18848  81291680.91548  22294364.3974   22294366.0884   22294365.1794
       236.000         196.000
 118566281.78548  74597097.59548  20659481.1294   20659482.9194   20659480.7894
       251.000         232.000
 132059392.32148  85111210.17248  23227133.5404   23227135.1274   23227133.6814
       231.000         194.000
 126739010.05248  80965456.92648  22214698.4514   22214699.6624   22214698.4574
       242.000         206.000
 115885148.87748 108092323.32048  23955146.8404   23955147.7114   23955147.8744
       218.000         167.000
 09  1 21  0 50 30.0000000  0 10G 9G 5G26G27G28G18G15G17G12G22
 116851719.83848  73261068.75648  20333215.4004   20333217.9334   20333215.5414
       249.000         225.000
 112253118.24048 105262157.11548  23264003.8054   23264007.2964   23264003.5424
       225.000         180.000
 125114604.67548  79699681.21048  21905589.0034   21905591.4324   21905589.1584
       241.000         204.000
 142832199.33348  93505597.85148  25277135.8984   25277139.5654   25277136.3204
       214.000         158.000
 140183733.72848  91441865.27748  24773143.9644   24773146.5244   24773144.5884
       207.000         153.000
 127148645.19348  81284654.69148  22292648.1824   22292649.8314   22292648.5334
       236.000         195.000
 118606602.73448  74628516.51448  20667154.2174   20667155.6724   20667153.9114
       252.000         232.000
 132053834.74248  85106879.60548  23226075.5594   23226077.2174   23226075.7824
       229.000         192.000
 126650846.87448  80896758.35948  22197921.2074   22197922.8224   22197921.1554
       241.000         206.000
 115826608.00048 108046707.04748  23944007.4874   23944007.3494   23944008.1824
       220.000         169.000
 09  1 21  0 51  0.0000000  0 10G 9G 5G26G27G28G18G15G17G12G22
 116814771.60448  73232277.92248  20326184.2884   20326186.8494   20326184.5194
       250.000         226.000
 112149838.20448 105181679.16348  23244350.6564   23244354.0294   23244351.3314
       227.000         182.000
 125198622.12848  79765149.35148  21921577.0024   21921579.0894   21921576.7124
       242.000         204.000
 142903031.41748  93560791.70548  25290615.2344   25290618.1104   25290615.9694
       207.000         150.000
 140278921.79048  91516037.80648  24791258.9004   24791259.8534   24791258.0754
       207.000         153.000
 127140206.99248  81278079.45948  22291042.5724   22291044.4024   22291042.9404
       236.000         196.000
 118647382.16848  74660292.69148  20674914.2494   20674915.7354   20674914.1524
       252.000         232.000
 132048822.40048  85102973.89948  23225121.5974   23225123.5394   23225121.6134
       231.000         193.000
 126563018.68248  80828320.82948  22181207.7844   22181209.4594   22181207.5514
       240.000         204.000
 115768519.29148 108001443.16548  23932953.6834   23932953.5984   23932954.0294
       222.000         174.000
 09  1 21  0 51 30.0000000  0 10G 9G 5G26G27G28G18G15G17G12G22
 116778147.21248  73203739.43948  20319214.9444   20319217.5694   20319215.0314
       250.000         226.000
 112046784.16648 105101377.33248  23224739.8054   23224743.7934   23224740.9644
       225.000         182.000
 125282951.47348  79830860.52048  21937624.4144   21937626.8124   21937624.2774
       242.000         204.000
 142973885.92248  93616002.97548  25304097.3304   25304102.1294   25304097.6754
       211.000         150.000
 140374188.86548  91590271.88048  24809386.4074   24809389.1494   24809386.2644
       202.000         153.000
 127132347.11648  81271954.88148  22289546.8504   22289548.9124   22289547.3394
       237.000         196.000
 118688619.56748  74692425.72748  20682761.5094   20682763.0394   20682761.2684
       251.000         232.000
 132044355.43448  85099493.15748  23224271.5914   23224273.8424   23224271.6324
       228.000         192.000
 126475526.86848  80760145.40748  22164558.6434   22164560.0974   22164558.2464
       241.000         205.000
 115710884.65648 107956533.05348  23921985.6324   23921986.4504   23921983.9884
       221.000         171.000
 09  1 21  0 52  0.0000000  0 10G 9G 5G26G27G28G18G15G17G12G22
 116741847.28348  73175453.77948  20312307.3764   20312309.8234   20312307.6374
       250.000         226.000
 111943958.04248 105021253.09948  23205172.2294   23205176.4534   23205172.2484
       224.000         182.000
 125367591.56248  79896813.82748  21953730.8674   21953733.3104   21953730.8594
       243.000         204.000
 143044762.79748  93671231.71348  25317585.5394   25317589.0994   25317586.3904
       214.000         154.000
 140469533.04348  91664566.04648  24827529.8424   24827532.4754   24827529.6674
       206.000         156.000
 127125065.85648  81266281.16248  22288161.3794   22288163.0294   22288162.0474
       236.000         195.000
 118730314.69648  74724915.43648  20690695.7384   20690697.2734   20690695.4904
       250.000         231.000
 132040434.79848  85096438.12348  23223525.2984   23223527.2784   23223525.1844
       231.000         191.000
 126388372.92748  80692233.26048  22147974.0344   22147975.0784   22147973.9504
       242.000         207.000
 115653705.46848 107911977.85548  23911105.5394   23911104.8074   23911105.9804
       224.000         170.000
 09  1 21  0 52 30.0000000  0 10G 9G 5G26G27G28G18G15G17G12G22
 116705871.04148  73147420.35248  20305461.1064   20305463.8364   20305461.4394
       250.000         226.000
 111841360.11948 104941306.67248  23185648.5574   23185652.7654   23185648.6784
       227.000         184.000
 125452539.83648  79963007.28948  21969896.1794   21969898.4804   21969896.1794
       242.000         203.000
 143115660.82848  93726476.92748  25331076.7644   25331079.7024   25331077.6374
       216.000         152.000
 140564951.06548  91738917.77548  24845687.0514   24845689.8954   24845686.5704
       205.000         157.000
 127118361.73148  81261057.16348  22286885.6984   22286887.1424   22286886.2294
       236.000         196.000
 118772465.86848  74757760.50148  20698716.6944   20698718.3354   20698716.3924
       249.000         231.000
 132037059.56348  85093808.07248  23222883.6984   23222884.8084   23222883.9024
       232.000         192.000
 126301557.46148  80624584.86348  22131453.4454   22131454.9714   22131453.2344
       242.000         207.000
 115596982.14148 107867777.86648  23900311.2664   23900310.9514   23900313.9214
       224.000         172.000
 09  1 21  0 53  0.0000000  0 10G 9G 5G26G27G28G18G15G17G12G22
 116670219.90548  73119640.24848  20298677.2214   20298679.5854   20298677.3484
       251.000         226.000
 111738993.29648 104861540.32248  23166168.9884   23166172.8864   23166170.2194
       226.000         184.000
 125537796.25948  80029440.85948  21986119.7194   21986122.3414   21986119.6144
       242.000         204.000
 143186581.34848  93781739.67348  25344572.3404   25344574.9324   25344572.2814
       209.000         150.000
 140660442.32148  91813326.54448  24863858.7164   24863861.3694   24863856.5494
       208.000         157.000
 127112235.84348  81256283.73748  22285719.6944   22285721.6584   22285720.5744
       234.000         196.000
 118815073.86648  74790961.53548  20706824.4744   20706826.4714   20706824.1364
       249.000         230.000
 132034231.42348  85091604.33048  23222345.3664   23222346.6684   23222345.2114
       229.000         192.000
 126215082.97048  80557202.15848  22114997.8924   22114999.4764   22114997.6134
       241.000         207.000
 115540717.76248 107823935.48348  23889603.5904   23889604.4184   23889603.6834
       222.000         172.000
 09  1 21  0 53 30.0000000  0 10G 9G 5G26G27G28G18G15G17G12G22
 116634894.82548  73092114.22048  20291954.9194   20291957.4944   20291955.2704
       251.000         226.000
 111636859.80048 104781955.79248  23146733.5824   23146737.3114   23146734.1834
       225.000         182.000
 125623359.99448  80096113.89748  22002402.1904   22002404.4754   22002402.3384
       241.000         203.000
 143257525.02448  93837020.44148  25358072.9084   25358075.8004   25358073.0494
       202.000         141.000
 140756005.33248  91887791.23848  24882043.5744   24882046.0064   24882043.7944
       208.000         156.000
 127106688.78748  81251961.35448  22284664.5054   22284665.9934   22284664.9194
       237.000         195.000
 118858138.77148  74824518.60048  20715019.6504   20715021.3744   20715019.4534
       249.000         230.000
 132031951.56848  85089827.83148  23221911.0374   23221912.8164   23221910.5474
       230.000         191.000
 126128951.74048  80490086.92948  22098607.4814   22098609.1214   22098607.3974
       241.000         206.000
 115484914.33648 107780452.30748  23878985.2684   23878985.6734   23878985.1964
       223.000         171.000
 09  1 21  0 54  0.0000000  0 10G 9G 5G26G27G28G18G15G17G12G22
 116599895.77648  73064842.23448  20285294.8264   20285297.2444   20285295.1484
       250.000         227.000
 111534960.92348 104702554.07448  23127343.0114   23127346.3694   23127343.8374
       226.000         182.000
 125709229.23348  80163024.99148  22018742.2714   22018744.6844   22018741.8754
       242.000         203.000
 143328491.74948  93892319.19848  25371576.3224   25371581.2774   25371576.3234
       195.000         131.000
 140851637.54148  91962309.85648  24900242.1544   24900243.2264   24900242.3894
       213.000         158.000
 127101719.54248  81248089.19948  22283718.7584   22283720.6254   22283719.0964
       235.000         195.000
 118901659.72448  74858431.02848  20723301.5054   20723303.1944   20723301.2684
       249.000         231.000
 132030220.15948  85088478.69448  23221581.9054   23221583.3384   23221581.3534
       230.000         193.000
 126043164.83348  80423239.99348  22082282.9754   22082284.2194   22082283.0364
       242.000         206.000
 115429572.96048 107737329.13348  23868453.9694   23868453.2954   23868454.7274
       225.000         167.000
 09  1 21  0 54 30.0000000  0  9G 9G 5G26G28G18G15G17G12G22
 116565222.34948  73037823.98648  20278696.7564   20278699.1504   20278696.8464
       251.000         227.000
 111433297.50248 104623335.82548  23107997.3824   23108000.4704   23107998.2024
       226.000         183.000
 125795401.88648  80230172.51648  22035140.6484   22035142.8604   22035140.4884
       242.000         204.000
 140947336.32148  92036880.34648  24918453.2084   24918454.2104   24918454.6634
       216.000         159.000
 127097327.15648  81244666.56948  22282882.5944   22282884.6974   22282883.1064
       235.000         195.000
 118945635.65348  74892697.98548  20731670.0444   20731671.5124   20731669.7234
       250.000         231.000
 132029036.73048  85087556.55348  23221356.4264   23221358.6974   23221356.2784
       227.000         192.000
 125957723.11648  80356662.03848  22066024.0724   22066025.0564   22066024.1154
       243.000         207.000
 115374694.68648 107694566.85448  23858011.1294   23858011.1734   23858012.2724
       222.000         172.000
 09  1 21  0 55  0.0000000  0  9G 9G 5G26G28G18G15G17G12G22
 116530875.76548  73011060.42048  20272160.7714   20272163.2314   20272160.7814
       251.000         227.000
 111331872.29148 104544303.20148  23088696.8124   23088700.1344   23088697.2724
       227.000         184.000
 125881877.71148  80297556.26748  22051596.3304   22051598.9534   22051596.4244
       241.000         204.000
 141043101.07148  92111502.23348  24936676.6504   24936677.5214   24936678.4524
       215.000         159.000
 127093512.76448  81241694.31348  22282156.6984   22282158.5124   22282157.1834
       235.000         194.000
 118990066.87848  74927319.71748  20740124.9534   20740126.4364   20740124.8224
       249.000         230.000
 132028403.02648  85087062.77948  23221235.7314   23221237.9204   23221235.5324
       231.000         191.000
 125872629.18148  80290355.08348  22049831.1904   22049832.4474   22049831.1494
       243.000         207.000
 115320282.08348 107652167.40948  23847656.6534   23847657.1524   23847655.6944
       224.000         175.000
 09  1 21  0 55 30.0000000  0  9G 9G 5G26G28G18G15G17G12G22
 116496856.20848  72984551.67748  20265687.1274   20265689.6914   20265687.3404
       251.000         227.000
 111230686.65948 104465457.27648  23069441.6324   23069445.3024   23069442.8754
       228.000         184.000
 125968655.11148  80365175.01448  22068109.4314   22068112.1344   22068109.3384
       241.000         202.000
 141138929.18748  92186173.53248  24954912.3444   24954912.3774   24954912.7574
       217.000         159.000
 127090275.67048  81239171.90348  22281540.8204   22281542.4684   22281541.3014
       235.000         195.000
 119034952.87748  74962295.81948  20748666.4514   20748667.9804   20748666.1764
       250.000         230.000
 132028318.94748  85086997.28148  23221219.8894   23221221.7124   23221219.9074
       230.000         191.000
 125787884.15448  80224320.01748  22033704.6354   22033706.0744   22033704.6174
       241.000         208.000
 115266336.28648 107610131.76448  23837390.9294   23837391.6254   23837392.0084
       222.000         171.000
 09  1 21  0 56  0.0000000  0  9G 9G 5G26G28G18G15G17G12G22
 116463165.61648  72958299.27348  20259275.9594   20259278.3864   20259276.2784
       251.000         227.000
 111129744.00448 104386800.66648  23050233.0304   23050236.4574   23050233.3654
       229.000         185.000
 126055734.36548  80433028.97048  22084680.1564   22084682.6544   22084680.0384
       241.000         202.000
 141234820.69848  92260894.21648  24973159.7294   24973160.2344   24973160.7214
       216.000         160.000
 127087617.46448  81237100.56448  22281035.2984   22281036.6434   22281035.6644
       237.000         196.000
 119080294.90448  74997627.26248  20757294.7294   20757296.3064   20757294.6074
       249.000         230.000
 132028786.93948  85087361.95748  23221308.5484   23221310.6694   23221308.1144
       230.000         191.000
 125703491.45548  80158559.49848  22017645.0534   22017646.7414   22017645.1154
       242.000         208.000
 115212860.90148 107568462.65048  23827215.2904   23827214.7654   23827215.9594
       225.000         173.000
 09  1 21  0 56 30.0000000  0  9G 9G 5G26G28G18G15G17G12G22
 116429803.02548  72932302.45448  20252927.2174   20252929.8234   20252927.4954
       251.000         226.000
 111029044.44948 104308333.47848  23031070.7984   23031074.1934   23031071.6364
       228.000         186.000
 126143112.80348  80501116.06048  22101307.5504   22101310.1914   22101307.4014
       241.000         201.000
 141330772.14648  92335661.57148  24991418.2614   24991419.4994   24991420.1774
       215.000         160.000
 127085536.31248  81235478.87648  22280639.1614   22280640.7554   22280639.7974
       236.000         195.000
 119126091.34348  75033312.79448  20766009.3524   20766011.0584   20766009.0174
       249.000         230.000
 132029805.75048  85088155.83548  23221502.6984   23221504.3544   23221502.6594
       231.000         191.000
 125619450.86748  80093073.33148  22001652.7904   22001654.2464   22001652.6044
       242.000         208.000
 115159856.03448 107527160.15148  23817128.9524   23817128.4524   23817129.6504
       222.000         173.000
 09  1 21  0 57  0.0000000  0  9G 9G 5G26G28G18G15G17G12G22
 116396767.71648  72906560.65848  20246640.8104   20246643.2044   20246641.1074
       251.000         227.000
 110928588.87348 104230056.41748  23011954.4594   23011957.9524   23011955.3524
       227.000         184.000
 126230788.12348  80569434.49048  22117991.7034   22117994.1364   22117991.4954
       242.000         201.000
 141426780.85048  92410473.55848  25009688.1194   25009689.2414   25009688.9844
       211.000         159.000
 127084031.07848  81234305.95548  22280352.7804   22280354.1114   22280353.3764
       235.000         195.000
 119172340.44148  75069351.05048  20774810.4574   20774811.9224   20774810.3774
       249.000         230.000
 132031375.09648  85089378.72048  23221801.0684   23221803.1254   23221802.0814
       230.000         190.000
 125535763.18848  80027862.17348  21985727.4044   21985729.2284   21985727.3054
       241.000         209.000
 115107322.28248 107486224.78348  23807131.0084   23807132.2454   23807131.2564
       223.000         177.000
 09  1 21  0 57 30.0000000  0  9G 9G 5G26G28G18G15G17G12G22
 116364061.44048  72881075.24548  20240417.0884   20240419.5114   20240417.1184
       251.000         227.000
 110828380.07648 104151971.65548  22992885.1234   22992888.5214   22992885.7504
       227.000         183.000
 126318760.23248  80637984.18448  22134732.1914   22134734.7774   22134732.2744
       240.000         201.000
 141522846.36148  92485329.82348  25027968.3144   25027970.0904   25027968.2224
       213.000         158.000
 127083102.93448  81233582.72048  22280176.4614   22280177.5814   22280176.8894
       237.000         196.000
 119219042.97248  75105742.62748  20783697.4734   20783699.2514   20783697.1554
       249.000         229.000
 132033496.56248  85091031.82148  23222204.8074   23222206.6244   23222204.6314
       230.000         191.000
 125452431.23048  79962928.18548  21969869.9284   21969871.4824   21969869.8934
       242.000         209.000
 115055262.28548 107445658.53448  23797225.1534   23797225.0714   23797225.0194
       225.000         177.000
 09  1 21  0 58  0.0000000  0  9G 9G 5G26G28G18G15G17G12G22
 116331684.21148  72855846.24248  20234255.7934   20234258.2054   20234256.0644
       251.000         227.000
 110728419.62448 104074080.39048  22973863.4674   22973866.6304   22973864.1114
       229.000         184.000
 126407027.41648  80706763.80148  22151528.7994   22151531.6584   22151528.8274
       239.000         201.000
 141618966.13748  92560228.35948  25046259.1144   25046261.7734   25046260.5444
       215.000         160.000
 127082751.02948  81233308.51148  22280109.6014   22280110.8534   22280110.2324
       237.000         196.000
 119266198.37048  75142487.09248  20792670.9274   20792672.7344   20792670.8204
       249.000         229.000
 132036170.23448  85093115.19948  23222713.9964   23222715.4534   23222713.7764
       230.000         191.000
 125369455.96448  79898272.14948  21954080.3254   21954081.6004   21954080.3224
       241.000         209.000
 115003677.15848 107405462.35448  23787408.7184   23787409.2294   23787408.5274
       222.000         176.000
 09  1 21  0 58 30.0000000  0  9G 9G 5G26G28G18G15G17G12G22
 116299636.63748  72830874.11148  20228157.4284   20228159.8854   20228157.4744
       252.000         227.000
 110628709.04748 103996383.85048  22954889.1614   22954892.2664   22954889.7724
       229.000         185.000
 126495588.63648  80775772.53748  22168381.5274   22168384.4164   22168381.4194
       241.000         201.000
 141715138.68948  92635168.01548  25064560.4644   25064562.8214   25064561.8224
       213.000         157.000
 127082975.15248  81233483.14948  22280151.7024   22280153.4934   22280152.3684
       236.000         195.000
 119313805.97948  75179583.92948  20801730.3234   20801732.1534   20801729.9524
       249.000         229.000
 132039396.68948  85095629.34048  23223327.8744   23223329.8674   23223327.5384
       229.000         192.000
 125286839.19148  79833895.45948  21938358.7984   21938360.1094   21938358.6324
       240.000         209.000
 114952569.13948 107365637.91448  23777683.0974   23777683.2774   23777681.7874
       230.000         181.000
 09  1 21  0 59  0.0000000  0  9G 9G 5G26G28G18G15G17G12G22
 116267918.93248  72806159.02448  20222121.6994   20222124.1954   20222122.1054
       251.000         227.000
 110529249.81848 103918883.15048  22935962.8274   22935965.7924   22935963.5564
       227.000         185.000
 126584442.14748  80845009.04248  22185289.9104   22185292.4654   22185290.0254
       239.000         199.000
 141811361.79648  92710147.04748  25082871.1094   25082873.6574   25082872.5084
       214.000         157.000
 127083774.65848  81234106.13348  22280303.7024   22280305.7034   22280303.9604
       236.000         195.000
 119361865.40448  75217032.82548  20810875.7694   20810877.5224   20810875.5364
       249.000         229.000
 132043175.60448  85098573.95548  23224046.8444   23224048.8454   23224046.6064
       227.000         191.000
 125204581.82948  79769798.82748  21922705.6614   21922707.0014   21922705.3404
       242.000         210.000
 114901938.92848 107326185.79448  23768049.1844   23768048.7604   23768049.6434
       227.000         180.000
 09  1 21  0 59 30.0000000  0  9G 9G 5G26G28G18G15G17G12G22
 116236531.98048  72781701.66148  20216148.9864   20216151.5414   20216148.9004
       251.000         227.000
 110430044.31048 103841580.18248  22917084.1824   22917087.5304   22917084.4564
       228.000         186.000
 126673587.16548  80914472.69348  22202253.3764   22202256.1074   22202252.9894
       239.000         201.000
 141907634.25148  92785164.53248  25101191.0894   25101193.9304   25101193.9214
       213.000         158.000
 127085149.64148  81235177.55048  22280565.5094   22280567.3844   22280566.0364
       236.000         195.000
 119410376.56448  75254833.72948  20820107.1174   20820108.7754   20820106.9494
       249.000         229.000
 132047508.01148  85101949.88048  23224870.9754   23224873.1584   23224870.4284
       228.000         190.000
 125122686.41648  79705984.22948  21907121.5044   21907122.8004   21907121.2444
       240.000         209.000
 114851788.67248 107287107.71248  23758504.8394   23758505.9114   23758503.3294
       225.000         178.000
 09  1 21  1  0  0.0000000  0  9G 9G 5G26G28G18G15G17G12G22
 116205476.56548  72757502.63448  20210239.3434   20210241.8594   20210239.5664
       252.000         228.000
 110331094.43548 103764476.39248  22898254.6334   22898258.1874   22898255.2394
       228.000         186.000
 126763022.96548  80984162.91248  22219272.6314   22219275.2194   22219272.3544
       240.000         201.000
 142003954.75048  92860219.46848  25119520.1114   25119522.4344   25119522.2914
       214.000         155.000
 127087100.09048  81236697.37448  22280936.9054   22280938.6384   22280937.6584
       238.000         196.000
 119459339.19448  75292986.42548  20829424.3964   20829426.1054   20829424.1424
       248.000         228.000
 132052394.67748  85105757.68448  23225800.7554   23225803.0924   23225799.8434
       227.000         189.000
 125041154.55348  79642452.92348  21891606.3444   21891607.8274   21891606.3954
       240.000         209.000
 114802120.57948 107248405.27948  23749054.1334   23749053.5304   23749052.9174
       229.000         180.000
 09  1 21  1  0 30.0000000  0  9G 9G 5G26G28G18G15G17G12G22
 116174752.01148  72733561.42348  20204392.7174   20204395.2424   20204392.9204
       252.000         228.000
 110232400.96848 103687572.39048  22879474.0664   22879477.3574   22879474.6014
       230.000         187.000
 126852747.00248  81054077.74348  22236346.5274   22236349.0284   22236346.7194
       238.000         199.000
 142100320.46748  92935309.64448  25137857.8434   25137859.8814   25137858.4034
       209.000         154.000
 127089625.05348  81238664.85748  22281417.3504   22281418.9294   22281417.8374
       238.000         196.000
 119508751.75548  75331489.71848  20838827.2794   20838828.9884   20838827.0914
       247.000         228.000
 132057834.98648  85109996.88248  23226836.2374   23226838.2364   23226835.3964
       230.000         189.000
 124959986.82148  79579205.36048  21876160.6034   21876162.3454   21876160.4874
       240.000         210.000
 114752935.01748 107210078.86148  23739694.1134   23739693.7354   23739694.6744
       227.000         176.000
 09  1 21  1  1  0.0000000  0  9G 9G 5G26G28G18G15G17G12G22
 116144357.90448  72709877.70948  20198608.9214   20198611.4154   20198609.3804
       252.000         228.000
 110133964.35448 103610868.55048  22860742.3384   22860745.7534   22860743.0124
       229.000         187.000
 126942756.62548  81124215.10848  22253474.9134   22253477.1344   22253474.4154
       240.000         199.000
 142196728.28448  93010432.60748  25156203.7554   25156206.2464   25156203.6814
       210.000         156.000
 127092722.58048  81241078.51848  22282006.7084   22282008.5604   22282007.2684
       237.000         197.000
 119558612.44248  75370342.20448  20848315.3594   20848317.1364   20848315.0604
       248.000         228.000
 132063827.95648  85114666.72948  23227977.0104   23227978.6654   23227976.9504
       229.000         189.000
 124879183.39148  79516241.65048  21860784.5364   21860785.8104   21860784.5454
       241.000         210.000
 114704232.22648 107172128.62548  23730426.2204   23730425.8944   23730426.3214
       228.000         177.000
 09  1 21  1  1 30.0000000  0  9G 9G 5G26G28G18G15G17G12G22
 116114295.95248  72686452.81248  20192888.3394   20192890.8684   20192888.5214
       252.000         228.000
 110035787.62348 103534367.20148  22842059.7754   22842063.3024   22842060.6444
       230.000         188.000
 127033051.98148  81194575.12148  22270657.7864   22270659.9294   22270658.0014
       240.000         199.000
 142293178.09248  93085588.30348  25174557.2864   25174560.3174   25174556.6284
       211.000         155.000
 127096393.69648  81243939.11748  22282705.5894   22282707.0644   22282706.1144
       237.000         197.000
 119608922.29448  75409544.68348  20857889.0994   20857890.8144   20857888.8074
       248.000         228.000
 132070375.05348  85119768.38348  23229222.8264   23229224.2504   23229222.8194
       229.000         189.000
 124798747.16848  79453564.07348  21845478.0034   21845479.2874   21845477.8784
       241.000         210.000
 114656014.94848 107134556.70848  23721250.4014   23721251.3064   23721251.8064
       223.000         177.000
 09  1 21  1  2  0.0000000  0  9G 9G 5G26G28G18G15G17G12G22
 116084565.79948  72663286.45548  20187230.9714   20187233.3284   20187231.1844
       253.000         229.000
 109937872.13848 103458069.42948  22823426.9424   22823430.6034   22823427.4414
       228.000         187.000
 127123631.52348  81265156.57448  22287894.1854   22287896.5144   22287893.9054
       238.000         198.000
 142389667.96948  93160775.22648  25192918.7434   25192921.2294   25192919.2154
       208.000         153.000
 127100637.54548  81247246.00648  22283512.7974   22283514.6954   22283512.9694
       237.000         196.000
 119659680.38448  75449096.42648  20867548.0464   20867549.7624   20867547.7654
       248.000         228.000
 132077476.38748  85125301.89748  23230573.6464   23230575.6094   23230573.3934
       228.000         190.000
 124718679.34648  79391173.57048  21830241.3884   21830242.8794   21830241.2664
       240.000         210.000
 114608284.54648 107097364.20648  23712167.3424   23712168.1554   23712167.5854
       226.000         176.000
 09  1 21  1  2 30.0000000  0  9G 9G 5G26G28G18G15G17G12G22
 116055168.90648  72640379.78348  20181636.7454   20181639.3064   20181636.7464
       252.000         229.000
 109840220.36348 103381977.16448  22804844.1484   22804848.1454   22804845.0954
       229.000         188.000
 127214494.54048  81335958.91848  22305184.9324   22305187.1344   22305184.8564
       240.000         198.000
 142486196.31748  93235992.09048  25211287.3034   25211289.7224   25211288.8644
       212.000         153.000
 127105454.44348  81250999.42348  22284429.4874   22284431.3294   22284430.2134
       236.000         196.000
 119710886.87948  75488997.59248  20877292.3594   20877293.9514   20877292.2354
       248.000         228.000
 132085132.98048  85131268.06748  23232030.7504   23232033.0704   23232030.7584
       231.000         190.000
 124638982.14348  79329071.86148  21815075.4544   21815077.1354   21815075.3794
       240.000         210.000
 114561043.36448 107060552.89448  23703178.1124   23703178.3144   23703178.4564
       226.000         177.000
 09  1 21  1  3  0.0000000  0  9G 9G 5G26G28G18G15G17G12G22
 116026105.34448  72617732.85248  20176106.2894   20176108.6524   20176106.6374
       252.000         228.000
 109742833.25848 103306091.13148  22786312.1594   22786316.1344   22786312.4664
       230.000         189.000
 127305639.05948  81406980.63048  22322529.2004   22322531.4364   22322529.3054
       239.000         198.000
 142582761.22148  93311237.46648  25229663.7384   25229665.1234   25229663.4334
       206.000         149.000
 127110843.03748  81255198.33548  22285454.7114   22285456.7344   22285455.3484
       237.000         195.000
 119762540.36948  75529247.06448  20887121.6414   20887123.4264   20887121.2904
       247.000         228.000
 132093344.33748  85137666.54248  23233593.3494   23233595.2214   23233592.8994
       230.000         190.000
 124559656.34148  79267259.56348  21799980.3914   21799981.9284   21799980.3214
       240.000         211.000
 114514291.89648 107024123.19348  23694281.1724   23694281.9904   23694280.9564
       227.000         179.000
 09  1 21  1  3 30.0000000  0 10G 9G 5G26G28G18G15G30G17G12G22
 115997374.99348  72595345.56748  20170638.9294   20170641.4844   20170639.0084
       252.000         228.000
 109645712.10448 103230412.31448  22767831.0204   22767834.5784   22767832.1084
       233.000         189.000
 127397063.35248  81478220.33048  22339926.3864   22339929.1554   22339926.5324
       236.000         197.000
 142679360.50148  93386509.63448  25248046.4914   25248046.7934   25248045.1594
       208.000         148.000
 127116802.40448  81259841.99448  22286588.8654   22286591.0674   22286589.3844
       236.000         196.000
 119814640.33248  75569844.43648  20897035.8524   20897037.7714   20897035.4134
       248.000         227.000
 141585676.58858  92534277.40358  25039933.2215   25039936.9945   25039933.8035
       216.000         151.000
 132102110.34248  85144497.20248  23235261.8074   23235263.6824   23235261.3674
       231.000         192.000
 124480703.06848  79205737.53948  21784956.1784   21784957.6434   21784955.9574
       241.000         211.000
 114468031.22948 106988075.93348  23685478.6074   23685478.5424   23685480.3794
       230.000         180.000
 09  1 21  1  4  0.0000000  0 10G 9G 5G26G28G18G15G30G17G12G22
 115968978.13848  72573218.15448  20165235.0594   20165237.7534   20165235.3094
       252.000         228.000
 109548858.43348 103154941.92948  22749400.1524   22749403.7084   22749401.2394
       231.000         188.000
 127488765.98748  81549676.91948  22357377.0904   22357379.4904   22357376.6444
       237.000         197.000
 142775992.38248  93461807.21648  25266434.3914   25266434.8624   25266435.0874
       209.000         149.000
 127123332.18048  81264930.12148  22287831.4854   22287833.5614   22287831.8444
       237.000         196.000
 119867185.64348  75610788.83548  20907034.9864   20907036.8454   20907034.6034
       248.000         228.000
 131473319.96658 102446727.12258  25018553.7345   25018557.3515   25018555.5885
       212.000         154.000
 132111430.75248  85151759.86448  23237035.7114   23237037.2674   23237035.5764
       231.000         191.000
 124402123.58748  79144506.77748  21770002.9604   21770004.4064   21770002.9394
       241.000         211.000
 114422262.70848 106952412.15248  23676769.4644   23676769.7584   23676769.4904
       230.000         183.000
 09  1 21  1  4 30.0000000  0 10G 9G 5G26G28G18G15G30G17G12G22
 115940915.57848  72551351.22248  20159895.0044   20159897.4784   20159895.0624
       253.000         228.000
 109452274.30448 103079681.58448  22731020.7114   22731024.2454   22731021.2424
       231.000         189.000
 127580745.73148  81621349.44948  22374880.3094   22374882.5834   22374880.4504
       237.000         196.000
 142872655.43748  93537129.10448  25284828.6124   25284829.3464   25284830.1334
       212.000         149.000
 127130431.88448  81270462.35048  22289182.8254   22289184.4964   22289183.8814
       238.000         196.000
 119920176.31148  75652080.25748  20917118.8154   20917120.7144   20917118.6474
       248.000         227.000
 131361042.40648 102359238.13448  24997188.0604   24997191.0704   24997186.0074
       211.000         152.000
 132121306.16048  85159454.99748  23238914.8504   23238916.3164   23238914.9074
       231.000         191.000
 124323919.59848  79083568.61848  21755121.0774   21755122.6644   21755120.9954
       240.000         211.000
 114376987.93848 106917133.11848  23668153.8834   23668153.9164   23668154.2004
       228.000         182.000
 09  1 21  1  5  0.0000000  0 10G 9G 5G26G28G18G15G30G17G12G22
 115913188.31648  72529745.56548  20154618.7594   20154620.9864   20154618.9564
       252.000         228.000
 109355961.93648 103004633.00748  22712693.4894   22712696.4604   22712693.9194
       232.000         190.000
 127673001.99548  81693237.45348  22392435.8804   22392438.2014   22392435.8094
       236.000         195.000
 142969348.45148  93612474.30748  25303229.0884   25303229.6874   25303230.4344
       209.000         145.000
 127138101.69348  81276438.82248  22290642.2494   22290644.0294   22290642.8244
       239.000         196.000
 119973612.06548  75693718.50748  20927287.2824   20927288.9964   20927287.0184
       248.000         227.000
 131248843.51448 102271810.42248  24975836.7144   24975840.5354   24975836.1704
       210.000         152.000
 132131737.26148  85167583.13448  23240899.6344   23240901.0594   23240899.0754
       232.000         190.000
 124246093.27948  79022924.74648  21740310.9854   21740312.6094   21740310.6904
       240.000         211.000
 114332208.83448 106882240.32748  23659632.0864   23659632.3034   23659632.2774
       227.000         178.000
 09  1 21  1  5 30.0000000  0 10G 9G 5G26G28G18G15G30G17G12G22
 115885796.51248  72508401.30248  20149406.3654   20149408.6294   20149406.6954
       252.000         229.000
 109259922.41748 102929797.03348  22694417.7794   22694420.6594   22694418.6504
       232.000         190.000
 127765532.80948  81765339.37948  22410043.9924   22410046.5634   22410044.0374
       235.000         195.000
 143066069.71048  93687841.51148  25321634.3354   25321634.4944   25321634.9244
       210.000         145.000
 127146340.19648  81282858.42048  22292210.0484   22292211.1854   22292210.8914
       236.000         194.000
 120027491.72048  75735702.64948  20937540.2044   20937542.0074   20937540.0074
       248.000         226.000
 131136724.30748 102184444.82048  24954501.0914   24954504.2364   24954501.0034
       213.000         154.000
 132142723.70748  85176144.00748  23242990.2244   23242991.5804   23242990.0044
       231.000         190.000
 124168645.18148  78962575.58248  21725573.2174   21725574.7774   21725573.1694
       242.000         212.000
 114287926.47248 106847734.56648  23651206.2034   23651204.6124   23651207.0174
       230.000         180.000
 09  1 21  1  6  0.0000000  0 10G 9G 5G26G28G18G15G30G17G12G22
 115858740.54648  72487318.73548  20144257.7944   20144260.1844   20144257.9954
       252.000         229.000
 109164157.49248 102855175.03748  22676194.1164   22676197.3394   22676194.1284
       233.000         192.000
 127858336.90948  81837654.25348  22427704.1734   22427706.5654   22427703.9554
       236.000         197.000
 143162817.32948  93763229.25248  25340044.8844   25340045.8194   25340045.9654
       209.000         146.000
 127155147.11648  81289720.93948  22293885.8784   22293887.2884   22293886.3644
       236.000         194.000
 120081814.62548  75778032.18148  20947877.4154   20947879.2724   20947877.0364
       248.000         226.000
 131024686.64148 102097142.75348  24933181.0694   24933183.7374   24933181.5334
       215.000         155.000
 132154265.77748  85185137.83748  23245186.9014   23245188.2384   23245186.7344
       231.000         191.000
 124091577.27648  78902522.67848  21710907.9194   21710909.4394   21710907.8974
       241.000         213.000
 114244142.22048 106813616.99848  23642874.0084   23642874.4474   23642874.1254
       228.000         182.000
 09  1 21  1  6 30.0000000  0 10G 9G 5G26G28G18G15G30G17G12G22
 115832020.37548  72466497.82848  20139172.9064   20139175.4694   20139172.9474
       253.000         229.000
 109068668.46648 102780768.01748  22658023.0564   22658026.3154   22658023.9934
       233.000         190.000
 127951412.65548  81910180.79948  22445416.1054   22445418.5754   22445416.1644
       236.000         197.000
 143259589.27748  93838635.94848  25358459.9114   25358461.6194   25358461.3394
       204.000         147.000
 127164521.25348  81297025.45048  22295669.7874   22295671.3234   22295670.1334
       237.000         194.000
 120136580.08548  75820706.56848  20958298.9904   20958300.5054   20958298.7464
       248.000         226.000
 130912731.94148 102009905.32048  24911876.8344   24911880.1244   24911876.6874
       213.000         156.000
 132166362.73848  85194564.04948  23247488.9294   23247490.4134   23247489.1884
       230.000         191.000
 124014890.24948  78842766.56048  21696314.8574   21696316.5254   21696314.8514
       242.000         213.000
 114200857.28248 106779888.45348  23634637.3674   23634637.8554   23634637.4634
       227.000         177.000
 09  1 21  1  7  0.0000000  0 10G 9G 5G26G28G18G15G30G17G12G22
 115805636.46548  72445938.94048  20134152.3564   20134154.7024   20134152.6654
       252.000         229.000
 108973456.89548 102706577.19348  22639904.7974   22639907.9934   22639905.4314
       233.000         191.000
 128044758.51948  81982917.83848  22463179.0574   22463181.5084   22463179.1804
       234.000         194.000
 143356383.79548  93914060.21748  25376878.2564   25376880.9254   25376878.6264
       202.000         143.000
 127174461.74248  81304771.26948  22297561.2414   22297562.7544   22297562.0794
       237.000         195.000
 120191787.12448  75863725.03648  20968804.7204   20968806.1804   20968804.5724
       248.000         226.000
 130800861.86348 101922733.80348  24890588.5014   24890592.0174   24890587.5544
       210.000         155.000
 132179014.75748  85204422.77048  23249896.5594   23249897.7464   23249895.8574
       232.000         192.000
 123938585.30148  78783308.17448  21681794.4034   21681796.0564   21681794.2854
       241.000         213.000
 114158072.45148 106746549.58848  23626495.1344   23626494.5784   23626494.6534
       224.000         176.000
 09  1 21  1  7 30.0000000  0 10G 9G 5G26G28G18G15G30G17G12G22
 115779589.65448  72425642.72748  20129195.7334   20129198.1444   20129195.6804
       253.000         228.000
 108878524.97548 102632604.27448  22621840.2914   22621842.9704   22621840.7474
       233.000         192.000
 128138373.76548  82055864.78448  22480993.3124   22480995.7374   22480993.0244
       236.000         194.000
 143453200.17248  93989501.51348  25395302.7334   25395304.3514   25395302.4724
       204.000         142.000
 127184968.85248  81312958.63048  22299560.5634   22299562.5614   22299561.1054
       237.000         195.000
 120247435.91248  75907087.72948  20979394.2174   20979395.8704   20979393.9614
       248.000         226.000
 130689078.67248 101835630.00848  24869316.8824   24869321.4744   24869316.5874
       212.000         155.000
 132192222.34648  85214714.41048  23252409.6474   23252411.0114   23252409.6354
       232.000         191.000
 123862664.51448  78724149.13348  21667347.0954   21667348.8494   21667346.7664
       241.000         214.000
 114115789.86448 106713602.16348  23618449.4844   23618449.6014   23618448.0554
       227.000         179.000
 09  1 21  1  8  0.0000000  0 10G 9G 5G26G28G18G15G30G17G12G22
 115753880.45248  72405609.58548  20124303.4794   20124305.6804   20124303.8704
       252.000         228.000
 108783874.13248 102558850.38648  22603828.5204   22603831.4874   22603829.0884
       233.000         192.000
 128232256.66148  82129020.28348  22498858.4724   22498860.9774   22498858.0714
       234.000         194.000
 143550036.30648  94064958.22448  25413730.5544   25413732.2774   25413731.5294
       205.000         145.000
 127196041.36348  81321586.53948  22301667.7254   22301669.5614   22301668.1514
       238.000         194.000
 120303525.15448  75950793.63048  20990067.6304   20990069.4354   20990067.3984
       247.000         226.000
 130577383.63948 101748594.89548  24848063.3674   24848065.9774   24848062.6514
       213.000         159.000
 132205985.56748  85225439.02248  23255028.9484   23255030.0074   23255029.1644
       232.000         192.000
 123787128.99448  78665290.29348  21652973.5664   21652974.8414   21652973.4114
       242.000         215.000
 114074010.44948 106681046.74848  23610498.7374   23610498.6644   23610497.9564
       224.000         175.000
 09  1 21  1  8 30.0000000  0 10G 9G 5G26G28G18G15G30G17G12G22
 115728508.61648  72385839.32348  20119475.4744   20119477.7324   20119475.6524
       253.000         229.000
 108689504.97448 102485316.00348  22585870.7504   22585873.9644   22585871.1264
       233.000         192.000
 128326404.87548  82202382.53048  22516774.0784   22516776.9834   22516774.4674
       234.000         193.000
 143646889.57948  94140428.29148  25432161.4424   25432163.6184   25432161.4504
       205.000         144.000
 127207677.54048  81330653.68048  22303881.9454   22303883.7034   22303882.5034
       235.000         193.000
 120360053.15348  75994841.41548  21000824.5714   21000826.4854   21000824.2444
       248.000         226.000
 130465777.65648 101661629.22748  24826825.0554   24826827.3874   24826825.1474
       216.000         159.000
 132220303.02048  85236595.47648  23257753.5284   23257754.5774   23257753.4064
       232.000         191.000
 123711979.01848  78606731.87848  21638672.9534   21638674.1074   21638673.0234
       242.000         214.000
 114032734.29948 106648883.52048  23602643.4834   23602643.8234   23602642.7954
       224.000         176.000
 09  1 21  1  9  0.0000000  0 10G 9G 5G26G28G18G15G30G17G12G22
 115703475.16548  72366332.74048  20114711.7274   20114714.0614   20114711.8924
       253.000         229.000
 108595420.04848 102412003.08448  22567967.0564   22567970.1934   22567967.0164
       234.000         193.000
 128420817.91548  82275951.12648  22534740.2194   22534743.0154   22534739.8154
       233.000         192.000
 143743759.42748  94215911.22248  25450594.4824   25450597.5604   25450594.8814
       206.000         145.000
 127219877.57048  81340160.19248  22306203.4104   22306205.1864   22306203.7354
       236.000         193.000
 120417020.23348  76039231.34348  21011665.0434   21011666.8734   21011664.8634
       247.000         226.000
 130354263.32348 101574734.96948  24805604.1514   24805607.1854   24805604.3884
       212.000         158.000
 132235175.70948  85248184.59248  23260583.7334   23260584.7354   23260583.4424
       234.000         191.000
 123637217.30748  78548476.01548  21624446.2344   21624447.2834   21624446.2574
       242.000         214.000
 113991963.93948 106617114.42448  23594885.8844   23594886.1124   23594886.2284
       227.000         177.000
 09  1 21  1  9 30.0000000  0 10G 9G 5G26G28G18G15G30G17G12G22
 115678779.85548  72347089.64648  20110012.2524   20110014.8694   20110012.4334
       253.000         229.000
 108501620.28448 102338912.38348  22550117.3824   22550120.8464   22550117.9734
       234.000         194.000
 128515493.72648  82349724.47248  22552756.6164   22552759.3174   22552756.3024
       233.000         191.000
 143840643.66148  94291405.40848  25469031.5174   25469033.1084   25469031.7374
       205.000         145.000
 127232639.97648  81350104.90348  22308632.1994   22308633.8644   22308632.7544
       237.000         193.000
 120474425.36848  76083962.61748  21022588.9954   21022590.5914   21022588.6894
       248.000         226.000
 130242842.02048 101487913.21348  24784400.9914   24784404.3384   24784400.2244
       212.000         157.000
 132250603.00548  85260205.88148  23263519.1244   23263520.4864   23263519.3224
       230.000         190.000
 123562844.19048  78490522.94348  21610293.3144   21610294.4434   21610293.1334
       242.000         214.000
 113951699.92548 106585739.87848  23587223.3084   23587223.2314   23587222.6104
       224.000         175.000
 09  1 21  1 10  0.0000000  0 10G 9G 5G26G28G18G15G30G17G12G22
 115654423.55048  72328110.71048  20105377.4844   20105380.1084   20105377.6254
       253.000         229.000
 108408107.44748 102266045.25448  22532322.3284   22532325.7324   22532322.3464
       233.000         193.000
 128610430.88848  82423701.49348  22570822.6594   22570825.0284   22570822.6074
       234.000         191.000
 143937541.02948  94366909.79448  25487469.7514   25487472.1314   25487470.4724
       205.000         144.000
 127245963.76548  81360487.06948  22311167.6094   22311169.3764   22311168.4004
       235.000         193.000
 120532267.60548  76129034.49148  21033595.8944   21033597.7404   21033595.6634
       247.000         225.000
 130131515.39948 101401165.21548  24763216.1244   24763219.9504   24763215.7334
       213.000         157.000
 132266584.95348  85272659.35648  23266560.2174   23266561.9994   23266559.8754
       233.000         193.000
 123488861.28348  78432873.93248  21596214.9324   21596216.2154   21596214.7304
       243.000         216.000
 113911943.78648 106554761.02148  23579659.1514   23579658.5964   23579658.6984
       228.000         183.000
 09  1 21  1 10 30.0000000  0 10G 9G 5G26G28G18G15G30G17G12G22
 115630405.77348  72309395.55548  20100807.1404   20100809.4744   20100807.2764
       252.000         229.000
 108314882.36648 102193402.36448  22514581.8654   22514585.7304   22514581.7224
       234.000         192.000
 128705627.77848  82497880.88548  22588937.9184   22588940.4734   22588938.3914
       234.000         192.000
 144034449.20748  94442422.66148  25505910.8854   25505912.5314   25505911.4024
       209.000         144.000
 127259847.70848  81371305.71348  22313809.4444   22313811.1084   22313810.0384
       234.000         193.000
 120590545.57048  76174445.89148  21044685.7824   21044687.6744   21044685.2444
       249.000         225.000
 130020284.38448 101314491.70048  24742050.8854   24742052.9474   24742050.6074
       214.000         156.000
 132283120.61148  85285544.29048  23269707.4474   23269708.7704   23269707.1694
       234.000         193.000
 123415269.25148  78375529.50348  21582210.7984   21582212.1724   21582210.9144
       243.000         216.000
 113872695.96548 106524178.32248  23572189.2574   23572190.5044   23572189.7034
       225.000         179.000
 09  1 21  1 11  0.0000000  0 10G 9G 5G26G28G18G15G30G17G12G22
 115606727.52448  72290944.97348  20096301.1894   20096303.5604   20096301.4434
       252.000         228.000
 108221947.23248 102120985.38248  22496897.0704   22496900.2334   22496897.5294
       235.000         193.000
 128801082.99848  82572261.56048  22607102.7814   22607105.0714   22607103.0214
       233.000         192.000
 144131366.36748  94517942.48848  25524353.3674   25524355.8484   25524354.5494
       207.000         142.000
 127274291.48448  81382560.59648  22316557.9934   22316559.4734   22316558.2704
       236.000         192.000
 120649258.65548  76220196.34248  21055858.6614   21055860.3114   21055858.6484
       247.000         225.000
 129909151.33148 101227894.54148  24720902.9274   24720904.5364   24720902.6044
       217.000         156.000
 132300210.30748  85298860.93348  23272959.4234   23272960.3774   23272958.9634
       235.000         192.000
 123342069.22748  78318490.53148  21568281.2264   21568282.8484   21568280.9964
       244.000         217.000
 113833957.50748 106493992.47448  23564818.5464   23564818.6474   23564818.3754
       228.000         182.000
 09  1 21  1 11 30.0000000  0 10G 9G 5G26G28G18G15G30G17G12G22
 115583388.18448  72272758.47448  20091859.9394   20091862.2754   20091860.0944
       252.000         229.000
 108129302.31748 102048794.56348  22479267.5144   22479270.6274   22479267.7404
       235.000         195.000
 128896794.02248  82646841.56248  22625316.1494   22625318.3374   22625316.0794
       233.000         191.000
 144228290.63348  94593467.90348  25542797.7914   25542799.0644   25542798.3624
       205.000         140.000
 127289293.00248  81394250.08348  22319412.8194   22319414.2074   22319413.0344
       236.000         192.000
 120708405.17948  76266284.54248  21067113.6704   21067115.5014   21067113.1564
       247.000         224.000
 129798116.54148 101141373.92548  24699773.6534   24699775.5384   24699773.0924
       216.000         157.000
 132317852.85648  85312608.38648  23276316.5374   23276317.6844   23276316.6014
       232.000         191.000
 123269261.70948  78261757.40548  21554426.7524   21554428.1234   21554426.5814
       245.000         217.000
 113795729.03848 106464204.07248  23557543.9394   23557544.1894   23557542.9594
       225.000         182.000
 09  1 21  1 12  0.0000000  0  9G 9G 5G26G18G15G30G17G12G22
 115560386.14048  72254834.80448  20087482.7244   20087485.1264   20087482.9074
       252.000         229.000
 108036947.32348 101976829.65148  22461693.1824   22461696.0764   22461693.7774
       236.000         196.000
 128992757.49548  82721618.29148  22643577.4864   22643579.5564   22643577.4524
       234.000         192.000
 127304849.18748  81406371.78548  22322373.2174   22322374.6184   22322373.4774
       236.000         193.000
 120767982.27648  76312708.24848  21078451.0314   21078452.6314   21078450.8554
       247.000         225.000
 129687180.12748 101054929.99048  24678662.4984   24678665.4434   24678662.5274
       219.000         161.000
 132336046.14648  85326784.97348  23279778.1674   23279779.7214   23279777.8504
       232.000         190.000
 123196846.35048  78205329.85348  21540646.4624   21540647.7864   21540646.5074
       244.000         216.000
 113758009.41048 106434812.15648  23550365.9994   23550366.6484   23550366.3834
       229.000         182.000
 09  1 21  1 12 30.0000000  0  9G 9G 5G26G18G15G30G17G12G22
 115537725.88348  72237177.46548  20083170.6614   20083173.0964   20083170.8474
       252.000         229.000
 107944888.09748 101905095.21048  22444174.9684   22444177.7814   22444175.0034
       236.000         196.000
 129088976.34048  82796594.01948  22661887.2184   22661889.4774   22661887.1664
       233.000         192.000
 127320963.42648  81418928.31548  22325439.5804   22325441.2754   22325440.4984
       237.000         193.000
 120827993.32148  76359470.10248  21089870.6514   21089872.3694   21089870.2534
       247.000         225.000
 129576347.70448 100968567.09448  24657572.0154   24657574.8574   24657572.3894
       216.000         160.000
 132354793.80748  85341393.55448  23283346.0604   23283347.1354   23283345.9284
       232.000         190.000
 123124828.32048  78149211.91448  21526941.7354   21526943.1024   21526941.4404
       245.000         216.000
 113720804.37048 106405821.18548  23543285.4494   23543286.0194   23543285.9704
       221.000         176.000
 09  1 21  1 13  0.0000000  0  9G 9G 5G26G18G15G30G17G12G22
 115515408.12348  72219787.00148  20078923.6874   20078926.1604   20078923.8864
       252.000         229.000
 107853126.12348 101833592.39048  22426713.2814   22426715.8114   22426713.4614
       237.000         197.000
 129185448.92048  82871767.45048  22680245.1184   22680247.7804   22680245.6164
       231.000         190.000
 127337634.83048  81431919.01348  22328612.1524   22328613.9074   22328612.5894
       237.000         193.000
 120888437.32048  76406569.31948  21101372.7824   21101374.6184   21101372.5864
       247.000         224.000
 129465621.07148 100882286.59648  24636501.7104   24636504.0814   24636501.3944
       215.000         159.000
 132374095.75248  85356434.05248  23287018.7854   23287020.0684   23287018.6414
       232.000         188.000
 123053208.83748  78093404.53448  21513312.9794   21513314.3464   21513312.9634
       244.000         217.000
 113684114.48248 106377231.68448  23536304.1704   23536304.5524   23536303.2344
       227.000         181.000
 09  1 21  1 13 30.0000000  0  9G 9G 5G26G18G15G30G17G12G22
 115493432.31148  72202662.99348  20074741.7374   20074744.2464   20074741.7884
       252.000         229.000
 107761662.10448 101762321.73948  22409308.0314   22409310.9374   22409308.8284
       237.000         197.000
 129282173.11848  82947136.93848  22698651.1714   22698653.7124   22698650.8024
       229.000         190.000
 127354861.32648  81445342.24648  22331890.3814   22331891.6754   22331891.2324
       236.000         194.000
 120949312.40148  76454004.44748  21112956.8074   21112958.6094   21112956.4174
       246.000         224.000
 129355001.06248 100796089.20448  24615450.6004   24615453.5854   24615450.4694
       218.000         159.000
 132393950.86448  85371905.56048  23290797.2474   23290798.5144   23290796.9474
       233.000         191.000
 122981988.24548  78037907.97448  21499760.1214   21499761.4944   21499759.9744
       244.000         217.000
 113647940.03648 106349043.77248  23529419.7024   23529419.8654   23529418.7524
       222.000         174.000
 09  1 21  1 14  0.0000000  0  9G 9G 5G26G18G15G30G17G12G22
 115471798.60548  72185805.56648  20070624.8744   20070627.4574   20070625.1994
       252.000         228.000
 107670497.14148 101691284.10048  22391959.8024   22391962.8874   22391960.1414
       238.000         197.000
 129379146.87148  83022700.89448  22717104.4614   22717107.0494   22717103.4574
       232.000         191.000
 127372641.79648  81459197.14948  22335273.6054   22335275.4874   22335274.4084
       236.000         193.000
 121010618.08748  76501775.10948  21124622.8964   21124624.8004   21124622.4904
       247.000         224.000
 129244489.29948 100709976.13548  24594421.3884   24594423.9324   24594422.1284
       219.000         159.000
 132414358.68848  85387807.78048  23294681.3754   23294681.9664   23294681.1104
       232.000         190.000
 122911167.15148  77982722.70848  21486283.4884   21486284.6854   21486283.3934
       246.000         218.000
 113612281.81348 106321258.16048  23522634.1014   23522634.7164   23522633.7984
       224.000         178.000
 09  1 21  1 14 30.0000000  0  9G 9G 5G26G18G15G30G17G12G22
 115450507.16448  72169214.83748  20066573.5394   20066575.8364   20066573.6974
       252.000         229.000
 107579632.37148 101620480.38748  22374668.7724   22374671.9694   22374669.2794
       238.000         198.000
 129476368.33148  83098457.87048  22735604.9804   22735607.6404   22735605.2994
       231.000         189.000
 127390974.50648  81473482.36148  22338762.4474   22338764.2444   22338762.9134
       236.000         193.000
 121072352.73148  76549880.02648  21136370.6314   21136372.6484   21136370.5084
       247.000         224.000
 129134086.80648 100623948.25348  24573412.1584   24573414.2984   24573412.0684
       218.000         159.000
 132435318.41748  85404140.04848  23298669.0754   23298670.5414   23298669.2814
       231.000         189.000
 122840746.69248  77927849.62848  21472882.8084   21472884.1684   21472883.0744
       245.000         218.000
 113577140.37848 106293875.21248  23515947.0924   23515948.7744   23515947.1944
       222.000         178.000
 09  1 21  1 15  0.0000000  0  9G 9G 5G26G18G15G30G17G12G22
 115429558.41048  72152891.13948  20062587.0984   20062589.3814   20062587.2734
       252.000         229.000
 107489069.17548 101549911.67948  22357434.6354   22357438.3914   22357435.6184
       236.000         197.000
 129573836.08448  83174406.77448  22754152.2734   22754155.4324   22754152.2974
       230.000         187.000
 127409858.42248  81488197.08248  22342355.9994   22342357.4754   22342356.7824
       236.000         192.000
 121134515.03848  76598318.17948  21148199.8274   21148201.7694   21148199.5604
       247.000         224.000
 129023795.17048 100538006.75548  24552424.3664   24552426.6344   24552424.8214
       218.000         160.000
 132456829.24848  85420901.74548  23302762.1894   23302764.0064   23302761.8944
       231.000         190.000
 122770727.72348  77873289.39748  21459558.5354   21459560.0254   21459558.3564
       245.000         218.000
 113542516.74048 106266895.75548  23509359.0214   23509359.8544   23509359.2214
       225.000         180.000
 09  1 21  1 15 30.0000000  0  9G 9G 5G26G18G15G30G17G12G22
 115408953.10748  72136835.06548  20058666.0654   20058668.3644   20058666.1924
       252.000         229.000
 107398809.55748 101479579.52148  22340258.7124   22340262.5444   22340259.0384
       237.000         198.000
 129671548.78648  83250546.53948  22772746.5364   22772749.2194   22772746.7754
       229.000         186.000
 127429292.77248  81503340.73548  22346054.2354   22346055.4634   22346054.6524
       237.000         192.000
 121197104.70948  76647089.35248  21160110.2294   21160112.0374   21160109.8524
       247.000         223.000
 128913616.36148 100452153.16848  24531458.6794   24531460.2684   24531459.0794
       214.000         161.000
 132478891.32748  85438092.98048  23306961.0304   23306962.3534   23306960.6704
       236.000         191.000
 122701112.05048  77819043.41848  21446311.2864   21446312.6304   21446311.2944
       246.000         218.000
 113508412.37248 106240320.94348  23502869.3224   23502869.6464   23502868.4434
       225.000         179.000
 09  1 21  1 16  0.0000000  0  9G 9G 5G26G18G15G30G17G12G22
 115388691.08048  72121046.47548  20054810.3204   20054812.6154   20054810.5564
       252.000         229.000
 107308854.52248 101409484.70048  22323141.3114   22323144.9114   22323141.9494
       239.000         199.000
 129769504.71048  83326875.82448  22791386.8784   22791389.5314   22791386.6274
       229.000         187.000
 127449275.92948  81518912.01948  22349856.9314   22349858.3214   22349857.1974
       237.000         192.000
 121260120.28348  76696192.38948  21172101.7074   21172103.4274   21172101.5334
       246.000         223.000
 128803552.00748 100366388.77248  24510513.3404   24510515.7064   24510511.8204
       216.000         160.000
 132501504.12748  85455713.33248  23311264.3684   23311265.2014   23311264.7414
       233.000         189.000
 122631900.31248  77765112.19448  21433140.7794   21433141.9704   21433140.7124
       245.000         218.000
 113474827.66948 106214151.03148  23496478.0894   23496478.6744   23496477.9544
       227.000         181.000
 09  1 21  1 16 30.0000000  0  9G 9G 5G26G18G15G30G17G12G22
 115368772.36948  72105525.40748  20051019.7684   20051022.1964   20051020.0114
       252.000         228.000
 107219205.04148 101339627.99148  22306081.6164   22306085.0924   22306082.5884
       238.000         200.000
 129867701.56448  83403392.84148  22810073.5144   22810075.8014   22810073.1084
       232.000         189.000
 127469806.12448  81534909.55548  22353763.3744   22353765.2684   22353763.7004
       236.000         192.000
 121323560.24448  76745626.12948  21184173.9414   21184175.5374   21184173.5104
       247.000         223.000
 128693603.09548 100280714.31648  24489590.6874   24489593.3434   24489590.6264
       214.000         159.000
 132524666.44748  85473761.91748  23315671.1494   23315672.9864   23315671.3394
       231.000         190.000
 122563093.01048  77711496.12648  21420047.0594   21420048.4684   21420046.9264
       245.000         218.000
 113441763.07848 106188386.39048  23490186.3984   23490186.8074   23490187.0344
       228.000         180.000
 09  1 21  1 17  0.0000000  0  9G 9G 5G26G18G15G30G17G12G22
 115349197.64548  72090272.38048  20047294.9184   20047297.1444   20047295.1744
       252.000         228.000
 107129862.79648 101270010.66348  22289080.5534   22289083.5794   22289081.0154
       240.000         199.000
 129966138.25248  83480096.75348  22828805.1814   22828807.7224   22828805.4784
       231.000         190.000
 127490882.21948  81551332.46448  22357774.1864   22357775.9694   22357774.4304
       236.000         194.000
 121387423.82648  76795389.94848  21196326.7904   21196328.5534   21196326.5434
       246.000         223.000
 128583771.12348 100195130.96448  24468689.8114   24468693.5194   24468690.6524
       213.000         158.000
 132548378.13648  85492238.54648  23320184.0944   23320184.9944   23320183.5334
       233.000         191.000
 122494691.36448  77658196.15248  21407030.4314   21407031.8314   21407030.1954
       245.000         218.000
 113409219.60148 106163027.83748  23483993.7854   23483993.7464   23483995.4934
       229.000         180.000
 09  1 21  1 17 30.0000000  0  9G 9G 5G26G18G15G30G17G12G22
 115329966.56548  72075287.12648  20043635.2884   20043637.5784   20043635.4264
       252.000         229.000
 107040828.71148 101200633.46748  22272138.1464   22272141.0094   22272138.9304
       239.000         199.000
 130064812.80548  83556985.99548  22847582.4594   22847585.1204   22847582.2434
       230.000         189.000
 127512503.17648  81568179.93848  22361888.7864   22361890.2834   22361889.2164
       237.000         194.000
 121451709.75048  76845482.87848  21208559.8454   21208561.6054   21208559.4984
       246.000         223.000
 128474057.44948 100109639.80348  24447812.7234   24447815.6134   24447813.0844
       214.000         161.000
 132572638.04348  85511142.36948  23324800.4574   23324801.4834   23324800.4274
       228.000         188.000
 122426695.86548  77605212.65148  21394091.4384   21394092.6814   21394091.1034
       246.000         219.000
 113377197.78048 106138075.80448  23477900.1074   23477899.9264   23477901.7164
       229.000         180.000
 09  1 21  1 18  0.0000000  0  9G 9G 5G26G18G15G30G17G12G22
 115311080.66748  72060570.84848  20040041.5634   20040043.7934   20040041.8044
       252.000         229.000
 106952105.26048 101131498.32548  22255254.3944   22255257.2114   22255254.9234
       240.000         200.000
 130163724.63748  83634060.14648  22866404.5374   22866407.2084   22866404.3654
       228.000         188.000
 127534668.66948  81585451.74748  22366106.5194   22366108.2234   22366106.9884
       237.000         193.000
 121516417.51448  76895904.51448  21220873.4294   21220875.1174   21220873.0174
       246.000         222.000
 128364464.85048 100024243.00848  24426957.9014   24426961.0364   24426957.3814
       214.000         161.000
 132597446.53748  85530473.69348  23329519.9604   23329522.6944   23329519.5094
       230.000         189.000
 122359109.07148  77552547.61548  21381230.2034   21381231.5914   21381230.0844
       246.000         219.000
 113345699.48048 106113531.64048  23471906.2694   23471905.8374   23471906.3904
       228.000         179.000
 09  1 21  1 18 30.0000000  0  9G 9G 5G26G18G15G30G17G12G22
 115292540.96348  72046124.33448  20036513.3894   20036515.8964   20036513.6504
       251.000         229.000
 106863694.46048 101062606.80348  22238430.3424   22238433.0674   22238431.1234
       240.000         201.000
 130262872.81548  83711318.45948  22885271.9324   22885274.8014   22885272.2944
       228.000         186.000
 127557377.87648  81603147.22348  22370428.0434   22370429.6504   22370428.4434
       235.000         191.000
 121581547.08148  76946654.82548  21233267.1194   21233268.7954   21233266.8734
       247.000         222.000
 128254995.44548  99938942.20748  24406126.3004   24406129.3634   24406126.4144
       218.000         161.000
 132622804.23548  85550232.92348  23334347.2244   23334348.1144   23334346.9694
       233.000         191.000
 122291932.50948  77500202.24948  21368446.9164   21368448.3704   21368446.8254
       246.000         219.000
 113314726.06548 106089396.52548  23466011.9874   23466011.8274   23466011.3934
       225.000         178.000
 09  1 21  1 19  0.0000000  0  9G 9G 5G26G18G15G30G17G12G22
 115274345.94348  72031946.39748  20033050.9574   20033053.4224   20033051.0064
       251.000         229.000
 106775595.82348 100993958.50748  22221665.8274   22221668.5414   22221666.5144
       241.000         201.000
 130362253.78648  83788758.16748  22904183.3414   22904186.6004   22904183.3234
       229.000         187.000
 127580627.34848  81621263.67648  22374851.9954   22374853.6734   22374852.4314
       236.000         190.000
 121647095.13548  76997731.22048  21245740.4314   21245742.2234   21245740.2724
       246.000         222.000
 128145649.17048  99853737.34548  24385318.6094   24385321.6854   24385318.5274
       218.000         165.000
 132648708.47048  85570418.04248  23339276.2794   23339277.7334   23339276.8674
       228.000         188.000
 122225165.12548  77448175.72848  21355741.1574   21355743.0034   21355740.8674
       246.000         220.000
 113284276.47948 106065669.54148  23460217.6654   23460217.0014   23460216.7354
       228.000         178.000
 09  1 21  1 19 30.0000000  0  9G 9G 5G26G18G15G30G17G12G22
 115256498.48148  72018039.28348  20029654.7604   20029657.1204   20029655.0824
       251.000         229.000
 106687812.63048 100925556.02748  22204960.8584   22204964.0804   22204961.8384
       238.000         201.000
 130461867.82948  83866379.48848  22923139.4844   22923142.5454   22923139.2514
       230.000         189.000
 127604417.53648  81639801.47448  22379379.1074   22379380.9624   22379379.6404
       237.000         192.000
 121713063.11448  77049134.83848  21258293.9334   21258295.6214   21258293.6624
       247.000         222.000
 128036429.44848  99768631.09648  24364535.2684   24364538.0904   24364533.6594
       222.000         167.000
 132675160.19748  85591029.79448  23344308.1394   23344311.0724   23344307.4824
       229.000         186.000
 122158809.89348  77396470.36048  21343114.4494   21343116.0494   21343114.3754
       247.000         220.000
 113254353.43748 106042352.88448  23454523.3564   23454523.1444   23454523.5734
       225.000         179.000
 09  1 21  1 20  0.0000000  0  9G 9G 5G26G18G15G30G17G12G22
 115238997.17648  72004401.90348  20026324.3734   20026326.9404   20026324.6034
       251.000         229.000
 106600345.32048 100857399.67448  22188316.3144   22188319.4444   22188316.8584
       238.000         201.000
 130561712.33848  83944180.39948  22942139.4324   22942142.1744   22942138.8734
       229.000         188.000
 127628746.47848  81658759.08448  22384008.9264   22384011.0094   22384009.6234
       237.000         192.000
 121779448.42648  77100863.64648  21270926.7154   21270928.3334   21270926.6374
       246.000         222.000
 127927336.99748  99683623.97648  24343776.1444   24343778.4504   24343775.9824
       224.000         167.000
 132702158.23348  85612067.21148  23349447.3664   23349448.4954   23349446.9194
       232.000         189.000
 122092866.65348  77345086.02648  21330565.8794   21330567.3264   21330565.7684
       247.000         220.000
 113224956.40748 106019446.10748  23448929.5134   23448929.9754   23448929.3834
       228.000         184.000
 09  1 21  1 20 30.0000000  0  9G 9G 5G26G18G15G30G17G12G22
 115221841.45748  71991033.80748  20023059.6434   20023062.1454   20023059.6314
       251.000         229.000
 106513194.00848 100789489.57148  22171731.9604   22171735.0684   22171732.6484
       238.000         202.000
 130661784.68648  84022158.85848  22961182.5574   22961184.9884   22961182.7804
       231.000         187.000
 127653611.34648  81678134.30248  22388740.9584   22388742.2144   22388741.4254
       236.000         192.000
 121846248.84748  77152915.92748  21283638.3774   21283639.8514   21283637.9014
       246.000         221.000
 127818372.26548  99598716.40048  24323040.5714   24323042.8284   24323040.8434
       222.000         165.000
 132729700.72148  85633528.89248  23354688.3674   23354689.6584   23354688.6314
       231.000         186.000
 122027335.18148  77294022.55048  21318095.6464   21318097.0464   21318095.4874
       247.000         220.000
 113196085.13548 105996949.00348  23443435.3914   23443436.1184   23443436.1354
       228.000         183.000
 09  1 21  1 21  0.0000000  0  9G 9G 5G26G18G15G30G17G12G22
 115205032.70848  71977936.08148  20019861.0424   20019863.4874   20019861.2904
       250.000         229.000
 106426360.71148 100721827.25548  22155208.3774   22155211.3664   22155208.5024
       239.000         203.000
 130762083.96148  84100314.12548  22980268.4384   22980271.4464   22980269.1604
       229.000         187.000
 127679011.52648  81697926.63748  22393573.8904   22393576.0084   22393574.4034
       234.000         192.000
 121913463.92448  77205291.30748  21296429.0074   21296430.5944   21296428.8884
       246.000         221.000
 127709537.12448  99513909.80748  24302329.8064   24302332.0284   24302329.8524
       221.000         164.000
 132757787.10448  85655414.37348  23360032.7564   23360034.2034   23360032.5434
       231.000         186.000
 121962217.25648  77243281.31448  21305704.1644   21305705.4174   21305704.1164
       247.000         220.000
 113167740.89548 105974862.57248  23438041.3484   23438042.3464   23438042.3304
       229.000         186.000
 09  1 21  1 21 30.0000000  0  9G 9G 5G26G18G15G30G17G12G22
 115188571.94548  71965109.51548  20016728.6494   20016731.2344   20016728.7644
       251.000         229.000
 106339847.95148 100654414.72348  22138745.4694   22138748.5504   22138746.4744
       239.000         203.000
 130862609.61048  84178645.78348  22999398.1904   22999400.9974   22999397.9394
       228.000         186.000
 127704946.78848  81718135.91248  22398509.4934   22398511.4684   22398509.6494
       235.000         192.000
 121981093.71748  77257989.84448  21309298.4394   21309300.1754   21309298.1674
       244.000         221.000
 127600834.25048  99429206.27748  24281643.4084   24281646.4994   24281642.5424
       216.000         160.000
 132786418.22648  85677724.34648  23365481.1674   23365482.7334   23365481.3114
       230.000         185.000
 121897515.03248  77192864.00548  21293391.6774   21293392.8924   21293391.4674
       247.000         220.000
 113139925.66648 105953188.38648  23432748.3374   23432749.3064   23432748.5764
       228.000         184.000
 09  1 21  1 22  0.0000000  0  9G 9G 5G26G18G15G30G17G12G22
 115172459.35248  71952554.25148  20013662.7474   20013664.9394   20013662.9114
       251.000         229.000
 106253656.76348 100587252.76048  22122343.9474   22122346.8404   22122344.6904
       240.000         204.000
 130963359.64048  84257152.28448  23018570.4344   23018573.2794   23018570.4644
       228.000         187.000
 127731415.01448  81738760.49848  22403546.3074   22403547.8544   22403546.6934
       236.000         191.000
 122049136.57248  77311010.24248  21322246.4794   21322248.3614   21322246.0794
       246.000         220.000
 127492265.08348  99344606.94248  24260982.8634   24260986.7364   24260982.3994
       213.000         159.000
 132815592.95548  85700457.93348  23371032.2344   23371034.6384   23371032.1814
       228.000         188.000
 121833228.70948  77142770.76448  21281158.6484   21281159.6224   21281158.6074
       248.000         220.000
 113112639.67648 105931926.56848  23427556.4254   23427556.9584   23427557.7664
       231.000         186.000
 09  1 21  1 22 30.0000000  0  9G 9G 5G26G18G15G30G17G12G22
 115156695.11348  71940270.42948  20010663.0244   20010665.0684   20010663.2134
       251.000         229.000
 106167788.04848 100520342.08248  22106003.9944   22106006.8344   22106004.7244
       241.000         205.000
 131064332.05648  84335832.08648  23037784.9464   23037787.7934   23037784.7324
       230.000         186.000
 127758414.62548  81759799.13948  22408684.0414   22408685.8474   22408684.3004
       235.000         190.000
 122117590.74648  77364351.15048  21335272.9544   21335274.6654   21335272.6384
       245.000         220.000
 127383830.95848  99260112.85548  24240348.5504   24240352.4394   24240349.2044
       215.000         162.000
 132845310.23148  85723614.24948  23376687.8984   23376689.6724   23376687.0184
       234.000         191.000
 121769359.10448  77093002.24948  21269004.2184   21269005.7094   21269004.0574
       247.000         220.000
 113085883.00548 105911077.21448  23422464.5884   23422465.2864   23422465.0344
       229.000         183.000
 09  1 21  1 23  0.0000000  0  9G 9G 5G26G18G15G30G17G12G22
 115141279.38748  71928258.16848  20007729.3224   20007731.5964   20007729.6124
       251.000         228.000
 106082243.10348 100453683.68148  22089725.1674   22089728.2834   22089725.7594
       240.000         205.000
 131165525.25848  84414683.93248  23057041.2354   23057043.8094   23057040.8894
       229.000         185.000
 127785944.09148  81781250.66248  22413922.6434   22413924.7134   22413923.4654
       235.000         190.000
 122186455.50448  77418012.00948  21348377.4654   21348379.1564   21348377.1444
       245.000         220.000
 127275533.34048  99175725.15748  24219740.8114   24219744.3544   24219741.2684
       219.000         165.000
 132875569.34848  85747192.76548  23382446.5824   23382447.3794   23382446.4794
       235.000         190.000
 121705907.03948  77043559.09748  21256929.7524   21256931.2584   21256929.5524
       247.000         221.000
 113059656.55748 105890641.00648  23417474.0034   23417473.7224   23417473.5704
       230.000         183.000
 09  1 21  1 23 30.0000000  0  9G 9G 5G26G18G15G30G17G12G22
 115126212.13748  71916517.45548  20004862.1134   20004864.4294   20004862.3724
       251.000         228.000
 105997022.90548 100387278.34948  22073508.1254   22073511.2914   22073508.9454
       240.000         206.000
 131266937.17848  84493706.19048  23076339.2724   23076341.8824   23076338.5964
       230.000         185.000
 127814001.51348  81803113.58348  22419261.6654   22419263.5274   22419262.2804
       234.000         189.000
 122255728.89748  77471991.27548  21361559.6464   21361561.3074   21361559.2724
       246.000         220.000
 127167373.35648  99091444.66648  24199159.0734   24199161.3894   24199158.9714
       222.000         166.000
 132906368.90548  85771192.43248  23388307.0104   23388308.7984   23388307.3594
       230.000         187.000
 121642873.25648  76994441.87548  21244934.9044   21244936.4314   21244934.6894
       248.000         222.000
 113033960.46448 105870618.05348  23412584.3604   23412583.6584   23412584.8424
       228.000         181.000
 09  1 21  1 24  0.0000000  0  9G 9G 5G26G18G15G30G17G12G22
 115111494.07548  71905048.83748  20002061.3504   20002063.6494   20002061.5384
       251.000         229.000
 105912129.10848 100321127.35148  22057353.5444   22057356.6854   22057354.2094
       239.000         205.000
 131368566.70148  84572898.02748  23095678.7504   23095681.0894   23095679.0214
       229.000         184.000
 127842585.40248  81825386.75248  22424700.8944   22424702.8164   22424701.4494
       235.000         189.000
 122325410.23048  77526288.41648  21374819.7244   21374821.3084   21374819.7214
       245.000         219.000
 127059353.07748  99007273.02348  24178603.6194   24178605.4594   24178603.0684
       221.000         166.000
 132937708.49948  85795612.90948  23394270.2254   23394272.4294   23394269.7354
       228.000         185.000
 121580258.35548  76945651.04548  21233019.8074   21233021.2164   21233019.6954
       248.000         222.000
 113008795.60248 105851009.06448  23407795.1224   23407795.7704   23407795.1354
       227.000         183.000
 09  1 21  1 24 30.0000000  0  9G 9G 5G26G18G15G30G17G12G22
 115097126.53048  71893853.34748  19999327.3294   19999329.5744   19999327.5574
       251.000         229.000
 105827563.69948 100255232.24948  22041261.1584   22041264.4314   22041261.8964
       241.000         206.000
 131470412.56748  84652258.44348  23115059.2524   23115061.6874   23115059.5674
       229.000         185.000
 127871695.05548  81848069.58648  22430240.9244   22430242.1024   22430241.4594
       236.000         191.000
 122395498.96448  77580903.00648  21388157.1544   21388158.8354   21388157.0174
       245.000         219.000
 126951474.69948  98923211.96748  24158074.9704   24158076.9914   24158074.8534
       220.000         166.000
 132969588.07348  85820454.14648  23400336.3954   23400338.7344   23400336.3954
       229.000         187.000
 121518064.57748  76897188.36548  21221184.7004   21221186.2744   21221184.4594
       248.000         222.000
 112984162.74348 105831814.63748  23403107.1694   23403108.1234   23403107.0164
       226.000         182.000
 09  1 21  1 25  0.0000000  0  9G 9G 5G26G18G15G30G17G12G22
 115083108.90448  71882930.52848  19996659.7334   19996662.2144   19996659.9234
       251.000         229.000
 105743327.22948 100189593.45948  22025231.6404   22025234.7284   22025232.3044
       241.000         206.000
 131572472.67348  84731785.79348  23134480.7224   23134483.1154   23134481.0114
       226.000         184.000
 127901328.25748  81871160.39348  22435879.6764   22435881.2864   22435880.5284
       234.000         191.000
 122465993.00248  77635833.41948  21401571.6194   21401573.3564   21401571.3654
       245.000         219.000
 126843739.20948  98839262.24748  24137573.1314   24137576.0304   24137573.4674
       222.000         167.000
 133002006.04048  85845714.88848  23406506.1774   23406507.8584   23406505.8824
       232.000         188.000
 121456291.67848  76849053.65048  21209429.6244   21209431.0894   21209429.3884
       247.000         222.000
 112960062.20948 105813035.02648  23398521.2344   23398522.3134   23398521.2414
       229.000         184.000
 09  1 21  1 25 30.0000000  0  9G 9G 5G26G18G15G30G17G12G22
 115069441.25148  71872280.40648  19994058.8594   19994061.3284   19994059.1264
       250.000         228.000
 105659420.63448 100124211.70848  22009264.5304   22009267.3864   22009265.1414
       242.000         206.000
 131674744.83648  84811478.37548  23153942.3394   23153945.0774   23153942.0524
       226.000         184.000
 127931483.11648  81894657.67348  22441617.8384   22441619.8294   22441618.2114
       236.000         191.000
 122536890.86648  77691078.50548  21415063.2484   21415064.8444   21415062.9494
       246.000         219.000
 126736147.64648  98755424.69048  24117099.5254   24117102.0904   24117098.7224
       220.000         167.000
 133034961.14448  85871394.16748  23412777.8464   23412779.0964   23412777.6934
       231.000         188.000
 121394940.20548  76801247.30748  21197754.8934   21197756.1174   21197754.8284
       248.000         222.000
 112936494.29048 105794670.41248  23394037.2004   23394036.6644   23394037.2084
       231.000         183.000
 09  1 21  1 26  0.0000000  0  9G 9G 5G26G18G15G30G17G12G22
 115056124.08148  71861903.38748  19991524.6994   19991527.1984   19991524.7284
       251.000         229.000
 105575845.28148 100059088.07648  21993360.7604   21993363.5464   21993361.7234
       241.000         206.000
 131777227.66948  84891335.11148  23173443.8504   23173446.8974   23173443.7284
       226.000         184.000
 127962157.89748  81918560.09848  22447455.3554   22447456.8574   22447455.9804
       235.000         191.000
 122608191.31548  77746637.29448  21428631.3514   21428632.8024   21428631.2814
       246.000         219.000
 126628701.79348  98671700.66548  24096653.3924   24096655.5234   24096653.6894
       222.000         165.000
 133068452.34848  85897491.21148  23419150.3704   23419151.9234   23419149.8874
       229.000         187.000
 121334010.84348  76753769.87348  21186160.4574   21186161.6544   21186160.1944
       248.000         222.000
 112913459.17148 105776720.95848  23389653.7774   23389653.2634   23389654.5244
       231.000         184.000
 09  1 21  1 26 30.0000000  0  9G 9G 5G26G18G15G30G17G12G22
 115043157.95848  71851799.92048  19989057.2734   19989059.9094   19989057.6014
       251.000         229.000
 105492602.84548  99994223.87348  21977519.9654   21977523.0124   21977520.2584
       240.000         207.000
 131879919.78248  84971354.92248  23192985.7304   23192988.6804   23192985.5124
       229.000         184.000
 127993351.17748  81942866.53848  22453390.9704   22453392.7084   22453391.4304
       233.000         189.000
 122679893.45548  77802509.09048  21442275.7474   21442277.2834   21442275.5854
       245.000         218.000
 126521403.43248  98588091.56548  24076234.9094   24076237.0214   24076234.5924
       221.000         164.000
 133102479.36448  85924005.79248  23425625.3864   23425627.2584   23425625.3924
       228.000         187.000
 121273504.98848  76706622.46248  21174646.4104   21174647.7924   21174646.5734
       248.000         222.000
 112890958.04248 105759187.59848  23385371.7374   23385371.9864   23385371.8444
       230.000         184.000
 09  1 21  1 27  0.0000000  0  9G 9G 5G26G18G15G30G17G12G22
 115030543.28148  71841970.30448  19986656.8574   19986659.4404   19986657.0204
       250.000         229.000
 105409694.32748  99929619.86248  21961742.9314   21961746.1254   21961743.6454
       241.000         207.000
 131982819.41048  85051536.44948  23212567.0454   23212569.7404   23212567.8624
       229.000         185.000
 128025061.31948  81967575.73748  22459425.3254   22459426.7684   22459425.7674
       235.000         188.000
 122751995.66148  77858692.62648  21455996.1754   21455997.8184   21455995.9364
       244.000         218.000
 126414253.76248  98504598.34448  24055845.0074   24055847.2594   24055844.9604
       223.000         163.000
 133137041.08648  85950937.00548  23432202.0584   23432204.6454   23432201.8054
       229.000         188.000
 121213423.29448  76659805.55848  21163213.2354   21163214.6904   21163212.9324
       248.000         223.000
 112868990.92348 105742070.34348  23381192.1654   23381191.4744   23381192.6834
       231.000         183.000
 09  1 21  1 27 30.0000000  0  9G 9G 5G26G18G15G30G17G12G22
 115018280.11548  71832414.58948  19984323.3294   19984325.5874   19984323.4784
       251.000         229.000
 105327120.81248  99865276.89248  21946029.8824   21946032.9954   21946030.3054
       243.000         209.000
 132085924.52848  85131878.10048  23232187.1354   23232190.0434   23232186.7454
       230.000         185.000
 128057286.43748  81992686.22548  22465557.6224   22465559.1764   22465557.9974
       235.000         188.000
 122824496.74048  77915186.96548  21469792.7644   21469794.3224   21469792.2054
       244.000         217.000
 126307254.44548  98421222.27548  24035483.7454   24035485.9084   24035483.9824
       218.000         163.000
 133172136.26248  85978283.90248  23438880.8494   23438882.4974   23438880.8954
       232.000         187.000
 121153766.20348  76613319.51648  21151860.9484   21151862.4144   21151860.7514
       248.000         223.000
 112847557.88448 105725369.32248  23377112.6114   23377113.3884   23377113.3474
       229.000         184.000
 09  1 21  1 28  0.0000000  0  9G 9G 5G26G18G15G30G17G12G22
 115006369.40748  71823133.51948  19982056.8964   19982059.1154   19982057.1124
       251.000         229.000
 105244884.29148  99801196.50648  21930381.2084   21930383.7194   21930381.7514
       243.000         209.000
 132189234.46848  85212379.34548  23251846.4664   23251849.2374   23251846.5004
       228.000         183.000
 128090025.59748  82018197.24148  22471787.5624   22471789.2234   22471788.1164
       233.000         187.000
 122897396.10548  77971991.66048  21483664.9794   21483666.4764   21483664.8134
       244.000         217.000
 126200408.16048  98337965.43548  24015151.1854   24015153.8764   24015150.2684
       220.000         164.000
 133207764.74148  86006046.34048  23445661.2904   23445662.1824   23445661.2874
       232.000         186.000
 121094535.55248  76567165.76248  21140589.9174   21140591.1274   21140589.8164
       249.000         223.000
 112826660.25048 105709085.43848  23373137.0614   23373136.1864   23373136.3694
       231.000         185.000
 09  1 21  1 28 30.0000000  0  9G 9G 5G26G18G15G30G17G12G22
 114994811.41248  71814127.28948  19979857.4384   19979859.7614   19979857.7004
       252.000         229.000
 105162985.64848  99737379.40948  21914796.1604   21914798.7794   21914797.0434
       242.000         208.000
 132292747.00848  85293038.47548  23271544.1954   23271546.8264   23271543.4634
       228.000         181.000
 128123276.67048  82044107.16248  22478114.8884   22478116.6324   22478115.4204
       235.000         188.000
 122970691.97448  78029105.32848  21497612.7904   21497614.1244   21497612.6314
       244.000         217.000
 126093715.69748  98254828.47648  23994848.0694   23994851.1984   23994847.9364
       220.000         166.000
 133243925.20248  86034223.31648  23452542.0674   23452543.0164   23452541.9394
       231.000         184.000
 121035731.45148  76521344.39848  21129399.6434   21129401.0934   21129399.4634
       249.000         223.000
 112806298.06548 105693218.79948  23369262.0504   23369261.7494   23369261.9524
       229.000         184.000
 09  1 21  1 29  0.0000000  0  9G 9G 5G26G18G15G30G17G12G22
 114983606.20248  71805395.95548  19977725.0934   19977727.4504   19977725.3084
       251.000         229.000
 105081425.77548  99673826.27248  21899275.7654   21899278.4364   21899276.0684
       242.000         209.000
 132396460.37148  85373854.08548  23291280.2684   23291282.6154   23291280.1624
       228.000         180.000
 128157037.50148  82070414.30348  22484539.3654   22484541.3374   22484539.9734
       233.000         188.000
 123044382.56248  78086526.55748  21511635.4944   21511637.2874   21511635.2994
       244.000         217.000
 125987178.15748  98171812.24348  23974574.8324   23974577.8704   23974574.9364
       221.000         168.000
 133280616.27348  86062813.77248  23459523.7004   23459525.3944   23459523.7954
       228.000         183.000
 120977354.31048  76475855.72348  21118290.8104   21118292.3254   21118290.7384
       249.000         224.000
 112786471.39048 105677769.43448  23365488.4904   23365488.4294   23365489.4124
       229.000         180.000
 09  1 21  1 29 30.0000000  0  9G 9G 5G26G18G15G30G17G12G22
 114972754.29048  71796939.92148  19975660.0644   19975662.4594   19975660.0704
       251.000         229.000
 105000206.31348  99610538.40548  21883820.1164   21883823.0124   21883820.9074
       242.000         209.000
 132500373.01248  85454824.98148  23311053.9644   23311056.5354   23311053.2634
       227.000         179.000
 128191306.55848  82097117.46648  22491060.5694   22491062.4964   22491061.1734
       233.000         188.000
 123118466.88248  78144254.58948  21525733.2994   21525735.0764   21525733.1044
       244.000         217.000
 125880797.55248  98088918.27248  23954331.1614   23954334.3544   23954330.9154
       220.000         168.000
 133317837.21548  86091817.11448  23466606.7134   23466608.3014   23466606.4224
       230.000         185.000
 120919405.18248  76430700.56048  21107263.5294   21107264.9884   21107263.3844
       250.000         224.000
 112767180.86848 105662737.85448  23361817.6334   23361816.7984   23361817.4844
       224.000         180.000
 09  1 21  1 30  0.0000000  0  9G 9G 5G26G18G15G30G17G12G22
 114962256.55548  71788759.86648  19973662.3874   19973664.8104   19973662.6614
       251.000         229.000
 104919328.53648  99547516.77548  21868429.4204   21868432.5914   21868430.0564
       242.000         209.000
 132604483.46248  85535950.01748  23330865.7244   23330868.1874   23330865.8974
       225.000         178.000
 128226082.32348  82124215.45848  22497678.4234   22497680.0864   22497678.6964
       234.000         189.000
 123192943.73848  78202288.50148  21539906.0144   21539907.4734   21539905.8034
       244.000         217.000
 125774575.59048  98006147.89848  23934117.7174   23934120.8354   23934117.4214
       223.000         167.000
 133355587.23148  86121232.70948  23473790.2154   23473792.0434   23473790.5314
       231.000         186.000
 120861885.10548  76385879.72648  21096317.6984   21096319.2654   21096317.5954
       250.000         224.000
 112748426.91148 105648124.39448  23358248.6024   23358248.9414   23358247.4624
       230.000         182.000
 09  1 21  1 30 30.0000000  0  9G 9G 5G26G18G15G30G17G12G22
 114952112.43548  71780855.36048  19971731.9674   19971734.5364   19971732.1924
       251.000         229.000
 104838793.05448  99484761.86848  21853103.8204   21853107.0814   21853104.5874
       241.000         209.000
 132708789.45948  85617227.38548  23350714.1274   23350716.7914   23350714.2174
       225.000         178.000
 128261362.45248  82151706.46248  22504392.3484   22504393.7354   22504393.1714
       234.000         189.000
 123267811.21448  78260626.80048  21554152.7534   21554154.1594   21554152.6604
       243.000         216.000
 125668513.18448  97923501.88548  23913934.7434   23913937.7794   23913934.4834
       219.000         169.000
 133393864.43948  86151059.10048  23481074.5394   23481076.0034   23481074.5914
       230.000         185.000
 120804794.05248  76341393.19648  21085453.7304   21085455.2004   21085453.5924
       251.000         224.000
 112730209.42748 105633928.93748  23354782.6804   23354782.3564   23354783.4144
       229.000         182.000
 09  1 21  1 31  0.0000000  0  9G 9G 5G26G18G15G30G17G12G22
 114942321.83748  71773226.32548  19969868.8794   19969871.4704   19969869.0274
       250.000         229.000
 104758600.45748  99422274.14748  21837843.6214   21837846.8094   21837844.1854
       242.000         209.000
 132813288.82748  85698655.48048  23370600.1444   23370602.3474   23370599.9754
       224.000         180.000
 128297144.33248  82179588.44348  22511201.1914   22511202.7424   22511201.7794
       234.000         188.000
 123343067.47348  78319268.03348  21568473.3874   21568475.1724   21568472.9674
       244.000         216.000
 125562611.34948  97840980.99448  23893782.3724   23893785.1724   23893781.7304
       223.000         168.000
 133432667.25348  86181295.07348  23488458.4514   23488459.9664   23488458.1414
       230.000         184.000
 120748131.98948  76297240.94248  21074671.2964   21074672.6284   21074671.0764
       250.000         224.000
 112712527.97548 105620151.15248  23351418.2654   23351417.7634   23351417.8894
       231.000         183.000
 09  1 21  1 31 30.0000000  0  9G 9G 5G26G18G15G30G17G12G22
 114932885.84148  71765873.59648  19968073.2554   19968075.7194   19968073.3924
       251.000         229.000
 104678752.99448  99360055.35048  21822649.4974   21822652.6014   21822649.8624
       243.000         210.000
 132917980.70848  85780233.54948  23390521.9804   23390525.0344   23390521.3354
       223.000         182.000
 128333427.42348  82207860.96548  22518105.5494   22518107.1804   22518106.2994
       234.000         188.000
 123418711.80348  78378211.66448  21582868.0634   21582869.8774   21582868.0244
       243.000         216.000
 125456872.59548  97758587.16548  23873660.9004   23873663.5744   23873661.3904
       221.000         166.000
 133471995.64748  86211940.58148  23495942.3554   23495943.5284   23495942.1234
       228.000         182.000
 120691900.69348  76253424.34248  21063970.8674   21063972.1024   21063970.7054
       250.000         225.000
 112695383.72948 105606792.01048  23348155.4334   23348154.9774   23348156.6614
       230.000         183.000
 09  1 21  1 32  0.0000000  0  9G 9G 5G26G18G15G30G17G12G22
 114923804.47948  71758797.20948  19966345.2074   19966347.5454   19966345.4414
       251.000         229.000
 104599251.12948  99298105.85448  21807520.7794   21807523.6814   21807521.5794
       242.000         209.000
 133022862.87248  85861959.89248  23410480.6354   23410483.6714   23410479.8214
       226.000         183.000
 128370209.27548  82236522.13048  22525104.9144   22525106.4624   22525105.4814
       234.000         187.000
 123494742.52848  78437456.38548  21597336.3314   21597337.8854   21597336.0034
       244.000         217.000
 125351297.69848  97676321.03548  23853571.0104   23853573.2274   23853570.7524
       218.000         165.000
 133511847.93548  86242994.31748  23503525.8224   23503526.7464   23503525.4504
       230.000         182.000
 120636100.21648  76209943.45548  21053352.2784   21053353.5184   21053352.2074
       250.000         224.000
 112678776.21948 105593851.08148  23344994.7274   23344994.4884   23344994.0574
       229.000         182.000
 09  1 21  1 32 30.0000000  0  9G 9G 5G26G18G15G30G17G12G22
 114915078.97748  71751998.11948  19964684.7754   19964687.1874   19964685.0234
       251.000         229.000
 104520097.13948  99236427.43348  21792458.1934   21792461.0044   21792458.5864
       243.000         209.000
 133127934.48548  85943833.86848  23430475.4254   23430478.1304   23430475.4044
       227.000         184.000
 128407488.69448  82265571.01548  22532199.0074   22532200.5644   22532199.7834
       234.000         186.000
 123571159.17448  78497001.81248  21611877.9984   21611879.7624   21611877.6594
       243.000         216.000
 125245889.55148  97594184.82248  23833511.8484   23833514.5094   23833511.5844
       219.000         166.000
 133552223.92048  86274456.13048  23511209.3664   23511210.0034   23511208.8384
       232.000         182.000
 120580732.28448  76166799.60948  21042816.2904   21042817.5124   21042815.8204
       251.000         225.000
 112662707.02248 105581329.64048  23341937.2174   23341937.1014   23341937.8784
       231.000         183.000
 09  1 21  1 33  0.0000000  0  9G 9G 5G26G18G15G30G17G12G22
 114906708.54648  71745475.70748  19963091.7834   19963094.4884   19963091.8894
       251.000         229.000
 104441290.82848  99175019.91748  21777462.1594   21777464.8604   21777462.9054
       242.000         210.000
 133233192.81848  86025853.35348  23450505.1984   23450507.9194   23450504.8754
       228.000         185.000
 128445262.74648  82295005.34448  22539386.8864   22539388.5064   22539387.1764
       233.000         186.000
 123647958.69248  78556845.59348  21626492.3764   21626494.3374   21626492.3124
       243.000         216.000
 125140648.26448  97512178.64348  23813485.3934   23813487.8834   23813485.0674
       219.000         167.000
 133593121.19848  86306324.14848  23518991.8694   23518993.3834   23518992.3604
       232.000         183.000
 120525796.05748  76123992.16448  21032362.1874   21032363.4594   21032362.3324
       251.000         225.000
 112647174.39448 105569226.28948  23338981.2634   23338981.4964   23338982.6604
       229.000         182.000
 09  1 21  1 33 30.0000000  0  9G 9G 5G26G18G15G30G17G12G22
 114898693.44348  71739230.16848  19961566.7054   19961569.1904   19961566.8894
       251.000         229.000
 104362833.58148  99113884.40848  21762532.0894   21762535.0534   21762532.7734
       243.000         210.000
 133338636.13048  86108016.97848  23470570.4814   23470572.9154   23470570.2344
       231.000         186.000
 128483529.47448  82324823.56148  22546668.8024   22546670.8244   22546669.1664
       234.000         187.000
 123725139.81648  78616986.72048  21641179.4944   21641181.2154   21641179.2024
       243.000         215.000
 125035575.37248  97430303.68948  23793490.4894   23793493.3184   23793490.0144
       219.000         170.000
 133634538.56548  86338597.42148  23526873.4644   23526874.3094   23526873.4754
       229.000         183.000
 120471292.49548  76081521.86448  21021990.3304   21021991.8644   21021990.0774
       250.000         225.000
 112632178.78348 105557541.37648  23336127.4024   23336127.8334   23336127.3664
       228.000         182.000
 09  1 21  1 34  0.0000000  0  9G 9G 5G26G18G15G30G17G12G22
 114891034.96148  71733262.51948  19960109.1804   19960111.7354   19960109.2974
       250.000         229.000
 104284727.10848  99053022.23648  21747669.0504   21747671.6834   21747669.6814
       244.000         211.000
 133444263.58948  86190324.07248  23490670.6104   23490673.5204   23490670.7704
       228.000         186.000
 128522287.62048  82355024.70148  22554044.2754   22554045.9044   22554045.3544
       232.000         186.000
 123802702.27848  78677425.00048  21655939.1804   21655940.7374   21655938.9414
       243.000         215.000
 124930672.76648  97348561.40448  23773529.0394   23773531.0974   23773528.7264
       224.000         171.000
 133676475.43048  86371275.50848  23534853.4184   23534854.7064   23534853.5704
       230.000         183.000
 120417222.84248  76039389.66548  21011701.3434   21011702.8324   21011701.1294
       251.000         226.000
 112617721.84148 105546276.20848  23333376.8904   23333376.7384   23333376.3454
       228.000         183.000
 09  1 21  1 34 30.0000000  0  9G 9G 5G26G18G15G30G17G12G22
 114883733.35048  71727572.94948  19958719.7524   19958722.3264   19958719.9244
       250.000         229.000
 104206972.28848  98992434.07348  21732872.8034   21732875.5314   21732873.6034
       242.000         211.000
 133550072.77648  86272772.77548  23510805.5004   23510808.3594   23510805.5674
       231.000         187.000
 128561535.06648  82385607.11348  22561512.8334   22561514.4374   22561513.1794
       233.000         186.000
 123880643.86048  78738158.70148  21670770.8394   21670772.4754   21670770.8354
       242.000         214.000
 124825942.09848  97266953.10848  23753599.2454   23753601.5874   23753599.8464
       222.000         171.000
 133718930.36148  86404357.29848  23542932.3604   23542934.1084   23542932.1344
       229.000         183.000
 120363587.32048  75997595.74848  21001495.0214   21001496.3304   21001495.0004
       251.000         226.000
 112603802.72448 105535430.14548  23330727.9534   23330728.3594   23330728.0304
       230.000         184.000
 09  1 21  1 35  0.0000000  0  9G 9G 5G26G18G15G30G17G12G22
 114876789.28548  71722161.98848  19957398.3004   19957400.9524   19957398.5274
       250.000         229.000
 104129570.69648  98932121.16548  21718143.4794   21718146.4214   21718143.9334
       242.000         210.000
 133656062.84048  86355362.43248  23530974.8084   23530977.3704   23530975.1684
       231.000         185.000
 128601270.20948  82416569.55648  22569074.6424   22569075.8614   22569075.2464
       234.000         187.000
 123958963.52648  78799187.01148  21685674.6084   21685676.2904   21685674.0374
       243.000         215.000
 124721385.30648  97185480.31148  23733702.3884   23733705.1044   23733701.8794
       224.000         171.000
 133761902.61148  86437842.18248  23551109.7474   23551111.3184   23551109.2254
       229.000         182.000
 120310386.85648  75956140.83948  20991371.3654   20991372.5374   20991371.2904
       250.000         226.000
 112590421.71648 105525003.38548  23328181.7874   23328181.9314   23328181.3054
       230.000         182.000
 09  1 21  1 35 30.0000000  0  7G 9G18G15G30G17G12G22
 114870201.78248  71717028.86648  19956144.8764   19956147.2914   19956144.9784
       250.000         229.000
 128641489.93448  82447909.58848  22576727.7454   22576729.5484   22576728.4794
       231.000         185.000
 124037658.96648  78860508.13248  21700649.8574   21700651.6264   21700649.5894
       242.000         214.000
 124617002.73048  97104143.25948  23713839.3084   23713841.3524   23713838.1104
       224.000         169.000
 133805389.76648  86471728.29248  23559385.1404   23559386.2964   23559385.2944
       230.000         182.000
 120257621.07048  75915024.63948  20981330.1774   20981331.4344   20981329.9854
       251.000         226.000
 112577578.46848 105514995.65748  23325737.5784   23325737.2124   23325737.8884
       229.000         183.000
 09  1 21  1 36  0.0000000  0  9G 9G 5G26G18G15G30G17G12G22
 114863972.26648  71712174.69448  19954959.3124   19954961.9184   19954959.4754
       250.000         229.000
 103975829.24048  98812322.65848  21688887.4494   21688890.2824   21688888.0624
       242.000         210.000
 133868575.89248  86520957.00448  23571415.0244   23571417.2654   23571415.0834
       230.000         184.000
 128682192.82448  82479626.09948  22584472.9354   22584474.9994   22584473.1964
       231.000         186.000
 124116729.39948  78922121.45448  21715696.5974   21715698.2484   21715696.6014
       243.000         214.000
 124512796.68348  97022943.74548  23694009.6234   23694011.3084   23694010.4384
       224.000         169.000
 133849391.22348  86506015.14548  23567758.2014   23567759.4154   23567757.9324
       228.000         181.000
 120205291.13748  75874248.06948  20971372.0794   20971373.3664   20971372.0634
       250.000         226.000
 112565273.58548 105505407.44248  23323395.9504   23323396.8204   23323396.2574
       231.000         185.000
 09  1 21  1 36 30.0000000  0  9G 9G 5G26G18G15G30G17G12G22
 114858100.84848  71707599.56148  19953842.1874   19953844.7034   19953842.4144
       251.000         229.000
 103899492.18048  98752839.25548  21674360.8894   21674364.0764   21674361.4464
       241.000         211.000
 133975096.13548  86603959.78948  23591684.9484   23591687.6634   23591684.8574
       228.000         182.000
 128723377.10048  82511717.73348  22592310.3334   22592312.2904   22592310.8954
       232.000         186.000
 124196173.14848  78984025.66548  21730814.1774   21730815.9324   21730814.1844
       242.000         214.000
 124408768.65248  96941882.96848  23674213.4434   23674215.7264   23674213.6384
       222.000         168.000
 133893905.55048  86540701.62348  23576228.5664   23576229.7774   23576227.9094
       226.000         178.000
 120153397.56548  75833811.53348  20961497.0144   20961498.3584   20961496.7874
       252.000         226.000
 112553506.99148 105496238.64648  23321156.6254   23321157.2314   23321155.9484
       230.000         183.000
 09  1 21  1 37  0.0000000  0  9G 9G 5G26G18G15G30G17G12G22
 114852587.73448  71703303.62948  19952792.9884   19952795.5354   19952793.1784
       251.000         229.000
 103823512.30248  98693634.15848  21659902.6424   21659905.6764   21659903.1904
       243.000         212.000
 134081789.66348  86687097.60348  23611987.9984   23611990.2654   23611987.7084
       228.000         179.000
 128765040.22148  82544182.48648  22600238.4774   22600240.5494   22600238.6084
       233.000         186.000
 124275988.53048  79046219.46548  21746002.3274   21746004.1974   21746001.9894
       242.000         213.000
 124304919.96748  96860961.94448  23654451.4424   23654453.7804   23654450.9874
       223.000         171.000
 133938931.76948  86575786.99648  23584796.5564   23584798.5474   23584795.8334
       227.000         177.000
 120101940.88148  75793715.41748  20951705.4804   20951706.4464   20951705.4194
       252.000         227.000
 112542278.72648 105487489.32348  23319020.0434   23319020.7004   23319020.5614
       226.000         183.000
 09  1 21  1 37 30.0000000  0  9G 9G 5G26G18G15G30G17G12G22
 114847433.61748  71699287.42848  19951812.2204   19951814.7134   19951812.4214
       250.000         229.000
 103747890.79148  98634708.32248  21645512.1074   21645515.2634   21645512.7414
       243.000         212.000
 134188655.20448  86770369.46048  23632323.7874   23632326.2904   23632323.8504
       224.000         175.000
 128807180.48548  82577019.05748  22608257.7914   22608259.9574   22608258.6094
       232.000         187.000
 124356174.26948  79108701.85948  21761261.5914   21761262.8534   21761261.4084
       242.000         213.000
 124201252.33548  96780181.98448  23634724.9934   23634726.8974   23634725.0684
       224.000         176.000
 133984468.39648  86611270.10448  23593462.0354   23593463.0244   23593462.0454
       225.000         177.000
 120050921.90648  75753960.37748  20941996.6014   20941997.9014   20941996.4924
       250.000         226.000
 112531588.76748 105479159.49448  23316986.3064   23316986.3444   23316986.0514
       233.000         184.000
 09  1 21  1 38  0.0000000  0  9G 9G 5G26G18G15G30G17G12G22
 114842637.80448  71695550.42748  19950899.6854   19950902.1554   19950899.8574
       250.000         229.000
 103672627.63948  98576061.71448  21631190.3614   21631193.0394   21631191.1304
       243.000         212.000
 134295689.57548  86853772.84648  23652691.3344   23652694.7254   23652690.8454
       225.000         175.000
 128849794.89648  82610225.07748  22616366.7644   22616369.3174   22616367.2974
       231.000         186.000
 124436727.84348  79171470.87848  21776590.2714   21776591.8104   21776590.1004
       242.000         213.000
 124097765.80248  96699543.17248  23615031.7724   23615034.5334   23615031.9504
       225.000         175.000
 134030513.19948  86647149.15248  23602224.4144   23602225.1564   23602223.8934
       227.000         179.000
 120000339.89148  75714545.82048  20932371.0864   20932372.5134   20932370.8564
       250.000         227.000
 112521435.84248 105471248.13248  23315053.8944   23315054.0034   23315054.0734
       230.000         183.000
 09  1 21  1 38 30.0000000  0  9G 9G 5G26G18G15G30G17G12G22
 114838201.34348  71692093.44448  19950055.3384   19950057.7514   19950055.4714
       251.000         229.000
 103597724.80548  98517695.87748  21616936.6264   21616939.4184   21616937.2084
       243.000         212.000
 134402892.30548  86937307.43748  23673091.4854   23673094.8134   23673091.3934
       224.000         172.000
 128892882.20348  82643799.59448  22624566.1724   22624568.3614   22624566.8124
       230.000         184.000
 124517648.51248  79234525.94748  21791988.9284   21791990.4134   21791988.8384
       241.000         213.000
 123994463.06948  96619047.54748  23595373.7494   23595376.4574   23595373.6384
       221.000         172.000
 134077065.29348  86683423.51248  23611082.9404   23611084.9014   23611083.0854
       226.000         180.000
 119950195.95948  75675472.63548  20922829.0504   20922830.4844   20922828.8844
       250.000         227.000
 112511820.87648 105463755.93548  23313224.9374   23313224.6264   23313224.4604
       232.000         185.000
 09  1 21  1 39  0.0000000  0  9G 9G 5G26G18G15G30G17G12G22
 114834124.13148  71688916.39348  19949279.5674   19949281.8824   19949279.8854
       251.000         228.000
 103523182.87648  98459611.26548  21602751.8614   21602754.5364   21602752.6044
       242.000         211.000
 134510260.80348  87020971.21948  23693523.3214   23693525.5254   23693523.8274
       221.000         168.000
 128936439.67048  82677740.45448  22632854.6934   22632856.6234   22632854.9294
       230.000         183.000
 124598934.27648  79297865.49748  21807456.8964   21807458.7384   21807456.3414
       241.000         212.000
 123891344.97548  96538695.80248  23575750.9754   23575753.4754   23575749.9624
       224.000         172.000
 134124123.20448  86720092.02048  23620038.0154   23620039.9754   23620037.4774
       227.000         182.000
 119900490.50448  75636741.11948  20913370.6224   20913371.9304   20913370.5764
       251.000         228.000
 112502743.35348 105456682.54948  23311496.9374   23311497.3614   23311497.4564
       228.000         183.000
 09  1 21  1 39 30.0000000  0  9G 9G 5G26G18G15G30G17G12G22
 114830406.52548  71686019.55748  19948571.9834   19948574.5504   19948572.0924
       251.000         229.000
 103449003.09848  98401808.85048  21588635.5554   21588638.5724   21588635.9454
       243.000         211.000
 134617793.91248  87104763.24848  23713985.9244   23713988.4074   23713986.1874
       219.000         166.000
 128980465.45648  82712046.24948  22641232.7604   22641234.4174   22641232.9554
       231.000         182.000
 124680583.60048  79361488.33748  21822994.3554   21822996.1724   21822994.0184
       241.000         212.000
 123788413.58048  96458489.51948  23556164.1434   23556166.1474   23556164.2844
       222.000         172.000
 134171685.63148  86757153.66748  23629088.6474   23629090.6554   23629088.7524
       228.000         182.000
 119851223.84448  75598351.51448  20903995.5204   20903996.6684   20903995.4724
       250.000         227.000
 112494202.96848 105450027.70348  23309871.5054   23309872.3964   23309871.8024
       230.000         185.000
 09  1 21  1 40  0.0000000  0  9G 9G 5G26G18G15G30G17G12G22
 114827048.88448  71683403.21148  19947933.1364   19947935.6384   19947933.2834
       251.000         229.000
 103375186.25348  98344289.24348  21574588.6864   21574591.9244   21574589.2734
       243.000         212.000
 134725489.48248  87188681.86848  23734479.9464   23734482.5414   23734479.8304
       217.000         164.000
 129024956.85648  82746714.88648  22649699.0894   22649700.6094   22649699.9634
       231.000         181.000
 124762594.53748  79425392.96548  21838600.5464   21838602.0524   21838600.3644
       241.000         211.000
 123685669.71848  96378429.40948  23536611.5954   23536614.6324   23536611.0644
       225.000         173.000
 134219750.85348  86794607.09648  23638235.2234   23638237.0344   23638235.3034
       226.000         181.000
 119802396.26448  75560304.05748  20894703.7524   20894705.0094   20894703.6604
       250.000         228.000
 112486199.35548 105443791.13648  23308348.4764   23308349.1544   23308348.5584
       230.000         185.000
 09  1 21  1 40 30.0000000  0  9G 9G 5G26G18G15G30G17G12G22
 114824052.25848  71681068.17448  19947362.8444   19947365.4564   19947363.1214
       251.000         229.000
 103301733.99448  98287053.72448  21560611.2034   21560614.2804   21560611.7414
       241.000         211.000
 134833346.29948  87272726.15048  23755004.4894   23755007.1154   23755004.7734
       216.000         160.000
 129069912.71648  82781745.41648  22658254.2244   22658255.4354   22658254.7394
       230.000         182.000
 124844966.72148  79489579.09148  21854275.5734   21854276.8894   21854275.5024
       240.000         212.000
 123583115.74748  96298517.21748  23517096.8884   23517099.3544   23517096.8084
       224.000         174.000
 134268317.94048  86832451.58748  23647477.0124   23647478.4774   23647476.4484
       227.000         180.000
 119754008.85648  75522599.59448  20885496.0074   20885497.1524   20885495.8474
       251.000         228.000
 112478733.86148 105437973.85348  23306928.3914   23306928.6234   23306927.9584
       231.000         185.000
 09  1 21  1 41  0.0000000  0  9G 9G 5G26G18G15G30G17G12G22
 114821416.10148  71679014.01948  19946861.3344   19946863.8204   19946861.5484
       250.000         229.000
 103228646.56348  98230102.48848  21546703.0594   21546706.2814   21546703.3994
       242.000         211.000
 134941362.07848  87356894.28148  23775559.1584   23775561.9804   23775558.7944
       212.000         157.000
 129115329.94648  82817135.44148  22666896.9774   22666898.5814   22666897.5494
       231.000         183.000
 124927697.29948  79554044.47248  21870018.5954   21870020.3754   21870018.2404
       240.000         212.000
 123480752.25248  96218753.47248  23497617.1884   23497620.3294   23497617.5584
       223.000         174.000
 134317384.56848  86870685.33048  23656814.2234   23656815.9004   23656814.6664
       225.000         179.000
 119706061.15748  75485237.75548  20876371.8074   20876372.9844   20876371.6374
       250.000         228.000
 112471804.92248 105432574.68148  23305609.9064   23305609.9994   23305610.7044
       231.000         184.000
 09  1 21  1 41 30.0000000  0  9G 9G 5G26G18G15G30G17G12G22
 114819140.65348  71677240.94048  19946428.2184   19946430.7914   19946428.2674
       250.000         229.000
 103155924.73448  98173436.13448  21532864.6894   21532867.7904   21532865.1914
       243.000         212.000
 135049534.72648  87441184.64248  23796143.5384   23796146.4614   23796142.2434
       214.000         156.000
 129161206.11148  82852883.08548  22675626.7994   22675628.3224   22675627.3764
       229.000         180.000
 125010784.54948  79618787.77448  21885829.5634   21885831.4354   21885828.9774
       240.000         211.000
 123378580.53648  96139139.15148  23478174.4904   23478177.3434   23478174.6074
       221.000         174.000
 134366949.58648  86909307.42248  23666246.2644   23666246.7634   23666245.9674
       224.000         175.000
 119658553.50548  75448218.81248  20867331.4234   20867332.6324   20867331.2614
       251.000         228.000
 112465412.45348 105427593.52848  23304393.4424   23304393.2034   23304393.9444
       232.000         185.000
 09  1 21  1 42  0.0000000  0  9G 9G 5G26G18G15G30G17G12G22
 114817226.63548  71675749.49848  19946063.9974   19946066.4384   19946064.2674
       251.000         228.000
 103083569.93948  98117055.78148  21519096.2674   21519099.3024   21519096.9594
       243.000         213.000
 135157862.91548  87525596.22248  23816757.9464   23816760.1704   23816758.1484
       213.000         153.000
 129207539.48148  82888987.00248  22684443.2304   22684445.3234   22684443.5574
       230.000         180.000
 125094227.32248  79683808.11448  21901708.2644   21901710.1364   21901708.0694
       241.000         211.000
 123276602.43448  96059675.71148  23458768.8924   23458771.5194   23458768.2514
       225.000         175.000
 134417011.50448  86948316.68948  23675772.1864   23675772.7384   23675772.2144
       224.000         175.000
 119611486.70748  75411543.39048  20858374.7984   20858376.0364   20858374.5914
       250.000         228.000
 112459556.56848 105423030.49648  23303278.8744   23303278.8034   23303279.0444
       231.000         184.000
 09  1 21  1 42 30.0000000  0  9G 9G 5G26G18G15G30G17G12G22
 114815674.93548  71674540.37748  19945768.7604   19945771.1114   19945768.9994
       250.000         228.000
 103011583.55248  98060962.50848  21505397.6544   21505400.6494   21505398.2494
       243.000         212.000
 135266345.25448  87610127.93048  23837401.6604   23837403.9574   23837401.7744
       210.000         150.000
 129254328.12448  82925445.67548  22693347.0434   22693348.9244   22693347.5804
       229.000         181.000
 125178024.36848  79749104.51248  21917654.1924   21917655.9124   21917653.8924
       240.000         210.000
 123174819.53848  95980364.39348  23439400.6074   23439403.1114   23439401.0794
       223.000         175.000
 134467568.87748  86987712.06148  23685392.9524   23685395.1984   23685392.6244
       228.000         180.000
 119564861.32948  75375211.93048  20849502.3174   20849503.4754   20849502.2254
       250.000         228.000
 112454237.18648 105418885.50148  23302266.7104   23302266.7334   23302266.7594
       229.000         182.000
 09  1 21  1 43  0.0000000  0  9G 9G 5G26G18G15G30G17G12G22
 114814485.16148  71673613.27648  19945542.3904   19945544.8334   19945542.5594
       251.000         229.000
 102939965.97048  98005156.62048  21491768.7934   21491772.1444   21491769.3004
       242.000         211.000
 135374979.48548  87694777.96048  23858074.2494   23858076.6504   23858073.5274
       209.000         147.000
 129301569.38848  82962257.04148  22702336.5014   22702338.4384   22702336.8954
       230.000         181.000
 125262173.46848  79814675.23848  21933667.2654   21933668.9224   21933666.8954
       240.000         210.000
 123073233.16548  95901206.18848  23420069.4104   23420071.3934   23420069.4204
       225.000         174.000
 134518620.35948  87027492.47548  23695108.5334   23695110.9414   23695108.7534
       228.000         180.000
 119518676.91948  75339224.08448  20840713.7614   20840715.0004   20840713.4534
       251.000         228.000
 112449453.79048 105415158.18448  23301356.1024   23301356.5754   23301356.7764
       230.000         182.000
 09  1 21  1 43 30.0000000  0  9G 9G 5G26G18G15G30G17G12G22
 114813657.62948  71672968.44548  19945384.9624   19945387.3474   19945385.1944
       251.000         228.000
 102868718.03148  97949638.75148  21478210.8214   21478214.1774   21478211.3134
       244.000         212.000
 135483763.89648  87779545.03348  23878774.4504   23878777.4344   23878774.7024
       205.000         143.000
 129349260.71748  82999419.10748  22711412.0704   22711413.8474   22711412.7444
       230.000         182.000
 125346672.79048  79880518.86748  21949746.8804   21949748.6614   21949746.6284
       240.000         209.000
 122971844.74548  95822202.23348  23400776.1874   23400777.9314   23400775.6164
       228.000         177.000
 134570164.05348  87067656.39548  23704916.8044   23704917.6964   23704917.7424
       227.000         175.000
 119472934.40448  75303580.58048  20832009.2444   20832010.5174   20832009.0624
       250.000         229.000
 112445205.85848 105411848.11048  23300547.7274   23300548.0544   23300547.1684
       230.000         183.000
 09  1 21  1 44  0.0000000  0  9G 9G 5G26G18G15G30G17G12G22
 114813191.94948  71672605.57148  19945296.3684   19945298.6924   19945296.4334
       251.000         229.000
 102797840.08848  97894409.18348  21464723.5284   21464726.2234   21464724.2514
       243.000         211.000
 135592695.89648  87864427.10348  23899503.4904   23899506.2024   23899502.8214
       204.000         139.000
 129397399.08048  83036929.50848  22720572.6814   22720574.5274   22720573.2344
       231.000         184.000
 125431519.98948  79946633.56048  21965892.5754   21965894.5404   21965892.6204
       239.000         209.000
 122870654.57448  95743352.75148  23381520.5574   23381521.9324   23381520.9694
       227.000         174.000
 134622197.62248  87108202.01148  23714818.1304   23714818.4974   23714819.1064
       225.000         177.000
 119427633.38848  75268281.09348  20823388.7004   20823389.7324   20823388.5564
       250.000         228.000
 112441492.43348 105408954.53148  23299840.8004   23299841.7274   23299842.2354
       227.000         182.000
 09  1 21  1 44 30.0000000  0  9G 9G 5G26G18G15G30G17G12G22
 114813090.03248  71672526.15548  19945276.8874   19945279.3124   19945277.0784
       251.000         229.000
 102727334.75748  97839469.96348  21451306.6974   21451309.6414   21451307.5034
       243.000         212.000
 135701775.26148  87949423.99648  23920260.4824   23920264.1634   23920262.1794
       202.000         137.000
 129445983.95848  83074787.83548  22729818.3104   22729820.1454   22729819.0194
       232.000         184.000
 125516715.42448  80013019.59848  21982104.7494   21982106.9474   21982104.4584
       239.000         210.000
 122769665.94548  95664660.32748  23362302.6584   23362304.4644   23362302.0364
       226.000         176.000
 134674721.19048  87149129.47348  23724813.1244   23724815.9944   23724813.2804
       225.000         180.000
 119382775.44248  75233326.85648  20814852.5284   20814853.5074   20814852.3764
       250.000         229.000
 112438314.61048 105406478.28648  23299236.5034   23299236.9784   23299235.6524
       229.000         186.000
 09  1 21  1 45  0.0000000  0  9G 9G 5G26G18G15G30G17G12G22
 114813351.07948  71672729.57048  19945326.5524   19945329.0184   19945326.8234
       251.000         229.000
 102657201.68648  97784820.83048  21437960.9094   21437963.9474   21437961.4624
       243.000         212.000
 135810999.22848  88034533.58448  23941044.4524   23941047.8464   23941045.1594
       194.000         134.000
 129495011.83848  83112991.35148  22739148.3754   22739149.6624   22739148.8324
       232.000         185.000
 125602255.89548  80079674.51148  21998382.6294   21998384.6974   21998382.2404
       238.000         209.000
 122668879.04148  95586125.07748  23343123.7134   23343125.6224   23343123.9584
       225.000         177.000
 134727731.73248  87190436.45348  23734900.2704   23734904.1834   23734900.3204
       225.000         177.000
 119338359.59448  75198717.11548  20806400.6324   20806401.7564   20806400.4864
       250.000         230.000
 112435671.22848 105404418.51748  23298733.9004   23298734.1104   23298734.6934
       230.000         186.000
 09  1 21  1 45 30.0000000  0  9G 9G 5G26G18G15G30G17G12G22
 114813976.04548  71673216.54848  19945445.5824   19945447.8554   19945445.7604
       251.000         229.000
 102587442.71548  97730463.19448  21424686.2144   21424689.1494   21424686.7134
       244.000         212.000
 135920366.75148  88119755.01848  23961856.8124   23961860.6914   23961857.4824
       200.000         134.000
 129544481.43048  83151539.06548  22748561.8714   22748563.4184   22748562.4424
       230.000         183.000
 125688140.50748  80146597.58348  22014726.2454   22014728.0684   22014725.9934
       240.000         209.000
 122568296.30348  95507748.92648  23323982.9924   23323985.5594   23323982.0924
       224.000         177.000
 134781229.01048  87232122.64648  23745080.4304   23745082.6644   23745080.2754
       223.000         174.000
 119294387.25348  75164452.95648  20798032.8774   20798034.1164   20798032.6714
       250.000         229.000
 112433562.57348 105402775.40648  23298332.3174   23298333.1094   23298331.8764
       229.000         184.000
 09  1 21  1 46  0.0000000  0  9G 9G 5G26G18G15G30G17G12G22
 114814964.71748  71673986.93548  19945633.8324   19945636.0704   19945634.0164
       251.000         229.000
 102518057.81348  97676397.03648  21411482.8884   21411485.7134   21411483.7524
       244.000         212.000
 136029875.21748  88205086.26648  23982696.6254   23982698.6224   23982697.4214
       198.000         134.000
 129594389.44748  83190428.42148  22758058.8714   22758060.5774   22758059.3104
       231.000         182.000
 125774366.29048  80213786.49548  22031134.3584   22031136.2034   22031134.3564
       238.000         209.000
 122467918.21148  95429532.23248  23304881.6334   23304884.6824   23304881.1984
       225.000         178.000
 134835210.03548  87274185.75648  23755352.8634   23755352.7274   23755351.7334
       225.000         174.000
 119250857.68748  75130533.82448  20789749.3624   20789750.5994   20789749.0824
       251.000         229.000
 112431987.39048 105401547.98148  23298032.5624   23298033.0294   23298033.4264
       228.000         185.000
 09  1 21  1 46 30.0000000  0  9G 9G 5G26G18G15G30G17G12G22
 114816317.36448  71675040.94848  19945891.0124   19945893.5664   19945891.0314
       251.000         229.000
 102449047.92648  97622623.10648  21398350.4534   21398353.5254   21398351.1114
       243.000         211.000
 136139522.83948  88290526.00248  24003562.9054   24003562.3204   24003562.3904
       203.000         131.000
 129644733.27148  83229657.37148  22767638.3444   22767640.8684   22767639.3544
       227.000         180.000
 125860932.47948  80281240.67148  22047607.2934   22047608.7324   22047606.5044
       239.000         207.000
 122367746.32948  95351476.22648  23285819.2524   23285822.8144   23285819.8284
       226.000         179.000
 134889673.36548  87316624.69848  23765716.9304   23765717.6024   23765717.0784
       224.000         176.000
 119207771.34748  75096960.06548  20781550.3494   20781551.4844   20781550.2324
       251.000         229.000
 112430945.45448 105400736.07248  23297834.0284   23297834.9674   23297833.9424
       230.000         185.000
 09  1 21  1 47  0.0000000  0  9G 9G 5G26G18G15G30G17G12G22
 114818034.35448  71676378.85748  19946217.8634   19946220.1934   19946218.0594
       251.000         229.000
 102380414.30948  97569142.36948  21385289.8864   21385292.9234   21385290.4884
       244.000         212.000
 136249308.25648  88376073.13048  24024453.1644   24024453.2284   24024453.2524
       192.000         128.000
 129695511.23548  83269224.59048  22777300.8174   22777303.5374   22777300.9504
       227.000         179.000
 125947837.36048  80348958.76148  22064144.8254   22064146.2574   22064144.5344
       239.000         208.000
 122267781.93448  95273581.89048  23266796.4204   23266799.9564   23266795.9874
       225.000         178.000
 134944617.55548  87359438.36448  23776172.4684   23776173.9274   23776171.8854
       226.000         178.000
 119165128.49048  75063731.87548  20773435.6894   20773436.8284   20773435.6704
       251.000         230.000
 112430436.08048 105400339.15748  23297737.1924   23297737.9444   23297737.2014
       230.000         186.000
 09  1 21  1 47 30.0000000  0  9G 9G 5G26G18G15G30G17G12G22
 114820116.58548  71678001.37348  19946614.1344   19946616.3904   19946614.3404
       251.000         229.000
 102312158.06248  97515955.68348  21372301.2804   21372304.1754   21372301.9884
       244.000         212.000
 136359229.99348  88461726.45148  24045371.3984   24045374.0794   24045368.8244
       196.000         125.000
 129746720.70748  83309128.07548  22787046.0174   22787047.9784   22787046.5334
       229.000         179.000
 126035079.29748  80416939.48048  22080746.3294   22080748.1584   22080745.9984
       237.000         207.000
 122168026.97248  95195850.76448  23247813.6144   23247817.3384   23247812.9434
       227.000         178.000
 135000041.23548  87402625.68248  23786718.9624   23786721.5704   23786719.3404
       223.000         179.000
 119122929.68448  75030849.69948  20765405.4214   20765406.7504   20765405.2884
       251.000         230.000
 112430459.26648 105400357.22348  23297741.8404   23297742.3114   23297742.3124
       231.000         184.000
 09  1 21  1 48  0.0000000  0  9G 9G 5G26G18G15G30G17G12G22
 114822563.11848  71679907.76148  19947079.6214   19947082.0284   19947079.8924
       250.000         229.000
 102244278.81948  97463062.77148  21359384.3514   21359387.0624   21359384.7014
       246.000         212.000
 136469284.90248  88547483.50948  24066313.5384   24066319.2744   24066316.1894
       191.000         125.000
 129798358.24148  83349365.10348  22796872.3654   22796874.3924   22796873.1064
       230.000         179.000
 126122655.13148  80485180.38748  22097411.2974   22097413.2954   22097410.9984
       237.000         207.000
 122068481.75648  95118283.04448  23228871.2894   23228873.9004   23228871.4284
       226.000         176.000
 135055941.67748  87446184.49248  23797356.5174   23797359.7444   23797355.9404
       223.000         180.000
 119081173.64648  74998312.53448  20757459.6524   20757460.6604   20757459.5294
       251.000         230.000
 112431013.73048 105400789.26348  23297847.3854   23297847.7574   23297847.7174
       228.000         182.000
 09  1 21  1 48 30.0000000  0  8G 9G 5G18G15G30G17G12G22
 114825374.14148  71682098.15748  19947614.5454   19947616.9584   19947614.5884
       250.000         229.000
 102176777.18448  97410464.08948  21346539.3324   21346541.6704   21346540.1294
       245.000         212.000
 129850421.31748  83389933.72648  22806779.8094   22806781.6034   22806780.3214
       230.000         180.000
 126210563.08948  80553680.08848  22114139.3874   22114141.4524   22114139.1064
       238.000         206.000
 121969147.28348  95040879.55348  23209968.1414   23209970.3944   23209967.7594
       223.000         175.000
 135112316.60748  87490113.00648  23808084.2864   23808087.5234   23808084.1184
       221.000         177.000
 119039860.79548  74966120.70948  20749598.1864   20749599.1474   20749598.1984
       251.000         230.000
 112432098.48148 105401634.52748  23298053.6694   23298054.4284   23298053.8934
       230.000         184.000
 09  1 21  1 49  0.0000000  0  9G 9G 5G26G18G15G30G17G12G22
 114828551.74548  71684574.21448  19948219.2464   19948221.6454   19948219.4114
       250.000         228.000
 102109656.14648  97358161.98448  21333766.4504   21333768.9794   21333766.9134
       245.000         213.000
 116689749.82658 108719267.66058  24108273.2845   24108275.5115   24108269.4155
       192.000         126.000
 129902909.65648  83430833.73248  22816768.4964   22816769.7754   22816768.6334
       232.000         181.000
 126298803.32448  80622438.71448  22130931.1254   22130932.8764   22130930.9714
       237.000         206.000
 121870027.27148  94963643.19548  23191106.3864   23191108.6354   23191106.1574
       226.000         177.000
 135169166.53548  87534411.66448  23818902.7354   23818904.3354   23818902.3594
       224.000         176.000
 118998993.45848  74934276.04348  20741821.2294   20741822.4314   20741821.1704
       251.000         231.000
 112433714.92248 105402894.07548  23298361.4184   23298362.1004   23298361.8754
       230.000         184.000
 09  1 21  1 49 30.0000000  0  9G 9G 5G26G18G15G30G17G12G22
 114832095.00148  71687335.18648  19948893.4374   19948895.8504   19948893.6714
       250.000         228.000
 102042915.13348  97306155.99548  21321065.9574   21321068.8004   21321066.5294
       244.000         213.000
 116800195.79648 108805329.49548  24129290.4144   24129291.6954   24129287.2104
       201.000         133.000
 129955819.24348  83472061.96748  22826836.9454   22826838.3474   22826838.1924
       231.000         181.000
 126387372.92148  80691453.97848  22147785.5094   22147787.4264   22147785.0954
       238.000         206.000
 121771121.48548  94886573.76248  23172285.5574   23172287.7924   23172285.4474
       226.000         179.000
 135226488.28748  87579077.96448  23829810.8834   23829811.4104   23829810.9074
       224.000         173.000
 118958570.11848  74902777.33648  20734128.9154   20734130.1644   20734128.7044
       251.000         231.000
 112435860.91048 105404566.28248  23298769.7824   23298770.2194   23298769.5044
       230.000         184.000
 09  1 21  1 50  0.0000000  0  9G 9G 5G26G18G15G30G17G12G22
 114836004.12948  71690381.26248  19949637.3224   19949639.7014   19949637.4854
       251.000         229.000
 101976554.89648  97254446.73648  21308437.7564   21308440.9194   21308438.0904
       245.000         213.000
 116910768.19648 108891489.81948  24150332.8024   24150333.8584   24150332.2424
       200.000         137.000
 130009147.42748  83513616.37248  22836984.5104   22836986.3934   22836984.7254
       230.000         180.000
 126476270.04448  80760724.46948  22164701.9094   22164703.8264   22164701.8724
       238.000         206.000
 121672431.28048  94809672.31848  23153505.8184   23153507.7184   23153505.1954
       230.000         181.000
 135284280.00048  87624110.44748  23840808.5524   23840808.7244   23840808.4524
       225.000         174.000
 118918591.02948  74871624.81348  20726521.1414   20726522.3844   20726521.0274
       251.000         231.000
 112438536.54548 105406651.18548  23299278.4324   23299279.1774   23299278.7074
       228.000         182.000
 09  1 21  1 50 30.0000000  0  9G 9G 5G26G18G15G30G17G12G22
 114840278.78248  71693712.15848  19950450.9974   19950453.1384   19950451.2114
       250.000         229.000
 101910575.40648  97203034.16848  21295882.4344   21295885.6014   21295882.9054
       246.000         213.000
 117021464.47248 108977746.58648  24171396.0284   24171400.7744   24171396.9624
       205.000         138.000
 130062891.10748  83555494.55148  22847211.5344   22847213.6234   22847211.7434
       229.000         180.000
 126565491.99448  80830248.06048  22181680.6234   22181682.1974   22181680.1074
       238.000         206.000
 121573957.43548  94732939.45648  23134766.9854   23134769.0704   23134767.0814
       229.000         180.000
 135342539.31948  87669507.31948  23851894.6284   23851895.5914   23851894.5224
       221.000         173.000
 118879055.19348  74840817.67648  20718997.6434   20718998.9184   20718997.4144
       251.000         231.000
 112441739.95448 105409147.36048  23299888.1984   23299888.7124   23299888.6454
       229.000         184.000
 09  1 21  1 51  0.0000000  0  9G 9G 5G26G18G15G30G17G12G22
 114844919.42848  71697328.24348  19951333.9884   19951336.2314   19951334.1874
       250.000         228.000
 101844978.18448  97151919.46548  21283400.0034   21283402.7384   21283400.8444
       245.000         213.000
 117132283.42548 109064098.97848  24192484.7464   24192486.9734   24192486.2174
       204.000         138.000
 130117048.43448  83597695.05148  22857517.8634   22857519.4374   22857518.8074
       230.000         180.000
 126655037.59348  80900023.84948  22198720.6384   22198722.0574   22198720.7144
       238.000         206.000
 121475701.70548  94656376.56948  23116069.4854   23116071.4284   23116068.9764
       227.000         181.000
 135401264.95148  87715267.56448  23863069.9364   23863071.4954   23863069.3994
       223.000         174.000
 118839963.54448  74810356.66048  20711558.8074   20711559.9404   20711558.7024
       251.000         231.000
 112445471.21548 105412054.82148  23300598.5884   23300598.6244   23300598.7674
       231.000         183.000
 09  1 21  1 51 30.0000000  0  9G 9G 5G26G18G15G30G17G12G22
 114849926.52948  71701229.88148  19952286.7364   19952289.1294   19952286.8894
       251.000         228.000
 101779763.94148  97101103.18548  21270990.2034   21270992.7904   21270990.6744
       246.000         214.000
 117243223.17148 109150545.54748  24213595.4524   24213597.8444   24213595.1344
       206.000         135.000
 130171616.70548  83640215.78248  22867901.6644   22867903.5424   22867902.6244
       229.000         180.000
 126744905.00748  80970050.39648  22215821.7874   22215823.3194   22215821.3534
       238.000         207.000
 121377665.21648  94579984.51348  23097413.2894   23097416.1734   23097412.6044
       227.000         181.000
 135460454.96448  87761389.67548  23874333.3854   23874335.5394   23874333.2794
       219.000         175.000
 118801316.24348  74780241.88448  20704204.5064   20704205.6264   20704204.5004
       250.000         231.000
 112449729.48948 105415372.97948  23301408.6874   23301408.7044   23301408.9994
       229.000         181.000
 09  1 21  1 52  0.0000000  0  9G 9G 5G26G18G15G30G17G12G22
 114855300.85448  71705417.66748  19953309.4174   19953311.7414   19953309.5844
       251.000         228.000
 101714933.58248  97050586.03648  21258653.2844   21258655.9274   21258653.6474
       246.000         213.000
 117354282.18548 109237085.05548  24234730.1624   24234729.8564   24234733.6714
       199.000         130.000
 130226593.66248  83683054.96848  22878363.1254   22878365.2514   22878363.5014
       226.000         178.000
 126835092.58748  81040326.43548  22232984.0894   22232985.7014   22232984.0054
       238.000         206.000
 121279849.54648  94503764.51748  23078799.4474   23078802.4584   23078799.7064
       226.000         180.000
 135520107.77748  87807872.40348  23885684.7554   23885687.2364   23885685.1034
       220.000         174.000
 118763113.35248  74750473.41348  20696934.6284   20696935.8054   20696934.2494
       251.000         231.000
 112454514.45348 105419101.49648  23302319.1954   23302318.6884   23302319.2894
       228.000         181.000
 09  1 21  1 52 30.0000000  0  9G 9G 5G26G18G15G30G17G12G22
 114861042.08848  71709891.35448  19954401.9214   19954404.3344   19954402.1174
       251.000         228.000
 101650487.50948  97000368.32548  21246389.6244   21246392.2454   21246390.4484
       246.000         214.000
 117465458.08648 109323715.64148  24255886.4174   24255887.3674   24255887.3474
       196.000         124.000
 130281976.32948  83726210.28548  22888902.0174   22888904.0684   22888902.1364
       228.000         179.000
 126925598.11748  81110850.20948  22250206.5784   22250208.2644   22250206.2214
       237.000         204.000
 121182255.81148  94427717.47148  23060227.7764   23060230.7984   23060226.8674
       228.000         181.000
 135580221.19948  87854714.03548  23897123.9004   23897125.7014   23897124.4114
       221.000         174.000
 118725354.75948  74721051.14648  20689749.6624   20689750.6684   20689749.3964
       251.000         232.000
 112459824.80548 105423239.41948  23303329.9634   23303329.5774   23303329.9494
       229.000         182.000
 09  1 21  1 53  0.0000000  0  9G 9G 5G26G18G15G30G17G12G22
 114867151.63848  71714652.03648  19955564.6154   19955566.8704   19955564.8534
       251.000         229.000
 101586427.61548  96950451.54148  21234199.3244   21234202.2734   21234199.7894
       246.000         214.000
 117576750.34048 109410436.89148  24277065.2734   24277066.5944   24277064.9234
       193.000         126.000
 130337763.54848  83769680.81448  22899517.9224   22899520.0824   22899518.3294
       228.000         179.000
 127016420.70948  81181621.06248  22267489.4324   22267491.3974   22267489.1204
       238.000         206.000
 121084886.52548  94351845.30948  23041699.3594   23041702.1374   23041699.4964
       226.000         181.000
 135640794.45348  87901913.99448  23908650.6904   23908651.5274   23908650.5364
       221.000         171.000
 118688041.65348  74691976.00348  20682649.0314   20682650.1924   20682648.9554
       250.000         232.000
 112465661.07548 105427787.14048  23304440.5534   23304439.8424   23304440.3814
       228.000         181.000
 09  1 21  1 53 30.0000000  0  9G 9G 5G26G18G15G30G17G12G22
 114873629.01648  71719699.34748  19956797.1984   19956799.5834   19956797.5294
       251.000         229.000
 101522753.72648  96900835.53648  21222082.4754   21222085.4484   21222083.2034
       245.000         214.000
 117688156.08248 109497246.52148  24298266.2074   24298264.2804   24298266.4054
       193.000         124.000
 130393951.56448  83813463.67248  22910210.6494   22910212.3374   22910211.3684
       229.000         180.000
 127107557.79948  81252636.97748  22284832.0724   22284833.7654   22284831.7374
       237.000         204.000
 120987742.05848  94276148.33748  23023213.2074   23023215.9624   23023211.7664
       229.000         182.000
 135701824.75548  87949470.04648  23920264.3384   23920265.6024   23920264.6634
       221.000         171.000
 118651173.05648  74663247.23048  20675633.0354   20675634.3544   20675632.6114
       251.000         232.000
 112472021.67448 105432743.44148  23305650.9624   23305650.8474   23305651.1094
       229.000         181.000
 09  1 21  1 54  0.0000000  0  9G 9G 5G26G18G15G30G17G12G22
 114880473.92848  71725033.04348  19958099.8014   19958102.0684   19958099.9484
       251.000         229.000
 101459466.11548  96851520.52048  21210039.2904   21210041.9544   21210039.7394
       246.000         214.000
 117799673.29848 109584143.06948  24319484.5144   24319486.0054   24319487.5024
       198.000         127.000
 130450537.43448  83857556.55148  22920978.7894   22920979.9444   22920979.4004
       231.000         179.000
 127199006.92348  81323896.01648  22302234.2504   22302235.9674   22302233.5444
       235.000         203.000
 120890823.23748  94200627.20748  23004770.4624   23004772.6974   23004770.8034
       227.000         182.000
 135763309.93148  87997380.58948  23931964.9754   23931965.7834   23931964.6894
       220.000         173.000
 118614748.23448  74634864.24048  20668701.8744   20668702.8624   20668701.5994
       251.000         232.000
 112478905.32248 105438107.33248  23306960.3444   23306960.2024   23306960.8814
       227.000         181.000
 09  1 21  1 54 30.0000000  0  9G 9G 5G26G18G15G30G17G12G22
 114887687.42848  71730653.94848  19959472.4994   19959474.7434   19959472.7614
       251.000         229.000
 101396566.27948  96802507.67148  21198069.7034   21198072.5914   21198070.2254
       246.000         214.000
 117911300.71548 109671125.47248  24340728.2574   24340730.9424   24340729.6004
       197.000         128.000
 130507519.27348  83901957.99048  22931821.8974   22931822.8924   22931822.5464
       230.000         178.000
 127290767.03148  81395397.40948  22319695.5564   22319697.3494   22319695.6174
       236.000         202.000
 120794132.33848  94125283.66548  22986370.8454   22986372.7594   22986370.7994
       229.000         183.000
 135825248.69748  88045644.56748  23943751.2924   23943753.0194   23943751.3414
       220.000         172.000
 118578768.29448  74606827.92348  20661854.9674   20661856.1374   20661854.8004
       251.000         232.000
 112486311.93248 105443878.71548  23308370.2664   23308370.1894   23308369.9754
       228.000         180.000
 09  1 21  1 55  0.0000000  0  9G 9G 5G26G18G15G30G17G12G22
 114895269.13248  71736561.76348  19960915.2404   19960917.4994   19960915.4624
       251.000         229.000
 101334054.38948  96753797.11248  21186174.0784   21186176.8324   21186174.8634
       245.000         214.000
 118023036.02248 109758191.89048  24361990.6774   24361991.8084   24361991.4394
       197.000         128.000
 130564893.99148  83946665.54248  22942739.4834   22942741.0974   22942740.0964
       228.000         178.000
 127382835.94048  81467139.41448  22337215.5894   22337217.4344   22337215.3094
       237.000         203.000
 120697670.08848  94050118.30048  22968014.7444   22968016.7294   22968014.3024
       230.000         183.000
 135887638.54448  88094260.03248  23955623.5374   23955624.9484   23955623.0534
       222.000         172.000
 118543232.90148  74579138.01548  20655092.6934   20655093.9524   20655092.6604
       251.000         232.000
 112494240.13548 105450056.53548  23309878.7084   23309878.9654   23309878.5784
       229.000         181.000
 09  1 21  1 55 30.0000000  0  9G 9G 5G26G18G15G30G17G12G22
 114903220.08248  71742757.31048  19962428.3104   19962430.5874   19962428.3934
       252.000         229.000
 101271931.75148  96705389.86648  21174352.4724   21174355.4474   21174352.9454
       246.000         214.000
 118134878.18848 109845341.60948  24383273.6714   24383274.0184   24383275.3074
       202.000         129.000
 130622659.34348  83991677.50048  22953731.9634   22953733.6714   22953732.3974
       229.000         179.000
 127475212.07548  81539120.80948  22354794.5174   22354796.5464   22354794.4944
       236.000         203.000
 120601438.25848  93975132.46048  22949702.7054   22949704.3074   22949702.7864
       231.000         182.000
 135950478.06248  88143225.88948  23967582.3054   23967582.7824   23967582.1944
       219.000         171.000
 118508142.44548  74551794.80248  20648415.2774   20648416.4774   20648415.0914
       251.000         232.000
 112502689.73048 105456640.61948  23311487.0464   23311486.5284   23311486.7974
       228.000         181.000
 09  1 21  1 56  0.0000000  0  9G 9G 5G26G18G15G30G17G12G22
 114911539.73448  71749240.15948  19964011.5044   19964013.7844   19964011.8074
       251.000         229.000
 101210198.34548  96657285.91948  21162605.2234   21162607.9784   21162605.7964
       246.000         215.000
 118246824.41348 109932572.47248  24404576.1244   24404576.4644   24404577.0474
       205.000         133.000
 130680812.07748  84036991.30948  22964798.2734   22964800.1094   22964798.7524
       226.000         180.000
 127567893.01348  81611339.71848  22372431.0244   22372433.0614   22372430.3364
       237.000         204.000
 120505437.16348  93900326.43348  22931433.9774   22931436.0524   22931434.3084
       230.000         182.000
 136013764.85448  88192540.28048  23979625.0824   23979625.7574   23979625.0244
       216.000         167.000
 118473496.15848  74524797.70848  20641822.2844   20641823.4304   20641822.0234
       250.000         232.000
 112511659.10348 105463629.74348  23313193.7974   23313193.8004   23313193.9394
       230.000         182.000
 09  1 21  1 56 30.0000000  0  9G 9G 5G26G18G15G30G17G12G22
 114920228.53448  71756010.64948  19965664.7914   19965667.2244   19965665.0304
       252.000         229.000
 101148854.82048  96609485.77448  21150931.9614   21150934.6474   21150932.4734
       245.000         215.000
 118358872.80348 110019882.90848  24425897.4474   24425899.8314   24425898.7914
       201.000         136.000
 130739349.69848  84082605.02048  22975938.0344   22975939.7254   22975938.4704
       228.000         178.000
 127660876.76648  81683794.58148  22390125.2694   22390127.0904   22390124.9484
       237.000         203.000
 120409668.59348  93825701.58048  22913209.5544   22913211.5964   22913209.3534
       230.000         181.000
 136077496.85848  88242201.56948  23991751.8074   23991753.5504   23991751.8914
       217.000         169.000
 118439293.73548  74498146.46948  20635313.9404   20635314.9444   20635313.6884
       251.000         233.000
 112521147.49748 105471023.27748  23314998.9574   23314999.5304   23314999.7694
       229.000         182.000
 09  1 21  1 57  0.0000000  0  9G 9G 5G26G18G15G30G17G12G22
 114929287.61048  71763069.66548  19967388.6724   19967391.0294   19967388.8904
       252.000         228.000
 101087902.93248  96561990.79848  21139333.2414   21139335.9714   21139333.6394
       246.000         215.000
 118471022.91648 110107272.56848  24447238.8544   24447240.7724   24447238.7874
       206.000         139.000
 130798270.61048  84128517.41248  22987150.4294   22987151.8304   22987151.0304
       227.000         178.000
 127754162.41948  81756484.70148  22407877.1824   22407878.6454   22407877.1624
       237.000         202.000
 120314134.79748  93751259.67248  22895030.2024   22895032.2994   22895029.7734
       232.000         184.000
 136141673.19248  88292209.13548  24003964.2104   24003966.0974   24003964.2054
       214.000         168.000
 118405536.40448  74471842.06548  20628890.0854   20628891.1384   20628889.9374
       251.000         233.000
 112531155.42548 105478821.65948  23316903.6444   23316904.0754   23316903.8424
       228.000         183.000
 09  1 21  1 57 30.0000000  0  9G 9G 5G26G18G15G30G17G12G22
 114938716.48348  71770416.83848  19969182.8264   19969185.3334   19969182.8484
       253.000         229.000
 101027342.55948  96514800.90448  21127808.8294   21127811.7124   21127809.6174
       246.000         215.000
 118583271.87348 110194739.28148  24468599.6874   24468600.9344   24468600.1334
       209.000         144.000
 130857571.54348  84174725.93048  22998434.7844   22998436.4024   22998435.1804
       225.000         177.000
 127847747.25148  81829407.94148  22425685.6824   22425687.4494   22425685.2354
       235.000         202.000
 120218835.96748  93677000.84048  22876895.4944   22876897.8284   22876895.9564
       227.000         183.000
 136206291.07348  88342560.72848  24016261.1954   24016262.3584   24016260.9204
       217.000         169.000
 118372223.23248  74445883.75148  20622550.8324   20622551.7184   20622550.7534
       251.000         233.000
 112541680.25448 105487022.81348  23318906.1404   23318906.5444   23318906.1764
       230.000         182.000
 09  1 21  1 58  0.0000000  0  9G 9G 5G26G18G15G30G17G12G22
 114948515.38448  71778052.34648  19971047.6864   19971050.1304   19971048.0044
       253.000         229.000
 100967174.37448  96467916.60748  21116359.1484   21116362.0534   21116359.6844
       246.000         215.000
 118695617.94248 110282281.66248  24489977.2644   24489979.6514   24489977.6694
       208.000         147.000
 130917249.41948  84221228.15848  23009790.9264   23009792.8854   23009791.7044
       225.000         176.000
 127941629.45848  81902562.89948  22443551.0184   22443552.7874   22443550.1084
       236.000         203.000
 120123773.56248  93602926.25148  22858805.1214   22858807.8764   22858804.2164
       229.000         183.000
 136271348.69548  88393254.99548  24028640.8474   24028641.8974   24028640.9574
       216.000         167.000
 118339354.50948  74420271.76448  20616296.0784   20616297.0714   20616295.8734
       251.000         233.000
 112552721.49948 105495626.38048  23321007.7234   23321007.4964   23321007.8314
       229.000         180.000
 09  1 21  1 58 30.0000000  0  9G 9G 5G26G18G15G30G17G12G22
 114958683.97348  71785975.91448  19972982.6714   19972985.2284   19972982.9414
       253.000         229.000
 100907398.29748  96421337.85448  21104983.9934   21104987.0404   21104984.8264
       245.000         215.000
 118808058.84648 110369897.93648  24511374.2024   24511376.3074   24511374.0984
       210.000         148.000
 130977300.96848  84268021.57148  23021217.9364   23021219.8814   23021218.6514
       224.000         174.000
 128035806.55648  81975947.65148  22461472.4174   22461474.1144   22461472.3484
       237.000         203.000
 120028948.30348  93529036.45248  22840760.9304   22840763.6294   22840760.8124
       230.000         183.000
 136336843.24148  88444289.70948  24041104.6334   24041105.3564   24041103.2164
       216.000         167.000
 118306929.41648  74395005.46748  20610125.6934   20610126.8744   20610125.6254
       251.000         233.000
 112564277.55548 105504631.09148  23323206.3644   23323206.3414   23323207.1014
       227.000         181.000
 09  1 21  1 59  0.0000000  0 10G 9G 5G26G14G18G15G30G17G12G22
 114969221.96348  71794187.33648  19974988.1134   19974990.3504   19974988.2804
       253.000         229.000
 100848014.61148  96375064.85748  21093683.7344   21093686.5844   21093684.1304
       247.000         216.000
 118920592.16748 110457586.21548  24532789.5344   24532790.6824   24532789.3924
       213.000         150.000
 138725925.58258  90305906.24258  24495736.6485   24495739.0365   24495736.4955
       212.000         155.000
 131037723.44448  84315104.00348  23032715.9764   23032717.8894   23032716.2914
       226.000         175.000
 128130276.04248  82049560.23848  22479449.2704   22479450.8654   22479448.6994
       234.000         201.000
 119934360.93648  93455332.01648  22822761.6624   22822764.1074   22822761.7584
       231.000         184.000
 136402772.33848  88495663.03148  24053650.3364   24053651.4334   24053650.9304
       215.000         165.000
 118274947.33948  74370084.37248  20604039.5764   20604040.9254   20604039.3064
       251.000         233.000
 112576347.34848 105514036.10848  23325503.1274   23325503.1274   23325502.7594
       228.000         180.000
 09  1 21  1 59 30.0000000  0 10G 9G 5G26G14G18G15G30G17G12G22
 114980130.12748  71802687.20348  19977063.7984   19977066.0134   19977064.1704
       253.000         228.000
 100789024.59048  96329098.60348  21082458.6874   21082461.2264   21082459.5514
       247.000         217.000
 119033216.66648 110545345.56148  24554221.0314   24554222.9314   24554221.3214
       213.000         155.000
 138621943.98948  90224881.66748  24475949.8024   24475951.0054   24475951.6414
       210.000         153.000
 131098514.47048  84362473.64648  23044284.6484   23044285.8864   23044285.4504
       228.000         175.000
 128225036.54948  82123399.58548  22497481.5194   22497482.9214   22497480.5154
       235.000         201.000
 119840013.53548  93381814.58348  22804808.0484   22804810.2264   22804807.7934
       233.000         184.000
 136469134.39048  88547373.70348  24066278.6934   24066279.9684   24066278.7674
       213.000         164.000
 118243408.48948  74345508.65048  20598038.0744   20598039.2144   20598037.9044
       251.000         234.000
 112588930.38348 105523841.05448  23327898.0914   23327897.9544   23327898.2974
       228.000         181.000
 09  1 21  2  0  0.0000000  0 10G 9G 5G26G14G18G15G30G17G12G22
 114991408.60748  71811475.62648  19979210.0724   19979212.1744   19979210.2194
       252.000         228.000
 100730428.46848  96283439.28948  21071308.1454   21071310.9064   21071308.6904
       247.000         217.000
 119145930.15648 110633174.24848  24575668.9864   24575671.3464   24575669.4354
       220.000         159.000
 138518073.02648  90143943.24748  24456184.1534   24456186.0974   24456183.2514
       215.000         156.000
 131159671.14548  84410128.19648  23055922.4644   23055923.6554   23055923.3834
       226.000         176.000
 128320086.04148  82197464.11848  22515568.9264   22515570.4964   22515568.7134
       237.000         201.000
 119745906.94248  93308484.79348  22786900.4394   22786902.2604   22786900.5054
       232.000         185.000
 136535927.33848  88599420.12848  24078988.6364   24078989.9714   24078987.6314
       213.000         163.000
 118212312.28848  74321277.84748  20592120.7074   20592121.9554   20592120.4734
       252.000         234.000
 112602024.99848 105534044.64148  23330389.4334   23330389.5894   23330389.8894
       228.000         180.000
 09  1 21  2  0 30.0000000  0 10G 9G 5G26G14G18G15G30G17G12G22
 115003058.35348  71820553.35248  19981426.7874   19981429.0894   19981426.9594
       253.000         228.000
 100672227.65848  96238088.01748  21060232.6934   21060235.6924   21060233.4304
       246.000         216.000
 119258731.68148 110721071.55048  24597135.8504   24597137.2214   24597136.8534
       220.000         162.000
 138414316.16848  90063093.69548  24436439.1334   24436442.5524   24436439.1184
       210.000         157.000
 131221191.48248  84458066.08048  23067629.2604   23067631.0284   23067629.6584
       226.000         177.000
 128415423.24948  82271752.83948  22533710.8004   22533712.7204   22533711.2594
       235.000         202.000
 119652043.21548  93235344.24848  22769038.5544   22769040.6444   22769038.3904
       231.000         185.000
 136603149.84748  88651801.29848  24091781.3184   24091782.1554   24091781.0884
       216.000         164.000
 118181659.63948  74297392.66748  20586287.7064   20586288.9894   20586287.5934
       251.000         234.000
 112615631.27948 105544646.93248  23332978.7004   23332979.1104   23332978.1264
       231.000         181.000
 09  1 21  2  1  0.0000000  0 10G 9G 5G26G14G18G15G30G17G12G22
 115015078.95448  71829920.05448  19983714.2994   19983716.5604   19983714.3914
       252.000         228.000
 100614421.87748  96193044.56248  21049232.6964   21049235.5264   21049233.2274
       247.000         216.000
 119371618.56448 110809035.37448  24618617.0764   24618619.1484   24618618.3834
       218.000         162.000
 138310674.45348  89982333.99048  24416716.8414   24416718.9614   24416717.4834
       210.000         157.000
 131283071.88548  84506284.55548  23079404.7554   23079406.6914   23079405.5814
       228.000         177.000
 128511045.17348  82346263.42248  22551907.2644   22551908.8034   22551906.6884
       235.000         200.000
 119558422.80548  93162393.30148  22751223.1624   22751225.1214   22751223.3464
       232.000         186.000
 136670798.92448  88704514.89548  24104654.1084   24104655.9754   24104653.8544
       214.000         162.000
 118151449.94948  74273852.65848  20580538.9294   20580540.1654   20580538.6064
       252.000         234.000
 112629747.10048 105555646.28448  23335665.5654   23335664.7354   23335666.5904
       228.000         180.000
 09  1 21  2  1 30.0000000  0 10G 9G 5G26G14G18G15G30G17G12G22
 115027471.54548  71839576.62148  19986072.5084   19986074.8574   19986072.6524
       253.000         229.000
 100557012.71548  96148310.15048  21038308.1564   21038310.8114   21038308.8074
       247.000         216.000
 119484589.79548 110897064.86148  24640114.1924   24640117.5274   24640115.1254
       216.000         162.000
 138207151.49548  89901666.78348  24397016.9434   24397019.1284   24397016.6554
       210.000         155.000
 131345310.43848  84554782.12548  23091248.6724   23091250.3424   23091249.1084
       227.000         179.000
 128606950.85648  82420995.11748  22570157.5184   22570158.9144   22570157.3884
       235.000         200.000
 119465047.96248  93089633.70448  22733454.4454   22733456.5134   22733453.9544
       232.000         187.000
 136738873.44448  88757559.97948  24117608.0584   24117609.7474   24117607.5034
       214.000         161.000
 118121683.71748  74250658.20148  20574874.7074   20574875.7874   20574874.5654
       252.000         235.000
 112644372.44848 105567042.64948  23338448.2644   23338448.2644   23338448.2664
       230.000         181.000
 09  1 21  2  2  0.0000000  0 10G 9G 5G26G14G18G15G30G17G12G22
 115040236.41548  71849523.26548  19988501.6184   19988504.0234   19988501.8924
       253.000         229.000
 100500000.56048  96103885.09648  21027458.8574   21027461.7334   21027459.5564
       246.000         216.000
 119597643.78848 110985158.86148  24661627.6054   24661630.4324   24661628.2584
       219.000         164.000
 138103749.54848  89821093.83048  24377340.1894   24377341.8514   24377339.9344
       214.000         153.000
 131407904.38948  84603556.62548  23103159.2954   23103161.7054   23103159.8384
       225.000         176.000
 128703138.42748  82495946.44548  22588461.4814   22588462.7724   22588461.3464
       236.000         199.000
 119371919.75448  93017066.30148  22715732.3314   22715735.2314   22715732.1474
       229.000         186.000
 136807371.23448  88810934.90848  24130643.3554   24130644.3884   24130642.9004
       213.000         160.000
 118092360.30448  74227808.79148  20569294.6844   20569295.7894   20569294.3974
       252.000         235.000
 112659506.04348 105578835.04548  23341328.3524   23341328.4234   23341328.5814
       229.000         181.000
 09  1 21  2  2 30.0000000  0 10G 9G 5G26G14G18G15G30G17G12G22
 115053372.89148  71859759.48548  19991001.3684   19991003.9054   19991001.5944
       253.000         229.000
 100443385.19448  96059769.23148  21016685.2984   21016688.3754   21016685.7424
       247.000         217.000
 119710777.48948 111073315.00148  24683156.6244   24683158.6314   24683156.5384
       215.000         161.000
 138000470.31548  89740616.45248  24357687.0164   24357687.5754   24357686.1094
       211.000         151.000
 131470850.04648  84652605.18348  23115137.2994   23115139.4024   23115138.0554
       223.000         174.000
 128799605.16748  82571115.34848  22606818.5114   22606819.5304   22606818.4184
       237.000         199.000
 119279038.61748  92944691.39348  22698058.0994   22698060.4184   22698057.8014
       231.000         187.000
 136876289.47848  88864637.43248  24143758.1574   24143758.1634   24143757.8624
       216.000         159.000
 118063479.21048  74205304.05148  20563798.6654   20563799.8974   20563798.5944
       252.000         235.000
 112675145.96748 105591021.99648  23344304.4324   23344304.2194   23344305.2034
       229.000         183.000
 09  1 21  2  3  0.0000000  0 10G 9G 5G26G14G18G15G30G17G12G22
 115066881.96248  71870286.02148  19993572.2524   19993574.6124   19993572.4654
       252.000         229.000
 100387167.96948  96015963.59948  21005987.7194   21005990.6154   21005988.0354
       247.000         218.000
 119823990.10448 111161532.61848  24704699.9644   24704702.8284   24704700.4454
       212.000         159.000
 137897317.05748  89660237.26548  24338056.4724   24338058.6114   24338057.3764
       207.000         151.000
 131534145.40648  84701926.23448  23127182.0144   23127184.1394   23127181.9314
       225.000         175.000
 128896349.64448  82646500.64548  22625228.3524   22625229.7334   22625228.5544
       234.000         199.000
 119186406.62548  92872510.63648  22680430.6694   22680433.1014   22680430.5744
       231.000         186.000
 136945626.58448  88918666.34948  24156952.7694   24156952.7094   24156953.2594
       218.000         163.000
 118035040.87448  74183144.31048  20558387.1544   20558388.3194   20558387.0954
       252.000         235.000
 112691291.61248 105603603.00648  23347377.0814   23347377.1264   23347376.5504
       228.000         181.000
 09  1 21  2  3 30.0000000  0 10G 9G 5G26G14G18G15G30G17G12G22
 115080762.63848  71881102.13548  19996213.5024   19996215.8624   19996213.5784
       253.000         229.000
 100331348.28248  95972467.73948  20995365.5494   20995368.4454   20995366.2264
       246.000         217.000
 119937278.62948 111249809.38948  24726257.7204   24726261.2034   24726257.6234
       207.000         158.000
 137794290.94448  89579957.21748  24318451.5074   24318453.7244   24318451.2444
       207.000         152.000
 131597787.07248  84751517.13048  23139292.4754   23139294.7724   23139293.3314
       222.000         172.000
 128993368.59948  82722099.81348  22643690.3544   22643692.1024   22643690.0164
       235.000         200.000
 119094023.68848  92800523.96348  22662850.5094   22662853.1004   22662850.4014
       227.000         185.000
 137015379.97948  88973019.64648  24170226.1424   24170227.2944   24170226.1444
       218.000         163.000
 118007043.70148  74161328.32848  20553059.3694   20553060.5244   20553059.3764
       252.000         235.000
 112707940.93848 105616576.49348  23350544.7044   23350545.1464   23350545.0924
       228.000         181.000
 09  1 21  2  4  0.0000000  0 10G 9G 5G26G14G18G15G30G17G12G22
 115095016.34848  71892208.92648  19998925.7944   19998928.1684   19998925.9654
       252.000         228.000
 100275927.78948  95929282.94548  20984819.2114   20984822.2654   20984819.4664
       247.000         218.000
 120050642.11248 111338144.53848  24747830.4854   24747833.6104   24747830.3924
       212.000         159.000
 137691396.05348  89499779.41248  24298871.1354   24298874.1334   24298870.4024
       208.000         155.000
 131661773.25648  84801376.49548  23151468.7174   23151470.7244   23151469.2774
       224.000         172.000
 129090661.54048  82797912.48548  22662204.5064   22662206.3334   22662204.1924
       234.000         199.000
 119001892.45348  92728733.42048  22645318.3974   22645321.0594   22645317.7044
       231.000         187.000
 137085548.27648  89027696.25748  24183578.3944   24183580.2544   24183578.1644
       215.000         160.000
 117979489.01148  74139857.14748  20547815.9304   20547817.0034   20547815.7734
       252.000         236.000
 112725093.91148 105629942.43648  23353809.2714   23353809.0884   23353809.3494
       228.000         180.000
 09  1 21  2  4 30.0000000  0 10G 9G 5G26G14G18G15G30G17G12G22
 115109642.59448  71903606.00348  20001709.0604   20001711.4254   20001709.1034
       252.000         228.000
 100220906.39248  95886409.13448  20974349.1314   20974351.9764   20974349.7254
       247.000         217.000
 120164078.28248 111426536.40248  24769417.1954   24769419.4404   24769417.5924
       210.000         151.000
 137588633.74848  89419704.87548  24279317.7524   24279319.2054   24279315.9524
       215.000         160.000
 131726100.32948  84851501.47748  23163710.3304   23163711.8424   23163710.2054
       228.000         174.000
 129188225.67748  82873936.47848  22680770.7784   22680772.2844   22680770.2574
       235.000         199.000
 118910013.36748  92657139.34748  22627834.5434   22627837.0004   22627834.5374
       229.000         187.000
 137156128.66048  89082693.98348  24197009.2514   24197011.1884   24197009.8314
       216.000         161.000
 117952375.37948  74118729.64848  20542656.3684   20542657.5704   20542656.3244
       252.000         236.000
 112742748.45448 105643699.20848  23357168.8254   23357168.7184   23357169.0224
       230.000         181.000
 09  1 21  2  5  0.0000000  0 10G 9G 5G26G14G18G15G30G17G12G22
 115124640.25948  71915292.49648  20004563.0444   20004565.4884   20004563.1454
       252.000         228.000
 100166283.47448  95843845.82548  20963954.7414   20963957.4944   20963955.2874
       248.000         218.000
 120277584.34148 111514982.67548  24791016.1434   24791019.0144   24791015.5324
       210.000         148.000
 137486005.45448  89339734.76848  24259787.6384   24259789.6494   24259786.9664
       208.000         156.000
 131790764.12148  84901888.84448  23176015.4584   23176016.8554   23176016.5194
       224.000         174.000
 129286057.92548  82950169.39648  22699387.1984   22699388.8634   22699387.5304
       235.000         198.000
 118818386.04348  92585741.45648  22610398.6144   22610400.9264   22610398.3504
       230.000         188.000
 137227117.77348  89138010.18848  24210517.4114   24210519.5594   24210517.6474
       214.000         162.000
 117925701.81248  74097945.05848  20537580.4994   20537581.8064   20537580.3644
       252.000         236.000
 112760902.51948 105657845.21748  23360623.6384   23360623.4824   23360624.1234
       228.000         182.000
 09  1 21  2  5 30.0000000  0 10G 9G 5G26G14G18G15G30G17G12G22
 115140011.46648  71927270.05848  20007488.2414   20007490.5194   20007488.5014
       252.000         228.000
 100112061.11048  95801594.63948  20953636.5184   20953639.3184   20953637.2784
       248.000         218.000
 120391159.92248 111603483.17048  24812628.6764   24812632.1494   24812628.7944
       205.000         146.000
 137383515.31748  89259872.32848  24240283.7584   24240286.0074   24240282.6214
       208.000         152.000
 131855763.74548  84952537.88448  23188384.7374   23188386.4814   23188385.2204
       226.000         175.000
 129384157.66248  83026610.75648  22718055.3524   22718056.5594   22718055.2814
       234.000         198.000
 118727013.75448  92514542.29248  22593010.8984   22593013.1044   22593010.3644
       231.000         188.000
 137298515.38448  89193644.66648  24224104.5604   24224107.0044   24224104.5794
       213.000         164.000
 117899469.20948  74077504.07348  20532588.6524   20532589.8294   20532588.5204
       252.000         236.000
 112779556.18648 105672380.54348  23364173.0864   23364173.2464   23364172.9474
       228.000         181.000
 09  1 21  2  6  0.0000000  0 10G 9G 5G26G14G18G15G30G17G12G22
 115155755.45548  71939538.10848  20010484.2244   20010486.4654   20010484.4834
       252.000         228.000
 100058238.70648  95759655.11248  20943394.3414   20943397.3274   20943394.8684
       249.000         219.000
 120504802.02148 111692035.36748  24834253.5144   24834257.3314   24834253.7134
       213.000         146.000
 137281164.85248  89180118.72248  24220807.7994   24220809.5434   24220808.2384
       211.000         155.000
 131921095.15848  85003445.45448  23200816.9784   23200818.6554   23200817.5054
       224.000         175.000
 129482521.97748  83103258.26448  22736773.0774   22736774.7394   22736772.4004
       232.000         197.000
 118635896.89748  92443542.17448  22575671.9244   22575674.3394   22575672.1884
       231.000         189.000
 137370318.16548  89249594.89548  24237767.8324   24237770.3704   24237767.7914
       215.000         164.000
 117873676.73248  74057406.03848  20527680.4574   20527681.6954   20527680.3904
       252.000         235.000
 112798707.41748 105687303.57848  23367817.3964   23367817.4864   23367817.6054
       227.000         180.000
 09  1 21  2  6 30.0000000  0 10G 9G 5G26G14G18G15G30G17G12G22
 115171872.54748  71952096.88048  20013551.1844   20013553.3764   20013551.3974
       253.000         228.000
 100004816.84648  95718027.68848  20933228.6074   20933231.4134   20933229.1554
       248.000         219.000
 120618508.90448 111780638.11648  24855892.4284   24855894.6894   24855892.0824
       210.000         152.000
 137178956.82748  89100476.08848  24201358.2404   24201359.7014   24201357.9784
       210.000         154.000
 131986755.73448  85054609.52948  23213311.2374   23213313.6844   23213311.8854
       224.000         174.000
 129581148.55948  83180110.13848  22755540.8414   22755542.8554   22755540.7984
       232.000         197.000
 118545036.59948  92372741.95148  22558382.0514   22558384.1694   22558381.3144
       233.000         190.000
 137442523.83248  89305859.07748  24251508.1604   24251510.5464   24251507.7864
       215.000         165.000
 117848323.98048  74037650.64648  20522855.9764   20522857.1834   20522855.8734
       251.000         235.000
 112818354.94448 105702613.32848  23371555.9914   23371556.4964   23371555.8464
       227.000         180.000
 09  1 21  2  7  0.0000000  0 10G 9G 5G26G14G18G15G30G17G12G22
 115188362.80148  71964946.42248  20016689.2174   20016691.3684   20016689.5094
       252.000         228.000
  99951796.01748  95676712.75248  20923139.1924   20923141.9854   20923139.8344
       249.000         219.000
 120732278.99948 111869290.08348  24877541.0404   24877544.3904   24877539.7384
       209.000         151.000
 137076893.55748  89020946.29348  24181936.4764   24181938.0524   24181936.4324
       210.000         158.000
 132052742.55948  85106027.81048  23225868.1084   23225870.3794   23225868.6894
       225.000         174.000
 129680035.84748  83257165.15348  22774358.4854   22774360.3644   22774358.0264
       233.000         196.000
 118454433.87148  92302142.43248  22541141.0724   22541143.1004   22541140.7934
       232.000         189.000
 137515130.52148  89362435.69448  24265325.0374   24265326.6264   24265324.6344
       210.000         165.000
 117823410.73148  74018237.72548  20518114.9984   20518116.1894   20518114.8594
       252.000         235.000
 112838497.06148 105718308.46648  23375388.9074   23375389.1064   23375388.8714
       228.000         181.000
 09  1 21  2  7 30.0000000  0 10G 9G 5G26G14G18G15G30G17G12G22
 115205226.47148  71978086.94348  20019898.1884   20019900.3914   20019898.3604
       252.000         228.000
  99899176.86148  95635710.81948  20913126.0084   20913128.8674   20913126.5244
       248.000         219.000
 120846110.40548 111957989.86148  24899202.2124   24899206.4034   24899200.5884
       206.000         150.000
 136974977.47248  88941531.14148  24162542.7224   24162544.1954   24162542.4344
       212.000         159.000
 132119053.19048  85157698.42248  23238486.2604   23238489.0384   23238487.0984
       224.000         174.000
 129779181.78748  83334421.73348  22793225.7854   22793226.8414   22793226.0604
       234.000         195.000
 118364090.02148  92231744.64848  22523948.8544   22523951.0254   22523948.7274
       233.000         190.000
 137588136.12348  89419323.14048  24279217.3104   24279219.1244   24279217.4204
       214.000         167.000
 117798936.89448  73999167.20548  20513457.9244   20513459.0904   20513458.0064
       252.000         235.000
 112859132.91748 105734388.35348  23379316.2334   23379316.5864   23379316.7184
       228.000         182.000
 09  1 21  2  8  0.0000000  0 10G 9G 5G26G14G18G15G30G17G12G22
 115222464.09748  71991518.85748  20023178.2834   20023180.6204   20023178.3824
       252.000         228.000
  99846960.10948  95595022.45448  20903189.4514   20903192.3984   20903189.8584
       249.000         220.000
 120960001.54348 112046736.17348  24920874.6994   24920878.5934   24920873.6624
       206.000         150.000
 136873211.64448  88862233.10948  24143176.7114   24143178.3974   24143177.3324
       208.000         157.000
 132185684.71848  85209619.10348  23251165.9214   23251168.5004   23251166.6804
       222.000         171.000
 129878584.77848  83411878.60448  22812141.3424   22812142.7064   22812141.5244
       234.000         196.000
 118274006.64748  92161549.83248  22506806.7154   22506809.1184   22506806.4334
       233.000         190.000
 137661538.50048  89476519.79548  24293185.3774   24293187.1664   24293186.0064
       219.000         170.000
 117774902.23048  73980438.89748  20508884.2814   20508885.5234   20508884.2604
       252.000         235.000
 112880261.48448 105750852.15448  23383336.5704   23383336.9164   23383336.5494
       228.000         181.000
 09  1 21  2  8 30.0000000  0 10G 9G 5G26G14G18G15G30G17G12G22
 115240074.56348  72005241.30248  20026529.3334   20026531.8004   20026529.5404
       252.000         228.000
  99795144.77248  95554646.87448  20893329.4964   20893332.2504   20893329.9214
       249.000         220.000
 121073949.33448 112135526.65148  24942559.2654   24942562.1464   24942558.1034
       206.000         154.000
 136771597.13548  88783052.99648  24123839.1284   24123842.1124   24123839.9554
       207.000         151.000
 132252633.12448  85261786.68648  23263905.8984   23263908.2424   23263906.3644
       223.000         173.000
 129978241.38848  83489533.10648  22831105.7244   22831106.8774   22831105.4654
       234.000         195.000
 118184183.43548  92091557.73948  22489713.6234   22489715.9054   22489713.6294
       230.000         189.000
 137735334.22548  89534022.95548  24307228.5234   24307230.1784   24307228.8664
       218.000         171.000
 117751304.90948  73962051.37748  20504393.6994   20504395.0444   20504393.8304
       252.000         236.000
 112901879.98148 105767697.72948  23387450.0354   23387450.7004   23387450.1594
       224.000         178.000
 09  1 21  2  9  0.0000000  0 10G 9G 5G26G14G18G15G30G17G12G22
 115258058.82748  72019255.02048  20029951.5664   20029954.2044   20029951.6954
       251.000         228.000
  99743732.11848  95514585.06948  20883545.9594   20883548.5304   20883546.7384
       249.000         220.000
 121187952.47748 112224360.29748  24964253.8174   24964256.5554   24964253.6364
       212.000         157.000
 136670137.28148  88703993.37948  24104532.2514   24104534.5174   24104534.3854
       209.000         154.000
 132319896.34748  85314199.56948  23276705.6094   23276707.7344   23276706.2594
       222.000         172.000
 130078150.22848  83567384.14448  22850117.3624   22850118.8594   22850117.5424
       232.000         195.000
 118094622.48348  92021770.00048  22472670.2904   22472672.9844   22472670.0794
       231.000         189.000
 137809522.01048  89591831.64048  24321345.7384   24321347.4184   24321345.8024
       216.000         169.000
 117728145.51048  73944005.09848  20499986.6754   20499988.0254   20499986.6434
       252.000         236.000
 112923987.78548 105784924.58048  23391657.5524   23391657.3754   23391657.7874
       226.000         179.000
 09  1 21  2  9 30.0000000  0 10G 9G 5G26G14G18G15G30G17G12G22
 115276417.49448  72033560.47148  20033445.2884   20033447.7324   20033445.3674
       253.000         228.000
  99692722.78948  95474837.53648  20873839.2664   20873841.9224   20873839.9614
       250.000         221.000
 121302009.73548 112313236.07148  24985958.0054   24985961.8354   24985959.0924
       204.000         150.000
 136568834.99648  88625056.53848  24085255.9724   24085256.8704   24085255.5134
       208.000         155.000
 132387471.54948  85366855.54548  23289565.1904   23289566.8354   23289565.7424
       224.000         171.000
 130178309.10948  83645430.01148  22869177.3994   22869178.7794   22869176.7774
       234.000         195.000
 118005325.14248  91952187.66148  22455677.7074   22455680.0374   22455677.1294
       233.000         190.000
 137884099.73948  89649944.16348  24335537.4004   24335539.1504   24335537.2214
       216.000         166.000
 117705424.02848  73926300.04748  20495663.0204   20495664.3034   20495663.2304
       252.000         236.000
 112946583.90348 105802531.93148  23395957.2194   23395957.8894   23395957.2634
       225.000         180.000
 09  1 21  2 10  0.0000000  0 10G 9G 5G26G14G18G15G30G17G12G22
 115295150.65948  72048157.74948  20037010.0764   20037012.5144   20037010.4684
       252.000         227.000
  99642117.17848  95435404.60148  20864209.2694   20864211.9824   20864210.0374
       249.000         221.000
 121416119.09648 112402152.37148  25007672.1774   25007675.4674   25007671.7084
       210.000         150.000
 136467693.09548  88546244.70648  24066008.5544   24066010.2014   24066008.3034
       214.000         156.000
 132455356.12648  85419752.62448  23302483.0674   23302484.6054   23302483.8344
       225.000         173.000
 130278716.30348  83723669.38648  22888284.2254   22888285.4534   22888284.2964
       233.000         195.000
 117916292.49748  91882811.58548  22438735.3004   22438737.8344   22438735.2334
       232.000         191.000
 137959065.11348  89708358.73148  24349802.9294   24349804.5224   24349802.9514
       212.000         167.000
 117683139.82648  73908935.74448  20491422.3344   20491423.7144   20491421.9764
       252.000         236.000
 112969666.53848 105820518.36648  23400349.5224   23400350.2124   23400349.0424
       225.000         180.000
 09  1 21  2 10 30.0000000  0 10G 9G 5G26G14G18G15G30G17G12G22
 115314257.74148  72063046.37348  20040646.1084   20040648.4224   20040646.1974
       253.000         227.000
  99591915.02048  95396286.03248  20854656.0444   20854658.8934   20854656.4974
       250.000         222.000
 121530278.05248 112491107.40348  25029395.4364   25029398.4624   25029396.5004
       212.000         145.000
 136366712.72748  88467558.67248  24046794.0184   24046794.1354   24046794.5574
       208.000         158.000
 132523546.27548  85472887.78848  23315459.5324   23315461.2194   23315460.1704
       223.000         172.000
 130379369.23848  83802100.23748  22907437.3734   22907439.0464   22907436.7714
       233.000         194.000
 117827524.88548  91813642.02748  22421843.6224   22421845.7844   22421842.8384
       232.000         191.000
 138034415.28848  89767073.14348  24364141.5154   24364143.3114   24364140.8344
       217.000         168.000
 117661291.96448  73891911.44048  20487264.8404   20487266.0624   20487264.7494
       251.000         235.000
 112993233.93848 105838882.56148  23404834.1814   23404835.1174   23404834.3164
       225.000         179.000
 09  1 21  2 11  0.0000000  0 10G 9G 5G26G14G18G15G30G17G12G22
 115333739.50448  72078226.97548  20044353.2714   20044355.7564   20044353.4964
       251.000         227.000
  99542117.20148  95357482.54248  20845179.8244   20845182.7544   20845180.4394
       250.000         222.000
 121644485.25548 112580100.04448  25051128.9244   25051131.6434   25051128.9364
       205.000         145.000
 136265897.39148  88389001.30548  24027609.5464   24027610.2014   24027608.8884
       213.000         160.000
 132592039.83048  85526259.38648  23328493.4144   23328494.8264   23328493.5714
       224.000         172.000
 130480266.22148  83880721.25448  22926637.6774   22926639.3524   22926637.2424
       234.000         193.000
 117739024.35848  91744680.60848  22405002.4784   22405004.8384   22405002.6774
       233.000         192.000
 138110148.61148  89826086.13648  24378553.2644   24378554.6454   24378552.5444
       219.000         168.000
 117639880.70848  73875227.35348  20483190.4774   20483191.6604   20483190.2684
       252.000         236.000
 113017284.93648 105857623.57248  23409410.9814   23409411.4794   23409410.8834
       224.000         178.000
 09  1 21  2 11 30.0000000  0 10G 9G 5G26G14G18G15G30G17G12G22
 115353596.55348  72093699.99148  20048131.8814   20048134.5214   20048131.8634
       252.000         227.000
  99492724.13248  95318994.43448  20835780.6524   20835783.4464   20835781.1424
       250.000         223.000
 121758738.89348 112669128.75448  25072870.3674   25072873.6264   25072869.7644
       206.000         142.000
 136165249.78148  88310574.59248  24008456.9684   24008457.4854   24008456.0354
       211.000         159.000
 132660833.77248  85579865.04948  23341584.1194   23341585.9994   23341584.8364
       224.000         173.000
 130581405.27048  83959530.91448  22945883.8114   22945885.2514   22945883.8574
       233.000         193.000
 117650791.76348  91675927.94248  22388212.8094   22388214.8564   22388212.2694
       235.000         194.000
 138186262.75948  89885395.87948  24393037.1164   24393038.4904   24393036.5284
       218.000         168.000
 117618905.28148  73858882.87048  20479198.9954   20479200.1924   20479199.0354
       252.000         236.000
 113041818.13648 105876740.35948  23414079.4654   23414080.1164   23414079.0804
       225.000         179.000
 09  1 21  2 12  0.0000000  0 10G 9G 5G26G14G18G15G30G17G12G22
 115373827.43148  72109464.32348  20051981.7044   20051984.2554   20051981.8634
       252.000         227.000
  99443735.24548  95280821.28348  20826458.2384   20826461.2544   20826458.8934
       250.000         223.000
 121873036.24848 112758191.62148  25094620.5674   25094622.7314   25094620.6514
       198.000         142.000
 136064771.34648  88232279.74048  23989335.4284   23989337.5554   23989334.9454
       210.000         160.000
 132729924.12148  85633701.65948  23354731.7594   23354733.7064   23354732.5044
       221.000         171.000
 130682783.12548  84038526.64748  22965175.3124   22965176.8694   22965175.0764
       232.000         192.000
 117562827.45648  91607384.35248  22371473.8434   22371475.9524   22371473.7824
       234.000         193.000
 138262754.55548  89944999.86848  24407593.3254   24407594.2994   24407593.0684
       216.000         166.000
 117598364.64048  73842877.18548  20475290.2604   20475291.1944   20475290.1384
       252.000         236.000
 113066831.20048 105896231.02348  23418839.5174   23418839.8624   23418839.9524
       223.000         177.000
 09  1 21  2 12 30.0000000  0 10G 9G 5G26G14G18G15G30G17G12G22
 115394433.34748  72125520.87248  20055903.0504   20055905.3294   20055903.1784
       252.000         227.000
  99395151.54548  95242963.86248  20817213.0054   20817216.0554   20817213.6314
       250.000         223.000
 121987376.15548 112847287.60548  25116378.9614   25116381.6884   25116378.0444
       207.000         148.000
 135964465.47248  88154119.34348  23970247.6934   23970250.7534   23970247.1944
       215.000         160.000
 132799309.10848  85687767.87148  23367934.8634   23367936.8094   23367935.1114
       222.000         169.000
 130784398.54148  84117707.47148  22984511.7114   22984513.8554   22984511.1994
       230.000         191.000
 117475133.25048  91539051.21748  22354785.7274   22354788.0274   22354785.8904
       234.000         193.000
 138339622.58648  90004897.04348  24422220.4474   24422222.3194   24422220.2154
       216.000         163.000
 117578259.01848  73827210.47248  20471464.2974   20471465.5064   20471464.3064
       252.000         236.000
 113092323.11048 105916094.84748  23423690.4784   23423691.1594   23423690.5064
       225.000         179.000
