     2.11           OBSERVATION DATA    G (GPS)             RINEX VERSION / TYPE
teqc  2008Oct2      gpsops              20090115 00:05:36UTCPGM / RUN BY / DATE
    30.0000                                                 INTERVAL
     1     1                                                WAVELENGTH FACT L1/2
     7    L1    L2    P1    P2    C1    S1    S2            # / TYPES OF OBSERV
Linux 2.4.20-8|Pentium IV|gcc -static|Linux|486/DX+         COMMENT
     2.10           OBSERVATION DATA    GPS                 COMMENT
soc2rnx ver 1.20    gpsops              15-Jan-2009 00:05:34COMMENT
S1, if present, is the SNR for the C/A data stream on L1.   COMMENT
 SNR is mapped to RINEX snr flag value [1,4-9]              COMMENT
    SNR:   >316  >100  >31.6  >10  >3.2    >0 bad=0         COMMENT
L1 & L2:      9     8     7     6     5     4     1         COMMENT
                                                            COMMENT
This data is provided as a public service by NASA/JPL.      COMMENT
No warranty is expressed or implied regarding suitability   COMMENT
for use.  For further information, contact:                 COMMENT
Dave Stowers, NASA/JPL m/s 238-600                          COMMENT
4800 Oak Grove Drive, Pasadena CA 91109 USA                 COMMENT
                                                            COMMENT
Forced Modulo Decimation to 30 seconds                      COMMENT
  2009     1    14     0     0    0.0000000     GPS         TIME OF FIRST OBS
DSN                 JPL                                     OBSERVER / AGENCY
451-U               AOAD/M_T        NONE                    ANT # / TYPE
  4849202.3940  -360328.9929  4114913.1862                  APPROX POSITION XYZ
        0.0254        0.0000        0.0000                  ANTENNA: DELTA H/E/N
LP03574             ASHTECH Z-XII3      CC00                REC # / TYPE / VERS
MADR                                                        MARKER NAME
13407S012                                                   MARKER NUMBER
                                                            END OF HEADER
 09  1 14  0  0  0.0000000  0 10G 8G26G15G 9G27G18G28G17G21G10
 127803576.09148  99587191.57348  24320220.5064   24320223.3364   24320219.5464
       214.000         161.000
 106333629.04648  82857353.95448  20234632.9504   20234635.4074   20234632.6584
       251.000         226.000
 107768415.70648  83975387.82348  20507647.2814   20507648.4974   20507646.9864
       251.000         236.000
 116499184.96648  90778573.85648  22169068.7264   22169072.0804   22169068.4634
       236.000         196.000
 123862314.17148  96516078.63348  23570221.6714   23570224.3694   23570221.2244
       227.000         182.000
 125051017.68548  97442348.30348  23796418.5044   23796420.8864   23796418.4334
       220.000         168.000
 117479829.48048  91542720.75448  22355671.1864   22355673.4064   22355671.9284
       241.000         201.000
 128705880.95448 100290294.16948  24491916.2314   24491918.7224   24491916.5254
       218.000         170.000
 130324754.83248 101551732.78848  24799999.4454   24799996.8174   24799994.6344
       192.000         124.000
 120740901.17548  94083801.25648  22976243.3304   22976246.0164   22976243.9724
       230.000         184.000
 09  1 14  0  0 30.0000000  0  9G 8G26G15G 9G27G18G28G17G10
 127894078.02948  99657712.55548  24337442.1854   24337445.1984   24337443.1754
       214.000         162.000
 106358584.07548  82876799.43048  20239381.6604   20239384.1944   20239381.5504
       251.000         227.000
 107741633.66948  83954518.70348  20502550.6274   20502551.9784   20502550.3804
       252.000         236.000
 116416930.63748  90714479.59948  22153415.8584   22153419.0644   22153416.0174
       234.000         194.000
 123932263.22948  96570584.38848  23583532.5374   23583535.0064   23583532.5924
       230.000         183.000
 124965892.71848  97376017.13948  23780220.2164   23780222.0444   23780219.5694
       217.000         168.000
 117535554.68148  91586142.98448  22366275.0544   22366277.3214   22366276.0204
       238.000         200.000
 128636255.42748 100236040.53948  24478667.0274   24478668.6954   24478667.4144
       218.000         167.000
 120844820.39448  94164777.26248  22996017.9924   22996021.2894   22996018.7424
       231.000         184.000
 09  1 14  0  1  0.0000000  0  9G 8G26G15G 9G27G18G28G17G10
 127984598.42848  99728247.91848  24354667.1794   24354671.0074   24354667.6624
       214.000         162.000
 106383932.84148  82896551.70448  20244205.6244   20244207.9044   20244205.5394
       251.000         227.000
 107715194.68548  83933916.88748  20497519.5134   20497520.8994   20497519.2854
       251.000         236.000
 116334916.90148  90650572.81948  22137809.2264   22137812.1564   22137809.8624
       236.000         196.000
 124002238.98248  96625110.93748  23596848.0334   23596850.8844   23596848.3104
       228.000         182.000
 124881097.50248  97309942.95948  23764083.8994   23764086.0254   23764083.9524
       219.000         166.000
 117591697.61448  91629890.72048  22376958.7344   22376960.4294   22376959.1764
       239.000         200.000
 128566840.12048 100181950.67448  24465457.0474   24465459.0724   24465457.4254
       213.000         163.000
 120948933.12748  94245904.07048  23015830.1164   23015833.3474   23015831.0554
       230.000         184.000
 09  1 14  0  1 30.0000000  0  9G 8G26G15G 9G27G18G28G17G10
 128075136.98848  99798797.43448  24371896.3144   24371899.9554   24371896.5664
       211.000         162.000
 106409675.92948  82916611.24348  20249104.3794   20249106.6794   20249104.4414
       252.000         226.000
 107689100.43248  83913583.70148  20492553.7924   20492555.4654   20492553.4284
       251.000         236.000
 116253145.19248  90586854.63448  22122248.5954   22122251.8394   22122248.8664
       235.000         196.000
 124072241.19948  96679658.09348  23610169.0494   23610172.1024   23610169.1324
       230.000         183.000
 124796634.87048  97244127.91748  23748011.3684   23748013.2204   23748010.8554
       223.000         168.000
 117648256.92948  91673962.91848  22387721.5864   22387723.1314   22387721.5744
       241.000         200.000
 128497638.69348 100128027.50948  24452288.1134   24452290.1594   24452287.9354
       215.000         165.000
 121053237.58748  94327180.26148  23035678.3874   23035682.1594   23035679.1884
       230.000         184.000
 09  1 14  0  2  0.0000000  0  9G 8G26G15G 9G27G18G28G17G10
 128165691.94848  99869359.74348  24389128.3764   24389131.9854   24389128.7254
       211.000         163.000
 106435812.72748  82936977.57348  20254078.0304   20254080.2474   20254077.7844
       251.000         226.000
 107663351.71048  83893519.76448  20487653.9704   20487655.6554   20487653.7534
       252.000         236.000
 116171615.52548  90523325.04648  22106733.8054   22106736.6474   22106733.5694
       234.000         196.000
 124142268.94148  96734225.16148  23623494.9864   23623497.9884   23623494.9794
       230.000         184.000
 124712506.94448  97178573.68248  23732002.5764   23732004.5534   23732003.9514
       219.000         169.000
 117705230.06048  91718357.56548  22398563.2384   22398564.9314   22398564.2484
       239.000         199.000
 128428653.09648 100074272.49248  24439161.3124   24439162.2514   24439161.3034
       216.000         167.000
 121157729.99448  94408602.91548  23055562.5694   23055566.2364   23055563.3504
       229.000         184.000
 09  1 14  0  2 30.0000000  0  9G 8G26G15G 9G27G18G28G17G10
 128256263.23848  99939934.76448  24406363.0584   24406367.3124   24406362.7974
       212.000         164.000
 106462344.15848  82957651.41248  20259126.6864   20259128.9904   20259126.6654
       251.000         226.000
 107637950.46048  83873726.58348  20482820.3474   20482821.9484   20482820.0634
       252.000         237.000
 116090328.91448  90459984.85148  22091265.4204   22091268.3294   22091265.4154
       236.000         197.000
 124212321.93648  96788811.89848  23636825.9104   23636828.5984   23636826.4624
       229.000         183.000
 124628716.78348  97113282.66748  23716057.3244   23716059.9194   23716056.2874
       219.000         170.000
 117762615.35948  91763073.38048  22409483.2814   22409485.6074   22409483.7344
       239.000         200.000
 128359886.84248 100020688.42048  24426075.3984   24426077.2854   24426075.1354
       219.000         169.000
 121262408.31148  94490170.42048  23075482.4024   23075486.0224   23075483.4164
       230.000         185.000
 09  1 14  0  3  0.0000000  0  9G 8G26G15G 9G27G18G28G17G10
 128346849.10348 100010521.13948  24423601.3584   24423605.1974   24423602.4434
       215.000         165.000
 106489269.53348  82978632.21548  20264250.3524   20264252.7254   20264250.2304
       251.000         226.000
 107612897.19448  83854204.56048  20478052.9404   20478054.4634   20478052.8144
       253.000         237.000
 116009285.28748  90396833.98448  22075843.3334   22075846.4794   22075843.6984
       237.000         196.000
 124282399.34248  96843417.65848  23650160.4404   23650164.0854   23650160.7224
       228.000         181.000
 124545265.91248  97048255.99548  23700177.3994   23700179.4534   23700177.5344
       219.000         171.000
 117820410.42148  91808108.49848  22420481.4484   22420483.9854   22420481.7034
       238.000         199.000
 128291342.22948  99967277.04848  24413031.9544   24413034.1374   24413032.1164
       217.000         169.000
 121367269.57748  94571880.49148  23095436.8674   23095440.5494   23095438.3164
       228.000         184.000
 09  1 14  0  3 30.0000000  0  9G 8G26G15G 9G27G18G28G17G10
 128437449.22548 100081118.64748  24440841.7154   24440845.5984   24440842.3654
       215.000         164.000
 106516589.37548  82999920.39648  20269449.1204   20269451.5954   20269449.1364
       251.000         226.000
 107588193.56648  83834954.97848  20473352.1384   20473353.5664   20473352.0634
       253.000         237.000
 115928486.00848  90333873.51448  22060467.9664   22060470.9794   22060468.9044
       237.000         197.000
 124352501.06448  96898042.35548  23663500.6894   23663503.7724   23663500.7454
       228.000         181.000
 124462157.13248  96983495.91348  23684362.4904   23684363.8044   23684362.6564
       220.000         171.000
 117878613.77448  91853461.75748  22431556.8874   22431558.8574   22431557.3394
       239.000         197.000
 128223022.50748  99914040.88248  24400031.3894   24400032.8434   24400031.1924
       217.000         170.000
 121472311.41048  94653731.25548  23115425.5194   23115429.2954   23115426.6024
       227.000         183.000
 09  1 14  0  4  0.0000000  0  9G 8G26G15G 9G27G18G28G17G10
 128528062.49748 100151726.34648  24458084.9434   24458088.8104   24458085.5074
       215.000         166.000
 106544303.45048  83021515.77348  20274723.0034   20274725.4014   20274722.8804
       250.000         226.000
 107563840.73348  83815978.73748  20468717.9634   20468719.3364   20468717.8534
       252.000         237.000
 115847931.35848  90271103.66548  22045138.9524   22045141.8364   22045139.5844
       237.000         197.000
 124422626.00148  96952685.15548  23676845.1354   23676848.1244   23676845.5414
       228.000         183.000
 124379393.00248  96919004.37548  23668613.0724   23668615.2014   23668612.6154
       221.000         173.000
 117937222.77848  91899131.11248  22442709.6654   22442711.3064   22442710.7064
       237.000         197.000
 128154930.42748  99860982.15148  24387073.6734   24387075.3544   24387073.3914
       219.000         172.000
 121577530.73348  94735720.32348  23135448.2224   23135451.7074   23135448.6964
       227.000         183.000
 09  1 14  0  4 30.0000000  0  9G 8G26G15G 9G27G18G28G17G10
 128618688.37348 100222343.92248  24475330.8134   24475334.0144   24475331.2374
       216.000         166.000
 106572412.61748  83043419.00948  20280072.0834   20280074.4324   20280071.9464
       251.000         226.000
 107539840.75748  83797277.45448  20464150.7984   20464152.3074   20464150.5034
       252.000         237.000
 115767622.45548  90208525.31948  22029856.6054   22029859.5654   22029857.2604
       236.000         199.000
 124492774.59748  97007346.38748  23690193.5954   23690197.2094   23690193.5414
       228.000         182.000
 124296976.67048  96854783.88248  23652929.2784   23652931.8314   23652929.7784
       221.000         172.000
 117996236.45448  91945115.79348  22453939.7094   22453941.2354   22453939.7164
       239.000         197.000
 128087069.47248  99808103.49248  24374160.5754   24374162.2704   24374159.8824
       221.000         173.000
 121682925.46748  94817846.09248  23155504.0614   23155507.5734   23155504.8214
       229.000         182.000
 09  1 14  0  5  0.0000000  0  9G 8G26G15G 9G27G18G28G17G10
 128709326.12848 100292970.74648  24492578.1654   24492581.7214   24492578.7674
       215.000         164.000
 106600916.81248  83065630.07248  20285496.1574   20285498.5434   20285496.0664
       251.000         226.000
 107516194.64448  83778851.90848  20459651.0464   20459652.5194   20459650.8324
       252.000         237.000
 115687559.74348  90146138.80648  22014621.0134   22014624.1834   22014621.0534
       237.000         199.000
 124562946.21348  97062025.55348  23703546.8874   23703550.3514   23703546.9284
       226.000         182.000
 124214910.26648  96790836.03948  23637313.3174   23637315.2034   23637314.8464
       222.000         174.000
 118055652.42448  91991413.95548  22465246.0534   22465248.2124   22465246.5194
       239.000         197.000
 128019442.34648  99755407.01148  24361291.7004   24361293.0084   24361291.3794
       219.000         175.000
 121788493.09348  94900106.57448  23175592.9454   23175596.3794   23175593.6014
       227.000         181.000
 09  1 14  0  5 30.0000000  0  9G 8G26G15G 9G27G18G28G17G10
 128799974.57248 100363605.89748  24509828.7884   24509831.9334   24509829.4134
       218.000         164.000
 106629815.73848  83088148.70448  20290995.5054   20290997.8624   20290995.4624
       251.000         226.000
 107492903.33648  83760702.83248  20455219.0084   20455220.4204   20455218.8304
       252.000         237.000
 115607743.58048  90083944.41148  21999432.5374   21999435.6194   21999432.5964
       237.000         198.000
 124633139.80848  97116721.85148  23716904.2954   23716907.6874   23716904.7974
       226.000         181.000
 124133195.66748  96727162.34048  23621762.6394   23621764.9004   23621763.6234
       224.000         171.000
 118115468.12448  92038023.59248  22476628.7294   22476631.1994   22476629.6684
       238.000         197.000
 127952051.60348  99702894.76148  24348467.0184   24348469.2654   24348466.7514
       216.000         175.000
 121894230.76248  94982499.55948  23195713.9734   23195717.9024   23195715.0764
       228.000         181.000
 09  1 14  0  6  0.0000000  0  9G 8G26G15G 9G27G18G28G17G10
 128890633.17348 100434248.97148  24527080.3504   24527083.7404   24527081.9554
       215.000         164.000
 106659109.82248  83110975.25948  20296570.0354   20296572.3784   20296570.0704
       252.000         226.000
 107469968.40848  83742831.45348  20450854.5464   20450856.1064   20450854.2634
       252.000         237.000
 115528175.04948  90021942.97148  21984291.2374   21984293.9774   21984291.7434
       237.000         198.000
 124703355.31748  97171435.21548  23730266.0354   23730269.1314   23730266.2094
       226.000         180.000
 124051835.79948  96663765.01248  23606281.2334   23606282.3254   23606281.9324
       225.000         172.000
 118175682.17748  92084943.63448  22488086.9754   22488089.1334   22488087.4504
       239.000         196.000
 127884900.63848  99650569.35248  24335688.5664   24335690.7784   24335688.1484
       218.000         171.000
 122000135.75948  95065022.92948  23215866.8744   23215870.9144   23215867.6314
       228.000         180.000
 09  1 14  0  6 30.0000000  0  9G 8G26G15G 9G27G18G28G17G10
 128981301.38248 100504899.48548  24544333.8964   24544337.0944   24544334.2264
       215.000         164.000
 106688799.53648  83134110.09748  20302219.8584   20302222.2364   20302219.8104
       251.000         226.000
 107447391.82048  83725239.30548  20446558.4224   20446559.8824   20446558.1224
       252.000         237.000
 115448855.24648  89960135.33948  21969197.0894   21969199.7954   21969197.1554
       237.000         199.000
 124773592.82148  97226165.72048  23743631.8664   23743634.8584   23743632.2914
       227.000         181.000
 123970833.67948  96600646.46748  23590867.0894   23590868.1254   23590868.1014
       223.000         174.000
 118236292.90348  92132172.76848  22499620.8114   22499621.9964   22499621.2844
       238.000         195.000
 127817992.51248  99598433.17148  24322956.1094   24322958.5804   24322956.1114
       214.000         171.000
 122106206.00748  95147675.06948  23236051.4754   23236055.4364   23236052.6434
       227.000         179.000
 09  1 14  0  7  0.0000000  0 10G 8G26G15G 9G27G18G28G17G12G10
 129071978.11748 100575556.67248  24561588.9304   24561592.8664   24561589.3024
       217.000         164.000
 106718884.79548  83157553.15048  20307945.0454   20307947.2324   20307944.9744
       253.000         226.000
 107425174.36648  83707926.99948  20442330.4984   20442332.0844   20442330.2844
       251.000         237.000
 115369784.52448  89898521.80548  21954150.2904   21954153.7044   21954150.6154
       237.000         200.000
 124843851.54548  97280912.78248  23757001.5644   23757004.8264   23757001.6464
       226.000         181.000
 123890191.54048  96537808.44348  23575521.0654   23575522.9284   23575521.2614
       223.000         174.000
 118297297.93548  92179709.14148  22511229.7064   22511230.2614   22511229.8274
       239.000         194.000
 127751329.85548  99546488.24748  24310270.8754   24310271.8894   24310270.6514
       219.000         169.000
 131759430.98158 102669675.50358  25072993.5425   25072996.8125   25072994.8125
       208.000         148.000
 122212438.47148  95230453.60848  23256266.5064   23256270.4174   23256267.4134
       224.000         178.000
 09  1 14  0  7 30.0000000  0 10G 8G26G15G 9G27G18G28G17G12G10
 129162662.48948 100646219.81248  24578845.2034   24578849.4104   24578845.2394
       215.000         163.000
 106749365.48848  83181304.33048  20313745.3724   20313747.5384   20313745.4954
       251.000         226.000
 107403317.47448  83690895.64648  20438171.3364   20438172.7734   20438171.1284
       252.000         237.000
 115290963.80748  89837103.08448  21939151.3114   21939154.5764   21939152.0184
       236.000         200.000
 124914131.24848  97335676.18548  23770375.3714   23770378.4794   23770375.8324
       225.000         179.000
 123809911.82648  96475252.82448  23560244.3434   23560246.7114   23560244.6454
       225.000         174.000
 118358695.29248  92227551.23148  22522913.3954   22522914.0514   22522914.0844
       239.000         196.000
 127684915.73648  99494736.99848  24297632.5374   24297634.6704   24297632.5334
       216.000         170.000
 131644136.27748 102579835.49948  25051054.4284   25051056.5004   25051053.4284
       207.000         150.000
 122318830.51348  95313356.48048  23276512.2524   23276516.2684   23276512.6364
       225.000         180.000
 09  1 14  0  8  0.0000000  0 10G 8G26G15G 9G27G18G28G17G12G10
 129253353.16048 100716887.87648  24596103.1224   24596107.1274   24596103.7314
       212.000         161.000
 106780241.08148  83205363.22848  20319620.6434   20319622.9624   20319620.5234
       251.000         226.000
 107381821.62448  83674145.62948  20434080.7704   20434082.3544   20434080.6124
       252.000         238.000
 115212392.81148  89775878.94448  21924200.0624   21924202.8954   21924200.0024
       238.000         200.000
 124984430.53348  97390454.83848  23783752.8714   23783756.1484   23783753.3764
       222.000         178.000
 123729996.11548  96412980.83348  23545037.3484   23545038.5034   23545038.0174
       221.000         172.000
 118420482.10348  92275696.79448  22534670.9584   22534672.7114   22534671.9034
       238.000         197.000
 127618752.12148  99443180.94748  24285042.3294   24285044.3224   24285041.4184
       219.000         171.000
 131528874.78148 102490021.37648  25029120.4324   25029123.9324   25029120.1494
       209.000         155.000
 122425378.71248  95396381.03648  23296788.1974   23296792.3974   23296789.1514
       228.000         182.000
 09  1 14  0  8 30.0000000  0 10G 8G26G15G 9G27G18G28G17G12G10
 129344049.71348 100787560.52548  24613361.8844   24613365.3264   24613362.5544
       212.000         158.000
 106811512.26648  83229730.36948  20325571.3094   20325573.7274   20325571.2424
       250.000         226.000
 107360688.98048  83657678.62348  20430059.3534   20430060.9234   20430059.1084
       252.000         238.000
 115134072.73148  89714850.32248  21909295.9874   21909298.7614   21909296.3414
       237.000         199.000
 125054749.97948  97445249.19648  23797134.4094   23797137.7334   23797134.5634
       225.000         179.000
 123650447.64048  96350995.02748  23529899.3754   23529901.3304   23529899.5834
       224.000         176.000
 118482657.16648  92324144.90448  22546502.2714   22546505.3814   22546502.6244
       239.000         199.000
 127552842.96348  99391823.15748  24272499.5334   24272501.8674   24272498.6344
       214.000         170.000
 131413649.56348 102400235.51348  25007193.8924   25007197.3394   25007193.9964
       213.000         156.000
 122532081.36448  95479525.95248  23317093.1434   23317096.7574   23317094.0664
       228.000         180.000
 09  1 14  0  9  0.0000000  0 10G 8G26G15G 9G27G18G28G17G12G10
 129434752.00648 100858237.59948  24630622.4854   24630625.4714   24630622.1224
       212.000         161.000
 106843179.39148  83254406.04648  20331597.3224   20331599.7894   20331597.2764
       251.000         225.000
 107339920.96648  83641495.75648  20426107.4014   20426108.8464   20426107.1934
       253.000         238.000
 115056004.48948  89654017.95348  21894440.2114   21894442.8384   21894440.3344
       238.000         200.000
 125125089.08748  97500058.88748  23810519.3814   23810522.8754   23810519.8934
       224.000         179.000
 123571268.90148  96289297.30248  23514832.7274   23514834.2764   23514831.8304
       227.000         177.000
 118545218.45648  92372893.97448  22558407.6714   22558410.7974   22558408.3264
       239.000         200.000
 127487190.94648  99340665.75748  24260006.5014   24260008.7004   24260006.5894
       216.000         165.000
 131298462.68548 102310479.50448  24985275.2154   24985277.5814   24985276.0224
       211.000         156.000
 122638935.76348  95562789.12448  23337427.1764   23337430.4914   23337427.7944
       227.000         180.000
 09  1 14  0  9 30.0000000  0 10G 8G26G15G 9G27G18G28G17G12G10
 129525458.32848 100928917.85348  24647883.1304   24647885.8934   24647883.7684
       214.000         161.000
 106875241.87748  83279389.79248  20337698.5174   20337701.0604   20337698.5204
       251.000         225.000
 107319518.15748  83625597.46248  20422224.7094   20422226.3404   20422224.5124
       252.000         238.000
 114978187.98448  89593381.73548  21879632.2784   21879634.9734   21879632.4344
       237.000         201.000
 125195446.81348  97554883.07148  23823907.7574   23823911.6714   23823908.0834
       223.000         178.000
 123492461.81948  96227889.18048  23499836.0384   23499837.5094   23499835.5184
       223.000         177.000
 118608163.34748  92421941.94448  22570385.6384   22570389.2214   22570386.1914
       239.000         200.000
 127421798.29848  99289710.44348  24247562.5754   24247564.1464   24247562.6914
       219.000         168.000
 131183315.97948 102220754.84448  24963364.2434   24963365.0944   24963364.8384
       214.000         156.000
 122745939.02348  95646168.25848  23357789.1274   23357792.5754   23357789.8614
       227.000         179.000
 09  1 14  0 10  0.0000000  0 10G 8G26G15G 9G27G18G28G17G12G10
 129616168.98248 100999601.47448  24665145.1604   24665148.2634   24665146.0114
       212.000         164.000
 106907700.39648  83304682.13848  20343875.0564   20343877.6524   20343875.0034
       250.000         225.000
 107299482.97748  83609985.63148  20418412.1624   20418413.7404   20418411.9114
       252.000         238.000
 114900624.68148  89532942.81548  21864872.3764   21864874.7974   21864872.2694
       238.000         199.000
 125265823.72448  97609722.19948  23837300.3854   23837303.7794   23837300.0734
       224.000         177.000
 123414029.75148  96166773.27248  23484910.9944   23484912.5394   23484910.1674
       226.000         177.000
 118671490.60448  92471287.86248  22582436.5194   22582439.6024   22582436.3774
       239.000         200.000
 127356668.86248  99238960.22348  24235168.6894   24235171.1864   24235169.0724
       217.000         168.000
 131068212.63148 102131063.92348  24941460.7904   24941461.2684   24941458.9224
       212.000         155.000
 122853089.18548  95729661.89548  23378179.3554   23378181.8974   23378180.1204
       227.000         177.000
 09  1 14  0 10 30.0000000  0 10G 8G26G15G 9G27G18G28G17G12G10
 129706882.37448 101070287.19448  24682407.1104   24682410.4354   24682406.8224
       216.000         164.000
 106940554.41748  83330282.66948  20350127.0394   20350129.5194   20350126.9864
       251.000         225.000
 107279815.71148  83594660.47948  20414669.7714   20414671.1504   20414669.5604
       252.000         238.000
 114823314.43948  89472701.08348  21850160.4244   21850163.4714   21850160.6724
       238.000         201.000
 125336218.68848  97664575.39548  23850696.0954   23850699.9974   23850696.4414
       224.000         179.000
 123335974.41348  96105950.92748  23470057.8224   23470059.4934   23470058.7404
       227.000         177.000
 118735197.26148  92520929.41348  22594559.4964   22594562.4144   22594559.9104
       239.000         198.000
 127291804.75748  99188416.78748  24222825.5894   24222827.7384   24222825.6534
       216.000         167.000
 130953154.07848 102041407.91748  24919565.4074   24919566.5394   24919564.4354
       211.000         154.000
 122960382.57948  95813267.12748  23398595.9074   23398599.8794   23398596.9364
       223.000         177.000
 09  1 14  0 11  0.0000000  0 10G 8G26G15G 9G27G18G28G17G12G10
 129797598.27048 101140974.87848  24699669.8524   24699673.0704   24699669.7094
       217.000         162.000
 106973804.38248  83356191.72148  20356454.3724   20356456.7664   20356454.2714
       251.000         225.000
 107260518.10348  83579623.38148  20410997.5194   20410998.9714   20410997.2234
       252.000         238.000
 114746258.41648  89412657.44248  21835497.4544   21835500.4404   21835497.7054
       238.000         202.000
 125406631.88848  97719442.80148  23864095.3714   23864099.2694   23864096.0124
       225.000         179.000
 123258298.47148  96045424.23148  23455276.0764   23455278.1324   23455276.6154
       225.000         175.000
 118799281.95248  92570865.54048  22606754.3274   22606756.7524   22606755.0304
       239.000         196.000
 127227209.50048  99138082.83548  24210533.4114   24210536.1484   24210532.7294
       217.000         167.000
 130838143.17848 101951789.05148  24897680.4864   24897680.6314   24897680.2004
       213.000         153.000
 123067817.39648  95896982.53948  23419039.8084   23419044.1324   23419039.9194
       225.000         177.000
 09  1 14  0 11 30.0000000  0 10G 8G26G15G 9G27G18G28G17G12G10
 129888315.15248 101211663.38248  24716932.5404   24716935.7824   24716933.8084
       214.000         158.000
 107007449.79448  83382408.92148  20362857.0544   20362859.3784   20362857.0114
       251.000         225.000
 107241591.26448  83564875.18948  20407395.8974   20407397.3344   20407395.6014
       253.000         238.000
 114669456.86948  89352812.07348  21820882.6744   21820885.7114   21820882.7074
       238.000         202.000
 125477062.55748  97774323.83448  23877498.1654   23877501.6094   23877498.2434
       223.000         177.000
 123181004.13748  95985194.86548  23440567.6644   23440569.0244   23440569.6384
       226.000         175.000
 118863742.13748  92621094.24848  22619020.8734   22619022.3534   22619022.0454
       239.000         194.000
 127162885.34948  99087960.10348  24198293.5624   24198295.3864   24198292.6734
       220.000         169.000
 130723181.64148 101862208.66448  24875803.2914   24875804.3054   24875804.5164
       213.000         154.000
 123175390.34448  95980805.62048  23439511.1024   23439513.9414   23439512.0434
       228.000         177.000
 09  1 14  0 12  0.0000000  0 10G 8G26G15G 9G27G18G28G17G12G10
 129979032.31848 101282352.06648  24734195.3504   24734198.9424   24734195.9114
       214.000         157.000
 107041490.64448  83408934.25148  20369334.6894   20369337.2654   20369334.6374
       250.000         225.000
 107223036.05748  83550416.58348  20403865.0604   20403866.4434   20403864.9074
       253.000         239.000
 114592910.13848  89293165.26948  21806316.1904   21806319.3044   21806316.0334
       239.000         202.000
 125547510.00648  97829217.93648  23890903.9354   23890906.8964   23890903.8184
       223.000         175.000
 123104093.53048  95925264.52748  23425931.9294   23425933.5364   23425932.6694
       225.000         175.000
 118928575.58148  92671613.79548  22631358.1794   22631358.5124   22631359.0004
       238.000         192.000
 127098834.71448  99038050.53348  24186105.1954   24186106.7094   24186105.4834
       220.000         170.000
 130608271.50448 101772668.30848  24853936.0864   24853937.7464   24853937.1204
       208.000         151.000
 123283098.57448  96064734.09048  23460007.2064   23460010.3094   23460008.1924
       226.000         177.000
 09  1 14  0 12 30.0000000  0 10G 8G26G15G 9G27G18G28G17G12G10
 130069749.60148 101353040.87048  24751458.9304   24751462.3044   24751459.6784
       221.000         164.000
 107075927.57848  83435768.21948  20375887.7864   20375890.4104   20375887.6974
       251.000         225.000
 107204854.24448  83536248.93148  20400405.1704   20400406.5914   20400405.0214
       253.000         239.000
 114516619.72948  89233718.21448  21791798.5674   21791801.4214   21791799.2754
       238.000         202.000
 125617974.90948  97884125.63648  23904312.2694   23904315.5394   23904313.4354
       220.000         173.000
 123027569.82448  95865635.67348  23411369.7644   23411371.6034   23411371.2964
       227.000         176.000
 118993780.23748  92722422.61648  22643766.1794   22643765.5774   22643766.9854
       238.000         190.000
 127035061.64448  98988357.23448  24173969.6584   24173971.6734   24173969.7354
       219.000         172.000
 130493415.95348 101683170.54048  24832079.4114   24832081.1484   24832079.7944
       208.000         150.000
 123390940.64148  96148766.87248  23480528.3824   23480531.7074   23480529.5034
       224.000         174.000
 09  1 14  0 13  0.0000000  0 10G 8G26G15G 9G27G18G28G17G12G10
 130160466.15948 101423729.11048  24768721.3794   24768724.5174   24768722.1354
       218.000         164.000
 107110760.26748  83462910.55948  20382516.4604   20382518.8584   20382516.6234
       251.000         225.000
 107187047.24648  83522373.34448  20397016.5634   20397018.1114   20397016.3654
       254.000         239.000
 114440585.99748  89174471.17048  21777329.6564   21777332.7794   21777329.7164
       238.000         202.000
 125688456.29148  97939046.17148  23917724.7094   23917727.5444   23917725.0294
       224.000         174.000
 122951435.07048  95806309.88548  23396881.8084   23396883.6604   23396883.1634
       227.000         175.000
 119059354.51848  92773519.45148  22656244.3904   22656244.2224   22656244.6694
       237.000         191.000
 126971568.65648  98938882.19348  24161887.5674   24161889.2274   24161887.4324
       221.000         173.000
 130378617.01248 101593716.82348  24810233.8494   24810235.8314   24810232.9374
       212.000         154.000
 123498913.27748  96232901.37548  23501074.6514   23501078.4524   23501075.6774
       221.000         174.000
 09  1 14  0 13 30.0000000  0 10G 8G26G15G 9G27G18G28G17G12G10
 130251181.81548 101494416.60548  24785983.8884   24785987.5244   24785984.7024
       218.000         162.000
 107145989.29348  83490361.74148  20389220.2384   20389222.5314   20389220.0894
       251.000         224.000
 107169616.84048  83508791.20848  20393699.6334   20393701.2024   20393699.4854
       253.000         239.000
 114364810.17748  89115425.09448  21762910.2324   21762912.8774   21762910.2074
       239.000         202.000
 125758954.32548  97993979.68648  23931140.0554   23931142.5654   23931139.8814
       224.000         175.000
 122875692.13948  95747289.41348  23382468.7194   23382470.7354   23382469.0084
       227.000         176.000
 119125296.43648  92824902.75148  22668792.6224   22668793.0444   22668792.9764
       236.000         191.000
 126908358.80248  98889627.75248  24149858.9434   24149860.4454   24149859.1354
       220.000         173.000
 130263877.24148 101504309.28048  24788399.1824   24788402.1714   24788398.2184
       207.000         153.000
 123607014.66648  96317136.21248  23521646.0724   23521649.3064   23521646.2714
       222.000         173.000
 09  1 14  0 14  0.0000000  0 10G 8G26G15G 9G27G18G28G17G12G10
 130341895.33348 101565102.47148  24803246.3914   24803249.6984   24803246.9284
       214.000         161.000
 107181614.12648  83518121.34248  20395999.2604   20396001.6784   20395999.0324
       251.000         225.000
 107152563.63448  83495502.99848  20390454.3634   20390456.0674   20390454.1494
       253.000         239.000
 114289292.46948  89056580.13948  21748539.5124   21748542.3564   21748539.8904
       236.000         202.000
 125829468.51548  98048925.80148  23944558.5254   23944561.5144   23944559.3854
       224.000         175.000
 122800343.03048  95688575.81648  23368129.9474   23368131.9324   23368131.0874
       227.000         177.000
 119191603.71348  92876570.75748  22681410.3674   22681411.7724   22681410.5224
       237.000         192.000
 126845434.51748  98840595.83948  24137885.0754   24137886.1004   24137884.5604
       222.000         175.000
 130149199.01148 101414949.64848  24766577.4094   24766581.0224   24766576.8764
       213.000         157.000
 123715241.56548  96401468.87848  23542241.0614   23542243.6664   23542242.1424
       223.000         172.000
 09  1 14  0 14 30.0000000  0 10G 8G26G15G 9G27G18G28G17G12G10
 130432605.81248 101635785.94448  24820507.7104   24820510.7424   24820507.8694
       216.000         161.000
 107217634.42248  83546189.09948  20402853.8364   20402856.2534   20402853.8354
       251.000         225.000
 107135888.60148  83482509.45748  20387281.3874   20387282.8164   20387281.1264
       253.000         239.000
 114214032.90048  88997936.34148  21734217.9414   21734221.0674   21734217.7304
       237.000         202.000
 125899997.95848  98103883.79448  23957979.7424   23957982.9374   23957980.2634
       221.000         174.000
 122725390.04548  95630170.91548  23353866.8654   23353868.6384   23353867.3134
       227.000         176.000
 119258273.75348  92928521.44548  22694097.5134   22694099.4244   22694097.4244
       236.000         194.000
 126782798.39748  98791788.48248  24125965.6464   24125967.2354   24125965.8404
       222.000         174.000
 130034583.76848 101325639.09348  24744767.5844   24744769.1654   24744767.0304
       207.000         155.000
 123823591.11848  96485897.08148  23562858.9804   23562862.5264   23562859.6634
       225.000         174.000
 09  1 14  0 15  0.0000000  0 10G 8G26G15G 9G27G18G28G17G12G10
 130523313.72248 101706467.40248  24837769.4714   24837772.0064   24837769.9934
       223.000         162.000
 107254051.02948  83574565.67048  20409783.7414   20409786.1734   20409783.6954
       251.000         225.000
 107119594.04248  83469812.39248  20384180.6224   20384182.0614   20384180.3254
       253.000         239.000
 114139032.91748  88939494.81148  21719945.8924   21719949.0214   21719946.1374
       237.000         201.000
 125970543.46348  98158854.30348  23971403.8404   23971406.8524   23971404.3204
       222.000         172.000
 122650836.19848  95572076.99248  23339679.8424   23339681.3164   23339679.2464
       227.000         177.000
 119325305.32848  92980753.83848  22706853.0834   22706855.6904   22706853.2714
       236.000         194.000
 126720454.24248  98743208.62148  24114102.0844   24114103.0314   24114101.7254
       221.000         172.000
 129920034.82948 101236380.25248  24722968.5574   24722970.8554   24722967.5234
       215.000         156.000
 123932061.44648  96570419.41448  23583500.8044   23583503.9774   23583501.3424
       224.000         174.000
 09  1 14  0 15 30.0000000  0 10G 8G26G15G 9G27G18G28G17G12G10
 130614014.43848 101777143.30448  24855029.0074   24855031.5754   24855029.7544
       218.000         163.000
 107290860.42048  83603248.30148  20416788.2044   20416790.7964   20416788.0684
       250.000         225.000
 107103677.44648  83457409.85048  20381151.7424   20381153.2144   20381151.4534
       253.000         239.000
 114064289.79348  88881253.43448  21705722.8144   21705725.9894   21705722.9164
       237.000         202.000
 126041100.85448  98213834.06048  23984830.4194   23984833.7884   23984831.2134
       220.000         170.000
 122576679.81548  95514292.80648  23325568.5314   23325570.0914   23325569.1654
       227.000         177.000
 119392692.66948  93033263.45848  22719676.5764   22719679.3624   22719676.6554
       237.000         196.000
 126658401.05748  98694855.48148  24102293.3924   24102295.0874   24102293.8024
       219.000         172.000
 129805550.77548 101147171.92548  24701183.2404   24701185.4794   24701184.9734
       213.000         156.000
 124040646.13248  96655030.86348  23604163.6574   23604166.9414   23604164.5774
       223.000         173.000
 09  1 14  0 16  0.0000000  0 10G 8G26G15G 9G27G18G28G17G12G10
 130704711.81348 101847816.58248  24872287.8164   24872290.8024   24872288.4334
       218.000         164.000
 107328066.69348  83632240.20048  20423868.3334   20423870.9434   20423868.2554
       251.000         225.000
 107088144.44148  83445306.20048  20378195.9504   20378197.4644   20378195.7864
       253.000         239.000
 113989808.22648  88823215.86548  21691549.4914   21691552.5504   21691549.3504
       238.000         202.000
 126111674.26548  98268826.33048  23998260.0424   23998263.5564   23998260.4864
       221.000         171.000
 122502928.11848  95456823.95448  23311533.8614   23311535.2084   23311533.1854
       228.000         177.000
 119460437.99848  93086052.03548  22732568.0324   22732570.9654   22732568.6004
       239.000         195.000
 126596645.98348  98646734.66148  24090541.6144   24090543.2764   24090541.4074
       220.000         173.000
 129691138.31048 101058019.41448  24679410.0764   24679412.3884   24679411.5544
       212.000         155.000
 124149347.00448  96739732.82748  23624848.6754   23624852.0064   23624849.1514
       225.000         175.000
 09  1 14  0 16 30.0000000  0 10G 8G26G15G 9G27G18G28G17G12G10
 130795404.05148 101918485.85848  24889546.2914   24889549.4284   24889546.9074
       215.000         164.000
 107365669.34048  83661540.95348  20431023.8884   20431026.4714   20431023.8324
       251.000         225.000
 107072995.68448  83433501.96748  20375313.3024   20375314.7724   20375313.0264
       253.000         239.000
 113915588.59848  88765382.41048  21677425.7024   21677428.9614   21677425.6494
       238.000         203.000
 126182262.79548  98323830.37448  24011692.5944   24011696.0484   24011693.1674
       224.000         171.000
 122429582.86348  95399671.81648  23297576.6334   23297578.7824   23297577.4374
       228.000         180.000
 119528538.54848  93139117.41048  22745527.1864   22745529.9874   22745527.7594
       236.000         195.000
 126535191.55848  98598848.09648  24078847.0894   24078849.1364   24078847.0314
       220.000         172.000
 129576799.17048 100968923.99148  24657654.0924   24657654.1444   24657654.5784
       216.000         160.000
 124258161.07648  96824522.99248  23645555.0664   23645559.0744   23645555.8894
       224.000         174.000
 09  1 14  0 17  0.0000000  0 10G 8G26G15G 9G27G18G28G17G12G10
 130886090.11248 101989150.29048  24906803.0134   24906806.5804   24906803.1084
       219.000         166.000
 107403667.28448  83691149.73148  20438254.6684   20438257.2984   20438254.6084
       251.000         225.000
 107058231.31048  83421997.25448  20372503.6814   20372505.1294   20372503.3814
       254.000         239.000
 113841630.56648  88707752.78748  21663352.3554   21663355.2184   21663352.2714
       238.000         203.000
 126252865.31948  98378845.32148  24025127.9274   24025131.3534   24025128.1354
       224.000         171.000
 122356645.61448  95342837.59248  23283697.3604   23283699.0914   23283698.2374
       229.000         181.000
 119596991.33948  93192457.25148  22758553.3794   22758556.1964   22758554.0014
       237.000         196.000
 126474039.28948  98551196.97948  24067210.3424   24067212.4254   24067209.9834
       215.000         169.000
 129462534.66448 100879886.72748  24635909.5834   24635910.8344   24635908.9874
       211.000         161.000
 124367084.51948  96909398.38348  23666282.4114   23666286.7474   23666282.7324
       223.000         173.000
 09  1 14  0 17 30.0000000  0 10G 8G26G15G 9G27G18G28G17G12G10
 130976770.32048 102059810.23148  24924058.9924   24924062.2114   24924059.3624
       215.000         164.000
 107442061.60048  83721067.36548  20445561.0184   20445563.3204   20445560.9004
       251.000         225.000
 107043853.84748  83410794.02948  20369767.7894   20369769.2154   20369767.5884
       253.000         240.000
 113767935.60548  88650328.16148  21649328.4534   21649331.3614   21649328.6514
       238.000         203.000
 126323482.57748  98433871.72848  24038566.1084   24038569.7844   24038566.5164
       222.000         172.000
 122284119.43748  95286323.69048  23269895.9874   23269897.8344   23269895.8754
       230.000         180.000
 119665794.98448  93246070.48648  22771646.0954   22771649.1844   22771646.6034
       237.000         195.000
 126413193.32248  98503784.57048  24055630.7664   24055633.5434   24055630.9524
       213.000         170.000
 129348348.19848 100790910.27048  24614179.7434   24614181.9284   24614178.2454
       212.000         158.000
 124476115.94648  96994357.92848  23687030.7144   23687034.4924   23687031.8544
       220.000         173.000
 09  1 14  0 18  0.0000000  0 10G 8G26G15G 9G27G18G28G17G12G10
 131067443.28848 102130464.46948  24941313.2814   24941316.7584   24941313.6754
       221.000         170.000
 107480851.42248  83751293.19448  20452942.2564   20452944.7984   20452942.0954
       251.000         224.000
 107029863.82148  83399892.71248  20367105.4924   20367107.0614   20367105.2414
       254.000         240.000
 113694503.42248  88593108.31248  21635354.6594   21635357.7184   21635354.5504
       237.000         203.000
 126394113.45748  98488908.77848  24052006.6694   24052010.1764   24052006.9704
       222.000         169.000
 122212005.95648  95230131.36648  23256173.2274   23256175.1094   23256174.1854
       227.000         179.000
 119734946.71448  93299954.96348  22784805.6454   22784808.2174   22784806.2734
       237.000         194.000
 126352655.58548  98456612.28948  24044111.4014   24044113.8994   24044110.4364
       216.000         171.000
 129234241.52948 100701995.97348  24592465.9694   24592467.6354   24592464.5954
       213.000         160.000
 124585251.96548  97079398.97148  23707798.1464   23707802.0744   23707798.8834
       220.000         169.000
 09  1 14  0 18 30.0000000  0 10G 8G26G15G 9G27G18G28G17G12G10
 131158107.73348 102201112.07648  24958566.4524   24958569.7584   24958567.2214
       222.000         173.000
 107520036.32348  83781826.87548  20460399.0264   20460401.6554   20460398.9384
       251.000         225.000
 107016261.82748  83389293.75148  20364517.2084   20364518.6814   20364517.1214
       253.000         240.000
 113621334.56748  88536093.63448  21621431.2644   21621434.0604   21621431.5054
       238.000         203.000
 126464757.54948  98543956.10648  24065450.0304   24065452.8114   24065449.7594
       223.000         169.000
 122140307.25948  95174262.26848  23242529.0664   23242531.1764   23242530.0664
       227.000         179.000
 119804444.41548  93354109.01648  22798030.8304   22798032.9924   22798031.5864
       238.000         195.000
 126292428.49348  98409682.10748  24032651.1344   24032652.7154   24032651.5194
       219.000         172.000
 129120216.54448 100613145.33348  24570767.9604   24570769.2554   24570767.6554
       216.000         161.000
 124694489.66248  97164519.23748  23728585.1644   23728589.6474   23728585.3604
       223.000         170.000
 09  1 14  0 19  0.0000000  0 10G 8G26G15G 9G27G18G28G17G12G10
 131248763.07948 102271752.61948  24975817.2614   24975821.0884   24975818.1714
       217.000         164.000
 107559616.02348  83812668.18648  20467930.8674   20467933.3634   20467930.8084
       251.000         224.000
 107003049.16248  83378998.16648  20362002.8884   20362004.3634   20362002.6484
       253.000         240.000
 113548429.09648  88479284.19148  21607557.8134   21607560.4884   21607557.8844
       237.000         204.000
 126535414.29248  98599013.30048  24078895.5364   24078898.5464   24078895.5974
       222.000         169.000
 122069025.71548  95118718.21048  23228964.7674   23228966.4494   23228965.5514
       228.000         179.000
 119874285.55648  93408530.68048  22811321.0084   22811322.9314   22811321.5104
       236.000         192.000
 126232514.58948  98362995.94448  24021250.3484   24021252.7284   24021250.1714
       219.000         175.000
 129006275.29748 100524359.95548  24549086.5374   24549088.0664   24549085.9784
       216.000         166.000
 124803826.20348  97249716.53948  23749392.0434   23749395.3794   23749392.7774
       223.000         169.000
 09  1 14  0 19 30.0000000  0 10G 8G26G15G 9G27G18G28G17G12G10
 131339408.84948 102342385.69948  24993066.6164   24993070.1694   24993066.9414
       213.000         153.000
 107599590.54948  83843817.15548  20475537.5344   20475540.1914   20475537.4614
       251.000         224.000
 106990226.90348  83369006.78948  20359562.9564   20359564.3904   20359562.7474
       254.000         240.000
 113475788.12448  88422680.86148  21593734.3694   21593737.5274   21593734.1734
       238.000         204.000
 126606083.30148  98654080.06548  24092343.5254   24092346.3214   24092344.0044
       221.000         169.000
 121998163.23048  95063500.69548  23215480.0684   23215482.0124   23215481.9214
       227.000         179.000
 119944467.91848  93463218.23748  22824675.7884   22824677.7354   22824675.7654
       236.000         192.000
 126172916.69748  98316556.04648  24009908.8174   24009911.0894   24009909.1124
       217.000         173.000
 128892419.91848 100435641.51248  24527420.0994   24527422.3304   24527419.3914
       220.000         168.000
 124913259.34748  97334989.10848  23770215.9604   23770219.7234   23770217.3334
       221.000         170.000
 09  1 14  0 20  0.0000000  0 10G 8G26G15G 9G27G18G28G17G12G10
 131430044.77448 102413011.05048  25010313.7934   25010317.7644   25010314.4924
       205.000         139.000
 107639960.02048  83875273.88148  20483219.9664   20483222.2644   20483219.8964
       251.000         225.000
 106977796.70248  83359320.91948  20357197.5884   20357199.1244   20357197.3004
       254.000         240.000
 113403412.84648  88366284.56248  21579961.8244   21579965.0334   21579962.0844
       237.000         205.000
 126676765.01548  98709156.71848  24105793.7134   24105797.1094   24105793.8494
       223.000         170.000
 121927722.66248  95008611.94548  23202075.4134   23202077.3384   23202076.7104
       228.000         179.000
 120014989.73948  93518170.31948  22838095.8674   22838097.3434   22838096.2204
       236.000         191.000
 126113638.21748  98270365.00848  23998628.6794   23998630.3364   23998628.5334
       218.000         172.000
 128778653.21148 100346992.13248  24505770.8284   24505773.2884   24505770.6464
       217.000         167.000
 125022786.68248  97420335.05448  23791058.5974   23791063.0164   23791059.3194
       226.000         171.000
 09  1 14  0 20 30.0000000  0 10G 8G26G15G 9G27G18G28G17G12G10
 141520701.02358  92483658.19958  25027561.9345   25027561.4405   25027561.2105
       194.000         125.000
 107680724.30648  83907038.25148  20490977.0394   20490979.5264   20490977.0564
       251.000         224.000
 106965759.62948  83349941.38148  20354907.0244   20354908.5614   20354906.7824
       254.000         240.000
 113331303.25548  88310095.28848  21566240.1274   21566242.7724   21566239.7824
       241.000         206.000
 126747458.90148  98764242.85048  24119246.1944   24119249.6944   24119246.2524
       219.000         167.000
 121857706.07048  94954053.57148  23188751.3224   23188753.5984   23188752.0284
       228.000         179.000
 120085848.53548  93573384.96648  22851579.8044   22851581.2734   22851580.5434
       234.000         191.000
 126054681.62348  98224424.78348  23987409.9564   23987411.6674   23987409.3264
       219.000         174.000
 128664977.32848 100258413.52448  24484138.7484   24484141.8314   24484138.7364
       217.000         168.000
 125132405.12348  97505752.02348  23811918.4954   23811922.5434   23811920.0454
       225.000         171.000
 09  1 14  0 21  0.0000000  0  9G26G15G 9G27G18G28G17G12G10
 107721883.46048  83939110.31048  20498809.2514   20498811.8744   20498809.1814
       251.000         224.000
 106954117.28148  83340869.41648  20352691.5224   20352692.9604   20352691.2844
       254.000         240.000
 113259460.54348  88254113.96948  21552569.0454   21552571.6684   21552569.1444
       239.000         206.000
 126818165.05748  98819338.55348  24132701.3074   24132704.6634   24132700.9194
       222.000         167.000
 121788116.12848  94899827.60548  23175509.4724   23175510.9874   23175509.7484
       226.000         179.000
 120157042.96648  93628861.14248  22865127.8264   22865129.1124   22865128.3324
       235.000         191.000
 125996049.72148  98178737.61948  23976252.0594   23976253.9054   23976252.3144
       221.000         173.000
 128551395.09848 100169907.90448  24462524.6324   24462527.9494   24462523.9764
       215.000         168.000
 125242112.78048  97591238.50748  23832795.0334   23832798.9564   23832795.4804
       221.000         168.000
 09  1 14  0 21 30.0000000  0  9G26G15G 9G27G18G28G17G12G10
 107763437.26248  83971489.89548  20506716.9274   20506719.3404   20506717.0484
       251.000         224.000
 106942870.54048  83332105.71648  20350551.4004   20350552.7114   20350551.1154
       254.000         240.000
 113187884.66548  88198340.60648  21538947.9224   21538951.4274   21538947.9984
       239.000         205.000
 126888882.97848  98874443.42348  24146158.2974   24146161.4964   24146158.3674
       220.000         165.000
 121718954.89248  94845935.75248  23162348.2104   23162350.3974   23162347.9534
       228.000         180.000
 120228569.94048  93684596.45148  22878738.9844   22878740.5274   22878739.4514
       234.000         189.000
 125937745.11448  98133305.43348  23965157.8104   23965158.7284   23965157.6954
       218.000         173.000
 128437908.39848 100081476.71148  24440928.6434   24440931.4664   24440928.2574
       215.000         166.000
 125351906.92548  97676792.36548  23853688.1764   23853692.1834   23853689.1694
       224.000         171.000
 09  1 14  0 22  0.0000000  0  9G26G15G 9G27G18G28G17G12G10
 107805385.63048  84004176.92048  20514699.1084   20514701.7904   20514698.8584
       251.000         224.000
 106932020.58048  83323651.19448  20348486.7594   20348487.9884   20348486.6104
       254.000         240.000
 113116576.52048  88142775.83148  21525378.4684   21525381.8484   21525378.0454
       239.000         206.000
 126959612.68848  98929557.47748  24159617.5054   24159621.3584   24159617.5754
       216.000         165.000
 121650224.95448  94792379.94748  23149269.9164   23149271.6094   23149271.0644
       229.000         181.000
 120300427.94048  93740589.69548  22892412.7354   22892414.5974   22892413.1044
       232.000         188.000
 125879771.08448  98088130.87348  23954124.8424   23954126.9454   23954124.7734
       220.000         173.000
 128324519.62248  99993121.83648  24419350.7814   24419353.5324   24419350.8674
       218.000         164.000
 125461785.09048  97762411.70248  23874597.2664   23874601.5694   23874598.6214
       221.000         169.000
 09  1 14  0 22 30.0000000  0  9G26G15G 9G27G18G28G17G12G10
 107847727.77648  84037170.80548  20522756.8974   20522759.1684   20522756.9554
       251.000         224.000
 106921568.16848  83315506.45448  20346497.6094   20346498.9854   20346497.3414
       254.000         240.000
 113045536.25748  88087419.78848  21511860.4664   21511863.3204   21511860.6694
       239.000         207.000
 127030353.25448  98984680.00548  24173078.9554   24173082.6864   24173079.1404
       216.000         165.000
 121581927.96248  94739161.50848  23136273.0384   23136275.1784   23136274.2994
       226.000         178.000
 120372613.84048  93796838.45148  22906149.0654   22906151.1714   22906149.1654
       232.000         189.000
 125822129.33148  98043215.21648  23943156.0124   23943157.7054   23943155.8884
       220.000         174.000
 128211230.49648  99904844.60148  24397792.9014   24397794.9684   24397793.3064
       215.000         165.000
 125571743.36848  97848093.45948  23895521.7704   23895525.7914   23895522.4004
       221.000         171.000
 09  1 14  0 23  0.0000000  0  9G26G15G 9G27G18G28G17G12G10
 107890463.46348  84070471.32248  20530888.7694   20530891.5214   20530888.3784
       251.000         224.000
 106911514.52448  83307672.43948  20344584.3804   20344585.8784   20344584.0964
       254.000         240.000
 112974764.29248  88032272.83948  21498392.5714   21498396.0894   21498392.4534
       239.000         207.000
 127101104.39948  99039810.75548  24186542.9544   24186546.1754   24186543.1504
       219.000         164.000
 121514065.72048  94686281.83248  23123359.2554   23123361.4584   23123360.1384
       228.000         180.000
 120445125.78748  93853341.25748  22919947.7944   22919949.7044   22919948.1554
       233.000         188.000
 125764822.25248  97998560.35248  23932251.2124   23932252.3204   23932251.4964
       219.000         173.000
 128098043.20548  99816646.69448  24376254.1194   24376255.8534   24376253.7184
       218.000         163.000
 125681779.95848  97933836.22848  23916461.5054   23916464.5964   23916462.3984
       223.000         169.000
 09  1 14  0 23 30.0000000  0  9G26G15G 9G27G18G28G17G12G10
 107933592.87948  84104078.66048  20539096.4044   20539098.8314   20539096.4414
       250.000         224.000
 106901860.82448  83300150.06948  20342747.4484   20342748.8554   20342747.1014
       254.000         241.000
 112904261.38348  87977335.53048  21484976.6594   21484979.5894   21484976.8604
       241.000         207.000
 127171866.25948  99094949.85048  24200008.2404   24200011.4774   24200008.3454
       220.000         164.000
 121446641.02148  94633743.12748  23110528.4374   23110530.8984   23110529.8634
       226.000         178.000
 120517961.51348  93910096.36848  22933807.8024   22933809.8064   22933808.4354
       232.000         189.000
 125707853.23648  97954168.92148  23921410.2394   23921411.9524   23921410.1774
       220.000         174.000
 127984960.58048  99728530.37848  24354735.6354   24354737.3874   24354736.5374
       217.000         163.000
 125791892.36348  98019638.07148  23937414.9704   23937418.6104   23937415.9504
       219.000         165.000
 09  1 14  0 24  0.0000000  0  9G26G15G 9G27G18G28G17G12G10
 107977115.73048  84137992.55848  20547378.3734   20547381.0974   20547377.8964
       252.000         224.000
 106892608.19248  83292940.22048  20340986.8034   20340988.2394   20340986.8274
       253.000         241.000
 112834028.45948  87922608.60248  21471611.6764   21471614.6314   21471611.6994
       242.000         207.000
 127242638.54748  99150097.08748  24213475.5624   24213478.8834   24213476.0094
       217.000         161.000
 121379655.78148  94581546.85848  23097781.4454   23097783.7134   23097781.8724
       227.000         179.000
 120591118.86448  93967102.09448  22947729.5414   22947731.0184   22947730.2854
       234.000         188.000
 125651225.15048  97910043.13548  23910633.9584   23910635.6734   23910633.3764
       220.000         174.000
 127871984.77148  99640497.29348  24333237.8534   24333239.0644   24333237.3234
       221.000         166.000
 125902077.73848  98105496.83248  23958382.8304   23958385.6494   23958383.5764
       223.000         167.000
 09  1 14  0 24 30.0000000  0  9G26G15G 9G27G18G28G17G12G10
 108021032.11048  84172213.11348  20555735.4444   20555738.0434   20555735.5994
       251.000         224.000
 106883758.15448  83286044.07948  20339302.7164   20339304.2014   20339302.1964
       254.000         241.000
 112764066.29048  87868092.65848  21458298.4194   21458301.1124   21458298.6764
       241.000         207.000
 127313421.50648  99205252.64948  24226945.5984   24226948.7214   24226946.3004
       218.000         163.000
 121313112.69348  94529695.09248  23085119.2884   23085121.1064   23085119.9644
       228.000         181.000
 120664595.80348  94024356.84048  22961711.5634   22961713.3704   22961712.3884
       233.000         188.000
 125594940.70448  97866185.15148  23899923.5664   23899925.7664   23899923.2794
       220.000         177.000
 127759118.14048  99552549.26448  24311760.0954   24311761.5224   24311759.5634
       218.000         165.000
 126012334.04448  98191410.82148  23979363.4634   23979367.0414   23979364.0294
       221.000         168.000
 09  1 14  0 25  0.0000000  0  9G26G15G 9G27G18G28G17G12G10
 108065341.54348  84206739.92848  20564167.3104   20564169.8604   20564166.9264
       252.000         224.000
 106875311.39148  83279462.18948  20337695.1614   20337696.7934   20337695.2404
       253.000         241.000
 112694374.46848  87813787.36648  21445036.3234   21445039.5184   21445036.0754
       241.000         207.000
 127384214.57748  99260416.07848  24240416.9544   24240420.5474   24240417.1964
       218.000         163.000
 121247013.51348  94478189.25148  23072540.9404   23072543.1784   23072541.5284
       229.000         182.000
 120738390.49748  94081859.20348  22975754.3924   22975755.9974   22975754.5424
       232.000         187.000
 125539002.02048  97822596.56648  23889278.7544   23889280.4144   23889278.8024
       219.000         174.000
 127646362.85748  99464688.01148  24290303.0704   24290304.5254   24290303.4644
       220.000         166.000
 126122658.28848  98277377.74348  24000357.6574   24000361.4184   24000358.5774
       219.000         167.000
 09  1 14  0 25 30.0000000  0  9G26G15G 9G27G18G28G17G12G10
 108110043.91048  84241572.93348  20572673.8374   20572676.4864   20572673.8144
       251.000         224.000
 106867269.45948  83273195.74148  20336164.8884   20336166.4244   20336164.3734
       254.000         241.000
 112624954.22248  87759693.69348  21431826.2354   21431829.3034   21431826.4354
       242.000         208.000
 127455017.66348  99315587.28648  24253890.8954   24253893.7144   24253890.4944
       218.000         163.000
 121181360.42848  94427030.99448  23060047.7704   23060049.5514   23060047.8804
       228.000         181.000
 120812499.80148  94139606.71048  22989856.9244   22989858.6104   22989857.3144
       230.000         187.000
 125483411.93848  97779279.61348  23878700.4814   23878702.4554   23878699.8584
       218.000         174.000
 127533721.01148  99376915.13248  24268867.8484   24268869.8564   24268869.2574
       220.000         166.000
 126233047.71848  98363395.44348  24021364.1634   24021368.9784   24021365.2114
       221.000         169.000
 09  1 14  0 26  0.0000000  0  9G26G15G 9G27G18G28G17G12G10
 108155138.95948  84276711.92848  20581255.3864   20581257.5554   20581255.3324
       252.000         224.000
 106859633.25748  83267245.45248  20334711.7184   20334713.3414   20334711.5124
       254.000         241.000
 112555806.25948  87705812.18848  21418667.6234   21418670.7484   21418668.2004
       242.000         208.000
 127525830.52248  99370766.14548  24267365.6404   24267368.8494   24267366.0914
       217.000         163.000
 121116156.00448  94376222.35048  23047639.9054   23047641.8204   23047640.0584
       228.000         181.000
 120886922.07748  94197598.08948  23004018.9534   23004020.9574   23004018.7024
       231.000         187.000
 125428173.34548  97736236.53748  23868188.3944   23868190.4154   23868188.3844
       222.000         178.000
 127421195.30948  99289232.79048  24247454.4544   24247457.6284   24247455.4374
       213.000         165.000
 126343500.12448  98449462.25148  24042382.4824   24042385.8904   24042383.0414
       220.000         164.000
 09  1 14  0 26 30.0000000  0  9G26G15G 9G27G18G28G17G12G10
 108200627.10548  84312157.23248  20589911.3644   20589913.7404   20589911.4654
       251.000         224.000
 106852404.25248  83261612.46548  20333336.1384   20333337.6714   20333335.8334
       254.000         241.000
 112486931.34648  87652143.43048  21405561.4134   21405564.0914   21405561.4784
       242.000         208.000
 127596653.48148  99425952.84848  24280842.4724   24280845.8044   24280842.1344
       213.000         159.000
 121051402.72748  94325765.26548  23035317.6534   23035318.9884   23035318.5914
       228.000         181.000
 120961655.56948  94255831.97548  23018240.2114   23018242.1314   23018240.2864
       231.000         186.000
 125373289.25148  97693469.72548  23857744.4504   23857746.8214   23857744.3404
       222.000         177.000
 127308788.59048  99201643.15848  24226064.3644   24226067.5804   24226062.9684
       218.000         169.000
 126454013.20148  98535576.32048  24063411.8404   24063415.6594   24063412.8014
       219.000         166.000
 09  1 14  0 27  0.0000000  0  9G26G15G 9G27G18G28G17G12G10
 108246507.62948  84347908.27948  20598642.1834   20598644.6014   20598642.1134
       251.000         224.000
 106845583.43648  83256297.53948  20332038.2144   20332039.6564   20332038.0674
       254.000         241.000
 112418330.08748  87598687.92148  21392506.6814   21392509.9334   21392507.1744
       242.000         208.000
 127667486.13348  99481147.12748  24294321.4304   24294324.5374   24294321.1394
       214.000         158.000
 120987102.28248  94275661.03948  23023081.2944   23023083.4684   23023082.1234
       230.000         181.000
 121036697.78548  94314306.42548  23032520.4594   23032522.0944   23032520.7154
       230.000         186.000
 125318761.97348  97650980.93548  23847368.5314   23847370.9504   23847368.2634
       223.000         178.000
 127196502.42248  99114147.44948  24204697.6354   24204699.5114   24204696.8024
       217.000         168.000
 126564584.05548  98621735.40548  24084453.6014   24084457.1324   24084454.3014
       222.000         167.000
 09  1 14  0 27 30.0000000  0  9G26G15G 9G27G18G28G17G12G10
 108292779.30648  84383964.12448  20607447.3614   20607449.7174   20607447.2594
       251.000         224.000
 106839170.90748  83251300.75948  20330817.9954   20330819.4154   20330817.6784
       254.000         240.000
 112350001.85048  87545445.15148  21379504.2144   21379507.3324   21379504.2894
       241.000         208.000
 127738327.30148  99536348.04948  24307801.9804   24307805.1644   24307802.9404
       216.000         158.000
 120923255.77548  94225910.52348  23010931.5444   23010933.9094   23010932.6114
       231.000         182.000
 121112045.51448  94373018.95248  23046858.4634   23046859.8334   23046859.1514
       231.000         184.000
 125264593.28448  97608771.55848  23837060.6544   23837062.6384   23837060.8594
       219.000         176.000
 127084338.01148  99026746.62648  24183352.6204   24183354.6874   24183352.4744
       217.000         162.000
 126675209.37948  98707936.98248  24105505.1584   24105507.8844   24105506.3104
       219.000         162.000
 09  1 14  0 28  0.0000000  0  9G26G15G 9G27G18G28G17G12G10
 108339442.90248  84420325.35348  20616327.2604   20616329.7144   20616327.1654
       252.000         224.000
 106833168.71248  83246623.72048  20329675.8814   20329677.2154   20329675.7744
       254.000         240.000
 112281948.17948  87492416.32648  21366554.2104   21366557.1594   21366554.5464
       242.000         208.000
 127809177.65348  99591556.10848  24321284.7074   24321288.1104   24321285.3264
       216.000         160.000
 120859866.59348  94176516.37848  22998869.3504   22998871.5894   22998869.8324
       230.000         183.000
 121187697.59548  94431968.63148  23061254.5204   23061256.2274   23061255.1284
       231.000         185.000
 125210786.48548  97566844.18348  23826821.4664   23826823.4204   23826820.4064
       220.000         175.000
 126972299.04048  98939443.53448  24162032.5524   24162033.7334   24162032.5654
       222.000         166.000
 126785887.50948  98794179.65548  24126565.1674   24126568.9904   24126566.0404
       219.000         164.000
 09  1 14  0 28 30.0000000  0  9G26G15G 9G27G18G28G17G12G10
 108386497.73548  84456991.45448  20625281.3554   20625283.9594   20625281.2854
       251.000         224.000
 106827577.56348  83242266.97248  20328611.8324   20328613.1894   20328611.5444
       255.000         240.000
 112214169.08048  87439601.45148  21353656.1944   21353659.1734   21353656.7324
       242.000         208.000
 127880036.41248  99646770.72948  24334768.8234   24334772.3554   24334768.5864
       214.000         160.000
 120796936.15148  94127479.67448  22986894.3014   22986895.9264   22986895.3674
       229.000         184.000
 121263651.08148  94491153.15848  23075707.8314   23075709.6874   23075708.0844
       230.000         184.000
 125157343.87848  97525200.60448  23816651.0874   23816653.2854   23816651.3364
       221.000         175.000
 126860387.39548  98852239.63148  24140737.6724   24140737.9474   24140738.7554
       222.000         170.000
 126896615.57148  98880461.24348  24147637.2584   24147640.8524   24147638.1364
       219.000         165.000
 09  1 14  0 29  0.0000000  0  9G26G15G 9G27G18G28G17G12G10
 108433943.26348  84493961.98948  20634309.9974   20634312.4224   20634309.8774
       251.000         224.000
 106822398.28448  83238231.16848  20327626.2814   20327627.5994   20327626.2014
       254.000         241.000
 112146665.15448  87387001.00548  21340810.6884   21340813.5924   21340810.9314
       242.000         209.000
 127950903.50148  99701991.84048  24348254.5884   24348257.5964   24348254.6554
       215.000         158.000
 120734466.63548  94078802.12848  22975006.8864   22975008.6614   22975007.6774
       231.000         183.000
 121339903.67948  94550570.76848  23090218.5524   23090219.9534   23090219.5184
       230.000         184.000
 125104267.96948  97483842.74048  23806551.3544   23806553.4254   23806551.5084
       220.000         174.000
 126748605.02348  98765136.50848  24119465.8114   24119466.7024   24119465.7174
       218.000         168.000
 127007390.43848  98966779.30148  24168716.3554   24168720.4624   24168717.7244
       215.000         163.000
 09  1 14  0 29 30.0000000  0  9G26G15G 9G27G18G28G17G12G10
 108481779.98348  84531237.34648  20643412.9804   20643415.4424   20643412.8674
       251.000         224.000
 106817632.44148  83234517.52348  20326719.4994   20326720.7404   20326719.2224
       254.000         241.000
 112079437.52648  87334615.85448  21328017.3984   21328020.5694   21328017.6934
       242.000         209.000
 128021779.45248  99757219.83248  24361741.4334   24361744.5484   24361741.9474
       215.000         158.000
 120672460.36048  94030485.57648  22963207.4704   22963209.6574   22963208.8304
       232.000         185.000
 121416453.78048  94610220.19948  23104785.3524   23104787.0104   23104786.1374
       229.000         183.000
 125051561.82348  97442773.01448  23796522.2014   23796523.9804   23796521.8084
       220.000         176.000
 126636954.67048  98678136.23248  24098219.0014   24098220.8504   24098218.3624
       219.000         170.000
 127118210.47348  99053132.54148  24189804.1384   24189808.5704   24189804.8084
       217.000         164.000
 09  1 14  0 30  0.0000000  0  9G26G15G 9G27G18G28G17G12G10
 108530007.06948  84568816.88448  20652590.1334   20652592.7234   20652589.9824
       251.000         224.000
 106813280.82948  83231126.64948  20325891.4524   20325892.7704   20325891.2764
       255.000         241.000
 112012486.17648  87282445.97748  21315277.2844   21315280.2774   21315277.0504
       243.000         209.000
 128092663.73748  99812454.31248  24375230.2314   24375233.3224   24375230.5554
       214.000         157.000
 120610919.29448  93982531.50648  22951496.3194   22951498.2804   22951498.2604
       231.000         182.000
 121493299.12848  94670099.68848  23119408.4654   23119410.2054   23119409.0014
       230.000         184.000
 124999227.85948  97401993.32548  23786562.5724   23786565.3624   23786563.0654
       221.000         178.000
 126525438.63848  98591240.66148  24076997.7474   24077000.0694   24076998.4664
       218.000         170.000
 127229072.55848  99139518.54948  24210901.7204   24210905.1704   24210902.2614
       221.000         166.000
 09  1 14  0 30 30.0000000  0  9G26G15G 9G27G18G28G17G12G10
 108578624.27848  84606700.41548  20661841.8924   20661844.3744   20661841.7944
       251.000         224.000
 106809344.47448  83228059.35848  20325142.2894   20325143.6654   20325142.0464
       255.000         241.000
 111945812.15848  87230492.20648  21302589.5064   21302592.2144   21302589.3914
       242.000         208.000
 128163556.42248  99867695.36048  24388720.1514   24388724.2534   24388720.6154
       208.000         155.000
 120549845.50548  93934941.54348  22939874.5654   22939876.2554   22939876.0884
       232.000         184.000
 121570437.27548  94730207.32448  23134087.8204   23134089.2784   23134088.6334
       230.000         184.000
 124947268.49748  97361505.50048  23776675.7344   23776677.8134   23776675.5504
       222.000         178.000
 126414058.71948  98504451.14648  24055802.4984   24055805.3184   24055803.2704
       223.000         171.000
 127339974.63648  99225935.75248  24232005.0524   24232008.8124   24232006.2444
       219.000         162.000
 09  1 14  0 31  0.0000000  0  9G26G15G 9G27G18G28G17G12G10
 108627631.48948  84644887.85448  20671167.7334   20671170.1364   20671167.7304
       251.000         224.000
 106805824.49348  83225316.50748  20324472.5914   20324473.8224   20324472.4884
       255.000         241.000
 111879415.83248  87178754.81448  21289954.7524   21289957.4144   21289954.2504
       242.000         209.000
 128234457.42548  99922942.89148  24402212.6584   24402215.5344   24402212.9424
       210.000         156.000
 120489241.06048  93887717.30948  22928341.2124   22928343.4714   22928342.3804
       229.000         184.000
 121647865.91048  94790541.32648  23148821.7784   23148823.5284   23148822.7104
       229.000         185.000
 124895686.33448  97321311.61448  23766859.5734   23766861.8484   23766859.9304
       223.000         180.000
 126302817.53148  98417769.68448  24034634.7224   24034636.1884   24034634.8784
       220.000         170.000
 127450913.75048  99312381.82748  24253115.6094   24253118.9174   24253115.8734
       217.000         158.000
 09  1 14  0 31 30.0000000  0  9G26G15G 9G27G18G28G17G12G10
 118677071.63958  74683422.14258  20680567.3425   20680570.1355   20680567.4345
       250.000         224.000
 116802697.21758  73222875.14758  20323882.0795   20323883.5415   20323881.6905
       254.000         241.000
 121813306.21958  77127240.61358  21277372.9705   21277375.6815   21277373.6305
       242.000         209.000
 128305366.88248  99978197.00548  24415706.8414   24415709.7764   24415707.2164
       209.000         157.000
 120429108.39148  93840860.69248  22916898.8574   22916900.9114   22916899.0414
       232.000         183.000
 121725583.41748  94851100.42048  23163611.0744   23163612.3774   23163611.1594
       228.000         182.000
 124844484.27148  97281413.90848  23757116.3174   23757118.1274   23757115.8994
       225.000         180.000
 126191717.56848  98331198.30148  24013493.1904   24013494.9394   24013492.8404
       219.000         170.000
 127561887.48548  99398854.85248  24274233.7284   24274237.1934   24274234.2964
       218.000         161.000
 09  1 14  0 32  0.0000000  0  9G26G15G 9G27G18G28G17G12G10
  98726859.43358  94722218.25258  20690041.4865   20690044.0345   20690041.2395
       251.000         224.000
 116800012.71348  73220783.32548  20323371.1564   20323372.7504   20323370.8164
       254.000         241.000
 121747466.72648  77075937.11248  21264844.3044   21264846.6784   21264845.1574
       241.000         208.000
 128376283.57948 100033456.76148  24429201.4784   24429204.5134   24429200.8704
       211.000         157.000
 120369448.43448  93794372.41248  22905546.1624   22905547.7204   22905547.0544
       230.000         184.000
 121803586.37148  94911881.94348  23178454.5054   23178455.9034   23178454.2974
       229.000         183.000
 124793663.35148  97241813.21748  23747445.3614   23747447.3914   23747445.4564
       223.000         179.000
 126080760.17448  98244738.02548  23992378.3664   23992380.6904   23992377.5204
       219.000         170.000
 137672899.24458  89485360.07758  24295357.2325   24295361.0615   24295358.3695
       220.000         161.000
 09  1 14  0 32 30.0000000  0  9G26G15G 9G27G18G28G17G12G10
  98777034.30348  94761315.55448  20699589.4064   20699591.9424   20699589.2524
       250.000         223.000
 116797748.03548  73219018.64048  20322940.1104   20322941.7214   20322939.8914
       254.000         241.000
 121681906.82148  77024851.48948  21252368.4664   21252371.0554   21252368.6314
       242.000         209.000
 128447208.29548 100088722.76448  24442698.3564   24442700.8144   24442698.5894
       210.000         157.000
 120310264.50548  93748255.06048  22894283.9534   22894285.4714   22894284.0594
       233.000         185.000
 121881873.47148  94972884.86748  23193351.8264   23193353.1844   23193352.3474
       229.000         182.000
 124743227.78048  97202512.76648  23737847.9834   23737849.6644   23737847.5864
       224.000         180.000
 125969948.78448  98158391.49948  23971291.6754   23971293.9934   23971291.3344
       219.000         171.000
 137783934.44548  89571880.97048  24316485.6844   24316490.4644   24316486.5004
       217.000         161.000
 09  1 14  0 33  0.0000000  0  9G26G15G 9G27G18G28G17G12G10
  98827597.58648  94800715.51448  20709211.2774   20709213.8444   20709211.1404
       250.000         223.000
 116795903.60948  73217581.42148  20322589.2124   20322590.7334   20322589.0284
       254.000         241.000
 121616626.40148  76973983.64048  21239946.1494   21239948.7624   21239946.9254
       242.000         210.000
 128518140.39748 100143994.53548  24456195.3104   24456199.4474   24456195.2084
       211.000         157.000
 120251557.56948  93702509.40448  22883112.0834   22883113.8674   22883113.3544
       232.000         185.000
 121960442.35648  95034107.37748  23208303.3664   23208304.4814   23208304.4374
       229.000         181.000
 124693179.16148  97163513.82948  23728323.8314   23728326.4594   23728323.4144
       225.000         180.000
 125859284.69648  98072159.75148  23950232.9334   23950234.9094   23950232.7694
       223.000         172.000
 137894996.61948  89658422.90448  24337620.5954   24337624.9374   24337621.4724
       219.000         162.000
 09  1 14  0 33 30.0000000  0  9G26G15G 9G27G18G28G17G12G10
  98878548.80148  94840417.74648  20718907.0624   20718909.4774   20718906.9034
       250.000         223.000
 116794480.47448  73216472.48348  20322318.3424   20322319.9724   20322318.0834
       254.000         241.000
 121551626.33448  76923334.24348  21227576.6964   21227579.6564   21227576.8804
       242.000         209.000
 128589079.86548 100199272.00648  24469695.5134   24469698.6834   24469695.6804
       210.000         157.000
 120193329.56048  93657136.93848  22872031.8634   22872033.2444   22872032.2054
       233.000         185.000
 122039290.46548  95095547.45748  23223307.3734   23223309.0434   23223307.9394
       227.000         180.000
 124643520.05748  97124818.44848  23718874.2644   23718876.1744   23718874.1364
       223.000         179.000
 125748770.58048  97986044.86948  23929202.7434   23929204.4624   23929202.5754
       222.000         173.000
 138006082.82248  89744983.54948  24358759.4674   24358764.1294   24358761.1264
       218.000         159.000
 09  1 14  0 34  0.0000000  0  9G26G15G 9G27G18G28G17G12G10
  98929888.14148  94880422.42648  20728676.5534   20728679.1004   20728676.3814
       251.000         223.000
 116793479.99848  73215692.89048  20322127.9864   20322129.5334   20322127.6394
       255.000         241.000
 121486907.31748  76872903.84248  21215261.3944   21215263.9584   21215261.9554
       243.000         211.000
 128660027.03148 100254555.49848  24483195.6264   24483199.2864   24483195.3134
       205.000         157.000
 120135583.25048  93612139.82148  22861042.5524   22861044.3934   22861043.0914
       230.000         184.000
 122118415.64048  95157203.43548  23238364.3094   23238365.8374   23238365.5394
       228.000         180.000
 124594253.35948  97086428.79848  23709498.7974   23709500.8634   23709498.4514
       223.000         178.000
 125638408.93348  97900048.78548  23908201.5094   23908202.9014   23908201.0544
       223.000         172.000
 138117191.11448  89831561.42348  24379902.8374   24379906.8834   24379903.3804
       216.000         155.000
 09  1 14  0 34 30.0000000  0  9G26G15G 9G27G18G28G17G12G10
  98981614.63948  94920728.77848  20738519.8114   20738522.4264   20738519.7014
       251.000         223.000
 116792902.53548  73215242.91748  20322018.1984   20322019.6034   20322018.0024
       255.000         241.000
 121422469.77848  76822692.78548  21202999.3544   21203002.1824   21202999.8764
       243.000         210.000
 128730981.35648 100309844.58548  24496697.9334   24496701.9004   24496698.1594
       208.000         156.000
 120078320.00248  93567519.11348  22850145.8344   22850147.8164   22850146.0264
       231.000         185.000
 122197815.61948  95219073.54848  23253473.4484   23253475.3634   23253474.1704
       226.000         180.000
 124545381.25748  97048346.63448  23700199.1904   23700200.8134   23700199.2614
       225.000         179.000
 125528201.50048  97814172.88248  23887229.6224   23887231.9014   23887230.1324
       224.000         175.000
 138228318.69348  89918154.36948  24401049.9014   24401053.1784   24401051.1704
       214.000         154.000
 09  1 14  0 35  0.0000000  0  9G26G15G 9G27G18G28G17G12G10
  99033728.24048  94961336.77048  20748436.7774   20748439.2024   20748436.8444
       250.000         223.000
 116792749.19348  73215123.42248  20321989.0694   20321990.3534   20321988.8784
       254.000         241.000
 121358314.27648  76772701.49348  21190790.8104   21190793.5604   21190790.9094
       242.000         210.000
 128801942.73848 100365139.16148  24510201.4834   24510205.4724   24510201.7084
       209.000         157.000
 120021541.97948  93523276.47948  22839341.2524   22839342.9454   22839341.7784
       230.000         183.000
 122277488.35248  95281156.18748  23268634.7644   23268636.8644   23268634.6294
       226.000         180.000
 124496906.06048  97010573.76648  23690974.5564   23690976.3994   23690974.8034
       222.000         179.000
 125418150.80548  97728419.13148  23866288.0664   23866290.5734   23866288.4574
       220.000         175.000
 138339462.97848  90004760.27348  24422199.4184   24422204.2984   24422199.2774
       212.000         157.000
 09  1 14  0 35 30.0000000  0  9G26G15G 9G27G18G28G17G12G10
 119086232.57458  75002250.11358  20758427.3385   20758429.7515   20758426.7145
       250.000         223.000
  96793022.26758  93215336.43458  20322040.7765   20322042.1725   20322040.6805
       255.000         241.000
 101294434.40758  96722923.44158  21178636.1905   21178639.2505   21178636.6945
       242.000         211.000
 128872911.37248 100420439.36048  24523706.6794   24523710.1114   24523707.5644
       211.000         158.000
 119965250.99648  93479413.38948  22828629.3854   22828631.4954   22828629.8314
       230.000         183.000
 122357431.59848  95343449.63648  23283847.6464   23283849.5144   23283848.6214
       227.000         179.000
 134448806.50958  86973088.29558  23681826.4895   23681828.3125   23681826.3485
       225.000         181.000
 125308259.23848  97642789.39048  23845376.3944   23845379.3204   23845375.5294
       221.000         175.000
 138450621.71948  90091377.43548  24443353.0734   24443356.7714   24443352.7514
       216.000         162.000
 09  1 14  0 36  0.0000000  0  9G26G15G 9G27G18G28G17G12G10
  99139117.64458  95043459.03058  20768491.0385   20768493.7765   20768490.7225
       250.000         223.000
 116793719.85658  73215879.00358  20322173.6545   20322174.9245   20322173.3585
       255.000         241.000
 121230839.06458  76673367.53558  21166535.0725   21166538.2455   21166535.3595
       243.000         210.000
 128943886.47548 100475744.65348  24537212.2064   24537215.8614   24537213.0684
       209.000         158.000
 119909448.30848  93435930.77248  22818010.3784   22818012.0574   22818011.2044
       229.000         183.000
 122437642.57948  95405951.68748  23299111.2124   23299113.0434   23299111.5774
       225.000         179.000
 134401132.14248  86935939.42948  23672753.9374   23672756.2574   23672753.9454
       225.000         180.000
 125198528.17448  97557284.66648  23824495.1144   23824497.7554   23824494.7724
       221.000         175.000
 138561791.78948  90178003.44848  24464508.7044   24464511.1174   24464509.2424
       217.000         158.000
 09  1 14  0 36 30.0000000  0  9G26G15G 9G27G18G28G17G12G10
  99192389.32548  95084969.42848  20778628.3194   20778631.0364   20778628.3284
       251.000         223.000
 116794844.59548  73216755.42248  20322387.5784   20322388.9594   20322387.3934
       254.000         241.000
 121167532.30348  76624037.59348  21154488.5164   21154491.2264   21154488.4544
       243.000         211.000
 129014868.71648 100531055.48248  24550719.9004   24550723.1144   24550720.9404
       205.000         156.000
 119854136.45048  93392830.60248  22807485.1924   22807487.0284   22807485.4744
       230.000         184.000
 122518119.63148  95468661.07348  23314425.7494   23314427.0704   23314425.6994
       226.000         180.000
 134353862.03048  86899105.58248  23663758.6394   23663760.6574   23663758.5054
       225.000         180.000
 125088961.01648  97471907.69048  23803644.7454   23803647.7494   23803644.1704
       223.000         177.000
 138672971.14848  90264636.72448  24485664.7384   24485667.6994   24485667.0534
       212.000         153.000
 09  1 14  0 37  0.0000000  0  9G26G15G 9G27G18G28G17G12G10
  99246046.08648  95126779.88448  20788839.0244   20788841.4484   20788839.0744
       250.000         223.000
 116796397.08048  73217965.14748  20322682.9584   20322684.4424   20322682.6394
       255.000         241.000
 121104509.15648  76574928.65848  21142495.8534   21142498.2574   21142495.7874
       243.000         211.000
 129085857.31248 100586371.27248  24564228.6534   24564232.7364   24564228.7164
       209.000         157.000
 119799316.92248  93350114.09148  22797053.4044   22797055.3554   22797054.5424
       230.000         184.000
 122598860.04148  95531575.67048  23329790.2334   23329791.2904   23329790.3644
       227.000         179.000
 134306998.42648  86862588.49848  23654841.2084   23654842.0124   23654841.4204
       226.000         179.000
 124979558.79848  97386659.23348  23782826.4334   23782828.5574   23782826.3064
       223.000         176.000
 138784156.98548  90351275.00248  24506821.6524   24506827.0884   24506822.4674
       210.000         153.000
 09  1 14  0 37 30.0000000  0  9G26G15G 9G27G18G28G17G12G10
  99300087.76848  95168890.27848  20799122.6844   20799125.3224   20799122.5684
       249.000         223.000
 116798378.45548  73219509.07348  20323060.0824   20323061.4224   20323059.9314
       254.000         241.000
 121041770.74048  76526041.58648  21130556.7814   21130559.6604   21130557.1084
       244.000         212.000
 129156852.75248 100641692.37448  24577738.7444   24577742.5064   24577738.8964
       212.000         160.000
 119744992.16248  93307783.08848  22786715.9904   22786717.3794   22786715.7694
       233.000         187.000
 122679861.85848  95594693.95748  23345204.2344   23345205.4594   23345205.0764
       227.000         179.000
 134260543.93048  86826390.17048  23646000.9374   23646002.7894   23646001.1344
       225.000         180.000
 124870324.61548  97301541.73448  23762039.6204   23762041.8564   23762039.1374
       222.000         176.000
 138895347.41048  90437916.85148  24527980.9544   24527986.5044   24527981.5614
       213.000         156.000
 09  1 14  0 38  0.0000000  0  9G26G15G 9G27G18G28G17G12G10
  99354513.57848  95211299.98748  20809479.6054   20809482.2424   20809479.3964
       249.000         223.000
 116800789.46048  73221387.77948  20323518.7164   20323520.2404   20323518.4424
       254.000         241.000
 120979317.50148  76477376.73548  21118672.3824   21118675.2514   21118672.6574
       243.000         212.000
 129227854.56748 100697018.48648  24591250.3354   24591253.2874   24591250.4634
       210.000         161.000
 119691163.60448  93265838.74548  22776472.9754   22776474.6504   22776473.2084
       231.000         187.000
 122761122.65848  95658014.05848  23360667.4634   23360668.9814   23360667.6034
       227.000         179.000
 134214500.40648  86790512.11048  23637239.0884   23637241.1154   23637239.0094
       226.000         180.000
 124761260.15948  97216556.49448  23741285.3904   23741287.5994   23741285.3834
       223.000         177.000
 139006539.30448  90524559.87848  24549140.2704   24549144.9114   24549141.4324
       211.000         151.000
 09  1 14  0 38 30.0000000  0 10G 5G26G15G 9G27G18G28G17G12G10
 141253780.85258  92275659.90558  24976774.0255   24976777.6405   24976775.1925
       215.000         156.000
  99409323.24948  95254008.80848  20819909.6674   20819912.1284   20819909.5924
       250.000         222.000
 116803630.84548  73223601.84148  20324059.5524   20324061.0154   20324059.2574
       254.000         241.000
 120917149.58248  76428934.22048  21106841.8884   21106845.1414   21106841.4734
       242.000         211.000
 129298862.87548 100752349.61648  24604762.9654   24604765.6444   24604763.3024
       209.000         161.000
 119637832.88148  93224282.33848  22766324.1134   22766326.0524   22766324.5054
       231.000         187.000
 122842640.19048  95721534.21848  23376179.9564   23376181.1124   23376179.8614
       228.000         179.000
 134168870.32748  86754956.19648  23628556.4604   23628557.6274   23628556.6364
       226.000         182.000
 124652367.96048  97131705.45848  23720564.2014   23720566.1174   23720564.2334
       224.000         178.000
 139117730.19748  90611202.11048  24570299.2334   24570303.4244   24570299.7704
       213.000         151.000
 09  1 14  0 39  0.0000000  0 10G 5G26G15G 9G27G18G28G17G12G10
 141138356.37948  92185718.75148  24954808.9274   24954812.6814   24954808.6294
       211.000         156.000
  99464516.20048  95297016.29848  20830412.3594   20830415.0494   20830412.3934
       250.000         222.000
 116806903.55148  73226151.99948  20324682.4324   20324683.8544   20324681.9954
       255.000         241.000
 120855267.58148  76380714.49048  21095066.3304   21095069.1124   21095066.2684
       244.000         212.000
 129369877.81748 100807685.91348  24618276.1844   24618279.5034   24618276.4694
       213.000         161.000
 119585001.65048  93183115.14148  22756270.7124   22756272.7484   22756271.5784
       230.000         188.000
 122924412.21848  95785252.67948  23391740.5244   23391741.9454   23391740.8294
       226.000         178.000
 134123656.09248  86719724.34748  23619952.3164   23619954.0224   23619952.2754
       227.000         182.000
 124543650.12748  97046990.28148  23699876.0324   23699877.6504   23699876.2744
       225.000         178.000
 139228917.31548  90697841.42548  24591457.8684   24591461.7534   24591459.3284
       214.000         155.000
 09  1 14  0 39 30.0000000  0 10G 5G26G15G 9G27G18G28G17G12G10
 141023001.84148  92095832.09648  24932857.4914   24932861.7684   24932858.1214
       213.000         155.000
  99520091.96748  95340322.08548  20840988.0684   20840990.8174   20840988.0704
       250.000         222.000
 116810608.23848  73229038.76548  20325387.3234   20325388.7804   20325387.1684
       254.000         241.000
 120793672.20548  76332718.10248  21083345.3384   21083348.2384   21083345.6454
       244.000         213.000
 129440899.13848 100863027.19148  24631791.5934   24631794.5144   24631791.4544
       212.000         159.000
 119532672.33748  93142339.04548  22746312.8584   22746314.8874   22746313.0524
       233.000         188.000
 123006436.71748  95849167.87248  23407348.9524   23407350.4724   23407349.1914
       227.000         176.000
 134078860.07748  86684818.35448  23611427.9314   23611429.1284   23611428.0414
       225.000         181.000
 124435108.85248  96962412.68248  23679221.7584   23679223.3994   23679221.7674
       228.000         179.000
 139340098.52248  90784476.09448  24612614.6074   24612619.4374   24612614.9704
       211.000         155.000
 09  1 14  0 40  0.0000000  0 10G 5G26G15G 9G27G18G28G17G12G10
 140907719.00148  92006001.31648  24910920.4314   24910923.7564   24910920.7014
       213.000         155.000
  99576049.97848  95383925.72148  20851636.5544   20851639.2024   20851636.5574
       248.000         221.000
 116814746.22248  73232263.16448  20326174.7354   20326176.1424   20326174.4734
       254.000         241.000
 120732363.70048  76284945.26048  21071678.5224   21071681.2654   21071678.8284
       243.000         212.000
 129511926.59848 100918373.27348  24645307.1534   24645309.9494   24645307.3084
       210.000         159.000
 119480846.25148  93101955.09048  22736450.6794   22736452.2124   22736451.3864
       232.000         188.000
 123088711.04048  95913277.74648  23423005.5304   23423007.0424   23423005.7594
       228.000         178.000
 134034484.38748  86650239.91048  23602983.0514   23602984.5584   23602983.0074
       227.000         181.000
 124326746.30248  96877974.35148  23658600.9334   23658602.7154   23658600.9494
       226.000         179.000
 139451270.93648  90871103.88548  24633769.5934   24633774.8044   24633770.2384
       209.000         151.000
 09  1 14  0 40 30.0000000  0 10G 5G26G15G 9G27G18G28G17G12G10
 140792510.13548  91916228.16048  24888995.9474   24889000.3974   24888996.4414
       213.000         155.000
  99632389.94248  95427826.97248  20862357.6674   20862360.2874   20862357.5414
       247.000         221.000
 116819318.10948  73235825.66748  20327044.8734   20327046.1804   20327044.6244
       255.000         241.000
 120671342.65348  76237396.40248  21060066.7064   21060069.5874   21060067.0894
       244.000         213.000
 129582960.33548 100973724.25448  24658825.5304   24658827.6014   24658825.4664
       213.000         161.000
 119429525.02248  93061964.50248  22726684.7994   22726686.2914   22726684.7914
       234.000         188.000
 123171233.23148  95977580.74748  23438708.9654   23438710.5764   23438709.3244
       228.000         179.000
 133990531.43648  86615990.87048  23594619.0034   23594621.6054   23594618.9934
       224.000         181.000
 124218564.76248  96793677.07448  23638014.5894   23638016.9214   23638014.0424
       224.000         179.000
 139562432.65448  90957723.35248  24654923.5834   24654927.3464   24654924.3104
       216.000         152.000
 09  1 14  0 41  0.0000000  0 10G 5G26G15G 9G27G18G28G17G12G10
 140677375.12848  91826512.57548  24867086.9814   24867090.0754   24867087.9374
       210.000         155.000
  99689109.32048  95472023.88148  20873151.0044   20873153.7544   20873150.7874
       249.000         221.000
 116824322.82648  73239725.44148  20327997.1584   20327998.5684   20327996.9444
       254.000         241.000
 120610607.58748  76190070.39048  21048509.1334   21048512.0674   21048509.1974
       245.000         213.000
 129653998.51148 101029078.63148  24672342.9264   24672345.7244   24672343.1934
       214.000         161.000
 119378708.79848  93022367.45348  22717014.2524   22717016.1384   22717015.4544
       231.000         185.000
 123253999.08648  96042073.63548  23454458.6734   23454460.5094   23454458.9714
       227.000         178.000
 133947001.57348  86582071.49948  23586335.6594   23586337.8364   23586335.0804
       226.000         182.000
 124110564.65648  96709521.16848  23617462.3764   23617464.2144   23617462.5584
       225.000         178.000
 139673579.13848  91044331.03748  24676074.8114   24676076.8344   24676075.2294
       215.000         151.000
 09  1 14  0 41 30.0000000  0 10G 5G26G15G 9G27G18G28G17G12G10
 140562318.97448  91736858.43848  24845192.0594   24845195.6534   24845192.7844
       212.000         155.000
  99746210.56448  95516518.35848  20884016.9324   20884019.6924   20884016.7184
       251.000         221.000
 116829764.18248  73243965.45548  20329032.5224   20329033.9524   20329032.1534
       254.000         240.000
 120550162.20848  76142970.09948  21037006.8964   21037009.6854   21037006.9034
       244.000         213.000
 129725043.53948 101084438.40248  24685862.1074   24685864.7684   24685862.8884
       210.000         161.000
 119328402.31648  92983167.56848  22707441.2034   22707443.1014   22707441.9574
       232.000         187.000
 123337009.34948  96106756.96348  23470254.6784   23470256.7424   23470255.5544
       227.000         175.000
 133903900.10248  86548485.93148  23578133.8454   23578135.4964   23578133.6824
       225.000         181.000
 124002751.04948  96625510.57748  23596946.0694   23596948.0984   23596946.2724
       224.000         178.000
 139784710.91048  91130927.24948  24697221.8994   24697225.8144   24697223.0564
       213.000         152.000
 09  1 14  0 42  0.0000000  0 10G 5G26G15G 9G27G18G28G17G12G10
 140447343.19148  91647266.90548  24823313.3774   24823316.1494   24823313.5744
       213.000         155.000
  99803692.52548  95561309.49248  20894955.4854   20894958.2874   20894955.6024
       249.000         221.000
 116835642.30648  73248545.80848  20330151.1084   20330152.5524   20330150.8244
       254.000         240.000
 120490006.53348  76096095.57048  21025559.4754   21025562.4164   21025559.6224
       244.000         214.000
 129796095.17948 101139803.31248  24699382.7754   24699385.9744   24699382.6024
       210.000         161.000
 119278606.74248  92944365.82648  22697965.4354   22697967.7114   22697965.5484
       231.000         187.000
 123420261.14548  96171628.47548  23486096.9724   23486098.9324   23486097.5494
       227.000         176.000
 133861228.81548  86515235.58048  23570013.6624   23570016.1094   23570013.2044
       227.000         182.000
 123895125.54148  96541646.59048  23576465.2704   23576467.3564   23576465.1434
       224.000         179.000
 139895825.03148  91217509.61648  24718366.2624   24718370.5894   24718368.1914
       214.000         155.000
 09  1 14  0 42 30.0000000  0 10G 5G26G15G 9G27G18G28G17G12G10
 140332449.90648  91557739.66748  24801450.1344   24801453.5294   24801451.9864
       210.000         155.000
  99861555.07048  95606397.18448  20905966.2874   20905969.1884   20905966.0944
       248.000         221.000
 116841958.32648  73253467.37148  20331353.1044   20331354.4494   20331352.9584
       253.000         240.000
 120430141.14348  76049447.21748  21014167.6074   21014170.3974   21014168.0564
       244.000         214.000
 129867153.58748 101195173.50048  24712904.5684   24712907.4304   24712904.6114
       212.000         162.000
 119229323.87748  92905963.57548  22688587.3664   22688589.1254   22688587.7274
       233.000         187.000
 123503752.44948  96236686.67448  23501985.0704   23501986.8614   23501985.4564
       228.000         176.000
 133818989.82848  86482322.09248  23561975.7024   23561977.4184   23561975.4104
       225.000         182.000
 123787690.58448  96457931.05948  23556021.0954   23556022.8404   23556020.6484
       227.000         179.000
 140006918.75048  91304076.10648  24739507.0664   24739510.7594   24739508.4204
       216.000         157.000
 09  1 14  0 43  0.0000000  0 10G 5G26G15G 9G27G18G28G17G12G10
 140217640.60548  91468277.90348  24779602.6774   24779606.3674   24779603.1344
       207.000         154.000
  99919796.98748  95651780.48148  20917049.4024   20917052.1194   20917049.3094
       248.000         220.000
 116848712.59848  73258730.44248  20332638.3084   20332639.7354   20332637.9924
       253.000         240.000
 120370565.89548  76003024.95848  21002830.5524   21002833.3994   21002830.4734
       245.000         214.000
 129938218.26148 101250548.53248  24726428.2064   24726431.3504   24726427.3234
       215.000         163.000
 119180554.84148  92867961.73148  22679306.9104   22679308.5314   22679307.6334
       230.000         187.000
 123587480.83248  96301929.55748  23517918.0194   23517920.0314   23517918.8684
       226.000         177.000
 133777184.91048  86449746.81448  23554020.9204   23554022.4384   23554020.2874
       226.000         182.000
 123680447.91248  96374365.38448  23535613.6504   23535615.4764   23535613.6284
       224.000         180.000
 140117989.52448  91390624.70048  24760643.4984   24760645.9294   24760644.0034
       215.000         156.000
 09  1 14  0 43 30.0000000  0 10G 5G26G15G 9G27G18G28G17G12G10
 140102917.04448  91378882.93548  24757770.1994   24757774.6954   24757770.3544
       208.000         152.000
  99978417.54448  95697458.82948  20928204.7454   20928207.2224   20928204.7534
       249.000         220.000
 116855905.64548  73264335.41048  20334007.0084   20334008.6254   20334006.7064
       254.000         240.000
 120311281.19548  75956829.09848  20991549.3314   20991552.1644   20991549.7014
       245.000         214.000
 130009288.98148 101305928.32048  24739952.3604   24739955.7184   24739952.6644
       214.000         164.000
 119132300.86148  92830361.22248  22670124.4704   22670126.1124   22670124.5974
       233.000         188.000
 123671443.60148  96367355.12948  23533895.7794   23533897.4974   23533895.0914
       227.000         176.000
 133735816.17048  86417511.44248  23546148.7364   23546150.4574   23546148.9044
       227.000         182.000
 123573399.51248  96290951.06948  23515242.8564   23515245.1664   23515242.8084
       227.000         182.000
 140229034.34148  91477153.09048  24781774.6494   24781777.5064   24781775.8084
       214.000         154.000
 09  1 14  0 44  0.0000000  0 10G 5G26G15G 9G27G18G28G17G12G10
 139988281.18248  91289556.32448  24735956.0714   24735960.5774   24735956.3154
       211.000         153.000
 100037416.07048  95743431.70948  20939431.5714   20939434.3404   20939431.3834
       248.000         220.000
 116863538.08348  73270282.75748  20335459.6014   20335461.0504   20335459.4444
       254.000         241.000
 120252287.41448  75910859.93148  20980322.9784   20980325.7764   20980323.6744
       245.000         214.000
 130080365.71148 101361312.78648  24753478.2084   24753480.9664   24753478.5924
       213.000         162.000
 119084563.73948  92793163.45848  22661040.4904   22661042.3354   22661040.1434
       234.000         188.000
 123755638.06948  96432961.19048  23549917.2834   23549919.3074   23549918.0894
       227.000         177.000
 133694885.85048  86385617.70048  23538359.6604   23538361.4594   23538359.6704
       228.000         182.000
 123466547.45348  96207689.73048  23494910.1684   23494912.0494   23494909.9644
       223.000         182.000
 140340050.97448  91563659.52748  24802900.9124   24802903.7244   24802901.9474
       215.000         150.000
 09  1 14  0 44 30.0000000  0 10G 5G26G15G 9G27G18G28G17G12G10
 139873735.18948  91200299.72548  24714158.7164   24714162.5554   24714159.6674
       216.000         156.000
 100096792.28148  95789698.87948  20950730.5424   20950733.1754   20950730.4474
       249.000         220.000
 116871610.84848  73276573.21348  20336995.9374   20336997.2094   20336995.7544
       254.000         241.000
 120193585.47448  75865118.16448  20969152.4124   20969155.2084   20969152.9834
       245.000         214.000
 130151448.42248 101416701.92148  24767004.2974   24767007.7204   24767004.3924
       210.000         163.000
 119037345.12548  92756369.72648  22652055.1164   22652056.5664   22652055.4014
       233.000         188.000
 123840062.66848  96498746.60948  23565982.9654   23565984.6954   23565983.9294
       225.000         176.000
 133654395.85548  86354067.06948  23530654.7154   23530656.3424   23530654.6174
       227.000         182.000
 123359894.10648  96124583.24748  23474614.0964   23474616.8644   23474612.7784
       227.000         181.000
 140451037.29248  91650142.39148  24824020.6814   24824023.2014   24824023.0524
       210.000         147.000
 09  1 14  0 45  0.0000000  0 10G 5G26G15G 9G27G18G28G17G12G10
 139759280.69548  91111114.41048  24692379.5524   24692382.1814   24692380.0884
       215.000         155.000
 100156545.32048  95836259.68748  20962101.1734   20962103.9094   20962101.0404
       248.000         220.000
 116880124.06748  73283206.88348  20338615.8774   20338617.2424   20338615.6824
       254.000         240.000
 120135175.31348  75819603.77148  20958037.3034   20958040.0334   20958037.5404
       245.000         214.000
 130222536.94648 101472095.55848  24780532.0144   24780535.3414   24780532.7034
       214.000         165.000
 118990646.45948  92719981.15048  22643168.7314   22643170.4914   22643169.6604
       232.000         189.000
 123924714.94148  96564709.42348  23582091.5604   23582093.5044   23582092.0454
       225.000         176.000
 133614348.15848  86322861.07048  23523033.9084   23523035.6214   23523033.6574
       228.000         182.000
 123253441.13248  96041632.90848  23454356.6764   23454359.5194   23454357.4154
       224.000         181.000
 140561990.16548  91736599.11748  24845133.2404   24845137.4074   24845134.2154
       207.000         151.000
 09  1 14  0 45 30.0000000  0 10G 5G26G15G 9G27G18G28G17G12G10
 139644920.02548  91022002.20548  24670618.2374   24670619.6394   24670618.8964
       215.000         155.000
 100216674.71448  95883113.76148  20973543.3284   20973546.1124   20973543.2794
       248.000         220.000
 116889079.31148  73290184.98848  20340319.9584   20340321.3604   20340319.7384
       254.000         240.000
 120077057.81548  75774317.41648  20946977.9654   20946980.5194   20946978.1574
       246.000         214.000
 130293631.47948 101527493.90948  24794060.8854   24794064.3164   24794061.0814
       214.000         165.000
 118944469.52848  92683999.11948  22634381.4984   22634383.8304   22634381.7264
       232.000         189.000
 124009592.69848  96630847.91948  23598243.3654   23598245.3334   23598243.4214
       225.000         177.000
 133574745.43948  86292001.80048  23515497.6454   23515499.2784   23515497.6044
       228.000         182.000
 123147191.16248  95958840.75548  23434137.7734   23434141.1704   23434137.7084
       227.000         182.000
 140672907.74948  91823028.34548  24866240.6364   24866244.6534   24866240.1684
       216.000         160.000
 09  1 14  0 46  0.0000000  0 10G 5G26G15G 9G27G18G28G17G12G10
 139530655.08148  90932964.59448  24648873.9614   24648875.7564   24648874.8924
       212.000         154.000
 100277179.95948  95930260.69748  20985057.2144   20985059.7194   20985057.2744
       248.000         219.000
 116898476.85148  73297507.74248  20342108.2144   20342109.6784   20342108.0324
       253.000         240.000
 120019233.39248  75729259.44248  20935974.4464   20935976.8704   20935974.9614
       246.000         214.000
 130364731.91848 101582896.81148  24807590.6484   24807594.3694   24807590.7984
       215.000         163.000
 118898815.76148  92648424.74948  22625693.7614   22625695.7594   22625694.4104
       232.000         190.000
 124094693.69748  96697160.39348  23614437.9044   23614439.3214   23614439.0424
       227.000         175.000
 133535589.50248  86261490.68448  23508046.7674   23508048.4024   23508046.3554
       227.000         182.000
 123041146.48148  95876208.55148  23413958.5704   23413960.8084   23413958.4274
       226.000         181.000
 140783787.34848  91909427.98148  24887340.6294   24887344.4484   24887341.3544
       214.000         159.000
 09  1 14  0 46 30.0000000  0 10G 5G26G15G 9G27G18G28G17G12G10
 139416487.33048  90844002.72548  24627148.2454   24627151.1934   24627148.0394
       213.000         154.000
 100338059.83048  95977699.54248  20996642.2274   20996644.8674   20996642.1094
       248.000         219.000
 116908317.23848  73305175.57248  20343980.7584   20343982.2894   20343980.5044
       253.000         240.000
 119961702.14548  75684429.91148  20925026.4844   20925029.1854   20925027.1004
       245.000         215.000
 130435837.94348 101638304.08448  24821121.7984   24821124.9644   24821121.9354
       214.000         165.000
 118853686.33048  92613258.96448  22617105.8454   22617108.0694   22617106.6294
       234.000         190.000
 124180015.34848  96763644.79848  23630673.9174   23630675.3364   23630675.0294
       226.000         175.000
 133496882.12048  86231329.09348  23500680.5244   23500682.6664   23500679.9304
       226.000         182.000
 122935309.00648  95793737.80548  23393818.7264   23393820.6714   23393818.8724
       228.000         183.000
 140894626.17948  91995795.84548  24908432.3164   24908436.1304   24908432.7774
       206.000         145.000
 09  1 14  0 47  0.0000000  0 10G 5G26G15G 9G27G18G28G17G12G10
 139302419.44448  90755118.67648  24605441.6594   24605444.6634   24605442.1134
       213.000         158.000
 100399314.53448  96025430.47848  21008298.7624   21008301.2834   21008298.7504
       249.000         219.000
 116918601.85148  73313189.55248  20345937.8424   20345939.3814   20345937.5364
       253.000         240.000
 119904465.13248  75639829.65948  20914134.5424   20914137.4664   20914134.7964
       246.000         215.000
 130506950.05648 101693716.11548  24834653.5184   24834657.0664   24834653.0704
       211.000         164.000
 118809083.48148  92578503.49448  22608618.6054   22608620.6534   22608619.1154
       235.000         191.000
 124265555.95748  96830299.82148  23646951.7954   23646953.1074   23646952.1774
       226.000         176.000
 133458626.07448  86201519.19348  23493400.6174   23493402.3414   23493399.9844
       224.000         183.000
 122829680.72248  95711430.06148  23373718.3874   23373719.6224   23373718.2404
       229.000         182.000
 141005422.26348  92082130.45148  24929516.1734   24929519.0834   24929515.4214
       209.000         139.000
 09  1 14  0 47 30.0000000  0 10G 5G26G15G 9G27G18G28G17G12G10
 139188454.77348  90666315.03148  24583754.7974   24583758.5004   24583755.8764
       214.000         159.000
 100460944.53448  96073453.85148  21020026.5994   21020028.9824   21020026.5694
       249.000         219.000
 116929332.32048  73321550.95048  20347979.7664   20347981.3284   20347979.5344
       253.000         240.000
 119847524.04348  75595459.99548  20903299.0984   20903301.7694   20903299.2794
       246.000         215.000
 130578069.54248 101749133.87748  24848187.1904   24848190.8954   24848186.9464
       213.000         165.000
 118765010.01648  92544160.53048  22600231.6574   22600233.5524   22600232.3954
       234.000         191.000
 124351314.62648  96897124.76448  23663270.7964   23663272.6154   23663271.2364
       224.000         176.000
 133420824.67648  86172063.56748  23486207.3364   23486209.5764   23486206.6944
       226.000         183.000
 122724265.25648  95629288.16148  23353658.3144   23353659.3464   23353658.6724
       228.000         184.000
 141116174.64548  92168431.05848  24950592.5444   24950595.2084   24950592.6954
       218.000         154.000
 09  1 14  0 48  0.0000000  0 10G 5G26G15G 9G27G18G28G17G12G10
 139074593.73348  90577592.18148  24562087.0054   24562091.6134   24562087.3964
       215.000         160.000
 100522947.94048  96121768.18848  21031825.3514   21031828.0104   21031825.3464
       248.000         219.000
 116940507.92948  73330259.21048  20350106.3384   20350108.0124   20350106.1484
       253.000         240.000
 119790878.09748  75551320.30948  20892519.8204   20892522.3454   20892520.1844
       246.000         215.000
 130649195.20248 101804556.47048  24861722.0834   24861725.6774   24861721.7434
       218.000         165.000
 118721465.77248  92510229.94848  22591945.2944   22591947.2384   22591945.6004
       234.000         189.000
 124437287.77448  96964116.81848  23679630.8984   23679632.8634   23679630.8984
       227.000         177.000
 133383478.65948  86142962.75848  23479100.5224   23479102.3004   23479100.0404
       226.000         182.000
 122619063.84648  95547313.05048  23333639.3044   23333640.4164   23333639.0444
       228.000         184.000
 141226879.43148  92254694.51148  24971658.9294   24971662.3324   24971660.1904
       213.000         157.000
 09  1 14  0 48 30.0000000  0 10G 5G26G15G 9G27G18G28G17G12G10
 138960837.49848  90488950.98448  24540439.8234   24540444.2484   24540439.8244
       216.000         160.000
 100585323.14448  96170372.23448  21043694.8994   21043697.8364   21043694.7284
       248.000         219.000
 116952128.49748  73339314.19248  20352317.8474   20352319.3354   20352317.6614
       253.000         240.000
 119734527.00448  75507410.37548  20881796.4374   20881798.9404   20881796.8214
       246.000         215.000
 130720326.11148 101859983.13948  24875258.1754   24875261.4664   24875258.6984
       216.000         166.000
 118678451.50448  92476712.34248  22583759.8594   22583761.9004   22583760.5734
       233.000         190.000
 124523472.26748  97031273.56948  23696031.5194   23696033.3894   23696032.6834
       224.000         176.000
 133346588.99548  86114217.58748  23472081.1314   23472082.9884   23472081.1914
       227.000         184.000
 122514077.86448  95465505.81748  23313660.8784   23313662.7254   23313660.7304
       229.000         185.000
 141337533.68948  92340918.50848  24992714.2224   24992719.7244   24992715.6824
       205.000         149.000
 09  1 14  0 49  0.0000000  0 10G 5G26G15G 9G27G18G28G17G12G10
 138847188.23248  90400393.09848  24518813.7264   24518817.0774   24518814.4304
       217.000         160.000
 100648069.70948  96219265.65448  21055635.1714   21055637.8974   21055635.0454
       248.000         218.000
 116964195.12448  73348716.75448  20354613.9834   20354615.4804   20354613.6914
       253.000         239.000
 119678470.97248  75463730.35748  20871129.5084   20871131.9454   20871129.6394
       247.000         215.000
 130791462.42748 101915414.01548  24888795.1114   24888797.9084   24888795.0144
       218.000         166.000
 118635968.95648  92443609.04148  22575675.9424   22575677.2194   22575676.2844
       234.000         190.000
 124609866.08048  97098593.42148  23712471.8174   23712473.2944   23712472.2854
       227.000         175.000
 133310157.77948  86085829.63648  23465147.7244   23465150.3364   23465147.6284
       226.000         183.000
 122409309.06848  95383867.81448  23293724.0564   23293726.1034   23293724.4294
       228.000         184.000
 141448134.99748  92427101.27648  25013761.3804   25013765.6064   25013760.8934
       215.000         149.000
 09  1 14  0 49 30.0000000  0 10G 5G26G15G 9G27G18G28G17G12G10
 138733648.41448  90311920.53448  24497208.2074   24497211.2544   24497209.9754
       216.000         159.000
 100711187.28148  96268448.17248  21067646.0104   21067648.6684   21067645.8704
       248.000         218.000
 116976708.68748  73358467.57348  20356995.2574   20356996.6434   20356995.0144
       253.000         239.000
 119622711.39848  75420281.34448  20860518.6644   20860521.0974   20860518.9524
       246.000         215.000
 130862604.70548 101970849.55648  24902332.4864   24902335.7414   24902332.1714
       212.000         166.000
 118594019.79348  92410921.37348  22567693.1954   22567694.9274   22567693.9264
       234.000         191.000
 124696467.46948  97166075.02648  23728951.4124   23728952.9784   23728952.4494
       224.000         175.000
 133274187.56948  86057800.90948  23458302.9824   23458304.9594   23458302.4914
       228.000         182.000
 122304760.32648  95302401.29648  23273828.7464   23273831.1804   23273828.4894
       229.000         185.000
 141558681.16448  92513241.23748  25034797.7954   25034800.3724   25034799.3214
       214.000         147.000
 09  1 14  0 50  0.0000000  0 10G 5G26G15G 9G27G18G28G17G12G10
 138620219.53748  90223534.42548  24475622.3794   24475626.7024   24475623.4204
       213.000         158.000
 100774674.92448  96317919.06448  21079727.4454   21079729.9434   21079727.3664
       248.000         218.000
 116989669.51848  73368566.91648  20359461.6354   20359463.1124   20359461.4134
       253.000         239.000
 119567248.04948  75377063.16348  20849964.1904   20849966.8784   20849964.1304
       246.000         216.000
 130933752.45648 102026289.34348  24915871.6704   24915875.3224   24915871.6824
       217.000         166.000
 118552605.06648  92378650.15648  22559812.1344   22559813.9724   22559813.1304
       233.000         191.000
 124783273.89248  97233716.39648  23745470.0734   23745471.7914   23745469.7954
       225.000         176.000
 133238680.07048  86030132.73248  23451546.2494   23451548.8004   23451546.4014
       227.000         181.000
 122200433.44448  95221107.64348  23253976.3754   23253978.3264   23253976.1464
       229.000         185.000
 141669169.21448  92599335.83148  25055822.7534   25055826.4174   25055822.8484
       204.000         146.000
 09  1 14  0 51  0.0000000  0 10G 5G26G15G 9G27G18G28G17G12G10
 118393659.93558 110046986.54158  24432518.3945   24432522.6895   24432517.8785
       215.000         162.000
 100902759.97548  96417725.58548  21104101.1224   21104103.8054   21104100.9984
       247.000         217.000
 117016937.39748  73389814.60248  20364650.5234   20364652.1344   20364650.2014
       253.000         239.000
 119457215.51148  75291323.54048  20829025.7854   20829028.5184   20829025.8184
       247.000         216.000
 131076066.56848 102137183.39848  24942953.1944   24942956.9114   24942953.6534
       220.000         166.000
 118471387.16848  92315363.47848  22544356.9284   22544358.8574   22544357.2894
       234.000         191.000
 124957495.10748  97369473.17048  23778623.1094   23778625.2344   23778624.0664
       227.000         174.000
 133169063.33048  85975885.92748  23438298.8184   23438300.7544   23438298.8434
       229.000         182.000
 121992455.09748  95059046.62948  23214399.6794   23214401.1854   23214399.5084
       229.000         185.000
 141889964.68548  92771384.14848  25097839.2144   25097842.8324   25097839.6074
       213.000         152.000
 09  1 14  0 51 30.0000000  0 10G 5G26G15G 9G27G18G28G17G12G10
 118280577.04148 109958870.00948  24411000.1214   24411003.1994   24411000.7054
       218.000         163.000
 100967355.02648  96468059.37948  21116393.1674   21116395.6864   21116392.9534
       248.000         217.000
 117031244.66148  73400963.11448  20367373.1104   20367374.6734   20367373.0244
       253.000         239.000
 119402645.75348  75248801.65748  20818641.4384   20818644.1504   20818641.3934
       246.000         216.000
 131147232.10448 102192637.04448  24956495.4274   24956499.5114   24956496.4154
       215.000         166.000
 118431585.64348  92284349.30048  22536783.0494   22536784.7244   22536783.7654
       233.000         192.000
 125044904.23348  97437584.19748  23795256.6064   23795258.4184   23795256.9174
       223.000         171.000
 133134956.85448  85949309.44548  23431808.6354   23431810.1634   23431808.2614
       229.000         184.000
 121888807.33548  94978282.14748  23194675.7034   23194676.8504   23194675.4464
       228.000         183.000
 142000266.80948  92857333.84848  25118827.9864   25118832.0564   25118828.6614
       210.000         146.000
 09  1 14  0 52  0.0000000  0 10G 5G26G15G 9G27G18G28G17G12G10
 118167613.93748 109870846.81848  24389503.7244   24389506.8054   24389505.7104
       216.000         162.000
 101032318.27948  96518680.09248  21128755.3474   21128757.8704   21128755.2644
       248.000         217.000
 117046002.12248  73412462.43248  20370181.3674   20370182.8844   20370181.1384
       252.000         239.000
 119348375.32548  75206513.02148  20808314.0614   20808316.7674   20808314.1934
       246.000         216.000
 131218404.38148 102248095.96448  24970039.0674   24970043.1494   24970040.0164
       214.000         164.000
 118392324.88948  92253756.50148  22529311.7974   22529313.6354   22529312.4894
       234.000         191.000
 125132510.58848  97505848.88448  23811927.8114   23811929.3514   23811928.0964
       226.000         170.000
 133101321.72548  85923100.24848  23425408.1484   23425409.9314   23425407.8044
       228.000         184.000
 121785390.78248  94897697.81948  23174995.8694   23174997.4774   23174995.1274
       228.000         185.000
 142110502.47048  92943231.77448  25139804.5474   25139808.7664   25139805.7694
       202.000         143.000
 09  1 14  0 52 30.0000000  0 10G 5G26G15G 9G27G18G28G17G12G10
 118054771.79048 109782917.90948  24368030.5894   24368033.7554   24368030.6504
       218.000         163.000
 101097648.14348  96569586.46948  21141187.3354   21141189.7084   21141187.2194
       248.000         217.000
 117061209.99548  73424312.71248  20373075.3214   20373076.8184   20373075.1154
       252.000         238.000
 119294403.93748  75164457.40048  20798043.5784   20798046.4654   20798043.8244
       247.000         217.000
 131289582.45048 102303559.39548  24983583.5034   24983587.0894   24983583.3184
       215.000         165.000
 118353605.41848  92223585.48848  22521943.2884   22521945.6324   22521943.9984
       234.000         192.000
 125220311.19848  97574264.95548  23828635.8224   23828637.0614   23828636.6074
       226.000         171.000
 133068158.91448  85897259.11348  23419097.3324   23419099.7024   23419097.1554
       229.000         184.000
 121682206.79148  94817294.75048  23155360.3584   23155362.8334   23155360.1104
       228.000         187.000
 142220668.58848  93029075.46948  25160769.6494   25160773.2114   25160771.1714
       205.000         145.000
 09  1 14  0 53  0.0000000  0 10G 5G26G15G 9G27G18G28G17G12G10
 117942052.70448 109695084.87148  24346580.9894   24346584.6864   24346582.3464
       217.000         160.000
 101163344.07748  96620778.10248  21153688.6904   21153691.0824   21153688.6824
       248.000         216.000
 117076868.97348  73436514.51048  20376054.9804   20376056.5744   20376054.7384
       252.000         238.000
 119240732.49148  75122635.50448  20787830.3834   20787833.0864   20787830.2324
       247.000         217.000
 131360766.47648 102359027.44048  24997129.8914   24997133.8694   24997129.8944
       216.000         164.000
 118315428.76548  92193837.44648  22514678.7754   22514680.9154   22514679.4674
       235.000         192.000
 125308303.84248  97642830.63548  23845380.0684   23845381.4584   23845381.3024
       227.000         173.000
 133035470.61948  85871787.72948  23412877.0994   23412878.8374   23412876.7644
       228.000         185.000
 121579257.45448  94737074.50648  23135769.6124   23135772.3074   23135769.6064
       231.000         187.000
 142330762.70648  93114863.05048  25181720.1054   25181723.3494   25181721.5614
       208.000         148.000
 09  1 14  0 53 30.0000000  0 10G 5G26G15G 9G27G18G28G17G12G10
 117829458.72548 109607349.32448  24325154.4444   24325158.3784   24325155.2474
       216.000         161.000
 101229405.32048  96672254.38048  21166259.7314   21166262.4004   21166259.6294
       247.000         216.000
 117092979.47048  73449068.13748  20379120.7514   20379122.4004   20379120.5784
       252.000         238.000
 119187361.21348  75081047.49448  20777674.4334   20777676.9324   20777674.5704
       247.000         218.000
 131431956.60948 102414500.26348  25010676.6744   25010680.0834   25010676.8764
       217.000         163.000
 118277796.36148  92164513.49448  22507518.0514   22507519.7584   22507518.2324
       236.000         192.000
 125396486.46848  97711544.37148  23862161.2064   23862162.3134   23862161.8344
       228.000         177.000
 133003258.79648  85846687.61148  23406747.5274   23406749.5444   23406747.0864
       228.000         186.000
 121476545.09748  94657038.90548  23116224.8464   23116226.4834   23116225.0134
       230.000         186.000
 142440782.61048  93200592.82548  25202655.8764   25202659.5614   25202655.7884
       209.000         146.000
 09  1 14  0 54  0.0000000  0 10G 5G26G15G 9G27G18G28G17G12G10
 117716991.82248 109519712.75748  24303753.7194   24303756.2754   24303754.1254
       220.000         166.000
 101295831.32148  96724014.89948  21178900.0654   21178902.6984   21178899.9644
       246.000         216.000
 117109541.99048  73461973.99048  20382272.5774   20382274.1934   20382272.2804
       253.000         239.000
 119134290.52348  75039693.72548  20767575.2664   20767578.1774   20767575.5404
       247.000         218.000
 131503152.73348 102469977.74448  25024224.6844   25024228.8904   25024225.3744
       219.000         165.000
 118240709.10948  92135614.32648  22500460.6214   22500462.0104   22500461.0124
       235.000         192.000
 125484856.80048  97780404.37048  23878977.3574   23878978.5594   23878977.4034
       227.000         175.000
 132971525.12248  85821960.06948  23400708.5504   23400710.4704   23400708.2384
       228.000         185.000
 121374071.67648  94577189.51348  23096724.4234   23096725.8954   23096724.4994
       227.000         184.000
 142550726.18848  93286263.11948  25223577.0794   25223581.0894   25223577.2674
       201.000         142.000
 09  1 14  0 54 30.0000000  0 10G 5G26G15G 9G27G18G28G17G12G10
 117604654.32748 109432177.05448  24282376.3054   24282379.4964   24282377.5594
       219.000         167.000
 101362621.70748  96776059.35748  21191609.9254   21191612.5884   21191609.6894
       247.000         216.000
 117126557.29448  73475232.66148  20385510.5274   20385512.0474   20385510.2454
       252.000         238.000
 119081521.39748  74998574.93348  20757533.6784   20757536.4024   20757533.9354
       248.000         218.000
 131574355.51248 102525460.40848  25037774.6754   25037777.3574   25037775.1414
       217.000         164.000
 118204168.97348  92107141.48948  22493506.8554   22493508.7814   22493507.3014
       236.000         193.000
 125573413.10848  97849409.27348  23895828.7644   23895830.1624   23895829.5884
       225.000         172.000
 132940271.99648  85797607.00148  23394761.2024   23394762.8354   23394760.5464
       229.000         184.000
 121271839.59948  94497528.16348  23077270.4724   23077271.6184   23077270.0584
       228.000         185.000
 142660591.46048  93371872.40048  25244484.1784   25244487.3764   25244484.2964
       202.000         140.000
 09  1 14  0 55  0.0000000  0 10G 5G26G15G 9G27G18G28G17G12G10
 117492447.24148 109344742.98648  24261023.9434   24261027.0914   24261025.3324
       217.000         166.000
 101429774.67548  96828386.33448  21204388.7274   21204391.5074   21204388.6114
       247.000         216.000
 117144025.11848  73488843.94348  20388834.5234   20388835.9724   20388834.2144
       252.000         238.000
 119029053.18948  74957690.62748  20747549.0814   20747551.9924   20747549.4564
       247.000         217.000
 131645563.92848 102580947.48648  25051324.9914   25051328.3544   25051325.4404
       218.000         164.000
 118168176.40548  92079095.32348  22486658.0154   22486659.4634   22486659.0334
       236.000         193.000
 125662152.55548  97918556.88948  23912715.1104   23912716.3174   23912715.4464
       225.000         168.000
 132909500.21248  85773628.97748  23388905.5654   23388907.8454   23388905.5874
       228.000         184.000
 121169850.05848  94418055.82348  23057862.4074   23057864.1094   23057862.2844
       229.000         188.000
 142770375.43048  93457418.32148  25265374.2684   25265379.1924   25265375.4214
       206.000         142.000
 09  1 14  0 55 30.0000000  0 10G 5G26G15G 9G27G18G28G17G12G10
 117380373.18448 109257412.61248  24239696.2094   24239700.1624   24239695.7594
       218.000         164.000
 101497290.02648  96880995.68948  21217236.4734   21217239.0894   21217236.4024
       247.000         215.000
 117161946.78548  73502808.87348  20392244.9344   20392246.4434   20392244.6714
       252.000         238.000
 118976887.22048  74917041.82448  20737622.3704   20737624.8644   20737622.4044
       247.000         218.000
 131716778.74848 102636439.51848  25064876.5384   25064879.9594   25064875.5894
       216.000         163.000
 118132732.89848  92051476.98948  22479913.5224   22479915.0484   22479913.5424
       236.000         194.000
 125751073.46848  97987845.91448  23929636.2894   23929637.4824   23929637.8414
       224.000         167.000
 132879212.25248  85750027.96248  23383141.9474   23383143.7434   23383141.4444
       227.000         184.000
 121068106.14048  94338774.86048  23038501.1394   23038503.0524   23038501.0064
       229.000         188.000
 142880076.01548  93542899.28348  25286249.9974   25286255.5454   25286250.9704
       209.000         147.000
 09  1 14  0 56  0.0000000  0 10G 5G26G15G 9G27G18G28G17G12G10
 117268433.79948 109170187.11148  24218395.0764   24218398.8824   24218395.5184
       219.000         163.000
 101565166.86648  96933886.72848  21230153.2314   21230155.6214   21230153.1594
       247.000         216.000
 117180322.02548  73517127.23748  20395741.5914   20395743.1384   20395741.4724
       252.000         238.000
 118925023.42548  74876628.48648  20727753.0074   20727755.6044   20727752.9994
       247.000         218.000
 131787999.88648 102691936.49148  25078429.0974   25078433.2034   25078429.2384
       213.000         161.000
 118097839.29548  92024287.16748  22473273.3794   22473274.7304   22473274.5084
       236.000         193.000
 125840172.96048  98057274.11648  23946591.1744   23946592.1674   23946592.4254
       224.000         166.000
 132849409.23248  85726804.83748  23377470.6864   23377472.2664   23377470.2894
       229.000         184.000
 120966609.25748  94259686.39148  23019187.2294   23019189.1464   23019187.2374
       230.000         189.000
 142989690.60848  93628313.21348  25307109.7464   25307114.6214   25307110.2434
       206.000         146.000
 09  1 14  0 56 30.0000000  0 10G 5G26G15G 9G27G18G28G17G12G10
 117156631.24048 109083068.24348  24197119.9424   24197123.3584   24197120.5174
       217.000         164.000
 101633404.52648  96987058.92848  21243138.3524   21243140.9624   21243138.2624
       246.000         215.000
 117199151.66748  73531799.67948  20399324.6914   20399326.2664   20399324.4204
       254.000         238.000
 118873462.60548  74836451.23748  20717941.1974   20717943.9384   20717941.0444
       247.000         218.000
 131859227.58948 102747438.59248  25091984.5334   25091987.0794   25091983.6104
       217.000         165.000
 118063497.04448  91997526.95848  22466738.2894   22466739.9154   22466738.1914
       236.000         194.000
 125929449.54848  98126840.28748  23963580.0404   23963581.1724   23963580.2584
       222.000         167.000
 132820093.37048  85703961.30848  23371892.0084   23371894.0844   23371891.4534
       230.000         186.000
 120865361.68148  94180792.18548  22999920.8204   22999922.3644   22999920.8024
       231.000         189.000
 143099216.89848  93713658.31148  25327951.4084   25327956.5054   25327951.0984
       207.000         144.000
 09  1 14  0 57  0.0000000  0 10G 5G26G15G 9G27G18G28G17G12G10
 117044967.73048 108996057.74648  24175871.2144   24175874.1344   24175871.9894
       220.000         165.000
 101702002.31548  97040511.73748  21256192.0024   21256194.5464   21256191.9574
       246.000         215.000
 117218436.73348  73546826.99648  20402994.5864   20402996.1614   20402994.4304
       253.000         237.000
 118822205.40048  74796510.56448  20708187.5144   20708190.0484   20708187.6744
       248.000         219.000
 131930462.03748 102802946.00048  25105539.6224   25105543.3804   25105539.4304
       216.000         165.000
 118029707.47448  91971197.42648  22460308.4734   22460309.8394   22460309.7574
       237.000         194.000
 126018901.07548  98196542.78448  23980602.1924   23980603.1554   23980601.5044
       222.000         166.000
 132791266.38948  85681498.73548  23366406.5984   23366408.1834   23366406.4274
       231.000         186.000
 120764365.75148  94102094.07348  22980701.5744   22980703.5324   22980701.2354
       231.000         190.000
 143208653.05048  93798933.22548  25348777.1734   25348781.2114   25348777.7854
       205.000         140.000
 09  1 14  0 57 30.0000000  0 10G 5G26G15G 9G27G18G28G17G12G10
 116933444.72748 108909156.74548  24154649.2684   24154652.1434   24154650.7254
       220.000         167.000
 101770959.05648  97094244.26548  21269313.9724   21269316.4414   21269313.7654
       245.000         214.000
 117238176.96748  73562208.99248  20406750.8794   20406752.6264   20406750.5524
       253.000         237.000
 118771251.98648  74756806.62448  20698491.2464   20698493.7624   20698491.7274
       247.000         218.000
 132001702.84548 102858458.29848  25119095.6274   25119099.6234   25119095.5244
       216.000         161.000
 117996471.26648  91945299.08948  22453983.7684   22453985.3574   22453984.3604
       236.000         193.000
 126108525.05648  98266379.64448  23997657.4044   23997658.4834   23997657.9914
       225.000         167.000
 132762929.60048  85659418.11448  23361014.2854   23361015.7464   23361014.0574
       233.000         187.000
 120663622.80448  94023593.08948  22961531.0034   22961532.7854   22961530.9224
       232.000         190.000
 143317996.21448  93884135.60248  25369584.6924   25369588.2514   25369584.7814
       203.000         139.000
 09  1 14  0 58  0.0000000  0 10G 5G26G15G 9G27G18G28G17G12G10
 116822063.93348 108822366.56648  24133454.0634   24133457.2354   24133455.1324
       221.000         167.000
 101840273.70548  97148255.67348  21282504.1974   21282506.7654   21282504.0954
       246.000         214.000
 117258372.48848  73577945.75648  20410594.0484   20410595.7254   20410593.8714
       253.000         237.000
 118720602.38548  74717339.41648  20688852.9404   20688855.5114   20688853.2224
       247.000         219.000
 132072949.90748 102913975.48048  25132653.5944   25132657.5374   25132653.5474
       216.000         162.000
 117963789.31748  91919832.62348  22447764.3824   22447766.0764   22447764.6324
       236.000         193.000
 126198319.10348  98336349.03248  24014744.4544   24014745.7034   24014745.6164
       222.000         167.000
 132735084.86248  85637720.92648  23355715.7494   23355717.3354   23355715.9654
       231.000         187.000
 120563135.04948  93945290.97348  22942408.6544   22942410.4344   22942408.7424
       230.000         191.000
 143427243.94148  93969263.59548  25390375.0084   25390378.4544   25390375.0974
       206.000         138.000
 09  1 14  0 58 30.0000000  0 10G 5G26G15G 9G27G18G28G17G12G10
 116710827.81848 108735689.08848  24112286.7774   24112289.6004   24112287.1094
       223.000         168.000
 101909945.98148  97202545.75948  21295762.3574   21295764.8914   21295762.3694
       245.000         214.000
 117279024.16148  73594037.96248  20414523.9824   20414525.5804   20414523.7284
       253.000         237.000
 118670257.89248  74678109.95348  20679272.6304   20679275.3274   20679272.5704
       248.000         219.000
 132144203.89048 102969498.06248  25146213.3224   25146216.7704   25146212.8924
       213.000         161.000
 117931662.97148  91894799.10448  22441651.1144   22441652.6504   22441651.9224
       237.000         194.000
 126288281.57448  98406449.65648  24031863.7404   24031865.3404   24031864.2454
       222.000         167.000
 132707734.40048  85616408.89748  23350510.5604   23350512.5124   23350510.5154
       232.000         187.000
 120462905.00048  93867189.64248  22923335.4634   22923337.3524   22923335.4344
       230.000         190.000
 143536394.48448  94054315.87548  25411146.8074   25411148.2534   25411147.9484
       207.000         139.000
 09  1 14  0 59  0.0000000  0 10G 5G26G15G 9G27G18G28G17G12G10
 116599738.15648 108649125.73948  24091147.0704   24091150.2404   24091147.7234
       221.000         170.000
 101979974.87648  97257113.71548  21309088.3414   21309091.2334   21309088.1744
       246.000         214.000
 117300132.26048  73610485.83148  20418540.5984   20418542.3204   20418540.3814
       253.000         237.000
 118620218.67348  74639118.36648  20669750.4424   20669753.1644   20669750.9504
       248.000         219.000
 132215464.63348 103025025.91448  25159772.9834   25159776.9664   25159773.2374
       216.000         159.000
 117900093.27048  91870199.33948  22435643.7624   22435645.0814   22435644.0914
       238.000         193.000
 126378410.24448  98476679.78848  24049014.6264   24049016.4804   24049015.6644
       223.000         165.000
 132680879.51048  85595483.00648  23345400.3784   23345402.3054   23345400.0944
       232.000         187.000
 120362934.43948  93789290.52248  22904311.5124   22904313.3744   22904311.5664
       230.000         190.000
 143645445.50448  94139290.67848  25431897.4964   25431900.1304   25431898.3594
       207.000         141.000
 09  1 14  0 59 30.0000000  0 10G 5G26G15G 9G27G18G28G17G12G10
 116488796.66248 108562677.85948  24070035.1924   24070038.9404   24070036.3424
       220.000         170.000
 102050359.17648  97311958.62148  21322482.3284   21322484.9064   21322482.1844
       246.000         214.000
 117321697.05348  73627289.55948  20422644.3304   20422645.9354   20422644.1464
       253.000         237.000
 118570484.91948  74600364.79648  20660286.5324   20660289.1664   20660286.9884
       248.000         219.000
 132286732.00248 103080558.97248  25173335.0944   25173338.2314   25173334.3844
       216.000         159.000
 117869081.06848  91846033.98048  22429742.2934   22429743.3844   22429743.2784
       235.000         192.000
 126468702.69848  98547037.53448  24066196.4694   24066198.9714   24066197.5344
       217.000         165.000
 132654521.36448  85574944.18948  23340384.4524   23340386.6004   23340384.7954
       231.000         188.000
 120263225.24748  93711595.06948  22885337.2774   22885339.7054   22885337.4204
       231.000         191.000
 143754394.33448  94224185.78348  25452627.2994   25452632.9614   25452629.8104
       205.000         140.000
 09  1 14  1  0  0.0000000  0 10G 5G26G15G 9G27G18G28G17G12G10
 116378006.19848 108476347.66348  24048952.1034   24048956.3094   24048951.8794
       219.000         169.000
 102121099.09948  97367080.63248  21335943.4914   21335946.0314   21335943.4444
       245.000         213.000
 117343719.77748  73644450.11948  20426835.0804   20426836.7264   20426834.7844
       253.000         237.000
 118521057.97848  74561850.30748  20650880.7744   20650883.4454   20650881.2634
       249.000         220.000
 132358007.12448 103136098.05248  25186898.8104   25186901.4284   25186899.0434
       216.000         160.000
 117838628.19048  91822304.45448  22423947.1814   22423948.5424   22423947.6184
       235.000         192.000
 126559157.53348  98617521.82848  24083409.3614   24083411.8094   24083409.5704
       219.000         165.000
 132628662.60848  85554794.52548  23335464.0904   23335465.5494   23335464.0134
       233.000         188.000
 120163780.34748  93634105.55848  22866413.5304   22866416.2504   22866413.0614
       230.000         192.000
 143863239.59448  94309000.17748  25473340.4014   25473344.1074   25473341.6814
       205.000         140.000
 09  1 14  1  0 30.0000000  0 10G 5G26G15G 9G27G18G28G17G12G10
 116267368.00948 108390136.10348  24027898.4984   24027902.3464   24027899.2344
       220.000         171.000
 102192193.04448  97422478.51148  21349472.3474   21349474.7244   21349472.3114
       246.000         213.000
 117366200.03448  73661967.19548  20431112.9584   20431114.5834   20431112.7614
       253.000         237.000
 118471938.13948  74523575.11548  20641533.8014   20641536.2924   20641534.1584
       248.000         220.000
 132429289.21648 103191642.53648  25200463.0504   25200466.3394   25200463.0964
       218.000         161.000
 117808735.00548  91799011.06048  22418258.4874   22418260.1834   22418259.3504
       235.000         193.000
 126649772.08948  98688130.54848  24100652.7924   24100655.2244   24100654.1054
       218.000         162.000
 132603304.36448  85535034.83448  23330638.3764   23330640.2634   23330638.2144
       233.000         189.000
 120064600.83848  93556822.83748  22847540.2394   22847542.8334   22847539.6844
       231.000         192.000
 143971978.58148  94393731.74048  25494033.2954   25494037.3604   25494035.5144
       205.000         140.000
 09  1 14  1  1  0.0000000  0 11G 5G26G15G 9G27G18G28G17G22G12G10
 116156883.28648 108304044.16348  24006873.9054   24006877.7824   24006873.9084
       219.000         170.000
 102263639.30448  97478150.91948  21363068.2664   21363070.5954   21363068.3044
       245.000         213.000
 117389137.33348  73679840.40748  20435477.8284   20435479.4534   20435477.6094
       253.000         237.000
 118423124.85148  74485538.79648  20632244.6514   20632247.5014   20632244.8154
       247.000         220.000
 132500577.79448 103247192.09348  25214028.7424   25214030.8004   25214028.4444
       217.000         155.000
 117779401.73648  91776153.96148  22412676.5804   22412678.2414   22412676.7844
       235.000         192.000
 126740543.40548  98758861.44848  24117925.6774   24117928.0604   24117927.8494
       214.000         159.000
 132578447.16648  85515665.59248  23325908.2594   23325909.9784   23325908.0044
       231.000         188.000
 138235086.09758  89923442.02258  24402326.8065   24402326.6275   24402328.0385
       218.000         161.000
 119965688.12748  93479748.01348  22828717.9744   22828720.3364   22828718.3464
       232.000         193.000
 144080607.91048  94478377.95148  25514706.0214   25514707.3324   25514706.3334
       201.000         136.000
 09  1 14  1  1 30.0000000  0 11G 5G26G15G 9G27G18G28G17G22G12G10
 116046553.35848 108218072.81848  23985878.5274   23985882.3964   23985878.6774
       221.000         172.000
 102335436.55748  97534096.82948  21376730.5084   21376733.2164   21376730.4984
       245.000         213.000
 117412531.45048  73698069.58448  20439929.5134   20439931.1794   20439929.2124
       253.000         236.000
 118374617.79348  74447741.10548  20623014.2064   20623016.9544   20623014.1094
       248.000         220.000
 132571872.10248 103302746.10748  25227595.8054   25227598.9254   25227595.2424
       218.000         161.000
 117750628.47648  91753733.24048  22407200.9934   22407202.5874   22407202.0234
       235.000         192.000
 126831468.87348  98829712.44948  24135228.2034   24135230.5564   24135228.5904
       215.000         161.000
 132554092.01348  85496687.56648  23321273.3524   23321275.2004   23321272.9204
       232.000         188.000
 138161788.99448  89866327.34148  24388378.5234   24388377.9304   24388380.2884
       222.000         165.000
 119867043.57948  93402882.15948  22809946.5974   22809948.7604   22809946.2014
       232.000         193.000
 144189125.37948  94562936.97548  25535355.5464   25535359.7554   25535356.1334
       200.000         136.000
 09  1 14  1  2  0.0000000  0 11G 5G26G15G 9G27G18G28G17G22G12G10
 115936381.67148 108132224.76348  23964914.2184   23964917.1084   23964915.1554
       224.000         172.000
 102407585.25848  97590316.58548  21390459.9614   21390462.6104   21390459.8294
       244.000         212.000
 117436384.54748  73716656.40648  20444468.7284   20444470.2034   20444468.5114
       253.000         236.000
 118326418.87048  74410183.51648  20613842.1774   20613845.1104   20613842.7614
       247.000         220.000
 132643174.08848 103358306.08748  25241164.1104   25241167.2974   25241164.8864
       216.000         161.000
 117722417.93748  91731750.99848  22401832.9994   22401834.9714   22401833.2834
       235.000         194.000
 126922547.97348  98900683.16648  24152559.8984   24152562.2994   24152560.9794
       216.000         160.000
 132530241.92048  85478103.08148  23316735.1734   23316737.0644   23316734.8414
       233.000         190.000
 138088873.18248  89809509.83748  24374502.6614   24374502.9754   24374502.1484
       211.000         167.000
 119768670.86948  93326228.09848  22791226.6894   22791228.6674   22791226.5514
       231.000         192.000
 144297529.89348  94647407.98748  25555983.2734   25555988.4644   25555985.0234
       199.000         136.000
 09  1 14  1  2 30.0000000  0 11G 5G26G15G 9G27G18G28G17G22G12G10
 115826370.41848 108046501.74248  23943979.8174   23943982.7744   23943981.3844
       222.000         170.000
 102480084.97948  97646809.87148  21404256.1604   21404258.6944   21404255.9754
       244.000         212.000
 117460697.01848  73735601.18248  20449095.2074   20449096.7784   20449094.9794
       253.000         236.000
 118278528.78448  74372866.57148  20604729.1724   20604731.7714   20604728.8334
       248.000         221.000
 132714483.75548 103413872.08148  25254733.4804   25254737.5524   25254733.4994
       217.000         161.000
 117694771.24348  91710208.11848  22396571.8344   22396573.6794   22396572.2014
       236.000         194.000
 127013778.80048  98971772.10848  24169920.6984   24169923.0034   24169920.4124
       214.000         160.000
 132506898.53848  85459913.42548  23312293.1554   23312294.8684   23312292.8354
       232.000         189.000
 138016341.20448  89752991.45948  24360699.2004   24360701.4364   24360697.9624
       218.000         165.000
 119670572.29148  93249787.67048  22772559.2294   22772561.5344   22772559.1444
       231.000         194.000
 144405819.29648  94731789.26148  25576590.1964   25576594.8394   25576590.2544
       202.000         137.000
 09  1 14  1  3  0.0000000  0 10G 5G26G15G 9G27G18G28G17G22G12
 115716521.32948 107960905.07748  23923075.7864   23923079.3314   23923076.5514
       221.000         171.000
 102552934.80448  97703575.95848  21418119.1254   21418121.7064   21418119.0724
       244.000         212.000
 117485468.64048  73754903.73148  20453809.1394   20453810.7754   20453809.0194
       253.000         236.000
 118230947.97848  74335790.62548  20595674.8854   20595677.5034   20595675.3104
       249.000         221.000
 132785801.36948 103469444.22848  25268304.9284   25268308.4284   25268304.7134
       216.000         158.000
 117667689.00348  91689105.08248  22391418.6554   22391420.0404   22391419.0584
       236.000         194.000
 127105159.35448  99042977.74448  24187309.9694   24187312.3304   24187309.4624
       215.000         159.000
 132484063.96848  85442120.26348  23307947.5194   23307949.3334   23307947.3254
       232.000         188.000
 137944195.26448  89696773.75148  24346971.3484   24346972.7444   24346972.0014
       218.000         166.000
 119572749.51548  93173562.15748  22753944.1104   22753946.4684   22753944.1674
       233.000         194.000
 09  1 14  1  3 30.0000000  0 10G 5G26G15G 9G27G18G28G17G22G12
 115606836.04548 107875436.04448  23902203.3894   23902206.8214   23902204.2704
       223.000         172.000
 102626133.10148  97760613.58648  21432048.2654   21432051.0014   21432048.0214
       244.000         212.000
 117510699.66948  73774564.26548  20458610.3424   20458612.1084   20458610.0614
       253.000         236.000
 118183676.52248  74298955.72848  20586679.1524   20586681.8634   20586679.1274
       248.000         221.000
 132857126.46548 103525022.24248  25281878.1184   25281880.7084   25281878.2334
       215.000         155.000
 117641171.79748  91668442.32748  22386372.3244   22386373.5704   22386372.9594
       235.000         193.000
 127196686.80648  99114297.80348  24204727.6184   24204729.0874   24204728.8364
       216.000         157.000
 132461738.74148  85424723.98248  23303699.1054   23303701.3734   23303698.9214
       231.000         190.000
 137872437.14848  89640858.37348  24333316.3604   24333316.2134   24333316.3104
       218.000         167.000
 119475204.10048  93097552.76048  22735382.0484   22735383.9834   22735381.9404
       233.000         195.000
 09  1 14  1  4  0.0000000  0 10G 5G26G15G 9G27G18G28G17G22G12
 115497316.05148 107790095.82848  23881362.5024   23881366.1254   23881362.8954
       224.000         174.000
 102699678.67148  97817921.82248  21446043.4854   21446046.1374   21446043.4264
       244.000         211.000
 117536389.77048  73794582.51848  20463499.0824   20463500.6724   20463498.8844
       253.000         236.000
 118136714.52348  74262361.96748  20577742.6194   20577745.4014   20577743.1324
       247.000         221.000
 132928458.91848 103580605.97948  25295452.0934   25295455.0834   25295451.7164
       217.000         158.000
 117615219.89848  91648220.07048  22381433.6374   22381435.2064   22381433.6334
       235.000         193.000
 127288358.58148  99185730.35748  24222171.6644   24222174.0694   24222173.2434
       211.000         155.000
 132439924.06748  85407725.54048  23299548.1104   23299549.9524   23299547.9614
       233.000         190.000
 137801068.37948  89585246.34148  24319734.9334   24319736.2044   24319735.2364
       213.000         163.000
 119377937.68948  93021760.75848  22716873.1154   22716874.2944   22716872.8654
       233.000         194.000
 09  1 14  1  4 30.0000000  0 10G 5G26G15G 9G27G18G28G17G22G12
 115387963.95648 107704886.41048  23860553.3284   23860557.1334   23860554.0924
       223.000         174.000
 102773571.18048  97875500.39048  21460104.7454   21460107.3654   21460104.5794
       244.000         211.000
 117562540.01148  73814959.32148  20468475.3404   20468476.8984   20468475.0934
       252.000         236.000
 118090063.17448  74226010.27148  20568865.0554   20568868.0054   20568865.0984
       248.000         221.000
 132999799.51748 103636196.04248  25309027.7824   25309030.7354   25309029.1074
       215.000         157.000
 117589835.00848  91628439.62748  22376602.8254   22376604.8794   22376603.7254
       235.000         193.000
 127380173.77348  99257274.65248  24239642.9304   24239645.7814   24239642.5924
       213.000         155.000
 132418621.95648  85391126.48848  23295494.7664   23295496.1524   23295495.0314
       232.000         190.000
 137730091.90848  89529940.02248  24306229.3964   24306230.0344   24306228.6394
       220.000         175.000
 119280952.92748  92946188.22748  22698417.6384   22698418.5784   22698417.4904
       234.000         194.000
 09  1 14  1  5  0.0000000  0 10G 5G26G15G 9G27G18G28G17G22G12
 115278780.67648 107619808.57948  23839776.0334   23839780.3844   23839776.7034
       219.000         173.000
 102847808.89248  97933347.95048  21474231.7004   21474234.4484   21474231.7134
       243.000         211.000
 117589149.64848  73835694.09448  20473538.9654   20473540.5484   20473538.7544
       253.000         236.000
 118043721.86348  74189900.16048  20560046.6824   20560049.3644   20560046.9264
       248.000         222.000
 133071147.43848 103691791.80948  25322604.0904   25322607.0794   25322604.3614
       216.000         159.000
 117565016.47548  91609100.51548  22371880.3724   22371881.8774   22371880.7364
       236.000         194.000
 127472129.04748  99328928.09848  24257142.2954   24257143.9134   24257144.4654
       214.000         154.000
 132397832.73948  85374927.09448  23291538.3574   23291540.5204   23291538.1614
       234.000         192.000
 137659509.16948  89474940.49448  24292798.0994   24292798.3094   24292798.5264
       226.000         169.000
 119184250.91248  92870836.02648  22680015.4834   22680016.8324   22680015.6874
       232.000         194.000
 09  1 14  1  5 30.0000000  0 10G 5G26G15G 9G27G18G28G17G22G12
 115169768.50848 107534864.06748  23819031.5184   23819036.1724   23819031.3664
       223.000         175.000
 102922391.18148  97991464.02348  21488424.3024   21488427.0484   21488424.3334
       243.000         211.000
 117616219.37148  73856787.37848  20478690.2334   20478691.7524   20478689.8864
       253.000         235.000
 117997691.55248  74154032.39048  20551287.5124   20551290.1824   20551287.5834
       249.000         222.000
 133142503.07148 103747393.63948  25336182.7914   25336186.5624   25336183.6094
       212.000         155.000
 117540765.94448  91590203.99748  22367265.7724   22367267.2694   22367266.1864
       235.000         194.000
 127564222.50948  99400689.24048  24274667.0214   24274668.9664   24274667.8694
       215.000         156.000
 132377558.29648  85359128.83048  23287680.3464   23287682.4354   23287680.3304
       233.000         192.000
 137589323.00548  89420249.96848  24279441.8724   24279441.2584   24279442.5424
       219.000         165.000
 119087833.82448  92795705.84348  22661667.7224   22661669.3644   22661667.6304
       233.000         195.000
 09  1 14  1  6  0.0000000  0 10G 5G26G15G 9G27G18G28G17G22G12
 115060930.01548 107450054.85148  23798320.8294   23798324.6504   23798322.0784
       219.000         174.000
 102997317.58848  98049848.22848  21502682.2734   21502685.2394   21502682.1864
       243.000         210.000
 117643749.82748  73878239.67848  20483928.9954   20483930.6454   20483928.7814
       253.000         235.000
 117951973.58448  74118408.00648  20542587.7214   20542590.2774   20542587.8904
       249.000         222.000
 133213867.30548 103803002.10448  25349763.2484   25349766.5894   25349762.9284
       212.000         151.000
 117517084.74848  91571751.12248  22362759.4644   22362760.7524   22362759.9454
       234.000         193.000
 127656452.97148  99472557.10348  24292217.5844   24292219.7094   24292218.6974
       211.000         154.000
 132357800.71748  85343733.30748  23283920.6564   23283922.5344   23283920.5064
       235.000         191.000
 137519535.33248  89365869.89948  24266161.5474   24266161.3744   24266159.6044
       217.000         166.000
 118991704.13148  92720799.60648  22643374.4954   22643376.4824   22643374.2644
       233.000         195.000
 09  1 14  1  6 30.0000000  0 10G 5G26G15G 9G27G18G28G17G22G12
 114952266.96848 107365382.39148  23777642.6744   23777646.2444   23777642.6954
       223.000         175.000
 103072587.40348  98108500.02848  21517005.4854   21517008.2864   21517005.2004
       242.000         210.000
 117671741.02848  73900050.99948  20489255.4954   20489257.2334   20489255.2234
       253.000         235.000
 117906568.01348  74083027.04648  20533947.2334   20533949.8434   20533947.3694
       248.000         222.000
 133285240.24448 103858617.44748  25363345.4604   25363347.6074   25363345.5394
       212.000         150.000
 117493973.24948  91553742.16748  22358361.1824   22358362.9704   22358361.5874
       236.000         194.000
 127748818.12848  99544529.95548  24309794.1064   24309796.0964   24309792.6054
       208.000         154.000
 132338561.27748  85328741.54848  23280259.5854   23280261.3704   23280259.4784
       233.000         192.000
 137450148.28848  89311802.02348  24252957.2674   24252958.1814   24252959.3524
       220.000         166.000
 118895863.94348  92646118.94048  22625137.0984   22625138.7244   22625136.7114
       233.000         195.000
 09  1 14  1  7  0.0000000  0 10G 5G26G15G 9G27G18G28G17G22G12
 114843780.24948 107280847.31148  23756998.6894   23757001.8104   23757000.2164
       223.000         177.000
 103148198.37648  98167417.66148  21531393.9154   21531396.6574   21531393.8564
       243.000         210.000
 117700192.22048  73922220.75348  20494669.7094   20494671.2954   20494669.3964
       252.000         235.000
 117861474.26348  74047889.06248  20525366.1374   20525368.7164   20525366.3894
       251.000         222.000
 133356620.79548 103914238.66848  25376928.1134   25376932.3804   25376928.5044
       206.000         150.000
 117471431.06948  91536176.83748  22354071.7424   22354073.7524   22354072.3874
       236.000         195.000
 127841315.21248  99616605.60748  24327395.4004   24327397.7824   24327395.5334
       208.000         150.000
 132319840.27848  85314153.77348  23276697.0244   23276698.9034   23276696.9024
       234.000         192.000
 137381163.25948  89258047.49148  24239830.5014   24239831.2214   24239830.2204
       217.000         167.000
 118800313.90848  92571664.38848  22606954.4564   22606956.5584   22606954.1514
       234.000         196.000
 09  1 14  1  7 30.0000000  0 10G 5G26G15G 9G27G18G28G17G22G12
 114735472.55448 107196451.72848  23736388.6574   23736391.6644   23736389.1104
       225.000         175.000
 103224150.10648  98226600.82948  21545846.9414   21545849.7624   21545846.8794
       243.000         210.000
 117729104.19248  73944749.55548  20500171.4354   20500173.0074   20500171.2014
       253.000         235.000
 117816693.71348  74012995.12648  20516844.7364   20516847.4824   20516844.9204
       250.000         223.000
 133428009.97948 103969866.59948  25390514.1584   25390516.5634   25390514.2394
       213.000         152.000
 117449459.64448  91519056.23948  22349890.7394   22349892.3334   22349891.6654
       235.000         196.000
 127933942.70948  99688782.84448  24345022.1524   24345024.2424   24345022.4344
       207.000         148.000
 132301639.57748  85299971.39948  23273233.1584   23273235.3194   23273233.0704
       232.000         191.000
 137312583.21948  89204608.48648  24226780.2924   24226780.0174   24226779.9224
       216.000         166.000
 118705056.94348  92497438.19248  22588827.8934   22588829.8034   22588827.8644
       235.000         197.000
 09  1 14  1  8  0.0000000  0 10G 5G26G15G 9G27G18G28G17G22G12
 114627344.86148 107112196.41648  23715812.3094   23715815.5294   23715813.7164
       225.000         175.000
 103300441.10148  98286048.35048  21560364.8354   21560367.6154   21560364.6714
       243.000         210.000
 117758476.59848  73967637.13948  20505760.7934   20505762.5254   20505760.7074
       252.000         235.000
 117772226.08448  73978345.02348  20508382.9404   20508385.5264   20508383.2464
       250.000         223.000
 133499406.97748 104025500.63048  25404099.9524   25404102.1304   25404100.1084
       215.000         153.000
 117428058.97148  91502380.39648  22345818.2764   22345820.2764   22345818.7304
       236.000         195.000
 128026697.56148  99761059.35548  24362672.4804   24362674.8584   24362672.6284
       206.000         149.000
 132283959.66148  85286194.85248  23269869.0614   23269870.9964   23269868.5564
       234.000         192.000
 137244409.06548  89151485.74548  24213805.2684   24213807.3974   24213807.2434
       216.000         167.000
 118610093.93548  92423441.04748  22570756.9234   22570758.9414   22570756.8954
       234.000         196.000
 09  1 14  1  8 30.0000000  0 10G 5G26G15G 9G27G18G28G17G22G12
 114519400.06148 107028083.61448  23695270.9804   23695274.1284   23695271.5034
       223.000         173.000
 103377071.09648  98345760.03248  21574947.0054   21574949.9224   21574947.1474
       242.000         210.000
 117788310.01748  73990883.95048  20511437.8604   20511439.6514   20511437.6194
       252.000         235.000
 117728072.49648  73943939.63748  20499980.6374   20499983.4994   20499980.6544
       251.000         223.000
 133570812.83648 104081141.51048  25417687.3414   25417690.6104   25417687.5914
       214.000         154.000
 117407230.43548  91486150.35348  22341854.9514   22341856.6384   22341854.7474
       237.000         196.000
 128119579.04048  99833434.52248  24380347.4674   24380349.5504   24380346.1884
       208.000         152.000
 132266803.01348  85272826.03248  23266604.3364   23266606.3224   23266604.4004
       232.000         191.000
 137176644.18348  89098681.91948  24200911.5144   24200912.9384   24200910.9364
       218.000         170.000
 118515427.83648  92349675.26548  22552742.4074   22552744.3684   22552742.4104
       235.000         196.000
 09  1 14  1  9  0.0000000  0 10G 5G26G15G 9G27G18G28G17G22G12
 114411639.69948 106944114.51348  23674764.5104   23674768.0334   23674765.2794
       220.000         173.000
 103454038.77648  98405734.84348  21589593.4314   21589596.3474   21589593.1814
       242.000         209.000
 117818604.89048  74014490.33848  20517202.7914   20517204.4954   20517202.2864
       252.000         235.000
 117684233.07748  73909779.05248  20491638.3164   20491641.0514   20491638.6604
       250.000         223.000
 133642227.35748 104136789.22748  25431277.4504   25431280.7154   25431277.2484
       214.000         153.000
 117386974.51148  91470366.50548  22338000.2934   22338002.1574   22338001.2804
       236.000         195.000
 128212584.68948  99905906.45448  24398046.7944   24398048.1254   24398047.5874
       210.000         152.000
 132250170.10948  85259865.32748  23263438.8464   23263441.1414   23263438.1424
       234.000         191.000
 137109290.14648  89046198.26648  24188094.5784   24188094.9424   24188094.9704
       219.000         168.000
 118421060.27248  92276142.08548  22534784.6614   22534786.5334   22534784.7244
       235.000         197.000
 09  1 14  1  9 30.0000000  0 10G 5G26G15G 9G27G18G28G17G22G12
 114304065.26748 106860290.31848  23654293.5394   23654297.3034   23654292.8114
       225.000         175.000
 103531342.86848  98465971.79248  21604303.8534   21604306.6434   21604303.8234
       242.000         209.000
 117849360.45748  74038455.71748  20523055.4134   20523057.0464   20523055.2424
       252.000         235.000
 117640707.98248  73875863.39548  20483355.8574   20483358.5484   20483355.9194
       250.000         223.000
 133713650.42648 104192443.56148  25444868.8754   25444872.4984   25444869.3714
       209.000         141.000
 117367291.28448  91455028.92148  22334254.7454   22334256.3414   22334255.4934
       235.000         194.000
 128305711.79348  99978473.02248  24415768.0474   24415770.0614   24415767.2874
       213.000         155.000
 132234062.15248  85247313.68048  23260373.9814   23260375.7154   23260373.7324
       234.000         192.000
 137042348.84448  88994036.21548  24175356.2554   24175356.1364   24175357.3414
       222.000         168.000
 118326992.61748  92202842.62048  22516884.3954   22516886.1664   22516884.0104
       235.000         198.000
 09  1 14  1 10  0.0000000  0 10G 5G26G15G 9G27G18G28G17G22G12
 114196678.72148 106776612.50348  23633859.3014   23633862.5714   23633860.9684
       226.000         178.000
 103608982.20648  98526469.97148  21619078.2064   21619080.9364   21619078.1154
       242.000         209.000
 117880577.00648  74062780.29848  20528995.6684   20528997.3824   20528995.4144
       252.000         235.000
 117597497.66348  73842193.01548  20475132.9334   20475135.7604   20475133.0874
       251.000         223.000
 133785082.21948 104248104.66048  25458462.5514   25458463.9434   25458461.9904
       201.000         132.000
 117348181.07348  91440137.86748  22330617.8174   22330619.7884   22330618.6554
       235.000         194.000
 128398958.69548 100051132.94148  24433512.5074   24433514.3964   24433512.8644
       209.000         154.000
 132218480.25248  85235171.94348  23257408.7514   23257410.7094   23257409.1374
       231.000         192.000
 136975822.24048  88942197.23248  24162696.9124   24162697.4194   24162696.7514
       224.000         172.000
 118233226.90648  92129778.43448  22499041.4694   22499043.2074   22499040.9384
       236.000         199.000
 09  1 14  1 10 30.0000000  0 10G 5G26G15G 9G27G18G28G17G22G12
 114089481.57148 106693082.28348  23613460.1914   23613463.5984   23613460.6494
       225.000         176.000
 103686955.63748  98587228.48748  21633916.1084   21633918.7984   21633916.0854
       243.000         209.000
 117912254.27748  74087463.88048  20535023.8094   20535025.4634   20535023.5884
       252.000         235.000
 117554602.49148  73808768.20248  20466970.4104   20466973.2214   20466970.4634
       251.000         224.000
 133856522.54148 104303772.48148  25472054.6654   25472059.0974   25472056.6974
       189.000         125.000
 117329644.27048  91425693.59048  22327090.5174   22327092.3864   22327090.6004
       235.000         193.000
 128492322.95548 100123884.26148  24451278.9674   24451281.5234   24451277.9004
       211.000         155.000
 132203425.29848  85223440.82348  23254543.8304   23254545.8154   23254543.2554
       232.000         192.000
 136909711.98048  88890682.74648  24150116.4164   24150116.7124   24150117.8204
       221.000         167.000
 118139764.49848  92056950.60548  22481256.3374   22481258.1944   22481256.4724
       235.000         199.000
 09  1 14  1 11  0.0000000  0  9G 5G26G15G 9G18G28G17G22G12
 113982476.44448 106609701.68148  23593097.7704   23593101.1064   23593098.5004
       227.000         178.000
 103765262.84848  98648247.08948  21648817.5034   21648820.1574   21648817.3594
       242.000         209.000
 117944392.64248  74112506.75348  20541139.5904   20541141.2174   20541139.3284
       253.000         234.000
 117512023.45548  73775589.72748  20458867.9574   20458870.8084   20458868.1304
       251.000         224.000
 117311681.94048  91411696.95648  22323672.2674   22323673.9274   22323673.1044
       234.000         193.000
 128585803.36348 100196726.13448  24469068.1824   24469069.5494   24469068.1494
       214.000         154.000
 132188899.12248  85212121.73248  23251779.6114   23251781.4644   23251779.4324
       233.000         192.000
 136844020.79848  88839494.78748  24137615.7114   24137615.4274   24137616.5434
       219.000         164.000
 118046608.11248  91984361.21648  22463529.0554   22463530.7274   22463528.8894
       237.000         198.000
 09  1 14  1 11 30.0000000  0  9G 5G26G15G 9G18G28G17G22G12
 113875664.67948 106526471.76648  23572772.1124   23572775.9854   23572773.6254
       225.000         178.000
 103843902.13348  98709524.45048  21663782.1394   21663784.8514   21663782.1194
       242.000         208.000
 117976992.13948  74137908.95648  20547343.0044   20547344.5844   20547342.8684
       252.000         234.000
 117469760.53948  73742657.58848  20450825.6464   20450828.2174   20450825.9754
       251.000         224.000
 117294294.26448  91398148.11848  22320363.5444   22320365.3554   22320363.8834
       235.000         193.000
 128679397.34048 100269656.46648  24486878.6584   24486879.5774   24486878.9804
       213.000         153.000
 132174902.47148  85201215.24648  23249116.0484   23249118.1354   23249115.7434
       234.000         193.000
 136778750.36048  88788634.68948  24125194.6964   24125195.1614   24125195.7104
       219.000         166.000
 117953758.86048  91912011.15148  22445860.5024   22445862.2664   22445860.3664
       237.000         200.000
 09  1 14  1 12  0.0000000  0  9G 5G26G15G 9G18G28G17G22G12
 113769048.05148 106443393.88648  23552483.5224   23552487.2064   23552483.8714
       225.000         179.000
 103922872.32648  98771059.67048  21678809.4704   21678812.4204   21678809.1414
       241.000         208.000
 118010052.63348  74163670.37648  20553634.1154   20553635.6404   20553633.9204
       252.000         234.000
 117427813.85148  73709971.85948  20442843.5184   20442846.0024   20442843.3714
       251.000         224.000
 117277481.47548  91385047.23648  22317164.3284   22317166.0764   22317164.7164
       235.000         194.000
 128773102.78648 100342673.68848  24504710.6464   24504711.7574   24504710.8714
       212.000         151.000
 132161436.34648  85190722.16848  23246553.7054   23246555.5544   23246553.7524
       233.000         193.000
 136713902.30648  88738103.73448  24112854.7184   24112854.5194   24112855.4624
       219.000         167.000
 117861218.75048  91839901.99048  22428250.7594   22428252.5204   22428250.5524
       238.000         201.000
 09  1 14  1 12 30.0000000  0  9G 5G26G15G 9G18G28G17G22G12
 113662629.26148 106360470.19048  23532232.5964   23532236.2984   23532232.9154
       225.000         179.000
 104002173.21648  98832852.56648  21693899.9504   21693902.7044   21693899.4674
       242.000         208.000
 118043574.92748  74189791.63348  20560013.2314   20560014.8324   20560013.0004
       252.000         234.000
 117386184.92748  73677533.73848  20434921.6454   20434924.2394   20434921.7694
       251.000         224.000
 117261245.48648  91372395.81248  22314074.6184   22314076.4554   22314075.0044
       236.000         194.000
 128866918.47648 100415776.83048  24522562.3454   24522563.8744   24522562.4284
       211.000         149.000
 132148502.45148  85180643.81448  23244092.4044   23244094.2794   23244092.1934
       232.000         193.000
 136649479.55048  88687904.14948  24100595.3394   24100596.2984   24100594.3614
       218.000         167.000
 117768990.51248  91768035.82548  22410700.2924   22410702.4214   22410700.3444
       237.000         202.000
 09  1 14  1 13  0.0000000  0  9G 5G26G15G 9G18G28G17G22G12
 113556409.86148 106277701.86248  23512019.5364   23512023.7364   23512019.8254
       228.000         180.000
 104081803.47948  98894902.12648  21709052.9854   21709055.7534   21709052.7744
       241.000         207.000
 118077558.84748  74216272.60548  20566480.2744   20566481.7444   20566479.9844
       252.000         234.000
 117344874.03948  73645343.44048  20427060.3764   20427063.0824   20427060.5114
       251.000         224.000
 117245585.42848  91360193.16048  22311094.8634   22311096.4724   22311095.7764
       234.000         194.000
 128960842.17548 100488964.13648  24540435.7814   24540436.2084   24540436.4394
       210.000         149.000
 132136101.82748  85170980.99348  23241732.4944   23241734.4334   23241732.3884
       234.000         193.000
 136585483.87748  88638037.37048  24088416.5474   24088418.4144   24088417.8644
       216.000         169.000
 117677075.55448  91696413.78948  22393209.3274   22393211.3344   22393209.2254
       237.000         201.000
 09  1 14  1 13 30.0000000  0  9G 5G26G15G 9G18G28G17G22G12
 113450391.06748 106195089.82848  23491845.4354   23491849.1174   23491846.2354
       226.000         180.000
 104161761.44148  98957207.02548  21724268.7834   21724271.3094   21724268.6954
       242.000         207.000
 118112003.28748  74243112.42548  20573034.8804   20573036.2294   20573034.6994
       252.000         234.000
 117303880.97648  73613400.79348  20419259.5914   20419262.3714   20419259.9034
       250.000         224.000
 117230501.23448  91348439.25248  22308224.0274   22308226.2654   22308224.1704
       235.000         195.000
 129054871.37948 100562233.64048  24558329.1174   24558329.5874   24558329.4344
       208.000         148.000
 132124234.56448  85161733.77048  23239474.4484   23239476.0244   23239474.3874
       233.000         192.000
 136521916.58348  88588504.45748  24076321.0934   24076322.1734   24076321.4174
       221.000         173.000
 117585474.93548  91625036.69848  22375778.2524   22375780.4544   22375778.1894
       237.000         201.000
 09  1 14  1 14  0.0000000  0  9G 5G26G15G 9G18G28G17G22G12
 113344575.08448 106112635.83048  23471709.1054   23471712.7954   23471709.6164
       227.000         180.000
 104242046.29248  99019766.64348  21739546.3364   21739548.9864   21739546.3134
       241.000         206.000
 118146909.02648  74270311.69948  20579677.0384   20579678.6724   20579676.9084
       252.000         233.000
 117263206.50448  73581706.40948  20411519.5764   20411522.2284   20411519.7524
       251.000         224.000
 117215993.65948  91337134.65648  22305463.6264   22305465.6324   22305464.4424
       236.000         195.000
 129149004.45048 100635584.06748  24576241.5644   24576242.6324   24576241.1364
       208.000         147.000
 132112902.39448  85152903.51348  23237317.7924   23237319.5354   23237318.0344
       232.000         192.000
 136458780.04848  88539307.13548  24064307.1254   24064306.9654   24064306.0954
       218.000         168.000
 117494190.93548  91553906.32348  22358407.6014   22358409.7624   22358407.4674
       239.000         202.000
 09  1 14  1 14 30.0000000  0  9G 5G26G15G 9G18G28G17G22G12
 113238963.40048 106030341.03048  23451611.9114   23451615.1614   23451613.0544
       226.000         179.000
 104322656.60148  99082579.87248  21754885.9844   21754888.4304   21754885.7254
       242.000         206.000
 118182275.42048  74297869.92648  20586406.9864   20586408.8174   20586406.6034
       251.000         233.000
 117222850.47348  73550260.14448  20403840.1724   20403842.7874   20403840.4404
       251.000         224.000
 117202062.98148  91326279.56848  22302812.7364   22302814.6524   22302812.8724
       235.000         194.000
 129243238.86248 100709013.47648  24594173.4694   24594174.6164   24594173.9474
       210.000         146.000
 132102105.86148  85144490.63348  23235263.7464   23235265.2784   23235263.4314
       232.000         194.000
 136396075.77848  88490446.65448  24052374.2734   24052374.9134   24052374.3564
       221.000         171.000
 117403225.39848  91483024.08748  22341097.6374   22341099.3384   22341097.6494
       241.000         204.000
 09  1 14  1 15  0.0000000  0  9G 5G26G15G 9G18G28G17G22G12
 113133557.91148 105948206.91148  23431553.8594   23431557.0824   23431553.8514
       227.000         179.000
 104403591.27948  99145645.84948  21770287.4004   21770290.0174   21770287.4814
       242.000         207.000
 118218102.64248  74325787.23648  20593224.6434   20593226.6544   20593224.3824
       251.000         233.000
 117182813.45348  73519062.47448  20396221.2964   20396223.9524   20396221.5814
       251.000         224.000
 117188709.49748  91315874.25548  22300271.4434   22300273.7064   22300271.8834
       236.000         194.000
 129337572.83048 100782520.47448  24612125.0074   24612125.9824   24612124.5944
       205.000         147.000
 132091845.88648  85136495.85048  23233311.3744   23233312.8244   23233311.3084
       232.000         193.000
 136333805.99448  88441924.71748  24040525.3314   24040525.9044   24040525.9334
       221.000         172.000
 117312579.48648  91412390.91948  22323848.4204   22323849.8474   22323848.6184
       240.000         204.000
 09  1 14  1 15 30.0000000  0  9G 5G26G15G 9G18G28G17G22G12
 113028360.82848 105866235.17648  23411535.5704   23411538.6614   23411536.0754
       229.000         180.000
 104484849.71448  99208964.11148  21785750.2984   21785752.8914   21785750.2494
       242.000         206.000
 118254390.89848  74354063.79448  20600130.0634   20600132.0274   20600129.9414
       251.000         233.000
 117143096.42348  73488114.14148  20388663.3544   20388666.1894   20388663.5144
       250.000         224.000
 117175933.69148  91305919.06748  22297840.3064   22297842.1694   22297840.5034
       238.000         195.000
 129432004.83548 100856103.85248  24630094.1274   24630096.1894   24630093.5324
       206.000         145.000
 132082123.82848  85128920.20648  23231460.9074   23231462.8504   23231460.2614
       233.000         194.000
 136271972.87648  88393743.04348  24028758.7434   24028758.9814   24028758.7014
       219.000         170.000
 117222255.74348  91342008.78948  22306660.2524   22306661.8654   22306660.1224
       239.000         203.000
 09  1 14  1 16  0.0000000  0  9G 5G26G15G 9G18G28G17G22G12
 112923373.80148 105784427.12748  23391557.3094   23391560.2724   23391558.4064
       227.000         181.000
 104566430.59148  99272533.62948  21801274.6164   21801277.2504   21801274.4614
       242.000         205.000
 118291139.39348  74382698.97748  20607123.1004   20607124.8624   20607122.7534
       251.000         233.000
 117103699.64148  73457415.35048  20381166.4374   20381169.1564   20381166.4234
       251.000         225.000
 117163735.39348  91296413.89148  22295519.4784   22295521.1224   22295520.0034
       238.000         195.000
 129526532.61748 100929761.82948  24648082.8424   24648083.9914   24648083.1514
       211.000         148.000
 132072940.45348  85121764.35048  23229713.6444   23229715.3554   23229713.2034
       234.000         195.000
 136210577.85548  88345902.79248  24017075.2524   24017075.1674   24017075.4734
       219.000         169.000
 117132255.42748  91271878.69648  22289533.2194   22289535.1914   22289533.2264
       238.000         202.000
 09  1 14  1 16 30.0000000  0  9G 5G26G15G 9G18G28G17G22G12
 112818597.48848 105702783.26348  23371619.2364   23371622.3304   23371620.4554
       226.000         180.000
 104648331.48448  99336352.49548  21816859.9574   21816862.6054   21816859.7704
       242.000         206.000
 118328347.80248  74411692.53848  20614203.7244   20614205.3564   20614203.2984
       251.000         232.000
 117064622.22948  73426965.42848  20373730.2764   20373733.0114   20373730.5794
       252.000         225.000
 117152113.92848  91287358.20348  22293307.7614   22293309.4934   22293308.7904
       237.000         195.000
 129621153.39148 101003492.31548  24666088.7074   24666090.1924   24666090.6124
       206.000         148.000
 132064295.56748  85115028.07148  23228068.7474   23228070.3604   23228068.9864
       233.000         194.000
 136149621.80348  88298404.54348  24005476.1554   24005476.3304   24005477.1484
       221.000         168.000
 117042579.48248  91202001.36548  22272468.3244   22272470.2664   22272467.9254
       239.000         203.000
 09  1 14  1 17  0.0000000  0  9G 5G26G15G 9G18G28G17G22G12
 112714034.83048 105621305.89848  23351721.1864   23351724.4674   23351721.4584
       224.000         181.000
 104730552.32648  99400420.69548  21832506.0384   21832508.5794   21832505.9394
       242.000         205.000
 118366016.67148  74441044.90148  20621371.8874   20621373.5784   20621371.6264
       251.000         232.000
 117025865.88948  73396765.67848  20366355.2404   20366357.8804   20366355.6154
       251.000         225.000
 117141070.85848  91278753.19548  22291206.1134   22291208.1604   22291206.9814
       234.000         194.000
 129715866.26048 101077294.53948  24684111.4964   24684113.6994   24684110.1304
       204.000         148.000
 132056190.96148  85108712.79948  23226526.3414   23226528.0154   23226526.6924
       233.000         194.000
 136089107.88948  88251250.81848  23993960.1524   23993960.8824   23993961.8934
       220.000         164.000
 116953230.73048  91132378.96448  22255466.2784   22255468.0864   22255466.1834
       240.000         205.000
 09  1 14  1 17 30.0000000  0  9G 5G26G15G 9G18G28G17G22G12
 112609688.08248 105539996.77848  23331864.2274   23331868.4274   23331865.0264
       224.000         180.000
 104813092.62648  99464737.81448  21848212.7034   21848215.6164   21848212.7364
       242.000         205.000
 118404146.29748  74470756.29448  20628627.6834   20628629.3874   20628627.4174
       251.000         232.000
 116987431.66448  73366816.93948  20359041.4064   20359044.0544   20359041.3414
       250.000         225.000
 117130606.54648  91270599.15748  22289214.6894   22289216.9664   22289215.3274
       235.000         194.000
 129810669.41648 101151167.10648  24702152.5154   24702154.1794   24702152.3904
       208.000         151.000
 132048628.17148  85102819.73648  23225086.9504   23225088.8004   23225086.5134
       231.000         194.000
 136029038.19848  88204443.25048  23982529.2034   23982529.2804   23982528.8964
       221.000         167.000
 116864211.28148  91063013.18348  22238526.2934   22238528.2504   22238526.3704
       240.000         204.000
 09  1 14  1 18  0.0000000  0  9G 5G26G15G 9G18G28G17G22G12
 112505558.88548 105458857.16448  23312049.1544   23312053.0624   23312049.5864
       227.000         181.000
 104895950.91448  99529302.70748  21863980.3084   21863983.1054   21863980.2154
       243.000         205.000
 118442736.35848  74500826.46948  20635971.1934   20635972.7904   20635970.9494
       251.000         232.000
 116949320.00948  73337119.55148  20351789.0034   20351791.6184   20351789.3014
       250.000         225.000
 117120720.89248  91262896.04548  22287333.3474   22287335.7254   22287334.0594
       234.000         194.000
 129905560.81448 101225108.42448  24720209.4994   24720211.5374   24720210.8944
       209.000         152.000
 132041607.84548  85097349.35348  23223751.2014   23223752.9394   23223751.3314
       234.000         195.000
 135969414.60448  88157983.30748  23971183.4144   23971184.2584   23971183.2824
       218.000         171.000
 116775522.59448  90993905.13148  22221649.4724   22221651.0944   22221649.4234
       241.000         205.000
 09  1 14  1 18 30.0000000  0  9G 5G26G15G 9G18G28G17G22G12
 112401648.11948 105377887.73748  23292275.8804   23292279.4594   23292276.4124
       227.000         181.000
 104979125.25448  99594113.87848  21879807.7744   21879810.5834   21879807.6684
       244.000         205.000
 118481785.72948  74531254.54248  20643401.9024   20643403.6744   20643401.6214
       251.000         231.000
 116911530.32548  73307673.05248  20344597.8274   20344600.5344   20344597.9474
       249.000         225.000
 117111413.01148  91255643.15148  22285562.6294   22285564.4374   22285562.9214
       236.000         195.000
 130000537.84248 101299116.51648  24738282.7634   24738284.9444   24738283.7374
       197.000         150.000
 132035129.85448  85092301.57048  23222518.6304   23222520.3844   23222519.1294
       234.000         196.000
 135910238.53548  88111872.07448  23959923.1714   23959923.8464   23959923.1344
       221.000         168.000
 116687165.76348  90925055.66148  22204835.9974   22204837.4464   22204835.6674
       240.000         205.000
 09  1 14  1 19  0.0000000  0  9G 5G26G15G 9G18G28G17G22G12
 112297957.91248 105297090.18848  23272544.3784   23272548.1174   23272544.7964
       226.000         182.000
 105062614.57948  99659170.49148  21895695.4954   21895697.9664   21895695.4384
       242.000         205.000
 118521294.50748  74562040.59348  20650919.9194   20650921.9194   20650919.5644
       250.000         231.000
 116874063.12948  73278477.83048  20337468.1364   20337470.8454   20337467.9494
       250.000         225.000
 117102683.50648  91248840.93848  22283901.3554   22283903.2624   22283901.6954
       236.000         195.000
 130095598.64248 101373189.84148  24756371.4894   24756375.0064   24756370.3844
       202.000         149.000
 132029195.19548  85087677.16948  23221389.4434   23221391.1894   23221389.4694
       231.000         195.000
 135851511.12348  88066110.42348  23948747.1444   23948747.8834   23948748.5014
       217.000         168.000
 116599142.46648  90856466.09148  22188085.6394   22188086.9944   22188085.6814
       240.000         205.000
 09  1 14  1 19 30.0000000  0  9G 5G26G15G 9G18G28G17G22G12
 112194490.29148 105216466.08448  23252855.0434   23252858.8354   23252855.4814
       227.000         181.000
 105146418.09848  99724471.93348  21911642.6604   21911645.0434   21911642.4884
       242.000         203.000
 118561262.87848  74593184.77248  20658525.8424   20658527.7544   20658525.5254
       250.000         231.000
 116836919.07648  73249534.41148  20330399.6754   20330402.4214   20330399.9784
       250.000         225.000
 117094532.56048  91242489.54848  22282350.0624   22282352.3094   22282350.2974
       237.000         195.000
 130190741.92348 101447327.42948  24774477.3464   24774479.9034   24774476.7244
       203.000         151.000
 132023804.94748  85083476.97948  23220363.3334   23220365.0114   23220362.9594
       231.000         193.000
 135793234.88748  88020700.40148  23937657.8304   23937657.9224   23937658.4924
       220.000         172.000
 116511454.89948  90788138.14148  22171399.0294   22171400.6684   22171398.9794
       241.000         206.000
 09  1 14  1 20  0.0000000  0  9G 5G26G15G 9G18G28G17G22G12
 112091246.68348 105136016.53348  23233208.7004   23233212.1034   23233209.9494
       226.000         182.000
 105230534.12848  99790016.90848  21927649.4024   21927651.8104   21927649.3174
       242.000         204.000
 118601690.10348  74624686.50348  20666218.9744   20666220.8904   20666218.8094
       251.000         231.000
 116800098.42848  73220842.99948  20323392.9414   20323395.7414   20323393.0844
       249.000         225.000
 117086960.08348  91236588.90948  22280909.5714   22280911.3644   22280910.3214
       237.000         196.000
 130285964.99348 101521527.22348  24792598.3744   24792600.0884   24792598.4704
       200.000         149.000
 132018959.72948  85079701.50148  23219441.4894   23219443.2284   23219441.2354
       234.000         194.000
 135735411.66548  87975643.35048  23926654.8824   23926655.4554   23926653.8404
       221.000         174.000
 116424104.05448  90720072.55548  22154776.8574   22154778.0744   22154776.8734
       242.000         206.000
 09  1 14  1 20 30.0000000  0  9G 5G26G15G 9G18G28G17G22G12
 111988228.73348 105055742.82648  23213604.6764   23213608.6404   23213605.4194
       225.000         182.000
 105314961.35148  99855804.34548  21943715.3434   21943718.0154   21943715.2454
       241.000         204.000
 118642575.89048  74656545.55148  20673999.2924   20674001.2774   20673999.0644
       251.000         232.000
 116763601.43448  73192403.78248  20316447.9624   20316450.6034   20316448.0104
       250.000         226.000
 117079965.80148  91231138.81848  22279578.5924   22279580.5324   22279578.8974
       236.000         195.000
 130381266.37248 101595788.00448  24810733.1004   24810735.8184   24810732.7634
       201.000         150.000
 132014660.02148  85076351.08848  23218623.1084   23218625.2514   23218622.9514
       231.000         193.000
 135678042.92548  87930940.39048  23915737.4684   23915737.7024   23915737.0084
       222.000         173.000
 116337091.89448  90652270.88548  22138218.9584   22138220.5904   22138219.0424
       241.000         207.000
 09  1 14  1 21  0.0000000  0  9G 5G26G15G 9G18G28G17G22G12
 111885438.72448 104975646.70748  23194044.2364   23194048.2334   23194045.1154
       225.000         182.000
 105399699.30448  99921833.91848  21959840.6124   21959843.1324   21959840.1984
       242.000         203.000
 118683920.55448  74688762.16848  20681867.1424   20681868.8634   20681866.9854
       251.000         231.000
 116727428.93748  73164217.42448  20309564.4954   20309567.1244   20309564.9704
       250.000         226.000
 117073550.42548  91226139.82248  22278357.6114   22278359.3074   22278358.5504
       235.000         194.000
 130476644.24848 101670108.38648  24828883.0114   24828885.1144   24828884.2144
       206.000         153.000
 132010906.80848  85073426.50548  23217909.0274   23217910.6974   23217908.7484
       233.000         193.000
 135621130.19748  87886592.81148  23904907.7334   23904907.7024   23904909.8684
       225.000         173.000
 116250420.63948  90584734.84548  22121725.8294   22121727.5214   22121725.5384
       241.000         207.000
 09  1 14  1 21 30.0000000  0  9G 5G26G15G 9G18G28G17G22G12
 111782877.98248 104895729.27548  23174527.5654   23174531.2374   23174528.7114
       226.000         180.000
 105484746.03348  99988104.09748  21976024.3134   21976026.9424   21976024.0754
       241.000         203.000
 118725723.16448  74721335.62448  20689821.8504   20689823.4954   20689821.5704
       251.000         231.000
 116691581.15148  73136284.08248  20302742.8624   20302745.5534   20302742.8754
       251.000         226.000
 117067713.19448  91221591.32248  22277246.7644   22277248.4424   22277246.7604
       236.000         195.000
 130572096.23048 101744486.53748  24847046.6064   24847049.0254   24847046.1844
       204.000         154.000
 132007700.07848  85070927.76748  23217298.9184   23217300.2674   23217299.1304
       233.000         193.000
 135564675.50648  87842602.14948  23894164.3794   23894164.5864   23894165.6144
       220.000         171.000
 116164091.17648  90517465.16248  22105297.5654   22105299.4624   22105297.3324
       241.000         205.000
 09  1 14  1 22  0.0000000  0  9G 5G26G15G 9G18G28G17G22G12
 111680549.03148 104815992.43748  23155054.9764   23155058.3874   23155054.9654
       226.000         181.000
 105570101.31348 100054614.70248  21992266.9074   21992269.5634   21992266.7374
       243.000         203.000
 118767984.44548  74754266.49148  20697863.8424   20697865.5554   20697863.5964
       251.000         231.000
 116656059.15448  73108604.60448  20295983.3794   20295985.9874   20295983.7994
       251.000         226.000
 117062454.84948  91217493.89248  22276246.3314   22276248.1824   22276246.7554
       237.000         194.000
 130667621.19048 101818921.54548  24865224.5054   24865226.9894   24865223.9414
       209.000         156.000
 132005041.38048  85068856.05648  23216792.7054   23216794.4464   23216792.6634
       230.000         191.000
 135508681.35748  87798970.32848  23883508.8414   23883509.8334   23883508.5324
       223.000         175.000
 116078105.74148  90450463.52648  22088935.2374   22088936.9674   22088935.1404
       241.000         206.000
 09  1 14  1 22 30.0000000  0  9G 5G26G15G 9G18G28G17G22G12
 111578453.44148 104736437.45048  23135627.0704   23135629.8444   23135627.3774
       226.000         180.000
 105655763.53948 100121364.49048  22008567.9684   22008570.4324   22008567.5764
       242.000         202.000
 118810703.87348  74787554.35248  20705992.8824   20705994.6924   20705992.6524
       250.000         230.000
 116620863.13348  73081179.13948  20289285.7784   20289288.3014   20289286.1474
       251.000         226.000
 117057775.08448  91213847.31548  22275355.6574   22275357.5354   22275356.3834
       237.000         194.000
 130763217.53248 101893412.19548  24883416.1604   24883417.9994   24883416.6004
       211.000         156.000
 132002931.62348  85067212.10248  23216391.0984   23216392.8064   23216390.3884
       230.000         191.000
 135453148.70548  87755698.10948  23872941.5764   23872942.4664   23872941.8274
       221.000         171.000
 115992466.26748  90383731.47948  22072638.6704   22072640.0474   22072638.4904
       241.000         206.000
 09  1 14  1 23  0.0000000  0  9G 5G26G15G 9G18G28G17G22G12
 111476591.88748 104657064.83448  23116243.3674   23116246.4024   23116244.1484
       226.000         180.000
 105741730.23348 100188351.52648  22024926.9154   22024929.1804   22024926.7994
       242.000         202.000
 118853879.76548  74821197.90048  20714208.9444   20714210.7924   20714208.5644
       250.000         230.000
 116585992.43948  73054007.16548  20282650.1464   20282652.6364   20282650.2314
       251.000         226.000
 117053672.80048  91210650.73048  22274574.9044   22274576.8104   22274575.6504
       234.000         195.000
 130858881.87348 101967955.81548  24901620.6474   24901621.8644   24901622.2194
       215.000         159.000
 132001370.05448  85065995.31748  23216094.2244   23216095.7394   23216093.9074
       230.000         193.000
 135398078.40948  87712786.17948  23862461.9084   23862462.4274   23862463.7794
       225.000         175.000
 115907173.14448  90317269.31448  22056408.2224   22056409.3154   22056408.2374
       242.000         207.000
 09  1 14  1 23 30.0000000  0  9G 5G26G15G 9G18G28G17G22G12
 111374966.06448 104577875.88848  23096904.7454   23096907.4624   23096905.0424
       226.000         180.000
 105828000.39748 100255575.02548  22041343.5444   22041346.2394   22041343.5454
       241.000         203.000
 118897512.05748  74855197.08948  20722511.9264   20722513.8064   20722511.5834
       250.000         230.000
 116551447.39748  73027088.95248  20276076.4674   20276078.8914   20276076.7344
       250.000         226.000
 117050147.92948  91207904.06948  22273904.1154   22273906.1264   22273904.4804
       235.000         194.000
 130954612.51348 102042551.10948  24919837.8484   24919838.5374   24919839.6454
       213.000         159.000
 132000357.19848  85065206.09348  23215901.0604   23215903.3984   23215900.8254
       231.000         193.000
 135343472.42748  87670236.05148  23852070.9634   23852071.1144   23852070.9834
       224.000         176.000
 115822227.79148  90251078.13248  22040243.4444   22040244.8134   22040243.2194
       241.000         207.000
 09  1 14  1 24  0.0000000  0  9G 5G26G15G 9G18G28G17G22G12
 111273578.91148 104498872.93948  23077611.1544   23077614.2604   23077612.0974
       227.000         182.000
 105914573.91348 100323034.89248  22057817.8064   22057820.7344   22057817.6014
       241.000         202.000
 118941601.30048  74889552.33948  20730901.9634   20730903.6854   20730901.7124
       250.000         230.000
 116517229.89248  73000425.95748  20269564.9204   20269567.7534   20269564.9364
       251.000         227.000
 117047201.30548  91205607.99648  22273343.5854   22273345.5464   22273343.9264
       236.000         196.000
 131050408.73248 102117197.50248  24938066.7864   24938067.7104   24938067.1334
       214.000         159.000
 131999894.73548  85064845.73148  23215813.3264   23215815.2894   23215813.2554
       231.000         193.000
 135289333.48048  87628049.88348  23841768.5584   23841769.2854   23841768.9514
       222.000         172.000
 115737632.83248  90185159.99848  22024145.2814   22024147.0264   22024145.1064
       242.000         207.000
 09  1 14  1 24 30.0000000  0  9G 5G26G15G 9G18G28G17G22G12
 111172431.48648 104420056.78648  23058363.4224   23058366.8044   23058363.8304
       228.000         182.000
 106001448.65648 100390729.49148  22074349.4604   22074352.0224   22074349.5304
       241.000         201.000
 118986146.63348  74924262.97848  20739378.6794   20739380.3904   20739378.4524
       251.000         230.000
 116483339.48148  72974017.84248  20263115.8884   20263118.5664   20263116.2014
       251.000         227.000
 117044832.15348  91203761.89748  22272892.7584   22272894.7234   22272893.0474
       236.000         196.000
 131146268.06448 102191893.08248  24956308.5674   24956309.1694   24956309.0024
       216.000         159.000
 131999982.41748  85064914.07548  23215829.8434   23215831.8804   23215829.6434
       231.000         193.000
 135235662.30648  87586228.18648  23831555.2044   23831555.8614   23831555.8994
       223.000         175.000
 115653389.45148  90119515.80548  22008114.5244   22008116.0634   22008114.4914
       242.000         208.000
 09  1 14  1 25  0.0000000  0  9G 5G26G15G 9G18G28G17G22G12
 111071526.38548 104341429.43748  23039162.3524   23039164.9744   23039163.4034
       227.000         182.000
 106088624.52448 100458658.73848  22090938.4954   22090941.1714   22090938.2774
       241.000         200.000
 119031148.71948  74959329.53448  20747942.4374   20747944.0534   20747942.2514
       251.000         230.000
 116449777.48748  72947865.64148  20256729.2814   20256732.0794   20256729.5534
       251.000         227.000
 117043041.16848  91202366.32048  22272551.7994   22272554.2734   22272552.6834
       234.000         197.000
 131242189.40748 102266636.99048  24974561.7454   24974562.3544   24974562.0034
       219.000         162.000
 132000621.91648  85065412.36648  23215951.5434   23215953.5224   23215951.2144
       233.000         193.000
 135182461.52148  87544772.99448  23821431.9814   23821431.8914   23821432.2224
       225.000         175.000
 115569500.29348  90054147.63948  21992150.7764   21992152.6714   21992150.9214
       240.000         207.000
 09  1 14  1 25 30.0000000  0  9G 5G26G15G 9G18G28G17G22G12
 110970864.18348 104262991.37448  23020006.9304   23020009.7064   23020007.2304
       229.000         184.000
 106176098.81648 100526820.51148  22107584.2704   22107587.0214   22107584.3244
       241.000         200.000
 119076605.91448  74994750.72148  20756592.5834   20756594.4154   20756592.3294
       251.000         230.000
 116416543.19248  72921968.79748  20250404.8804   20250407.5754   20250405.1924
       251.000         226.000
 117041826.93248  91201420.17348  22272320.8074   22272323.0324   22272321.1794
       236.000         196.000
 131338169.81048 102341426.87648  24992826.2184   24992827.2244   24992826.7364
       216.000         161.000
 132001812.42148  85066340.04848  23216178.0704   23216180.0464   23216178.1824
       231.000         193.000
 135129731.79648  87503684.94648  23811397.3024   23811398.0474   23811398.4634
       222.000         176.000
 115485965.46248  89989055.57948  21976254.5454   21976256.4874   21976254.2604
       240.000         208.000
 09  1 14  1 26  0.0000000  0  9G 5G26G15G 9G18G28G17G22G12
 110870447.07248 104184744.29948  23000897.9904   23000901.0234   23000898.4824
       229.000         182.000
 106263870.87248 100595214.32748  22124286.7984   22124289.3814   22124286.6734
       240.000         199.000
 119122518.17948  75030526.50448  20765329.4104   20765331.1944   20765329.2744
       250.000         229.000
 116383637.72248  72896328.17148  20244143.1864   20244145.8134   20244143.1574
       251.000         227.000
 117041189.66848  91200923.60448  22272199.7294   22272201.6144   22272199.6454
       237.000         197.000
 131434208.11548 102416261.91448  25011101.3494   25011102.6354   25011101.1984
       214.000         160.000
 132003554.67948  85067697.66448  23216509.5464   23216511.5044   23216509.9254
       229.000         192.000
 135077475.17548  87462965.49548  23801453.0034   23801453.9904   23801452.6384
       227.000         178.000
 115402787.12248  89924241.28948  21960426.4414   21960428.1814   21960426.0704
       240.000         209.000
 09  1 14  1 26 30.0000000  0  9G 5G26G15G 9G18G28G17G22G12
 110770276.30248 104106689.14948  22981836.0264   22981839.1524   22981836.7114
       227.000         182.000
 106351938.86548 100663838.72948  22141045.4504   22141048.3574   22141045.2684
       239.000         199.000
 119168884.55548  75066656.14148  20774152.4144   20774154.3254   20774152.0854
       251.000         229.000
 116351060.95748  72870943.67948  20237944.0164   20237946.5634   20237944.4254
       251.000         226.000
 117041128.40948  91200875.86748  22272188.0384   22272190.1104   22272188.8454
       238.000         196.000
 131530301.63148 102491139.97248  25029387.2334   25029389.1204   25029387.9344
       217.000         160.000
 132005848.77948  85069485.26848  23216946.0804   23216948.0814   23216945.8874
       230.000         192.000
 135025692.90048  87422615.63048  23791599.9614   23791600.3634   23791599.7054
       222.000         178.000
 115319966.34048  89859705.61948  21944666.1474   21944667.8304   21944666.3654
       240.000         209.000
 09  1 14  1 27  0.0000000  0  9G 5G26G15G 9G18G28G17G22G12
 110670354.45348 104028827.97848  22962821.4104   22962824.6484   22962821.7214
       229.000         185.000
 106440302.49748 100732693.50048  22157860.5214   22157863.4164   22157860.4624
       240.000         200.000
 119215705.62248  75103140.08048  20783062.3094   20783064.2074   20783062.1154
       248.000         229.000
 116318813.97248  72845816.15448  20231807.6464   20231810.2494   20231807.6284
       251.000         227.000
 117041643.84948  91201277.49648  22272285.7334   22272288.2324   22272286.3014
       236.000         194.000
 131626449.76748 102566060.58848  25047683.3294   25047685.9534   25047684.0004
       216.000         160.000
 132008696.09848  85071703.98348  23217487.8414   23217489.9284   23217487.6414
       230.000         192.000
 134974387.05448  87382637.07548  23781835.7164   23781836.8754   23781834.8564
       228.000         178.000
 115237505.60648  89795450.51348  21928974.4354   21928976.2584   21928974.0584
       240.000         210.000
 09  1 14  1 27 30.0000000  0  9G 5G26G15G 9G18G28G17G22G12
 110570682.57348 103951161.58348  22943854.6124   22943857.8494   22943855.7234
       228.000         184.000
 106528959.73448 100801777.05348  22174731.6384   22174734.3084   22174731.6694
       240.000         199.000
 119262980.33848  75139977.51348  20792058.3744   20792060.4254   20792058.2574
       249.000         229.000
 116286896.68048  72820945.53948  20225733.9624   20225736.6214   20225734.4174
       251.000         227.000
 117042735.02748  91202127.75848  22272493.5404   22272495.7764   22272494.0724
       237.000         194.000
 131722650.04448 102641021.81748  25065989.7984   25065992.5354   25065990.4294
       214.000         158.000
 132012096.27548  85074353.47948  23218134.9644   23218137.2114   23218134.9234
       229.000         192.000
 134923558.68748  87343030.53948  23772164.7324   23772164.1894   23772164.7864
       230.000         181.000
 115155405.80348  89731476.65948  21913351.0814   21913353.0254   21913351.0054
       240.000         210.000
 09  1 14  1 28  0.0000000  0  9G 5G26G15G 9G18G28G17G22G12
 110471261.79448 103873690.85948  22924935.1484   22924938.7274   22924935.6084
       228.000         185.000
 106617908.58848 100871087.84448  22191657.9504   22191660.6494   22191657.7644
       239.000         199.000
 119310707.79048  75177167.73148  20801140.5504   20801142.4484   20801140.3994
       248.000         228.000
 116255309.07548  72796331.82448  20219723.1124   20219725.8084   20219723.0264
       251.000         227.000
 117044401.26948  91203426.12248  22272810.6384   22272812.5174   22272811.4914
       236.000         194.000
 131818900.07248 102716021.81948  25084305.8284   25084307.8574   25084306.8074
       216.000         159.000
 132016049.24748  85077433.72348  23218886.9134   23218889.2924   23218886.2614
       229.000         191.000
 134873208.76248  87303796.83048  23762582.7574   23762583.4834   23762582.5524
       221.000         176.000
 115073667.64948  89667784.59248  21897796.7994   21897798.6434   21897796.7554
       240.000         209.000
 09  1 14  1 28 30.0000000  0  9G 5G26G15G 9G18G28G17G22G12
 110372095.30448 103796418.29348  22906064.0834   22906067.9884   22906064.5244
       227.000         185.000
 106707149.23048 100940626.01148  22208639.9724   22208642.6134   22208639.8174
       239.000         199.000
 119358888.68848  75214711.28048  20810309.0674   20810310.8874   20810308.7004
       249.000         228.000
 116224052.70248  72771976.21448  20213775.1934   20213777.8894   20213775.3704
       252.000         228.000
 117046643.35648  91205173.20848  22273237.2384   22273239.4084   22273237.2524
       237.000         195.000
 131915199.53248 102791060.32548  25102631.0264   25102633.3884   25102632.4464
       217.000         159.000
 132020556.76648  85080946.09048  23219744.8154   23219746.7804   23219744.7424
       229.000         190.000
 134823340.53948  87264938.47948  23753092.8224   23753094.0044   23753091.1234
       228.000         178.000
 114992294.07748  89604376.63348  21882311.8984   21882314.0894   21882311.5004
       239.000         210.000
 09  1 14  1 29  0.0000000  0  9G 5G26G15G 9G18G28G17G22G12
 110273183.72048 103719344.34148  22887241.9304   22887245.6144   22887242.5864
       229.000         186.000
 106796679.46548 101010389.82048  22225676.9714   22225679.6104   22225676.8054
       239.000         199.000
 119407521.55048  75252607.00848  20819563.6914   20819565.4564   20819563.4244
       249.000         228.000
 116193127.26048  72747878.46748  20207890.3664   20207893.0744   20207890.6104
       252.000         228.000
 117049459.84548  91207367.87148  22273773.3454   22273775.5794   22273773.7714
       238.000         196.000
 132011545.77348 102866135.29748  25120964.7744   25120967.4074   25120965.7534
       218.000         158.000
 132025617.84348  85084889.79248  23220707.5524   23220709.7744   23220706.5974
       229.000         189.000
 134773954.18948  87226455.58648  23743695.2064   23743695.4254   23743695.7084
       225.000         175.000
 114911285.73048  89541253.24848  21866896.5814   21866898.6844   21866896.3684
       240.000         210.000
 09  1 14  1 29 30.0000000  0  9G 5G26G15G 9G18G28G17G22G12
 110174528.71348 103642470.32048  22868468.7744   22868472.3914   22868469.7064
       229.000         186.000
 106886497.85948 101080378.17848  22242768.8424   22242771.3644   22242769.0294
       239.000         198.000
 119456605.75048  75290854.43348  20828904.1064   20828905.9334   20828903.9924
       248.000         228.000
 116162533.10448  72724038.87048  20202068.5504   20202071.1584   20202068.7454
       252.000         228.000
 117052850.36148  91210009.83248  22274418.7604   22274420.7654   22274419.0154
       238.000         196.000
 132107936.81548 102941245.17048  25139307.6564   25139310.0834   25139308.6054
       216.000         156.000
 132031233.17048  85089265.37648  23221776.3374   23221778.5374   23221776.2224
       231.000         190.000
 134725051.16048  87188349.32248  23734389.2914   23734389.1224   23734388.5374
       226.000         176.000
 114830644.22948  89478415.71848  21851551.1544   21851552.8284   21851550.8674
       239.000         210.000
 09  1 14  1 30  0.0000000  0 10G 5G30G26G15G 9G18G28G17G22G12
 110076131.27648 103565796.99848  22849744.2634   22849748.1284   22849744.6374
       230.000         187.000
 142115705.77758  92947297.70358  25140786.7985   25140787.6955   25140784.4835
       207.000         140.000
 106976602.21148 101150589.35648  22259915.2524   22259917.7484   22259914.8284
       240.000         199.000
 119506140.18548  75329452.68348  20838330.1064   20838332.1094   20838329.8714
       248.000         227.000
 116132269.96748  72700457.21148  20196309.5474   20196312.3194   20196309.8694
       252.000         228.000
 117056813.63948  91213098.09648  22275172.7804   22275174.9744   22275173.1834
       238.000         196.000
 132204370.12448 103016387.97448  25157658.3974   25157660.5524   25157659.6014
       215.000         158.000
 132037401.95048  85094072.21248  23222950.7144   23222952.2434   23222950.4994
       230.000         190.000
 134676632.60848  87150620.56248  23725175.6824   23725175.9904   23725177.0864
       224.000         178.000
 114750369.97348  89415864.34448  21836275.3274   21836277.1654   21836274.9684
       238.000         209.000
 09  1 14  1 30 30.0000000  0 10G 5G30G26G15G 9G18G28G17G22G12
 109977993.13848 103489325.72848  22831069.2934   22831072.7684   22831069.8854
       231.000         187.000
 142003024.90148  92859494.42348  25119345.0684   25119346.1354   25119343.5714
       207.000         143.000
 107066991.45948 101221022.53748  22277115.7574   22277118.4074   22277115.9094
       238.000         198.000
 119556124.43548  75368401.44548  20847841.7384   20847843.6444   20847841.2524
       247.000         227.000
 116102338.39648  72677133.91448  20190613.8174   20190616.4294   20190613.9704
       252.000         228.000
 117061349.43348  91216632.46848  22276035.9654   22276037.9864   22276036.7534
       238.000         195.000
 132300844.17548 103091562.56648  25176016.6484   25176019.1394   25176017.6434
       214.000         157.000
 132044124.46048  85099310.54748  23224229.7254   23224231.5644   23224229.6694
       227.000         189.000
 134628699.86148  87113270.38648  23716053.2244   23716055.1154   23716053.4824
       222.000         174.000
 114670464.99348  89353600.72248  21821069.7604   21821071.6554   21821069.4344
       240.000         209.000
 09  1 14  1 31  0.0000000  0 10G 5G30G26G15G 9G18G28G17G22G12
 109880117.19948 103413058.75848  22812444.4154   22812447.6664   22812444.9684
       231.000         187.000
 141890413.00848  92771744.88148  25097914.8644   25097917.4064   25097914.3234
       209.000         145.000
 107157665.40048 101291677.55048  22294370.2834   22294372.8524   22294370.0084
       238.000         197.000
 119606559.06748  75407701.15848  20857439.2164   20857441.1174   20857439.0874
       248.000         227.000
 116072739.74748  72654070.03448  20184981.4464   20184983.9934   20184981.6704
       252.000         228.000
 117066458.42648  91220613.49548  22277008.2604   22277010.1824   22277008.7184
       238.000         194.000
 132397358.46148 103166768.48748  25194382.2264   25194384.9164   25194382.4174
       212.000         153.000
 132051402.72148  85104981.92448  23225614.4344   23225616.5854   23225614.1844
       230.000         191.000
 134581255.54848  87076300.78148  23707025.4434   23707026.2354   23707025.5634
       227.000         177.000
 114590931.47648  89291626.56748  21805935.0034   21805936.9524   21805934.8674
       239.000         210.000
 09  1 14  1 31 30.0000000  0 10G 5G30G26G15G 9G18G28G17G22G12
 109782503.89348 103336996.47048  22793869.0774   22793872.5084   22793869.7844
       231.000         189.000
 141777870.81248  92684049.70448  25076499.0644   25076501.3684   25076499.4354
       209.000         145.000
 107248621.53748 101362552.45648  22311678.6874   22311681.2404   22311678.3854
       238.000         196.000
 119657442.53948  75447350.60848  20867121.9804   20867124.0944   20867121.5854
       248.000         227.000
 116043473.50948  72631265.17448  20179412.1554   20179414.8114   20179411.9864
       252.000         228.000
 117072138.84848  91225039.78148  22278089.1644   22278090.9104   22278089.6744
       237.000         194.000
 132493910.06948 103242003.48448  25212755.8104   25212757.8844   25212755.7654
       212.000         155.000
 132059235.38648  85111085.30548  23227105.0384   23227107.1984   23227105.4084
       229.000         190.000
 134534300.03048  87039712.05448  23698090.1724   23698091.1264   23698090.0644
       224.000         178.000
 114511769.89048  89229942.21948  21790871.3524   21790873.1064   21790871.2064
       239.000         210.000
 09  1 14  1 32  0.0000000  0 10G 5G30G26G15G 9G18G28G17G22G12
 109685155.57148 103261140.63648  22775344.6464   22775347.7984   22775345.0244
       233.000         189.000
 141665400.58948  92596410.56948  25055096.5124   25055099.4044   25055096.0984
       214.000         151.000
 107339858.94348 101433646.53948  22329040.9874   22329043.1964   22329040.8234
       238.000         197.000
 119708774.58348  75487349.59748  20876890.2224   20876892.1964   20876890.0184
       248.000         227.000
 116014540.91048  72608720.29948  20173906.5184   20173909.1154   20173906.7944
       252.000         228.000
 117078390.84948  91229911.46948  22279278.8204   22279280.6924   22279279.4964
       236.000         194.000
 132590497.88448 103317266.67248  25231135.9264   25231137.4194   25231136.1984
       216.000         150.000
 132067623.16748  85117621.24848  23228701.1024   23228703.2454   23228701.0764
       229.000         190.000
 134487835.08448  87003505.61448  23689248.0594   23689249.0054   23689248.9504
       228.000         179.000
 114432982.30648  89168549.30748  21775878.4474   21775880.0944   21775878.4244
       239.000         210.000
 09  1 14  1 32 30.0000000  0 10G 5G30G26G15G 9G18G28G17G22G12
 109588073.65248 103185492.39448  22756870.6224   22756873.5174   22756871.2864
       232.000         189.000
 141553003.72448  92508828.58248  25033708.2694   25033711.4664   25033710.2214
       211.000         153.000
 107431376.19648 101504958.67548  22346455.5864   22346458.4864   22346455.6954
       236.000         195.000
 119760554.70948  75527697.74448  20886743.6724   20886745.5724   20886743.4794
       247.000         227.000
 115985941.99948  72586435.44048  20168464.2934   20168466.9974   20168464.7094
       252.000         228.000
 117085213.47648  91235227.79248  22280577.0504   22280579.2524   22280577.2964
       237.000         195.000
 132687119.76748 103392556.47848  25249522.9904   25249523.1134   25249524.9444
       211.000         147.000
 132076566.05048  85124589.74148  23230403.0044   23230405.2134   23230402.5444
       231.000         191.000
 134441862.07548  86967682.47848  23680500.1204   23680500.8764   23680501.0264
       228.000         181.000
 114354569.84048  89107448.68448  21760957.1164   21760958.7424   21760956.9594
       240.000         211.000
 09  1 14  1 33  0.0000000  0 10G 5G30G26G15G 9G18G28G17G22G12
 109491259.79748 103110053.04448  22738447.4494   22738450.2094   22738448.1274
       233.000         189.000
 141440682.15248  92421305.28448  25012333.5684   25012337.2384   25012331.5734
       213.000         152.000
 107523172.18348 101576488.00248  22363924.1094   22363926.5714   22363923.8394
       237.000         196.000
 119812781.79848  75568394.17148  20896682.1784   20896684.0364   20896681.9974
       248.000         227.000
 115957677.18948  72564410.92448  20163085.5984   20163088.3514   20163085.7304
       252.000         228.000
 117092606.13248  91240988.29448  22281984.0204   22281985.8674   22281984.4874
       237.000         194.000
 132783774.25248 103467871.63648  25267915.2484   25267915.9394   25267916.5844
       213.000         151.000
 132086064.41748  85131991.07548  23232211.1424   23232212.3304   23232210.9884
       231.000         191.000
 134396382.63548  86932243.93048  23671845.8914   23671846.2104   23671845.6834
       227.000         180.000
 114276534.24348  89046641.73548  21746107.2914   21746109.0514   21746106.9914
       240.000         211.000
 09  1 14  1 33 30.0000000  0 10G 5G30G26G15G 9G18G28G17G22G12
 109394715.25348 103034823.54948  22720075.5034   22720078.4694   22720076.1034
       232.000         188.000
 141328436.86948  92333841.42448  24990973.8794   24990978.2054   24990973.8514
       212.000         151.000
 107615244.96948 101648233.02648  22381444.8224   22381447.3264   22381445.1304
       236.000         195.000
 119865455.30848  75609438.45748  20906705.5904   20906707.5534   20906705.3484
       247.000         227.000
 115929747.03848  72542647.17948  20157770.6674   20157773.3054   20157770.8054
       252.000         228.000
 117100568.17448  91247192.47148  22283499.2504   22283500.9084   22283500.0424
       236.000         194.000
 132880459.33048 103543210.68448  25286313.9604   25286314.8844   25286313.7184
       209.000         149.000
 132096117.63848  85139824.75148  23234124.0084   23234125.3914   23234123.6564
       231.000         189.000
 134351397.45948  86897190.54248  23663285.3464   23663285.8674   23663285.4194
       227.000         179.000
 114198875.94848  88986128.78648  21731329.5024   21731331.1404   21731329.3524
       241.000         211.000
 09  1 14  1 34  0.0000000  0 10G 5G30G26G15G 9G18G28G17G22G12
 109298442.04548 102959805.48448  22701755.3764   22701758.0614   22701756.6844
       233.000         189.000
 141216270.33848  92246438.94448  24969629.1464   24969633.1764   24969628.9894
       210.000         152.000
 107707593.21548 101720192.69648  22399018.1694   22399020.6894   22399018.0354
       236.000         195.000
 119918575.17248  75650830.54348  20916813.8014   20916815.9784   20916813.3634
       248.000         226.000
 115902151.79348  72521144.39048  20152519.4764   20152522.0744   20152519.4294
       252.000         228.000
 117109098.92748  91253839.79948  22285122.4384   22285123.8984   22285123.1374
       237.000         194.000
 132977173.47048 103618572.34048  25304718.1964   25304718.8634   25304717.7404
       211.000         148.000
 132106726.45548  85148091.35748  23236142.7694   23236143.8664   23236142.3224
       231.000         190.000
 134306908.56548  86862523.85648  23654819.2674   23654819.0564   23654819.8534
       229.000         176.000
 114121597.12648  88925911.50948  21716623.9234   21716625.5054   21716623.7564
       241.000         212.000
 09  1 14  1 34 30.0000000  0 10G 5G30G26G15G 9G18G28G17G22G12
 109202441.68448 102885000.02248  22683486.7554   22683489.8344   22683487.4244
       233.000         190.000
 141104184.02148  92159098.96148  24948300.3994   24948303.6684   24948300.0584
       213.000         152.000
 107800215.96648 101792366.25648  22416643.6594   22416646.3454   22416644.1874
       236.000         195.000
 119972140.20048  75692569.52648  20927007.0464   20927008.8604   20927006.8444
       248.000         226.000
 115874891.79248  72499902.83648  20147332.1484   20147334.7284   20147332.4164
       252.000         228.000
 117118197.81648  91260929.82948  22286853.8994   22286855.5904   22286854.6174
       236.000         193.000
 133073915.43148 103693955.69448  25323128.2644   25323128.7834   25323128.4514
       213.000         148.000
 132117890.82748  85156790.88248  23238266.9014   23238268.5814   23238266.8154
       229.000         189.000
 134262917.03848  86828244.73548  23646448.0324   23646448.2994   23646448.3154
       225.000         179.000
 114044699.17048  88865991.03048  21701990.7354   21701992.4834   21701990.8674
       241.000         213.000
 09  1 14  1 35  0.0000000  0 10G 5G30G26G15G 9G18G28G17G22G12
 109106716.27848 102810408.79848  22665271.1024   22665274.2564   22665271.5824
       233.000         191.000
 140992180.00648  92071823.10748  24926986.2184   24926990.3934   24926986.1194
       210.000         153.000
 107893111.91948 101864752.70348  22434321.4164   22434324.1164   22434320.9694
       236.000         197.000
 120026150.41148  75734655.39748  20937284.7564   20937286.6774   20937284.4544
       247.000         225.000
 115847968.04048  72478923.29948  20142208.6494   20142211.4154   20142208.9724
       252.000         229.000
 117127864.32348  91268462.16448  22288693.2364   22288695.0324   22288693.9484
       237.000         193.000
 133170683.36148 103769359.28048  25341541.8084   25341543.8314   25341544.2874
       210.000         149.000
 132129611.13648  85165923.60048  23240497.1274   23240499.1564   23240496.6604
       229.000         190.000
 134219424.49048  86794354.45148  23638171.3194   23638172.7694   23638171.2904
       226.000         178.000
 113968183.57348  88806368.50148  21687430.3604   21687432.1414   21687430.2904
       241.000         213.000
 09  1 14  1 35 30.0000000  0 10G 5G30G26G15G 9G18G28G17G22G12
 109011267.09048 102736032.82648  22647107.1874   22647111.0094   22647107.6954
       231.000         190.000
 140880259.93048  91984612.63848  24905688.5584   24905692.7114   24905687.6334
       211.000         153.000
 107986279.43648 101937350.76048  22452050.3414   22452053.4094   22452050.3664
       235.000         195.000
 120080605.03448  75777087.55948  20947647.1874   20947649.0094   20947646.8004
       247.000         225.000
 115821380.78048  72458205.95548  20137149.2814   20137151.9324   20137149.3664
       252.000         229.000
 117138097.88348  91276436.35348  22290640.4134   22290642.3074   22290641.2584
       237.000         194.000
 133267475.53748 103844781.70748  25359960.8114   25359963.2214   25359961.6774
       208.000         149.000
 132141887.06948  85175489.25948  23242833.6504   23242835.2584   23242833.3894
       231.000         190.000
 134176432.02848  86760853.75848  23629990.0604   23629990.7484   23629990.2334
       222.000         173.000
 113892051.52048  88747044.81948  21672942.9344   21672944.6524   21672943.0024
       242.000         214.000
 09  1 14  1 36  0.0000000  0 10G 5G30G26G15G 9G18G28G17G22G12
 108916096.52748 102661873.95148  22628996.6634   22629000.5044   22628996.9704
       233.000         191.000
 140768426.06348  91897469.39048  24884407.0874   24884411.6324   24884407.1254
       214.000         156.000
 108079717.93448 102010159.97948  22469831.2074   22469833.8674   22469831.1574
       236.000         193.000
 120135503.51848  75819865.59248  20958094.0124   20958095.8284   20958093.6694
       247.000         226.000
 115795131.10648  72437751.66548  20132154.1044   20132156.8494   20132154.2854
       252.000         228.000
 117148898.38848  91284852.32548  22292696.0844   22292697.9634   22292696.5894
       237.000         194.000
 133364291.00848 103920222.31948  25378384.1484   25378386.5064   25378383.3404
       207.000         143.000
 132154719.46448  85185488.53348  23245275.5584   23245277.0954   23245275.5504
       231.000         190.000
 134133941.47348  86727744.24748  23621904.5064   23621905.7074   23621901.8824
       226.000         179.000
 113816305.10248  88688021.63748  21658529.0074   21658530.7044   21658528.9754
       243.000         215.000
 09  1 14  1 36 30.0000000  0 10G 5G30G26G15G 9G18G28G17G22G12
 108821204.50848 102587932.12248  22610939.8444   22610942.9954   22610940.6364
       234.000         191.000
 140656678.53648  91810393.39248  24863142.9794   24863147.1604   24863142.4114
       214.000         157.000
 108173424.20648 102083177.85548  22487662.9694   22487665.5664   22487663.1024
       234.000         193.000
 120190843.60848  75862987.73148  20968624.9264   20968626.8114   20968624.5954
       247.000         225.000
 115769217.67048  72417559.38148  20127222.9744   20127225.4714   20127223.2134
       252.000         228.000
 117160263.17748  91293707.99248  22294858.5174   22294860.7074   22294858.9914
       237.000         193.000
 133461126.10548 103995678.21548  25396811.0364   25396813.3864   25396811.5844
       211.000         145.000
 132168106.44948  85195919.95748  23247822.6794   23247824.5544   23247822.5164
       229.000         190.000
 134091952.60548  86695025.65148  23613914.4064   23613915.3554   23613914.3774
       224.000         177.000
 113740943.90248  88629298.62548  21644188.0884   21644189.9994   21644187.9984
       242.000         215.000
 09  1 14  1 37  0.0000000  0 10G 5G30G26G15G 9G18G28G17G22G12
 108726593.29548 102514209.11048  22592935.9454   22592939.0474   22592936.8014
       235.000         192.000
 140545019.77048  91723386.60848  24841895.0584   24841898.1684   24841894.9914
       215.000         158.000
 108267397.52548 102156403.80948  22505545.4284   22505548.2464   22505545.1064
       234.000         194.000
 120246625.67548  75906454.27048  20979240.0754   20979241.7294   20979239.7094
       248.000         226.000
 115743641.77348  72397630.11348  20122355.9984   20122358.6274   20122356.2054
       252.000         228.000
 117172192.06148  91303003.21848  22297128.3324   22297130.4394   22297129.3134
       236.000         193.000
 133557980.40548 104071149.07448  25415242.2434   25415244.4424   25415243.3064
       209.000         145.000
 132182048.67148  85206784.01848  23250475.9414   23250477.4774   23250475.6754
       231.000         190.000
 134050467.46248  86662699.53048  23606019.7944   23606020.1854   23606018.7024
       220.000         173.000
 113665969.94148  88570877.36348  21629921.0264   21629922.8394   21629920.8344
       241.000         214.000
 09  1 14  1 37 30.0000000  0 10G 5G30G26G15G 9G18G28G17G22G12
 108632264.15648 102440705.88148  22574985.7444   22574989.0244   22574986.8754
       235.000         193.000
 140433450.87048  91636449.84148  24820663.9154   24820667.5714   24820664.1244
       213.000         157.000
 108361636.20148 102229836.53348  22523478.2854   22523481.3744   22523478.4034
       233.000         193.000
 120302848.43048  75950264.20348  20989939.0094   20989940.6704   20989938.9974
       248.000         225.000
 115718403.49148  72377963.92148  20117553.4224   20117556.0024   20117553.6784
       252.000         228.000
 117184684.06048  91312737.23248  22299505.7114   22299507.8544   22299506.0424
       237.000         193.000
 133654851.92748 104146633.36948  25433675.9114   25433677.8434   25433677.0354
       207.000         143.000
 132196545.92948  85218080.57648  23253235.0524   23253236.2984   23253235.1324
       232.000         190.000
 134009486.83748  86630766.58548  23598221.1724   23598222.7394   23598221.3404
       225.000         178.000
 113591384.15248  88512758.57848  21615727.4684   21615729.4454   21615727.4984
       241.000         214.000
 09  1 14  1 38  0.0000000  0 10G 5G30G26G15G 9G18G28G17G22G12
 108538217.86048 102367423.06648  22557089.2314   22557092.6134   22557090.3374
       235.000         193.000
 140321972.83548  91549583.86048  24799450.2334   24799453.5454   24799450.6074
       210.000         156.000
 108456138.04948 102303474.32048  22541461.4794   22541464.2704   22541461.4244
       233.000         191.000
 120359510.45248  75994416.42348  21000721.3244   21000723.1194   21000721.1134
       248.000         225.000
 115693502.49748  72358560.55548  20112814.7914   20112817.6824   20112814.9974
       252.000         229.000
 117197737.84048  91322909.00048  22301990.0144   22301991.5124   22301990.8424
       236.000         192.000
 133751738.29148 104222129.18548  25452113.3304   25452115.7174   25452114.1544
       209.000         144.000
 132211597.54348  85229809.10848  23256099.4064   23256100.5234   23256099.4284
       232.000         191.000
 133969011.41248  86599227.30448  23590519.0314   23590519.6174   23590519.0304
       220.000         171.000
 113517187.39148  88454942.92248  21601608.4404   21601610.4574   21601607.9704
       242.000         215.000
 09  1 14  1 38 30.0000000  0 10G 5G30G26G15G 9G18G28G17G22G12
 108444457.21648 102294362.84548  22539247.0334   22539250.8644   22539248.1254
       235.000         194.000
 140210588.35648  91462790.78248  24778254.0934   24778257.8924   24778254.7374
       210.000         157.000
 108550902.64948 102377316.87248  22559494.7294   22559497.3644   22559494.8564
       233.000         190.000
 120416612.00848  76038911.12948  21011587.2364   21011589.1634   21011586.9544
       248.000         225.000
 115668940.37448  72339421.24048  20108140.8234   20108143.6914   20108140.8964
       252.000         229.000
 117211353.18948  91333518.35148  22304580.7964   22304582.3724   22304581.2134
       236.000         192.000
 133848639.19548 104297636.33748  25470553.1904   25470555.6754   25470553.0784
       208.000         145.000
 132227204.39348  85241970.30148  23259068.7674   23259070.4424   23259068.3184
       231.000         190.000
 133929043.42248  86568083.36348  23582913.8824   23582913.6334   23582912.5824
       228.000         179.000
 113443381.96548  88397432.19848  21587564.0074   21587565.7904   21587564.1124
       243.000         216.000
 09  1 14  1 39  0.0000000  0 10G 5G30G26G15G 9G18G28G17G22G12
 108350983.78848 102221526.42148  22521459.7224   22521463.1604   22521460.6874
       235.000         193.000
 140099299.67648  91376072.37548  24757077.5654   24757080.1514   24757076.9354
       214.000         158.000
 108645928.84448 102451363.26548  22577577.3004   22577580.0724   22577577.0174
       232.000         192.000
 120474152.40848  76083747.79948  21022536.9694   21022538.7974   21022536.7274
       247.000         225.000
 115644717.63948  72320546.38548  20103531.4424   20103534.1484   20103531.7204
       252.000         229.000
 117225529.59748  91344564.89748  22307278.3654   22307280.1734   22307278.5834
       237.000         193.000
 133945552.56648 104373153.21648  25488994.6424   25488997.5354   25488995.0834
       208.000         144.000
 132243365.94748  85254563.73148  23262144.3244   23262145.9594   23262144.0734
       232.000         192.000
 133889583.93648  86537335.71548  23575405.0794   23575405.9714   23575405.6534
       222.000         178.000
 113369968.88248  88340227.20748  21573593.7274   21573595.7404   21573593.4404
       243.000         216.000
 09  1 14  1 39 30.0000000  0 10G 5G30G26G15G 9G18G28G17G22G12
 108257798.32448 102148914.40248  22503727.0684   22503730.4874   22503728.4114
       235.000         193.000
 139988107.36848  91289429.02048  24735918.9224   24735921.2044   24735919.1034
       216.000         157.000
 108741214.21748 102525611.59248  22595709.6734   22595712.5054   22595709.6244
       234.000         192.000
 120532129.82548  76128925.00048  21033569.5704   21033571.4494   21033569.3564
       247.000         224.000
 115620833.58848  72301935.43648  20098986.4254   20098989.0484   20098986.5174
       251.000         228.000
 117240265.13448  91356047.11948  22310082.5814   22310084.2424   22310083.2544
       236.000         193.000
 134042476.34148 104448678.24248  25507438.7744   25507440.3534   25507439.2764
       207.000         145.000
 132260081.67948  85267588.99048  23265325.3784   23265326.8264   23265325.3944
       232.000         191.000
 133850633.36648  86506984.60148  23567992.6304   23567993.8114   23567992.6484
       226.000         180.000
 113296949.18848  88283328.74548  21559698.7604   21559700.6314   21559698.4674
       244.000         217.000
 09  1 14  1 40  0.0000000  0 10G 5G30G26G15G 9G18G28G17G22G12
 108164902.06148 102076527.71148  22486049.4634   22486052.6154   22486050.1334
       235.000         193.000
 139877012.78048  91202861.81548  24714778.0984   24714780.1494   24714778.4684
       214.000         158.000
 108836756.99348 102600060.49348  22613891.2284   22613893.5974   22613891.6324
       233.000         191.000
 120590543.64448  76174442.25148  21044685.3974   21044687.3044   21044685.1814
       247.000         224.000
 115597288.56548  72283588.66648  20094505.8024   20094508.5494   20094505.9634
       251.000         228.000
 117255558.81948  91367964.26548  22312992.9144   22312994.4864   22312993.4344
       237.000         193.000
 134139408.83248 104524210.02948  25525884.0704   25525886.1074   25525885.1674
       212.000         144.000
 132277351.27348  85281045.81648  23268611.8554   23268612.8914   23268611.5154
       233.000         190.000
 133812192.61748  86477030.73448  23560677.8834   23560679.0404   23560677.6894
       220.000         179.000
 113224323.19448  88226737.06148  21545878.5794   21545880.1654   21545878.8064
       243.000         216.000
 09  1 14  1 40 30.0000000  0 10G 5G30G26G15G 9G18G28G17G22G12
 108072295.57248 102004366.83548  22468426.8534   22468430.1504   22468427.8304
       235.000         193.000
 139766016.40348  91116371.14648  24693655.7224   24693657.9894   24693655.4584
       216.000         157.000
 108932554.73548 102674708.08948  22632120.7174   22632123.2084   22632120.6284
       233.000         191.000
 120649391.72648  76220297.89348  21055883.6664   21055885.7464   21055883.3684
       247.000         224.000
 115574082.14848  72265505.74748  20090089.8284   20090092.5494   20090090.0234
       252.000         228.000
 117271408.42048  91380314.59748  22316008.9964   22316010.7434   22316009.4744
       237.000         193.000
 134236347.00548 104599746.30448  25544330.9694   25544333.2504   25544331.4334
       207.000         139.000
 132295172.93648  85294932.82648  23272002.8804   23272004.2244   23272002.7684
       231.000         188.000
 133774261.77348  86447474.23748  23553459.9044   23553461.2674   23553458.7144
       227.000         181.000
 113152091.25448  88170452.43448  21532133.0324   21532134.7364   21532132.8314
       244.000         216.000
 09  1 14  1 41  0.0000000  0  9G 5G30G26G15G 9G18G17G22G12
 107979980.67348 101932433.16448  22450859.9934   22450863.0874   22450860.8344
       237.000         195.000
 139655120.46248  91029958.74048  24672553.1894   24672555.8124   24672553.7024
       216.000         159.000
 109028606.24048 102749553.41248  22650398.8404   22650401.4154   22650398.5754
       232.000         191.000
 120708673.42048  76266491.41748  21067164.8034   21067166.7254   21067164.5884
       247.000         224.000
 115551214.93348  72247687.13648  20085738.3734   20085741.0304   20085738.5084
       252.000         229.000
 117287813.22548  91393097.54348  22319130.5264   22319132.7174   22319130.8984
       237.000         193.000
 132313547.01848  85309250.29848  23275499.0694   23275500.6424   23275498.8004
       231.000         190.000
 133736842.06148  86418315.99248  23546339.5304   23546340.2634   23546341.1954
       223.000         178.000
 113080254.90448  88114476.05848  21518463.0534   21518464.7114   21518462.9424
       243.000         217.000
 09  1 14  1 41 30.0000000  0  9G 5G30G26G15G 9G18G17G22G12
 107887961.81948 101860730.15248  22433349.7134   22433352.5934   22433350.7144
       238.000         196.000
 139544329.89848  90943628.43548  24651470.1314   24651472.8124   24651469.5674
       215.000         158.000
 109124913.05348 102824597.69448  22668725.3654   22668728.0024   22668725.0294
       231.000         190.000
 120768390.96248  76313024.55948  21078528.6414   21078530.5714   21078528.3464
       247.000         224.000
 115528690.39948  72230135.55748  20081452.1134   20081454.8184   20081452.3504
       252.000         228.000
 117304775.18048  91406314.63548  22322358.4934   22322360.2784   22322358.9424
       237.000         193.000
 132332476.09648  85324000.23748  23279101.4644   23279102.7244   23279101.5484
       231.000         189.000
 133699937.46048  86389559.15548  23539315.8754   23539317.5544   23539315.2594
       225.000         180.000
 113008818.30048  88058811.17148  21504869.1524   21504870.8694   21504868.9524
       244.000         217.000
 09  1 14  1 42  0.0000000  0  9G 5G30G26G15G 9G18G17G22G12
 107796239.80448 101789258.46248  22415895.4154   22415898.4734   22415896.5564
       237.000         196.000
 139433645.20548  90857380.65748  24630407.6794   24630409.7874   24630407.6294
       216.000         158.000
 109221472.77948 102899839.02948  22687099.8384   22687102.9324   22687099.9144
       231.000         190.000
 120828542.45648  76359895.85248  21089975.0784   21089977.0774   21089974.8294
       247.000         224.000
 115506508.07548  72212850.63248  20077230.7754   20077233.5684   20077230.8744
       251.000         228.000
 117322292.69648  91419964.64148  22325692.0514   22325693.8814   22325692.7444
       237.000         193.000
 132351959.18148  85339181.87148  23282808.5404   23282810.2924   23282808.4064
       231.000         189.000
 133663548.11648  86361203.79848  23532391.8924   23532392.4544   23532391.7514
       222.000         176.000
 112937782.05748  88003458.25348  21491351.6044   21491352.9884   21491351.6204
       245.000         217.000
 09  1 14  1 42 30.0000000  0  9G 5G30G26G15G 9G18G17G22G12
 107704816.15048 101718019.25648  22398497.9684   22398501.2184   22398498.8414
       238.000         197.000
 139323068.38148  90771216.91048  24609365.2754   24609367.6804   24609365.2394
       219.000         158.000
 109318284.06548 102975276.38548  22705522.3644   22705525.3844   22705522.2754
       230.000         190.000
 120889127.02148  76407104.59448  21101504.0094   21101505.9674   21101503.7254
       247.000         224.000
 115484668.38848  72195832.69648  20073074.8914   20073077.5584   20073075.1444
       251.000         228.000
 117340364.62448  91434046.65448  22329130.8294   22329132.9184   22329131.5004
       236.000         193.000
 132371996.29548  85354795.19648  23286622.0084   23286623.4134   23286621.6304
       234.000         192.000
 133627675.38548  86333251.02748  23525565.1334   23525565.5844   23525564.3514
       225.000         177.000
 112867147.18148  87948418.09248  21477910.1134   21477911.6174   21477909.9424
       244.000         217.000
 09  1 14  1 43  0.0000000  0  9G 5G30G26G15G 9G18G17G22G12
 107613690.70348 101647012.41948  22381157.5394   22381160.5714   22381158.4534
       237.000         197.000
 139212598.97748  90685136.87748  24588343.5454   24588346.2524   24588343.5514
       214.000         157.000
 109415343.74148 103050907.30348  22723992.2944   22723995.1924   22723992.4544
       232.000         191.000
 120950142.79748  76454649.35248  21113114.7334   21113116.7604   21113114.4824
       247.000         223.000
 115463169.88748  72179080.61948  20068983.7024   20068986.5384   20068983.9074
       251.000         228.000
 117358988.05348  91448558.40048  22332674.8934   22332676.8254   22332675.4064
       236.000         193.000
 132392584.78048  85370838.18148  23290539.9824   23290541.1914   23290540.1554
       232.000         191.000
 133592318.57248  86305700.24248  23518837.5464   23518838.1104   23518837.4084
       221.000         178.000
 112796912.92348  87893690.09348  21464544.7624   21464546.5564   21464544.4774
       244.000         218.000
 09  1 14  1 43 30.0000000  0  9G 5G30G26G15G 9G18G17G22G12
 107522865.83948 101576239.80048  22363874.0534   22363877.2714   22363874.7584
       236.000         197.000
 139102239.55848  90599142.54848  24567343.0914   24567345.0774   24567342.7624
       217.000         158.000
 109512651.07248 103126731.18948  22742509.2754   22742512.1734   22742509.0204
       231.000         189.000
 121011588.97248  76502529.47348  21124807.5874   21124809.7914   21124807.3064
       246.000         223.000
 115442013.96648  72162595.48548  20064958.1144   20064960.6424   20064958.3634
       252.000         228.000
 117378162.92148  91463499.83348  22336323.7304   22336325.5254   22336323.8934
       237.000         193.000
 132413725.43348  85387311.41748  23294562.3564   23294564.3244   23294562.3924
       232.000         191.000
 133557479.32748  86278552.78548  23512207.0934   23512208.9944   23512206.9834
       227.000         183.000
 112727081.64448  87839276.09448  21451256.5084   21451258.2444   21451256.3054
       246.000         218.000
 09  1 14  1 44  0.0000000  0  9G 5G30G26G15G 9G18G17G22G12
 107432342.65548 101505702.28048  22346647.4394   22346651.1344   22346647.8994
       235.000         196.000
 138991991.72148  90513235.15048  24546363.8104   24546366.0104   24546364.0744
       215.000         159.000
 109610204.42748 103202746.79548  22761072.9964   22761075.9134   22761073.0374
       228.000         187.000
 121073464.42548  76550744.10448  21136582.1484   21136584.1784   21136581.8894
       247.000         223.000
 115421201.08448  72146377.65848  20060997.6194   20061000.0924   20060997.7004
       252.000         228.000
 117397887.47448  91478869.61248  22340077.3384   22340078.9534   22340077.8984
       238.000         192.000
 132435417.64648  85404214.44548  23298690.0304   23298692.0924   23298689.2154
       233.000         193.000
 133523158.43948  86251809.21548  23505677.3844   23505678.0954   23505677.1234
       226.000         181.000
 112657654.28348  87785176.84148  21438044.9024   21438046.6784   21438044.8014
       244.000         218.000
 09  1 14  1 44 30.0000000  0  9G 5G30G26G15G 9G18G17G22G12
 107342123.36848 101435401.54848  22329479.4754   22329483.1254   22329479.8724
       238.000         199.000
 138881857.46048  90427416.27948  24525404.7854   24525408.3184   24525403.6914
       215.000         158.000
 109708002.80848 103278953.33148  22779683.3154   22779686.0874   22779683.4834
       230.000         187.000
 121135769.13048  76599293.21648  21148438.4094   21148440.2684   21148438.0834
       246.000         223.000
 115400732.29648  72130427.95448  20057102.5934   20057105.0354   20057102.8924
       251.000         228.000
 117418161.71048  91494667.71348  22343935.3554   22343937.0844   22343936.0584
       236.000         191.000
 132457661.65948  85421547.43848  23302923.6124   23302925.0664   23302922.9464
       234.000         192.000
 133489357.75448  86225471.03448  23499244.4294   23499245.6164   23499243.8254
       227.000         179.000
 112588632.43148  87731393.58148  21424910.4784   21424912.3064   21424910.2224
       245.000         219.000
 09  1 14  1 45  0.0000000  0  9G 5G30G26G15G 9G18G17G22G12
 107252208.50248 101365338.03148  22312369.4124   22312373.2464   22312369.9624
       237.000         199.000
 138771837.84848  90341686.71648  24504468.7234   24504472.2894   24504469.0384
       213.000         157.000
 109806043.67448 103355348.80048  22798339.6014   22798342.7254   22798339.6564
       229.000         187.000
 121198501.14848  76648175.30748  21160375.9224   21160377.6904   21160375.6874
       246.000         222.000
 115380606.78348  72114745.73848  20053272.7574   20053275.1934   20053272.9314
       252.000         228.000
 117438983.17448  91510892.21148  22347897.3534   22347899.1844   22347898.0134
       236.000         192.000
 132480456.11448  85439309.35648  23307261.0344   23307262.3464   23307261.4924
       231.000         190.000
 133456077.07448  86199537.98548  23492912.1234   23492912.3164   23492912.4894
       227.000         181.000
 112520015.96648  87677926.21148  21411853.1714   21411854.8324   21411853.0834
       245.000         218.000
 09  1 14  1 45 30.0000000  0  9G 5G30G26G15G 9G18G17G22G12
 107162599.07348 101295512.52848  22295317.1694   22295320.9924   22295317.6674
       237.000         199.000
 138661934.23148  90256047.55648  24483554.4564   24483558.4084   24483554.0814
       210.000         157.000
 109904325.31648 103431931.89848  22817042.4374   22817044.8774   22817042.3204
       231.000         188.000
 121261659.22748  76697389.38348  21172394.4794   21172396.4104   21172394.3184
       247.000         223.000
 115360824.75348  72099331.17348  20049508.2454   20049510.7324   20049508.4514
       252.000         228.000
 117460350.13348  91527541.78448  22351963.2174   22351965.5974   22351963.7634
       236.000         192.000
 132503800.35748  85457499.69148  23311702.8014   23311704.7874   23311702.5874
       231.000         190.000
 133423316.67348  86174010.39348  23486677.6094   23486678.2474   23486679.0064
       230.000         181.000
 112451805.94948  87624775.54648  21398873.1974   21398874.8404   21398872.8494
       245.000         219.000
 09  1 14  1 46  0.0000000  0  9G 5G30G26G15G 9G18G17G22G12
 107073296.96548 101225926.47748  22278323.8354   22278327.2774   22278324.3724
       238.000         199.000
 138552148.45948  90170500.20748  24462663.5984   24462667.0234   24462663.5974
       213.000         158.000
 110002846.44348 103508701.59748  22835790.3604   22835793.0834   22835790.0394
       231.000         189.000
 121325242.56748  76746934.84448  21184494.1454   21184495.8834   21184493.8884
       247.000         223.000
 115341387.20048  72084185.02848  20045809.4694   20045811.8634   20045809.7614
       250.000         227.000
 117482262.01948  91544615.96548  22356132.9884   22356135.1624   22356133.8374
       235.000         193.000
 132527694.03948  85476118.12048  23316250.6494   23316251.4744   23316250.2604
       234.000         191.000
 133391078.08048  86148889.39248  23480543.4164   23480543.0174   23480544.7034
       230.000         181.000
 112384003.78648  87571942.68548  21385971.0364   21385972.6964   21385970.9024
       246.000         220.000
 09  1 14  1 46 30.0000000  0  9G 5G30G26G15G 9G18G17G22G12
 106984303.47748 101156580.90648  22261389.1084   22261392.3894   22261389.6694
       239.000         199.000
 138442481.83748  90085045.71148  24441795.0664   24441798.2824   24441794.5484
       215.000         160.000
 110101605.19148 103585656.45848  22854583.6684   22854586.3494   22854583.6394
       229.000         188.000
 121389250.03148  76796810.77748  21196674.3314   21196676.1494   21196674.1104
       246.000         222.000
 115322293.96848  72069307.18548  20042176.1304   20042178.6804   20042176.3554
       251.000         228.000
 117504717.30548  91562113.58348  22360406.2034   22360408.2124   22360406.9984
       235.000         193.000
 132552136.33248  85495164.07448  23320901.3644   23320902.5924   23320901.5414
       230.000         188.000
 133359361.99148  86124175.55648  23474508.0374   23474507.9714   23474508.4974
       228.000         182.000
 112316610.30948  87519428.28548  21373146.4914   21373148.3234   21373146.3704
       245.000         220.000
 09  1 14  1 47  0.0000000  0  9G 5G30G26G15G 9G18G17G22G12
 106895620.88948 101087477.60648  22244513.4304   22244516.2954   22244514.2184
       239.000         200.000
 138332937.08948  89999686.18548  24420949.0214   24420952.6804   24420948.3564
       216.000         159.000
 110200601.24248 103662796.22948  22873421.9424   22873424.6404   22873421.7144
       230.000         186.000
 121453681.26048  76847016.93348  21208935.0654   21208936.8994   21208934.7454
       246.000         222.000
 115303546.33848  72054698.64448  20038608.6094   20038611.0924   20038608.8434
       251.000         228.000
 117527715.68548  91580034.40648  22364782.5374   22364784.7044   22364783.4634
       236.000         191.000
 132577127.74848  85514637.92048  23325656.1314   23325658.5014   23325655.7514
       233.000         191.000
 133328170.17248  86099870.21248  23468572.4594   23468572.5664   23468571.9644
       229.000         183.000
 112249627.29248  87467233.73448  21360399.8454   21360401.7854   21360399.6464
       245.000         220.000
 09  1 14  1 47 30.0000000  0  9G 5G30G26G15G 9G18G17G22G12
 106807249.96848 101018617.15648  22227696.7974   22227699.8334   22227697.2744
       238.000         200.000
 138223515.17248  89914422.39348  24400126.7224   24400130.4964   24400126.5284
       216.000         163.000
 110299832.13448 103740119.00648  22892304.9284   22892307.8364   22892305.1634
       226.000         184.000
 121518534.62248  76897552.01148  21221276.2014   21221278.2004   21221275.8204
       246.000         221.000
 115285144.23048  72040359.34348  20035106.7384   20035109.3764   20035106.8344
       251.000         228.000
 117551254.94448  91598376.68548  22369262.0894   22369264.0184   22369262.4184
       236.000         190.000
 132602667.39948  85534538.92548  23330517.9314   23330518.7424   23330517.9434
       235.000         192.000
 133297502.81348  86075973.55748  23462736.0104   23462736.7224   23462735.3284
       228.000         181.000
 112183055.69548  87415359.75948  21347731.6864   21347733.7174   21347731.5884
       246.000         221.000
 09  1 14  1 48  0.0000000  0  9G 5G30G26G15G 9G18G17G22G12
 106719191.89948 100950000.49748  22210939.9534   22210942.8134   22210940.7304
       238.000         200.000
 138114217.35148  89829255.27948  24379328.5144   24379331.8884   24379327.2784
       219.000         166.000
 110399296.27548 103817623.51348  22911232.2354   22911235.2874   22911231.2614
       230.000         186.000
 121583809.06048  76948415.20948  21233697.5494   21233699.4534   21233697.3194
       246.000         221.000
 115267088.04048  72026289.58548  20031670.8384   20031673.3444   20031671.0614
       251.000         228.000
 117575333.89148  91617139.49948  22373844.1194   22373846.2084   22373844.5044
       236.000         191.000
 132628754.18548  85554866.30848  23335480.9864   23335482.8134   23335481.3564
       229.000         187.000
 133267360.42348  86052485.94848  23457000.5594   23457000.6484   23457000.1444
       227.000         180.000
 112116895.79848  87363806.59648  21335142.1064   21335143.8024   21335141.9984
       247.000         221.000
 09  1 14  1 48 30.0000000  0  9G 5G30G26G15G 9G18G17G22G12
 106631448.51748 100881629.04648  22194242.6874   22194245.9434   22194243.3334
       238.000         201.000
 138005045.69848  89744186.48548  24358554.0304   24358557.6204   24358553.7154
       222.000         168.000
 110498992.38148 103895308.80448  22930203.8704   22930206.8334   22930204.6294
       230.000         188.000
 121649503.55148  76999605.71848  21246198.8444   21246200.8114   21246198.7744
       246.000         221.000
 115249378.28048  72012489.77048  20028300.7984   20028303.3724   20028300.9564
       251.000         228.000
 117599951.21648  91636321.81948  22378528.6284   22378530.8724   22378529.4834
       236.000         191.000
 132655387.96448  85575619.91848  23340548.5404   23340550.7084   23340547.9454
       232.000         188.000
 133237744.11048  86029408.31348  23451364.3154   23451364.7794   23451364.3484
       229.000         183.000
 112051149.01648  87312575.33748  21322630.7904   21322632.5084   21322630.7284
       247.000         221.000
 09  1 14  1 49  0.0000000  0  9G 5G30G26G15G 9G18G17G22G12
 106544020.49748 100813503.33448  22177605.6254   22177608.7444   22177605.8084
       237.000         201.000
 137896001.48848  89659216.99748  24337803.9344   24337806.7514   24337804.5184
       220.000         164.000
 110598918.23448 103973173.11248  22949219.1324   22949221.9864   22949218.7354
       230.000         187.000
 121715616.89648  77051122.61048  21258779.8434   21258781.6484   21258779.4824
       246.000         221.000
 115232014.66548  71998959.67748  20024996.5264   20024999.2564   20024996.6804
       250.000         228.000
 117625105.28448  91655922.39248  22383315.2854   22383317.3134   22383315.8174
       235.000         191.000
 132682567.30548  85596798.61748  23345722.0494   23345723.0234   23345722.0024
       233.000         190.000
 133208653.90048  86006740.61248  23445829.5354   23445830.0724   23445829.6284
       230.000         186.000
 111985815.81848  87261666.34948  21310198.1994   21310199.9044   21310197.9844
       247.000         221.000
 09  1 14  1 49 30.0000000  0  9G 5G30G26G15G 9G18G17G22G12
 106456908.85248 100745624.14848  22161028.6504   22161032.0274   22161029.2544
       238.000         202.000
 137787085.85848  89574347.67148  24317077.6804   24317080.0314   24317077.3364
       220.000         158.000
 110699071.85048 104051214.88848  22968277.5804   22968280.4334   22968277.2024
       228.000         186.000
 121782147.41448  77102964.56248  21271440.1414   21271441.9844   21271439.8384
       246.000         221.000
 115214997.20548  71985699.31948  20021758.1504   20021760.7944   20021758.3444
       250.000         228.000
 117650794.02148  91675939.57248  22388203.5314   22388205.9484   22388203.9964
       233.000         191.000
 132710291.20848  85618401.65748  23350997.0654   23350998.8254   23350997.5214
       233.000         186.000
 133180090.26448  85984483.23448  23440393.2074   23440394.7504   23440394.7564
       231.000         187.000
 111920896.80548  87211080.10548  21297844.5124   21297846.2084   21297844.5034
       247.000         221.000
 09  1 14  1 50  0.0000000  0  9G 5G30G26G15G 9G18G17G22G12
 106370115.77348 100677993.18948  22144512.7554   22144516.0714   22144513.8564
       239.000         203.000
 137678300.98748  89489580.23848  24296376.2914   24296378.6934   24296376.3274
       216.000         158.000
 110799452.44348 104129433.51948  22987379.1624   22987382.6094   22987378.9074
       225.000         186.000
 121849094.51548  77155131.13248  21284179.7884   21284181.5494   21284179.3524
       246.000         221.000
 115198327.10848  71972709.63448  20018585.8634   20018588.6274   20018585.8754
       251.000         228.000
 117677016.63048  91696372.76148  22393193.5214   22393196.0184   22393194.2024
       233.000         190.000
 132738560.08948  85640429.34448  23356376.4474   23356377.5544   23356376.0264
       232.000         187.000
 133152054.69448  85962637.32848  23435058.2254   23435059.6254   23435058.7314
       225.000         184.000
 111856393.52448  87160817.81648  21285570.2564   21285571.7454   21285569.9284
       248.000         222.000
 09  1 14  1 50 30.0000000  0  9G 5G30G26G15G 9G18G17G22G12
 106283643.48348 100610612.19048  22128057.5224   22128060.9164   22128058.0874
       239.000         202.000
 137569649.31248  89404916.59848  24275700.3584   24275703.1544   24275699.7734
       216.000         158.000
 110900059.16048 104207828.36148  23006524.2514   23006527.3934   23006524.1994
       228.000         185.000
 121916457.86148  77207622.05048  21296998.6654   21297000.4614   21296998.5854
       246.000         221.000
 115182005.69148  71959991.64648  20015480.1454   20015482.7604   20015480.3024
       251.000         228.000
 117703772.68448  91717221.63448  22398285.4364   22398287.2214   22398285.7384
       236.000         190.000
 132767373.87148  85662881.64548  23361858.9504   23361861.3694   23361859.0894
       228.000         185.000
 133124548.50648  85941203.94848  23429823.6984   23429824.8894   23429823.9764
       231.000         185.000
 111792307.73348  87110880.83948  21273374.8814   21273376.8184   21273374.7434
       247.000         222.000
 09  1 14  1 51  0.0000000  0  9G 5G30G26G15G 9G18G17G22G12
 106197491.72548 100543480.95548  22111663.4494   22111666.6834   22111664.0054
       240.000         204.000
 137461131.15648  89320357.05348  24255050.2124   24255053.4074   24255051.0304
       217.000         162.000
 111000889.01948 104286397.06948  23025711.4534   23025714.4964   23025711.0594
       227.000         185.000
 121984234.99048  77260435.39348  21309896.1714   21309897.9654   21309895.7164
       245.000         220.000
 115166031.63748  71947544.33748  20012440.5194   20012442.8904   20012440.7224
       251.000         228.000
 117731059.27848  91738483.89848  22403477.8104   22403479.7654   22403478.0294
       236.000         190.000
 132796730.48548  85685756.96348  23367444.9474   23367447.7714   23367444.9864
       230.000         187.000
 133097571.12748  85920182.61948  23424690.6944   23424691.4444   23424692.0464
       229.000         186.000
 111728638.96248  87061268.80748  21261259.2164   21261261.1844   21261259.0104
       247.000         223.000
 09  1 14  1 51 30.0000000  0  9G 5G30G26G15G 9G18G17G22G12
 106111662.40348 100476600.97048  22095331.0224   22095334.1144   22095331.7514
       240.000         204.000
 137352748.11148  89235902.80648  24234425.2144   24234428.7414   24234425.0074
       219.000         164.000
 111101940.74748 104365138.67948  23044941.2044   23044943.7874   23044941.2784
       229.000         183.000
 122052425.38548  77313570.76848  21322872.2434   21322874.1894   21322871.8104
       245.000         220.000
 115150405.91948  71935368.45648  20009466.9834   20009469.4134   20009467.2294
       251.000         228.000
 117758875.41048  91760158.80348  22408771.2274   22408772.7394   22408771.7674
       235.000         189.000
 132826629.58348  85709054.93948  23373135.8204   23373137.4214   23373135.3654
       233.000         190.000
 133071123.46248  85899574.03048  23419657.2814   23419658.1504   23419657.2634
       230.000         183.000
 111665388.69448  87011982.89048  21249223.0944   21249225.0794   21249222.9124
       249.000         223.000
 09  1 14  1 52  0.0000000  0  9G 5G30G26G15G 9G18G17G22G12
 106026157.00548 100409973.40248  22079059.6574   22079063.1644   22079060.3794
       239.000         204.000
 137244502.40748  89151555.53648  24213826.4214   24213830.2324   24213826.2644
       216.000         166.000
 111203212.99948 104444052.11348  23064212.4644   23064215.0214   23064212.6214
       228.000         184.000
 122121027.89448  77367027.25748  21335926.9384   21335928.8384   21335926.6344
       245.000         219.000
 115135129.46948  71923464.72948  20006559.8734   20006562.4424   20006560.0544
       251.000         228.000
 117787219.41348  91782245.02048  22414164.6014   22414166.4874   22414165.4954
       233.000         188.000
 132857070.28948  85732774.95048  23378928.7764   23378929.8694   23378928.4174
       233.000         189.000
 133045206.82248  85879379.20848  23414726.0324   23414726.1754   23414725.7044
       229.000         181.000
 111602557.86048  86963023.79548  21237266.8844   21237268.6464   21237266.8094
       249.000         223.000
 09  1 14  1 52 30.0000000  0  9G 5G30G26G15G 9G18G17G22G12
 105940976.46248 100343598.95448  22062850.3134   22062853.8284   22062850.9374
       240.000         206.000
 137136395.11248  89067316.12848  24193254.7534   24193257.7644   24193254.6584
       217.000         164.000
 111304703.66348 104523135.75848  23083525.6524   23083528.1794   23083525.2994
       229.000         183.000
 122190040.73048  77420803.49248  21349059.5154   21349061.5104   21349059.2324
       245.000         219.000
 115120201.92348  71911832.88048  20003719.1364   20003721.8754   20003719.3284
       250.000         228.000
 117816089.58148  91804741.23948  22419658.3494   22419660.3774   22419658.8494
       234.000         189.000
 132888051.53348  85756916.20748  23384823.5084   23384825.5964   23384823.5154
       229.000         185.000
 133019820.96148  85859598.02148  23409894.7234   23409895.2564   23409895.5964
       228.000         182.000
 111540147.29048  86914392.19648  21225390.3624   21225392.4114   21225390.1324
       248.000         224.000
 09  1 14  1 53  0.0000000  0  9G 5G30G26G15G 9G18G17G22G12
 105856123.10848 100277479.48048  22046703.3154   22046706.8464   22046704.1734
       240.000         204.000
 137028428.92948  88983186.64648  24172709.0934   24172712.0834   24172708.4274
       219.000         163.000
 111406412.42048 104602389.34248  23102880.3944   23102882.5914   23102879.8594
       230.000         184.000
 122259463.66348  77474899.28048  21362270.3044   21362272.3544   21362270.0354
       245.000         219.000
 115105624.60048  71900473.92848  20000945.2174   20000947.8884   20000945.4474
       251.000         228.000
 117845485.13048  91827646.83948  22425252.2544   22425254.0654   22425252.8694
       232.000         188.000
 132919573.67148  85781478.92848  23390821.6714   23390823.6934   23390821.0524
       227.000         183.000
 132994966.93448  85840231.25848  23405165.0794   23405166.0574   23405164.7254
       228.000         181.000
 111478158.47248  86866089.23348  21213594.3094   21213596.2034   21213594.1984
       248.000         223.000
 09  1 14  1 53 30.0000000  0  9G 5G30G26G15G 9G18G17G22G12
 105771597.60348 100211615.45248  22030618.5904   22030622.0394   22030619.2564
       241.000         205.000
 136920604.63748  88899167.73948  24152190.8884   24152193.4974   24152191.0544
       219.000         162.000
 111508336.58048 104681810.76448  23122275.8844   23122278.1864   23122275.7274
       230.000         184.000
 122329295.34948  77529313.58248  21375558.9614   21375560.8814   21375558.5924
       245.000         219.000
 115091397.15548  71889387.60748  19998237.8884   19998240.5724   19998238.0504
       250.000         228.000
 117875404.18148  91850960.36948  22430945.3374   22430947.9624   22430945.6684
       233.000         189.000
 132951635.43348  85806462.13248  23396922.5764   23396924.7214   23396922.4694
       231.000         186.000
 132970645.02048  85821279.13048  23400536.4574   23400538.2634   23400536.7144
       229.000         184.000
 111416591.61848  86818115.07148  21201878.5294   21201880.0694   21201878.4324
       248.000         222.000
 09  1 14  1 54  0.0000000  0  9G 5G30G26G15G 9G18G17G22G12
 105687400.10348 100146007.02548  22014596.4944   22014599.7994   22014597.3114
       241.000         205.000
 136812922.94148  88815259.93248  24131699.6704   24131702.6224   24131699.3884
       220.000         165.000
 111610473.54648 104761398.01448  23141711.7504   23141714.2454   23141712.1774
       227.000         183.000
 122399533.10648  77584044.30148  21388924.7184   21388926.6984   21388924.3284
       245.000         219.000
 115077519.33448  71878573.71648  19995596.9714   19995599.7144   19995597.1504
       250.000         228.000
 117905843.72748  91874679.48248  22436738.0184   22436740.3494   22436738.7464
       234.000         189.000
 132984234.40148  85831863.90348  23403126.9464   23403128.6954   23403126.9314
       233.000         188.000
 132946855.22748  85802741.63848  23396010.0764   23396011.2404   23396009.8374
       231.000         185.000
 111355446.43448  86770469.48448  21190242.9304   21190244.4254   21190242.7104
       248.000         223.000
 09  1 14  1 54 30.0000000  0  9G 5G30G26G15G 9G18G17G22G12
 105603532.77048 100080655.86248  21998636.9844   21998640.0354   21998637.6424
       240.000         205.000
 136705385.91948  88731464.89448  24111236.0994   24111239.1214   24111235.9184
       219.000         164.000
 111712822.53948 104841150.45048  23161187.7014   23161190.8084   23161187.5744
       224.000         182.000
 122470176.48248  77639091.07948  21402367.6654   21402369.7124   21402367.4594
       244.000         218.000
 115063992.11148  71868033.02748  19993022.7314   19993025.5084   19993022.8834
       251.000         228.000
 117936803.12248  91898803.67948  22442629.4974   22442631.7504   22442630.2324
       235.000         189.000
 133017370.77248  85857684.44248  23409432.9484   23409434.0994   23409432.7254
       231.000         185.000
 132923598.06848  85784619.15748  23391584.9194   23391584.5584   23391585.2024
       229.000         184.000
 111294724.81048  86723153.94048  21178688.0444   21178689.5654   21178687.9374
       248.000         223.000
 09  1 14  1 55  0.0000000  0  9G 5G30G26G15G 9G18G17G22G12
 105519996.60548 100015562.74948  21982740.4244   21982743.5184   21982741.0624
       240.000         205.000
 136597994.86248  88647783.57148  24090800.6554   24090803.4174   24090799.8094
       220.000         162.000
 111815381.80048 104921066.73548  23180704.1774   23180707.3954   23180704.7054
       226.000         185.000
 122541224.20348  77694452.93948  21415887.7594   21415889.6344   21415887.4014
       245.000         218.000
 115050815.53648  71857765.56448  19990515.4544   19990518.1204   19990515.6144
       250.000         228.000
 117968280.52848  91923331.51548  22448619.3694   22448621.4324   22448619.6954
       233.000         188.000
 133051043.52948  85883922.96348  23415839.8704   23415841.5844   23415839.8424
       228.000         184.000
 132900873.89248  85766911.98648  23387260.3184   23387260.5404   23387260.6074
       229.000         182.000
 111234427.04848  86676168.67548  21167213.6874   21167215.4094   21167213.3114
       249.000         223.000
 09  1 14  1 55 30.0000000  0  9G 5G30G26G15G 9G18G17G22G12
 105436793.53148  99950729.18048  21966907.0674   21966910.3784   21966907.7404
       239.000         205.000
 136490752.24348  88564217.92848  24070392.8944   24070395.6394   24070392.9864
       220.000         163.000
 111918150.18448 105001145.98548  23200260.7634   23200263.3244   23200260.7464
       228.000         184.000
 122612675.43148  77750129.21048  21429484.3874   21429486.3144   21429484.1124
       244.000         218.000
 115037990.88648  71847772.33248  19988074.9384   19988077.7724   19988075.0694
       251.000         229.000
 118000274.78848  91948262.09948  22454708.1964   22454709.4114   22454708.8014
       233.000         188.000
 133085251.76848  85910578.74748  23422349.2804   23422351.5384   23422348.9484
       227.000         184.000
 132878684.24848  85749621.33248  23383038.0284   23383038.1954   23383037.8974
       230.000         183.000
 111174554.72948  86629514.92248  21155820.4474   21155822.2424   21155820.3404
       249.000         224.000
 09  1 14  1 56  0.0000000  0  9G 5G30G26G15G 9G18G17G22G12
 105353924.19348  99886155.68348  21951137.4764   21951141.0554   21951138.0264
       240.000         206.000
 136383658.88448  88480768.58148  24050013.8704   24050016.5614   24050014.1324
       221.000         164.000
 112021125.36848 105081386.39148  23219856.1944   23219858.7804   23219856.3654
       229.000         184.000
 122684528.22048  77806118.39748  21443157.3574   21443159.5364   21443157.0354
       244.000         217.000
 115025517.75748  71838053.00948  19985701.5074   19985704.0784   19985701.6524
       251.000         228.000
 118032783.67448  91973593.69048  22460894.1254   22460895.7644   22460894.8704
       234.000         187.000
 133119994.61748  85937651.09648  23428960.5604   23428963.4224   23428960.5024
       229.000         184.000
 132857028.61048  85732746.84548  23378916.7084   23378917.2774   23378918.2374
       229.000         182.000
 111115107.50348  86583192.40948  21144508.0944   21144509.8654   21144507.8174
       249.000         224.000
 09  1 14  1 56 30.0000000  0  9G 5G30G26G15G 9G18G17G22G12
 105271390.25848  99821843.53948  21935432.0904   21935435.4684   21935432.5964
       241.000         208.000
 136276716.77748  88397437.11548  24029663.4544   24029666.3214   24029663.0424
       222.000         166.000
 112124306.21248 105161787.04348  23239490.5684   23239493.6804   23239490.2934
       229.000         184.000
 122756781.68448  77862419.79148  21456906.7494   21456908.9114   21456906.4634
       243.000         217.000
 115013396.63848  71828607.98048  19983394.9134   19983397.3434   19983395.1714
       251.000         228.000
 118065805.73248  91999325.14448  22467177.8614   22467179.8874   22467178.1894
       233.000         186.000
 133155271.56948  85965139.62148  23435673.6594   23435675.8574   23435674.1744
       228.000         184.000
 132835908.29848  85716289.45248  23374898.1904   23374898.2964   23374897.6564
       229.000         181.000
 111056087.25748  86537202.60548  21133276.8634   21133278.7084   21133276.8424
       249.000         224.000
 09  1 14  1 57  0.0000000  0  9G 5G30G26G15G 9G18G17G22G12
 105189192.46848  99757793.31548  21919790.7164   21919793.7694   21919791.3094
       241.000         208.000
 136169926.94548  88314224.27248  24009341.8304   24009344.8484   24009341.7744
       221.000         166.000
 112227690.50448 105242346.23848  23259164.3634   23259167.0964   23259164.7184
       230.000         181.000
 122829434.19148  77919032.13748  21470731.9524   21470734.1524   21470731.5164
       244.000         217.000
 115001627.79348  71819437.45848  19981155.4304   19981157.9394   19981155.6704
       251.000         228.000
 118099338.76148  92025454.78548  22473559.0754   22473561.0914   22473559.7174
       233.000         186.000
 133191080.93848  85993043.01848  23442488.6954   23442489.7664   23442488.4884
       228.000         184.000
 132815322.72948  85700248.73348  23370981.1784   23370980.9374   23370981.1554
       232.000         185.000
 110997494.20948  86491545.68848  21122126.9324   21122128.7674   21122126.7764
       250.000         224.000
 09  1 14  1 57 30.0000000  0  9G 5G30G26G15G 9G18G17G22G12
 105107332.49148  99694006.33148  21904213.0584   21904216.3644   21904213.3294
       241.000         207.000
 136063291.58748  88231131.80748  23989049.5104   23989052.8414   23989049.1434
       221.000         166.000
 112331276.81048 105323062.84648  23278875.9154   23278878.4754   23278876.0744
       229.000         180.000
 122902484.58448  77975954.51448  21484633.2184   21484635.0744   21484633.1184
       244.000         216.000
 114990211.62148  71810541.73648  19978982.9684   19978985.4544   19978983.2644
       251.000         228.000
 118133381.40848  92051981.50548  22480036.8944   22480039.4394   22480037.4464
       232.000         185.000
 133227422.01148  86021360.73248  23449403.7274   23449405.3034   23449403.8924
       224.000         182.000
 132795272.63248  85684625.28048  23367165.3734   23367165.6684   23367166.1184
       231.000         180.000
 110939329.10948  86446222.23348  21111058.4824   21111060.2634   21111058.3994
       250.000         224.000
 09  1 14  1 58  0.0000000  0  9G 5G30G26G15G 9G18G17G22G12
 105025811.55448  99630483.53048  21888700.2754   21888703.2164   21888700.9694
       242.000         208.000
 135956812.10448  88148160.81448  23968787.2284   23968790.2964   23968787.2174
       220.000         167.000
 112435063.67848 105403935.74648  23298625.9594   23298628.4754   23298625.6224
       228.000         179.000
 122975931.61348  78033185.97148  21498609.5444   21498611.6014   21498609.1624
       243.000         216.000
 114979148.79448  71801921.35648  19976877.6914   19976880.3814   19976877.8454
       251.000         229.000
 118167931.89048  92078903.95848  22486611.5394   22486613.9364   22486612.0884
       231.000         185.000
 133264293.61648  86050091.86048  23456419.3974   23456422.2034   23456419.2484
       225.000         182.000
 132775758.52848  85669419.45248  23363451.5724   23363451.3264   23363452.3434
       228.000         179.000
 110881593.03148  86401233.09348  21100071.5474   21100073.4994   21100071.4084
       249.000         224.000
 09  1 14  1 58 30.0000000  0  9G 5G30G26G15G 9G18G17G22G12
 104944631.26548  99567226.16948  21873252.0444   21873255.1224   21873252.6244
       241.000         208.000
 135850490.52048  88065312.83548  23948554.3844   23948557.8514   23948554.0444
       219.000         166.000
 112539049.80248 105484963.87148  23318413.6704   23318416.4694   23318412.9344
       226.000         178.000
 123049774.55248  78090725.91248  21512661.3844   21512663.6004   21512661.1564
       243.000         216.000
 114968440.22648  71793577.01748  19974839.9224   19974842.5744   19974840.0954
       251.000         229.000
 118202988.92948  92106221.14348  22493282.9734   22493284.8434   22493283.5204
       234.000         187.000
 133301695.58948  86079236.24148  23463537.1344   23463539.2594   23463536.6064
       229.000         183.000
 132756781.16548  85654631.91848  23359839.9094   23359840.2114   23359839.0164
       227.000         180.000
 110824286.85248  86356578.92448  21089166.5854   21089168.5084   21089166.4354
       250.000         224.000
 09  1 14  1 59  0.0000000  0  9G 5G30G26G15G 9G18G17G22G12
 104863792.42948  99504234.89248  21857868.5904   21857872.3314   21857869.1664
       241.000         209.000
 135744327.54748  87982588.44848  23928352.4204   23928355.4384   23928352.5214
       219.000         165.000
 112643233.19148 105566145.73048  23338239.4394   23338242.0694   23338239.5334
       225.000         177.000
 123124011.51048  78148572.89148  21526788.1784   21526790.3964   21526787.6744
       242.000         216.000
 114958085.30848  71785508.25048  19972869.4884   19972872.2204   19972869.7524
       250.000         229.000
 118238550.26148  92133931.26248  22500050.4634   22500052.2474   22500051.2324
       233.000         187.000
 133339626.15348  86108792.52048  23470755.3844   23470757.3464   23470755.3744
       227.000         183.000
 132738340.46248  85640262.52248  23356331.5684   23356331.4924   23356331.7824
       229.000         183.000
 110767411.08848  86312260.15548  21078343.5754   21078345.3214   21078343.5954
       250.000         223.000
 09  1 14  1 59 30.0000000  0  9G 5G30G26G15G 9G18G17G22G12
 104783295.42948  99441509.95448  21842550.7534   21842554.1884   21842551.2464
       241.000         209.000
 135638324.33648  87899988.57948  23908180.3894   23908184.1924   23908180.1304
       221.000         167.000
 112747611.23148 105647479.25748  23358101.6814   23358104.4514   23358102.2244
       226.000         177.000
 123198640.26848  78206725.15848  21540989.7744   21540991.7584   21540989.3394
       244.000         216.000
 114948083.90948  71777714.95848  19970966.2044   19970969.0464   19970966.3584
       250.000         229.000
 118274613.15748  92162032.21248  22506912.9744   22506914.7434   22506913.3414
       230.000         187.000
 133378083.39648  86138759.20748  23478073.8014   23478075.6614   23478073.8014
       226.000         182.000
 132720435.69648  85626310.73448  23352924.6714   23352924.8244   23352924.3184
       231.000         184.000
 110710965.42248  86268276.52248  21067602.4564   21067603.9644   21067602.3274
       251.000         224.000
 09  1 14  2  0  0.0000000  0  9G 5G30G26G15G 9G18G17G22G12
 104703141.98348  99379052.73548  21827297.9494   21827301.4114   21827298.7274
       241.000         209.000
 135532482.80548  87817514.69048  23888039.5544   23888043.2524   23888039.4804
       220.000         167.000
 112852182.71348 105728963.53648  23378001.1384   23378003.7574   23378001.0054
       227.000         179.000
 123273660.09148  78265182.16548  21555265.5724   21555267.4354   21555265.5444
       243.000         215.000
 114938436.99048  71770197.87748  19969130.4114   19969133.2584   19969130.5934
       250.000         229.000
 118311176.37348  92190523.00648  22513870.6064   22513872.5274   22513871.0384
       232.000         187.000
 133417066.98648  86169136.01848  23485491.9624   23485493.8574   23485491.6834
       227.000         182.000
 132703067.58348  85612777.13348  23349619.4094   23349619.7174   23349620.3024
       231.000         184.000
 110654950.96248  86224628.89448  21056943.2294   21056944.6184   21056943.1524
       250.000         223.000
 09  1 14  2  0 30.0000000  0  9G 5G30G26G15G 9G18G17G22G12
 104623332.78948  99316863.76948  21812110.8454   21812114.4094   21812111.2764
       242.000         209.000
 135426804.19748  87735167.73048  23867929.9834   23867932.7734   23867929.7814
       219.000         167.000
 112956945.46748 105810596.81748  23397936.6494   23397939.8464   23397936.7654
       226.000         180.000
 123349069.06348  78323942.39048  21569615.4464   21569617.2944   21569615.0944
       243.000         215.000
 114929144.37248  71762956.87748  19967362.1104   19967364.6994   19967362.2644
       251.000         228.000
 118348237.38548  92219401.70048  22520923.1034   22520925.0994   22520923.7744
       233.000         187.000
 133456575.18748  86199921.64948  23493009.7984   23493011.5584   23493009.5204
       228.000         180.000
 132686236.14748  85599661.74948  23346415.8664   23346416.9594   23346416.3994
       229.000         183.000
 110599367.77148  86181317.32248  21046365.9954   21046367.5254   21046365.7134
       251.000         223.000
 09  1 14  2  1  0.0000000  0  9G 5G30G26G15G 9G18G17G22G12
 104543870.09148  99254944.78648  21796989.8124   21796992.9624   21796990.5214
       241.000         209.000
 135321290.74048  87652949.48448  23847851.6934   23847854.2174   23847851.4204
       218.000         164.000
 113061898.94148 105892378.71748  23417908.8484   23417911.4814   23417908.4394
       227.000         182.000
 123424866.67448  78383005.45948  21584039.0554   21584041.2404   21584038.7384
       242.000         215.000
 114920207.36048  71755992.97448  19965661.5434   19965664.1154   19965661.7184
       251.000         229.000
 118385795.37548  92248667.66148  22528069.7814   22528071.9494   22528070.2224
       232.000         186.000
 133496607.99148  86231116.03348  23500627.8654   23500629.2114   23500627.6524
       228.000         179.000
 132669942.83248  85586965.66148  23343315.5544   23343316.1764   23343315.4864
       229.000         182.000
 110544217.83048  86138343.35248  21035871.4724   21035872.9614   21035871.5544
       250.000         223.000
 09  1 14  2  1 30.0000000  0  9G 5G30G26G15G 9G18G17G22G12
 104464754.18848  99193296.03748  21781934.4464   21781937.5014   21781934.9024
       242.000         208.000
 135215943.09048  87570860.43248  23827804.0994   23827806.6354   23827804.2214
       220.000         165.000
 113167040.49548 105974307.19948  23437916.9194   23437919.4634   23437917.1414
       230.000         184.000
 123501050.74648  78442369.67548  21598536.5704   21598538.7074   21598536.3964
       243.000         215.000
 114911625.77548  71749306.02948  19964028.3884   19964031.1934   19964028.6674
       251.000         229.000
 118423847.92448  92278318.99648  22535311.1374   22535313.3494   22535311.6784
       233.000         187.000
 133537163.13248  86262717.43848  23508345.6304   23508346.7024   23508345.2934
       229.000         181.000
 132654186.42648  85574687.96048  23340317.0274   23340318.0724   23340318.2524
       232.000         183.000
 110489501.02748  86095706.88348  21025458.8444   21025460.6124   21025458.6774
       249.000         223.000
 09  1 14  2  2  0.0000000  0  9G 5G30G26G15G 9G18G17G22G12
 104385986.07448  99131918.28448  21766945.5694   21766948.5014   21766946.1914
       243.000         209.000
 135110762.96448  87488901.91748  23807789.1904   23807791.5904   23807788.7344
       220.000         168.000
 113272368.30648 106056380.81448  23457959.7874   23457962.4394   23457960.2264
       228.000         183.000
 123577619.58848  78502033.70048  21613107.0514   21613109.4204   21613106.9954
       243.000         215.000
 114903399.60448  71742896.02048  19962463.0264   19962465.8754   19962463.0804
       251.000         229.000
 118462392.60748  92308353.80048  22542646.1184   22542648.3654   22542646.6574
       235.000         187.000
 133578239.28948  86294724.83448  23516162.2454   23516163.6264   23516162.6934
       229.000         182.000
 132638967.07848  85562828.72348  23337421.2594   23337421.5644   23337421.7134
       229.000         181.000
 110435217.51248  86053408.04548  21015129.0624   21015130.7114   21015128.8044
       250.000         223.000
 09  1 14  2  2 30.0000000  0  9G 5G30G26G15G 9G18G17G22G12
 104307567.25248  99070812.72148  21752022.9064   21752025.9134   21752023.6854
       241.000         209.000
 135005752.29748  87407075.45248  23787806.6434   23787809.0164   23787806.8744
       220.000         168.000
 113377881.12048 106138598.58548  23478038.2304   23478041.0254   23478038.2074
       229.000         185.000
 123654572.44048  78561996.95348  21627750.7774   21627752.9414   21627750.4404
       243.000         215.000
 114895529.65848  71736763.60048  19960965.4104   19960968.2294   19960965.5834
       251.000         229.000
 118501427.79648  92338770.81648  22550074.2774   22550076.1584   22550074.9994
       234.000         187.000
 133619835.92548  86327137.80848  23524077.7584   23524079.0124   23524077.5744
       227.000         181.000
 132624285.91348  85551388.85248  23334627.1184   23334628.1154   23334626.9294
       229.000         182.000
 110381368.05548  86011447.43148  21004881.9954   21004883.5254   21004881.9384
       250.000         224.000
 09  1 14  2  3  0.0000000  0  9G 5G30G26G15G 9G18G17G22G12
 104229499.26848  99009980.53748  21737166.8794   21737170.0314   21737167.3774
       242.000         210.000
 134900912.82948  87325382.37748  23767856.5344   23767858.7914   23767855.9484
       223.000         171.000
 113483577.56748 106220959.43948  23498151.6084   23498154.5614   23498151.3414
       229.000         186.000
 123731907.83048  78622258.29348  21642467.2784   21642469.1114   21642467.0744
       242.000         214.000
 114888016.69048  71730909.33848  19959535.6484   19959538.4894   19959535.7524
       251.000         229.000
 118540952.07548  92369568.96848  22557595.6384   22557597.3744   22557596.3414
       233.000         188.000
 133661951.88448  86359955.44948  23532091.8204   23532093.6604   23532091.7594
       230.000         183.000
 132610142.81248  85540368.25148  23331936.0734   23331936.6044   23331936.0614
       230.000         183.000
 110327954.07948  85969826.14948  20994717.7574   20994719.2194   20994717.6144
       249.000         224.000
 09  1 14  2  3 30.0000000  0  9G 5G30G26G15G 9G18G17G22G12
 104151782.81248  98949422.26248  21722378.1324   21722381.3354   21722378.5814
       241.000         210.000
 134796245.65448  87243823.56648  23747938.8194   23747941.3904   23747938.7404
       221.000         170.000
 113589455.32748 106303461.57248  23518299.7194   23518302.3934   23518299.5284
       231.000         185.000
 123809623.81248  78682816.19348  21657256.1164   21657258.0164   21657255.8204
       242.000         214.000
 114880860.56448  71725333.14348  19958173.9794   19958176.8234   19958174.2224
       250.000         229.000
 118580962.97548  92400746.28548  22565209.2974   22565211.0824   22565209.8494
       232.000         186.000
 133704585.78948  86393176.68748  23540204.9404   23540207.1464   23540204.6404
       227.000         182.000
 132596537.56448  85529766.78748  23329347.1394   23329348.1724   23329346.7614
       232.000         185.000
 110274975.47248  85928544.12648  20984636.0794   20984637.7264   20984635.8024
       249.000         223.000
 09  1 14  2  4  0.0000000  0  9G 5G30G26G15G 9G18G17G22G12
 104074419.00348  98889138.78248  21707656.0484   21707659.4444   21707656.7604
       241.000         209.000
 134691752.52948  87162400.38148  23728054.4134   23728057.2814   23728053.9184
       224.000         170.000
 113695512.98648 106386103.89748  23538481.6734   23538484.2844   23538481.8104
       230.000         184.000
 123887719.39548  78743669.89348  21672117.2204   21672119.0144   21672116.9884
       242.000         213.000
 114874061.72048  71720035.34648  19956880.1954   19956882.9834   19956880.3274
       251.000         229.000
 118621458.46548  92432301.19148  22572915.1014   22572917.3044   22572915.3754
       231.000         186.000
 133747736.41648  86426800.55348  23548416.3214   23548418.0364   23548415.8114
       229.000         182.000
 132583470.52248  85519584.65748  23326860.7164   23326860.6934   23326860.9504
       229.000         180.000
 110222433.11248  85887602.03348  20974637.6744   20974639.1584   20974637.4924
       249.000         224.000
 09  1 14  2  4 30.0000000  0  9G 5G30G26G15G 9G18G17G22G12
 103997408.88648  98829130.90548  21693001.6154   21693004.8034   21693002.1634
       241.000         209.000
 134587434.62348  87081113.70348  23708203.5934   23708205.6904   23708204.1784
       223.000         167.000
 113801748.75048 106468885.00648  23558697.8234   23558700.2924   23558697.4744
       232.000         184.000
 123966192.86948  78804818.05148  21687050.2704   21687052.1064   21687049.9964
       242.000         213.000
 114867620.39248  71715016.13648  19955654.5634   19955657.0884   19955654.6824
       251.000         229.000
 118662436.26748  92464231.93048  22580712.9984   22580714.9454   22580713.5634
       232.000         186.000
 133791402.39348  86460826.00148  23556725.4374   23556727.2914   23556725.6344
       229.000         182.000
 132570941.43448  85509821.75548  23324475.7564   23324476.7854   23324476.0884
       230.000         184.000
 110170327.23948  85847000.05948  20964722.2694   20964723.7044   20964722.1544
       250.000         224.000
 09  1 14  2  5  0.0000000  0  9G 5G30G26G15G 9G18G17G22G12
 103920753.37448  98769399.34548  21678414.3344   21678417.7124   21678415.1084
       240.000         208.000
 134483293.05348  86999964.46948  23688385.4244   23688388.1804   23688385.5644
       219.000         169.000
 113908160.35148 106551803.13548  23578947.1974   23578949.8784   23578947.2984
       228.000         183.000
 124045042.17948  78866259.06448  21702054.7964   21702056.6784   21702054.5304
       242.000         213.000
 114861536.91548  71710275.76948  19954496.8024   19954499.5874   19954496.9704
       251.000         229.000
 118703894.43248  92496536.98948  22588602.2484   22588604.5494   22588602.8474
       232.000         187.000
 133835582.00948  86495251.67248  23565132.5884   23565134.0474   23565131.8664
       226.000         180.000
 132558950.13348  85500477.88948  23322194.2404   23322195.4024   23322194.4694
       228.000         183.000
 110118658.24548  85806738.52048  20954890.1594   20954891.4484   20954889.9264
       249.000         224.000
 09  1 14  2  5 30.0000000  0  9G 5G30G26G15G 9G18G17G22G12
 103844454.41548  98709945.61948  21663895.0064   21663898.6544   21663895.4984
       242.000         208.000
 134379330.29148  86918954.54648  23668601.8624   23668604.4674   23668601.8424
       219.000         167.000
 114014747.08448 106634857.72848  23599229.7734   23599232.4854   23599229.2254
       228.000         179.000
 124124267.24648  78927992.87348  21717130.8564   21717132.7614   21717130.6134
       241.000         213.000
 114855812.27948  71705815.01848  19953407.6124   19953410.2304   19953407.8504
       251.000         229.000
 118745831.61648  92529215.28648  22596582.6764   22596584.8914   22596582.8574
       234.000         187.000
 133880274.79748  86530077.21348  23573637.2254   23573638.9664   23573636.7944
       226.000         179.000
 132547497.53248  85491553.78848  23320014.8274   23320015.8164   23320014.8304
       230.000         184.000
 110067427.15748  85766818.20248  20945141.1204   20945142.5914   20945141.0724
       249.000         224.000
 09  1 14  2  6  0.0000000  0  9G 5G30G26G15G 9G18G17G22G12
 103768512.35348  98650769.98948  21649443.8314   21649447.3014   21649444.7634
       241.000         208.000
 134275547.06848  86838084.49748  23648852.7944   23648855.3104   23648853.1944
       224.000         172.000
 114121506.77048 106718047.07848  23619545.6994   23619548.0684   23619545.9394
       227.000         176.000
 124203865.39948  78990017.40148  21732277.7664   21732279.8724   21732277.3484
       241.000         213.000
 114850446.04148  71701633.53548  19952386.3164   19952389.0264   19952386.4154
       251.000         229.000
 118788245.24348  92562264.84648  22604653.8334   22604656.2934   22604654.4744
       234.000         187.000
 133925478.87648  86565301.15948  23582239.0314   23582241.1004   23582238.9454
       227.000         179.000
 132536582.67848  85483048.69948  23317937.5154   23317939.1764   23317937.3984
       231.000         186.000
 110016634.05848  85727239.17848  20935475.3124   20935477.0544   20935475.0664
       249.000         224.000
 09  1 14  2  6 30.0000000  0  9G 5G30G26G15G 9G18G17G22G12
 103692927.68948  98591872.84248  21635060.6224   21635064.0164   21635061.1494
       242.000         209.000
 134171944.24648  86757355.04348  23629138.1314   23629140.9204   23629137.9254
       224.000         175.000
 114228436.70648 106801369.10948  23639893.4654   23639896.3564   23639893.2524
       223.000         174.000
 124283834.50448  79052330.97948  21747495.4704   21747497.2944   21747495.4154
       240.000         212.000
 114845438.19348  71697731.31848  19951433.4704   19951436.1124   19951433.6704
       251.000         229.000
 118831132.38548  92595683.37448  22612814.8454   22612817.5334   22612815.4704
       232.000         186.000
 133971192.28648  86600922.00848  23590938.1044   23590939.3824   23590937.8434
       225.000         179.000
 132526205.39648  85474962.52048  23315963.3624   23315964.0404   23315964.0544
       229.000         185.000
 109966278.93848  85688001.43148  20925892.9634   20925894.7694   20925892.8784
       250.000         225.000
 09  1 14  2  7  0.0000000  0  9G 5G30G26G15G 9G18G17G22G12
 103617702.11648  98533255.50748  21620745.8694   21620748.8104   21620746.3774
       243.000         208.000
 134068524.11148  86676767.94348  23609457.5294   23609460.9414   23609457.4804
       225.000         174.000
 114335536.19148 106884823.25248  23660273.9124   23660276.9054   23660273.4754
       224.000         173.000
 124364174.07548  79114933.25048  21762783.5664   21762785.3934   21762783.0664
       242.000         212.000
 114840789.60248  71694109.04048  19950548.8064   19950551.5774   19950549.0444
       251.000         229.000
 118874491.42548  92629469.62648  22621065.8394   22621068.0704   22621066.2424
       231.000         184.000
 134017414.12748  86636939.02048  23599734.3244   23599735.5824   23599734.5654
       228.000         181.000
 132516365.94648  85467295.42548  23314090.7864   23314091.4724   23314090.1894
       232.000         185.000
 109916362.85748  85649105.79248  20916394.3854   20916396.1324   20916394.3724
       249.000         225.000
 09  1 14  2  7 30.0000000  0  9G 5G30G26G15G 9G18G17G22G12
 103542836.47048  98474918.62448  21606499.5324   21606502.3184   21606500.2094
       243.000         209.000
 133965287.96748  86596324.21748  23589812.1974   23589815.6284   23589811.8684
       223.000         172.000
 114442802.91848 106968407.69448  23680686.0394   23680688.8664   23680685.8324
       221.000         170.000
 124444882.00948  79177822.53848  21778141.7494   21778143.8374   21778141.5414
       241.000         212.000
 114836500.48048  71690766.87148  19949732.6904   19949735.2584   19949732.8544
       251.000         229.000
 118918320.61448  92663622.22348  22629406.1284   22629408.5894   22629406.9124
       230.000         184.000
 134064143.19048  86673351.27748  23608626.3034   23608628.7694   23608626.7914
       225.000         183.000
 132507063.99748  85460047.16148  23312321.2344   23312321.6164   23312321.1494
       230.000         185.000
 109866885.92648  85610552.34348  20906979.2844   20906980.9124   20906979.1204
       249.000         225.000
 09  1 14  2  8  0.0000000  0  9G 5G30G26G15G 9G18G17G22G12
 103468331.47648  98416862.79348  21592321.4904   21592324.5494   21592322.1504
       242.000         209.000
 133862236.89148  86516024.67748  23570202.2444   23570205.6794   23570201.8304
       222.000         172.000
 114550234.94248 107052120.96748  23701129.7894   23701132.2644   23701129.4144
       220.000         167.000
 124525956.35048  79240997.35148  21793569.5674   21793571.7464   21793569.1614
       241.000         212.000
 114832570.50748  71687704.56048  19948984.7884   19948987.3904   19948984.8714
       251.000         229.000
 118962616.94548  92698138.84948  22637835.6804   22637837.5584   22637835.8984
       232.000         183.000
 134111377.28448  86710157.06248  23617614.7704   23617617.1784   23617614.6454
       226.000         182.000
 132498299.32148  85453217.57348  23310652.5534   23310653.5624   23310652.8124
       232.000         187.000
 109817848.17248  85572341.12348  20897647.6174   20897649.1464   20897647.4024
       249.000         225.000
 09  1 14  2  8 30.0000000  0  9G 5G30G26G15G 9G18G17G22G12
 103394188.49648  98359089.04148  21578212.5524   21578215.6394   21578213.3834
       242.000         208.000
 133759372.59748  86435870.70148  23550627.9034   23550631.1864   23550627.2744
       220.000         171.000
 114657830.68448 107135961.78948  23721604.7484   23721607.5894   23721604.8014
       222.000         166.000
 124607395.84748  79304456.69848  21809067.0344   21809069.1914   21809066.9264
       240.000         212.000
 114829000.70648  71684922.89848  19948305.5034   19948308.1324   19948305.6664
       251.000         229.000
 119007378.48848  92733017.96348  22646353.2644   22646355.2984   22646354.2274
       231.000         182.000
 134159115.57748  86747355.74548  23626698.9744   23626701.1244   23626699.2844
       228.000         182.000
 132490072.04848  85446806.71148  23309087.1694   23309088.3494   23309087.6514
       228.000         186.000
 109769250.45748  85534472.78848  20888399.9664   20888401.3694   20888399.9864
       250.000         226.000
 09  1 14  2  9  0.0000000  0  9G 5G30G26G15G 9G18G17G22G12
 103320408.62948  98301598.22548  21564172.7274   21564176.1134   21564173.2744
       242.000         209.000
 133656696.89948  86355863.66448  23531089.2434   23531092.3994   23531088.9884
       225.000         172.000
 114765588.82348 107219929.16748  23742110.2384   23742113.3104   23742110.0564
       218.000         162.000
 124689199.17248  79368199.54248  21824633.7814   21824635.8844   21824633.4434
       241.000         212.000
 114825791.46448  71682422.19648  19947694.8704   19947697.5374   19947695.0034
       251.000         229.000
 119052603.62448  92768258.32748  22654959.5504   22654961.3394   22654960.1174
       230.000         181.000
 134207356.74048  86784946.26148  23635879.0634   23635881.0314   23635879.2054
       227.000         183.000
 132482382.10748  85440814.54548  23307623.7304   23307624.8874   23307622.9164
       231.000         186.000
 109721093.25248  85496947.71348  20879235.8254   20879237.3784   20879235.6334
       249.000         226.000
 09  1 14  2  9 30.0000000  0  9G 5G30G26G15G 9G18G17G22G12
 103246992.89048  98244391.15148  21550202.1214   21550205.5224   21550202.6004
       242.000         208.000
 133554211.01348  86276004.51748  23511587.4054   23511589.7964   23511587.5374
       225.000         172.000
 114873507.30848 107304021.49948  23762646.7764   23762649.1744   23762647.0424
       218.000         161.000
 124771364.84848  79432224.74648  21840269.4904   21840271.5014   21840269.1564
       241.000         211.000
 114822943.20248  71680202.77948  19947152.8394   19947155.5164   19947153.1254
       251.000         229.000
 119098289.81148  92803857.95548  22663653.2574   22663655.2094   22663654.0264
       230.000         181.000
 134256099.18948  86822927.39348  23645154.6894   23645156.0954   23645154.2264
       230.000         182.000
 132475229.20448  85435240.85748  23306263.0524   23306263.5824   23306263.3794
       231.000         184.000
 109673377.14648  85459766.33748  20870155.8674   20870157.3434   20870155.6534
       249.000         226.000
 09  1 14  2 10  0.0000000  0  9G 5G30G26G15G 9G18G17G22G12
 103173941.58648  98187468.06348  21536300.6594   21536304.4164   21536301.4794
       241.000         208.000
 133451915.76948  86196293.95548  23492120.8394   23492123.7134   23492121.0924
       222.000         173.000
 114981583.95348 107388237.04448  23783212.7014   23783215.4544   23783213.2644
       212.000         157.000
 124853890.38248  79496530.34848  21855973.5894   21855975.5714   21855973.2844
       242.000         211.000
 114820455.30648  71678264.16048  19946679.3244   19946682.0424   19946679.5244
       250.000         229.000
 119144434.11448  92839814.55148  22672434.4274   22672436.2444   22672434.4864
       231.000         181.000
 134305340.87248  86861297.55148  23654524.9204   23654527.0354   23654525.1274
       227.000         181.000
 132468612.76948  85430085.19548  23305003.6244   23305004.2824   23305004.1894
       231.000         185.000
 109626101.60548  85422928.26148  20861159.5334   20861161.0464   20861159.4964
       249.000         226.000
 09  1 14  2 10 30.0000000  0  9G 5G30G26G15G 9G18G17G22G12
 103101256.43948  98130830.28448  21522469.0354   21522472.7844   21522469.5294
       241.000         208.000
 133349813.47848  86116733.75248  23472691.5634   23472694.2784   23472690.6694
       225.000         175.000
 115089817.71848 107472575.03648  23803809.2474   23803811.4954   23803809.5434
       213.000         152.000
 124936774.77048  79561115.58348  21871746.0114   21871747.9954   21871746.2504
       240.000         211.000
 114818328.87448  71676607.20048  19946274.5954   19946277.3814   19946274.5844
       251.000         229.000
 119191035.26748  92876127.12348  22681302.3494   22681303.7494   22681302.9884
       228.000         180.000
 134355081.01548  86900056.09948  23663990.0174   23663991.0634   23663989.4164
       227.000         178.000
 132462533.34348  85425347.96548  23303847.2394   23303847.2334   23303847.3424
       230.000         185.000
 109579267.68448  85386434.30148  20852247.3684   20852248.7894   20852247.1814
       249.000         226.000
 09  1 14  2 11  0.0000000  0  9G 5G30G26G15G 9G18G17G22G12
 103028937.88048  98074478.14148  21508707.3864   21508710.9904   21508708.1044
       242.000         210.000
 133247904.85448  86037324.45848  23453299.1144   23453302.0014   23453299.4584
       224.000         176.000
 115198205.97948 107557033.38648  23824434.6804   23824437.6474   23824435.4764
       212.000         151.000
 125020016.00548  79625978.87348  21887586.0204   21887588.1644   21887585.3604
       239.000         210.000
 114816563.93848  71675231.93448  19945938.7214   19945941.4184   19945939.0264
       251.000         229.000
 119238090.14748  92912793.25648  22690256.2104   22690258.1604   22690256.9144
       228.000         178.000
 134405317.29848  86939201.24548  23673549.4144   23673550.1294   23673549.4504
       227.000         179.000
 132456989.76348  85421028.29548  23302791.9624   23302792.6404   23302792.1244
       230.000         184.000
 109532875.21748  85350284.33048  20843419.0264   20843420.6254   20843419.1274
       249.000         226.000
 09  1 14  2 11 30.0000000  0  9G 5G30G26G15G 9G18G17G22G12
 102956987.75548  98018413.11148  21495015.8594   21495019.3514   21495016.3414
       242.000         209.000
 133146192.20648  85958067.89348  23433943.6544   23433946.8294   23433943.7424
       224.000         174.000
 115306748.13548 107641611.69348  23845089.5214   23845092.2534   23845089.5894
       211.000         148.000
 125103613.27848  79691119.60148  21903494.1664   21903496.1204   21903493.8334
       241.000         210.000
 114815161.73148  71674139.30948  19945671.9374   19945674.6574   19945672.2014
       250.000         229.000
 119285597.56548  92949812.03948  22699296.3074   22699298.0734   22699296.5214
       228.000         178.000
 134456049.35148  86978732.72048  23683204.0514   23683206.0114   23683203.3764
       229.000         183.000
 132451982.78748  85417126.74648  23301838.8584   23301839.9804   23301838.9904
       229.000         183.000
 109486925.37248  85314479.27348  20834675.0344   20834676.7174   20834674.8824
       249.000         226.000
 09  1 14  2 12  0.0000000  0  9G 5G30G26G15G 9G18G17G22G12
 102885406.16448  97962635.24348  21481394.3934   21481397.6804   21481395.0054
       242.000         210.000
 133044676.24448  85878964.55548  23414625.5624   23414628.3294   23414625.5894
       225.000         174.000
 115415441.45748 107726307.79148  23865773.0514   23865775.8254   23865773.2304
       208.000         145.000
 125187564.08848  79756535.80248  21919469.5354   21919471.4114   21919469.7034
       240.000         209.000
 114814121.56948  71673328.79148  19945474.0414   19945476.8594   19945474.2254
       251.000         229.000
 119333554.44148  92987181.04548  22708422.4004   22708424.4674   22708422.9764
       231.000         181.000
 134507274.88848  87018648.75848  23692951.8814   23692954.6304   23692952.0054
       230.000         182.000
 132447511.46048  85413642.57948  23300987.8744   23300988.8364   23300987.9114
       228.000         183.000
 109441418.07148  85279019.05548  20826015.2604   20826016.7844   20826015.2064
       249.000         226.000
 09  1 14  2 12 30.0000000  0  9G 5G30G26G15G 9G18G17G22G12
 102814194.16948  97907145.37848  21467843.1884   21467846.5354   21467843.7974
       242.000         210.000
 132943358.44748  85800015.63148  23395346.1064   23395348.3414   23395345.7424
       227.000         176.000
 115524284.29048 107811120.33048  23886484.1264   23886488.3964   23886485.0714
       206.000         143.000
 125271866.87448  79822226.28148  21935511.7024   21935513.8284   21935511.0984
       240.000         210.000
 114813443.79848  71672800.66248  19945345.0574   19945347.8064   19945345.1904
       251.000         229.000
 119381958.36548  93024898.39348  22717633.4904   22717635.9264   22717634.1954
       230.000         181.000
 134558992.23748  87058947.97248  23702793.1264   23702793.8034   23702793.0614
       227.000         178.000
 132443575.25548  85410575.44148  23300239.0964   23300239.8944   23300239.5994
       230.000         185.000
 109396353.35648  85243903.70148  20817439.8054   20817441.0924   20817439.7194
       249.000         226.000
 09  1 14  2 13  0.0000000  0  9G 5G30G26G15G 9G18G17G22G12
 102743352.77148  97851944.28748  21454362.7734   21454365.7774   21454363.3264
       243.000         210.000
 132842240.41848  85721222.38448  23376103.9824   23376106.0054   23376103.6204
       222.000         172.000
 115633274.75848 107896048.00748  23907225.2604   23907227.8884   23907226.0554
       207.000         140.000
 125356519.98148  79888189.74948  21951620.7404   21951622.6394   21951620.7734
       239.000         208.000
 114813129.12648  71672555.46048  19945285.1744   19945287.8604   19945285.2854
       250.000         229.000
 119430807.24848  93062962.45848  22726929.3444   22726931.5144   22726929.8114
       231.000         183.000
 134611199.73848  87099629.13148  23712727.7694   23712728.3474   23712727.4564
       227.000         179.000
 132440174.14248  85407925.20048  23299591.6724   23299592.9434   23299591.7394
       229.000         185.000
 109351731.49948  85209133.43348  20808948.5694   20808950.1294   20808948.6364
       250.000         227.000
 09  1 14  2 13 30.0000000  0  9G 5G30G26G15G 9G18G17G22G12
 102672883.28148  97797032.99948  21440952.8384   21440956.1304   21440953.5274
       243.000         211.000
 132741323.68948  85642585.96848  23356899.7614   23356902.3954   23356899.7804
       226.000         176.000
 115742411.83248 107981089.86248  23927993.8614   23927996.0764   23927995.5304
       203.000         136.000
 125441522.32348  79954425.33348  21967795.8654   21967798.0824   21967795.3434
       238.000         208.000
 114813177.82648  71672593.41448  19945294.3714   19945297.1124   19945294.4204
       251.000         229.000
 119480099.23348  93101371.79848  22736309.4284   22736311.5124   22736309.7194
       230.000         184.000
 134663896.08748  87140691.24848  23722755.3694   23722758.7834   23722755.6284
       225.000         180.000
 132437308.15548  85405691.95848  23299046.6544   23299047.6524   23299046.3884
       229.000         185.000
 109307553.35148  85174708.91148  20800541.7184   20800543.2954   20800541.4584
       250.000         227.000
 09  1 14  2 14  0.0000000  0  9G 5G30G26G15G 9G18G17G22G12
 102602785.68048  97742411.49448  21427613.9134   21427617.1804   21427614.4034
       243.000         211.000
 132640608.95748  85564106.97048  23337734.6034   23337737.1264   23337734.4334
       227.000         177.000
 115851692.52848 108066243.64448  23948788.1484   23948792.3124   23948787.3724
       197.000         134.000
 125526871.07648  80020930.84448  21984037.2254   21984039.6224   21984036.7834
       238.000         208.000
 114813589.51748  71672914.21848  19945372.7694   19945375.4644   19945373.0574
       251.000         229.000
 119529830.64448  93140123.54548  22745772.8754   22745774.9754   22745773.2844
       230.000         183.000
 134717079.25048  87182132.70948  23732875.5834   23732879.7234   23732875.1904
       225.000         178.000
 132434975.82248  85403874.55548  23298602.8644   23298603.9074   23298603.3484
       229.000         185.000
 109263818.17948  85140629.56148  20792219.2234   20792220.6664   20792219.0734
       249.000         227.000
